{"pageProps":{"payload":{"area":{"id":"municipalities_4a13189642f7","name":"Αγγελοχώρι","nameEn":"Angelochori","region":"Θεσσαλονίκη","regionEn":"Thessaloniki","lat":40.5886,"lng":22.9875,"urlSlug":"aggelochori","aliases":["Αγγελοχώρι","Angelochori","Αγγελοχώρι Thessaloniki","Angelochori Thessaloniki","Αγγελοχωρι","aggelochori-4a13","aggelochori"]},"category":null,"entities":[{"entity":{"id":"familyFriendly_507eebfc1228","slug":"happy-play-507e","kind":"restaurant","name":"Happy Play","lat":40.58463538696909,"lng":22.98516339267734,"url":"https://maps.app.goo.gl/KdBGSDP4JgtkbeQQ7?g_st=ipc","address":"Ioanninon Rd 9-11, Pilea 555 35","categoryIds":["family-friendly"],"categories":["Kid Friendly Locations"]},"distanceKm":0.48298696851752376},{"entity":{"id":"burgersRestaurants_c2797cbf1cc8","slug":"jacaranda-c279","kind":"restaurant","name":"Jacaranda","lat":40.583007556132294,"lng":22.982557958626895,"url":"https://maps.app.goo.gl/1GxBYUFXBeTUU8iq6?g_st=ipc","address":"Στέλιου Καζαντζίδη 24, Pilea 555 35","categoryIds":["burgers"],"categories":["Burger Spots"]},"distanceKm":0.7489086906373199},{"entity":{"id":"cheapEatsRestaurants_05faf629d467","slug":"jacaranda-05fa","kind":"restaurant","name":"Jacaranda","lat":40.583004580048126,"lng":22.98255759646119,"url":"https://maps.app.goo.gl/feYupefB1V32NxiX7?g_st=ipc","address":"Στέλιου Καζαντζίδη 24, Pilea 555 35","categoryIds":["cheap-eats"],"categories":["Gyros & Cheap Eats"]},"distanceKm":0.7492005369503765},{"entity":{"id":"cheapEatsRestaurants_0cc92ae6cc0a","slug":"jacaranda-0cc9","kind":"restaurant","name":"Jacaranda","lat":40.58300466355052,"lng":22.982557429553488,"url":"https://maps.app.goo.gl/DHgsKVMBHknJk7xq9?g_st=ipc","address":"Στέλιου Καζαντζίδη 24, Pilea 555 35","categoryIds":["cheap-eats"],"categories":["Gyros & Cheap Eats"]},"distanceKm":0.7492006778446707},{"entity":{"id":"burgersRestaurants_0e849e927ac2","slug":"jacaranda-0e84","kind":"restaurant","name":"Jacaranda","lat":40.583003675526406,"lng":22.982558353324826,"url":"https://maps.app.goo.gl/ya9CqK4xiDjFjhjH9?g_st=ic","address":"Στέλιου Καζαντζίδη 24, Pilea 555 35","categoryIds":["burgers"],"categories":["Burger Spots"]},"distanceKm":0.7492484682253211},{"entity":{"id":"fishTavernasRestaurants_3eebfb65840d","slug":"glykanisos-3eeb","kind":"restaurant","name":"Glykanisos","lat":40.59789425560311,"lng":22.984970079796003,"url":"https://maps.app.goo.gl/uuxCBL4zdiCK3Cui9?g_st=ipc","address":"Meg. Alexandrou 46, Pilea 555 35","categoryIds":["fish-tavernas"],"categories":["Fish Tavernas"]},"distanceKm":1.0553199569293024},{"entity":{"id":"dessertsRestaurants_4314e81fb349","slug":"boutique-baking-pepi-beza-4314","kind":"restaurant","name":"Boutique Baking Pepi Beza","lat":40.59730321322995,"lng":22.979587033632086,"url":"https://maps.app.goo.gl/daRMg1RfmVJcgATKA?g_st=ipc","address":"Meg. Alexandrou 3, Pilea 555 35","categoryIds":["desserts"],"categories":["Dessert Shops"]},"distanceKm":1.1759916641054604},{"entity":{"id":"dessertsRestaurants_cc58df47a36e","slug":"nick-alexoudas-cc58","kind":"restaurant","name":"NICK ALEXOUDAS","lat":40.60097575143556,"lng":22.988160776463623,"url":"https://maps.app.goo.gl/svQRP7nS7UargNrc9?g_st=ipc","address":"Profitou Ilia 77, Pilea 555 35","categoryIds":["desserts"],"categories":["Dessert Shops"]},"distanceKm":1.3772512868368234},{"entity":{"id":"burgersRestaurants_d89b00739d36","slug":"sinners-smash-burgers-d89b","kind":"restaurant","name":"Sinners Smash Burgers","lat":40.576089708999454,"lng":22.989358987182698,"url":"https://maps.app.goo.gl/Y2NDJtMWMoJrutpZ6?g_st=ipc","address":"Στέλιου Καζαντζίδη 31, Pilea 555 35","categoryIds":["burgers"],"categories":["Burger Spots"]},"distanceKm":1.3999114328178033},{"entity":{"id":"burgersRestaurants_b86427ec820e","slug":"sinners-smash-burgers-b864","kind":"restaurant","name":"Sinners Smash Burgers","lat":40.57608880508892,"lng":22.98935953763216,"url":"https://maps.app.goo.gl/Heh5zCdrerDYVGwPA?g_st=ic","address":"Στέλιου Καζαντζίδη 31, Pilea 555 35","categoryIds":["burgers"],"categories":["Burger Spots"]},"distanceKm":1.4000165226116683},{"entity":{"id":"cheapEatsRestaurants_e79fa54e3576","slug":"sinners-smash-burgers-e79f","kind":"restaurant","name":"Sinners Smash Burgers","lat":40.576087681457956,"lng":22.989359058851456,"url":"https://maps.app.goo.gl/cae1kAh8s933Ed8E6?g_st=ipc","address":"Στέλιου Καζαντζίδη 31, Pilea 555 35","categoryIds":["cheap-eats"],"categories":["Gyros & Cheap Eats"]},"distanceKm":1.4001361421409106},{"entity":{"id":"burgersRestaurants_54aa085a6ef8","slug":"sinners-smash-burgers-54aa","kind":"restaurant","name":"Sinners Smash Burgers","lat":40.57608642412674,"lng":22.98935981589618,"url":"https://maps.app.goo.gl/Y2NDJtMWMoJrutpZ6?g_st=ipc","address":"Στέλιου Καζαντζίδη 31, Pilea 555 35","categoryIds":["burgers"],"categories":["Burger Spots"]},"distanceKm":1.4002822389422753},{"entity":{"id":"familyFriendly_49ab59220094","slug":"love-sports-club-49ab","kind":"restaurant","name":"Love Sports Club","lat":40.576783631024576,"lng":22.994808120184832,"url":"https://maps.app.goo.gl/BJcVtK4p1mr7qG5B7?g_st=ipc","address":"Unnamed Road, Pilea Chortiatis 555 35","categoryIds":["family-friendly"],"categories":["Kid Friendly Locations"]},"distanceKm":1.4516462974467144},{"entity":{"id":"fishTavernasRestaurants_e3cad400eebc","slug":"panos-cafe-e3ca","kind":"restaurant","name":"Panos Cafe","lat":40.59910171918994,"lng":22.972711652033485,"url":"https://maps.app.goo.gl/2xVCRJ82JXQ9xNYm7?g_st=ipc","address":"Alkamenous 5, Thessaloniki 542 50","categoryIds":["fish-tavernas"],"categories":["Fish Tavernas"]},"distanceKm":1.7096036575148565},{"entity":{"id":"familyFriendly_b986941160fd","slug":"elaiorema-b986","kind":"restaurant","name":"Elaiorema","lat":40.60429462558645,"lng":22.984614393067023,"url":"https://maps.app.goo.gl/2QyvxSuh6SKLNY7X8?g_st=ic","address":"Pylaia 555 35","categoryIds":["family-friendly"],"categories":["Kid Friendly Locations"]},"distanceKm":1.7620873124988938},{"entity":{"id":"cheapEatsRestaurants_11495dfdb881","slug":"fina-kota-kai-souvlaki-1149","kind":"restaurant","name":"Fina Kota kai Souvlaki","lat":40.59910110403599,"lng":22.970582136003614,"url":"https://maps.app.goo.gl/eUYE4q3etTD9FkZs6?g_st=ipc","address":"Al. Papanastasiou 164, Thessaloniki 542 49","categoryIds":["cheap-eats"],"categories":["Gyros & Cheap Eats"]},"distanceKm":1.8449780263424655},{"entity":{"id":"familyFriendly_5fc832b90305","slug":"partyland-pylaia-playground-restaurant-events-5fc8","kind":"restaurant","name":"PARTYLAND ΠΥΛΑΙΑ | PLAYGROUND | RESTAURANT | EVENTS","lat":40.57242727995374,"lng":22.992912588988382,"url":"https://maps.app.goo.gl/hq2iSCHB7jfquAbeA?g_st=ic","address":"St.Kazantzidi 49, Pilea 555 36","categoryIds":["family-friendly"],"categories":["Kid Friendly Locations"]},"distanceKm":1.8555089266970581},{"entity":{"id":"greekRestaurants_87ad943f04be","slug":"mpaloyxis-87ad","kind":"restaurant","name":"ΜΠΑΛΟΥΞΗΣ","lat":40.60469663357637,"lng":22.980860258041304,"url":"https://maps.app.goo.gl/mkwSB515HmQ3h8yA8?g_st=ipc","address":"Δορυλαίου 86, Πυλαία 544 54","categoryIds":["greek-restaurants"],"categories":["Greek Restaurants"]},"distanceKm":1.8756034021715908},{"entity":{"id":"coffeeBrunchRestaurants_7f4ca735b5ec","slug":"laterna-7f4c","kind":"restaurant","name":"Laterna","lat":40.597256928464596,"lng":22.96766795433404,"url":"https://maps.app.goo.gl/UuEUGrB58srruWFPA?g_st=ipc","address":"Voulgari 64, Thessaloniki 542 49","categoryIds":["coffee-brunch"],"categories":["Coffee & Brunch Spots"]},"distanceKm":1.9315004578869235},{"entity":{"id":"cheapEatsRestaurants_9ba4d2c7ce05","slug":"devido-9ba4","kind":"restaurant","name":"Devido","lat":40.6015548155933,"lng":22.97004729221759,"url":"https://maps.app.goo.gl/LhdTXdShbHy87PAv9?g_st=ipc","address":"Nik. Plastira 2, Thessaloniki 542 50","categoryIds":["cheap-eats"],"categories":["Gyros & Cheap Eats"]},"distanceKm":2.060712680709598},{"entity":{"id":"italianRestaurants_2946916b6ad2","slug":"pizza-plain-2946","kind":"restaurant","name":"Pizza Plain","lat":40.601547606224,"lng":22.970026389723678,"url":"https://maps.app.goo.gl/gJ7QpRFhLKuDpyFc9?g_st=ipc","address":"Nik. Plastira 2, Thessaloniki 542 50","categoryIds":["italian"],"categories":["Italian Restaurants"]},"distanceKm":2.0614151865330026},{"entity":{"id":"greekRestaurants_a5b4656768b4","slug":"emporikon-a5b4","kind":"restaurant","name":"Εμπορικόν","lat":40.59154248489415,"lng":22.963270056520066,"url":"https://maps.app.goo.gl/1BGYAM6C7rUnMDot8?g_st=ipc","address":"Αιγαίου 2, Θεσσαλονίκη 542 48","categoryIds":["greek-restaurants"],"categories":["Greek Restaurants"]},"distanceKm":2.0719648357737603},{"entity":{"id":"greekRestaurants_6425778ff662","slug":"apeirotan-6425","kind":"restaurant","name":"Απειρωτάν","lat":40.60427891782613,"lng":22.97278851420961,"url":"https://maps.app.goo.gl/Z1kHXx11hgTP2xe29?g_st=ipc","address":"Γυμνασιάρχου Κωνσταντίνου Μικρού 32, Θεσσαλονίκη 542 50","categoryIds":["greek-restaurants"],"categories":["Greek Restaurants"]},"distanceKm":2.14064199021024},{"entity":{"id":"cheapEatsRestaurants_8ba579af851d","slug":"steakhouse-costas-8ba5","kind":"restaurant","name":"Steakhouse Costas","lat":40.607757700164754,"lng":22.984167654560377,"url":"https://maps.app.goo.gl/vkLu33M5Ct15FeXa6?g_st=ipc","address":"Emmanouil Fili 15, Pilea 555 34","categoryIds":["cheap-eats"],"categories":["Gyros & Cheap Eats"]},"distanceKm":2.1487380383720525},{"entity":{"id":"cheapEatsRestaurants_77c25b5f5623","slug":"maverick-handmade-street-food-77c2","kind":"restaurant","name":"MAVERICK Handmade Street Food","lat":40.57336217336095,"lng":22.971758064415795,"url":"https://maps.app.goo.gl/HnPEQCvY87w7EXK28?g_st=ipc","address":"Eth. Antistaseos 179, Kalamaria 551 34","categoryIds":["cheap-eats"],"categories":["Gyros & Cheap Eats"]},"distanceKm":2.1536609015319406},{"entity":{"id":"burgersRestaurants_8f11f76e2e42","slug":"maverick-handmade-street-food-8f11","kind":"restaurant","name":"MAVERICK Handmade Street Food","lat":40.5733294711661,"lng":22.971759802516267,"url":"https://maps.app.goo.gl/Bc8D8iLK2oBQoFcm8?g_st=ipc","address":"Eth. Antistaseos 179, Kalamaria 551 34","categoryIds":["burgers"],"categories":["Burger Spots"]},"distanceKm":2.1564326186004945},{"entity":{"id":"burgersRestaurants_7eb0efeaa764","slug":"maverick-handmade-street-food-7eb0","kind":"restaurant","name":"MAVERICK Handmade Street Food","lat":40.573329136680016,"lng":22.971759535522626,"url":"https://maps.app.goo.gl/ZfCPDksedBbdBdS3A?g_st=ic","address":"Eth. Antistaseos 179, Kalamaria 551 34","categoryIds":["burgers"],"categories":["Burger Spots"]},"distanceKm":2.1564758061578577},{"entity":{"id":"greekRestaurants_cf4b92a49ee3","slug":"vregmeni-gata-cf4b","kind":"restaurant","name":"Βρεγμένη Γάτα","lat":40.60532273136461,"lng":22.974506640452905,"url":"https://maps.app.goo.gl/ei8BmMqU9LPgvJwq9?g_st=ipc","address":"Απόλλωνος 4, Θεσσαλονίκη 544 54","categoryIds":["greek-restaurants"],"categories":["Greek Restaurants"]},"distanceKm":2.1589759583878725},{"entity":{"id":"fishTavernasRestaurants_4b85b6df400f","slug":"alepoy-mezedopoleio-4b85","kind":"restaurant","name":"Αλεπού Μεζεδοπωλείο","lat":40.607668350364605,"lng":22.993173165196392,"url":"https://maps.app.goo.gl/fMUK2hozw9hQG8zN8?g_st=ipc","address":"17is Noemvriou 26, Thessaloniki 555 34","categoryIds":["fish-tavernas"],"categories":["Fish Tavernas"]},"distanceKm":2.173732360696547},{"entity":{"id":"greekRestaurants_46e9b5128099","slug":"mezedopoleio-sti-gonia-tis-inas-46e9","kind":"restaurant","name":"ΜΕΖΕΔΟΠΩΛΕΙΟ ΣΤΗ ΓΩΝΙΑ ΤΗΣ ΙΝΑΣ","lat":40.60655899968898,"lng":22.97552887156289,"url":"https://maps.app.goo.gl/cVtcjxY8sNr9dRR19?g_st=ipc","address":"Απόλλωνος 20, Θεσσαλονίκη 544 54","categoryIds":["greek-restaurants"],"categories":["Greek Restaurants"]},"distanceKm":2.238162599667826}],"counts":{"totalEntities":4118,"totalInArea":134,"totalInCategory":0,"totalCategoryArea":134},"relatedCategories":[{"categoryId":"cheap-eats","categorySlug":"cheap-eats","categoryName":"Gyros & Cheap Eats","count":33,"passesThreshold":true},{"categoryId":"greek-restaurants","categorySlug":"greek-restaurants","categoryName":"Greek Restaurants","count":31,"passesThreshold":true},{"categoryId":"burgers","categorySlug":"burgers","categoryName":"Burger Spots","count":15,"passesThreshold":true},{"categoryId":"desserts","categorySlug":"desserts","categoryName":"Dessert Shops","count":15,"passesThreshold":true},{"categoryId":"coffee-brunch","categorySlug":"brunch","categoryName":"Coffee & Brunch Spots","count":9,"passesThreshold":true},{"categoryId":"family-friendly","categorySlug":"family-friendly","categoryName":"Kid Friendly Locations","count":8,"passesThreshold":true},{"categoryId":"fish-tavernas","categorySlug":"fish-tavernas","categoryName":"Fish Tavernas","count":7,"passesThreshold":true},{"categoryId":"italian","categorySlug":"italian","categoryName":"Italian Restaurants","count":6,"passesThreshold":true},{"categoryId":"vegetarian","categorySlug":"vegetarian","categoryName":"Vegetarian Friendly Restaurants","count":3,"passesThreshold":false},{"categoryId":"luxury-dining","categorySlug":"luxury-dining","categoryName":"Luxury Dining","count":3,"passesThreshold":false}],"relatedAreas":[{"areaId":"municipalities_5bc013791cf8","areaName":"Πλάκα","areaSlug":"plaka","count":873,"passesThreshold":true,"nearestDistanceKm":0.012491754607387504},{"areaId":"municipalities_877c3bc81df5","areaName":"Σύνταγμα","areaSlug":"syntagma","count":868,"passesThreshold":true,"nearestDistanceKm":0.009392084429921843},{"areaId":"municipalities_0cae2c00b932","areaName":"Κολωνάκι","areaSlug":"kolonaki","count":859,"passesThreshold":true,"nearestDistanceKm":0.019551496670837543},{"areaId":"municipalities_d7e1aaaed4f9","areaName":"Μοναστηράκι","areaSlug":"monastiraki","count":858,"passesThreshold":true,"nearestDistanceKm":0.0015439249117317326},{"areaId":"municipalities_4149fa79e27b","areaName":"Ακρόπολη","areaSlug":"akropoli","count":857,"passesThreshold":true,"nearestDistanceKm":0.005729795337023071},{"areaId":"municipalities_0fd1d03201a0","areaName":"Μετς","areaSlug":"mets","count":857,"passesThreshold":true,"nearestDistanceKm":0.0655206557127576},{"areaId":"municipalities_2bcfcb8b899f","areaName":"Ψυρρή","areaSlug":"psyrri","count":856,"passesThreshold":true,"nearestDistanceKm":0.047074153549061026},{"areaId":"municipalities_616efd2a0d9b","areaName":"Κουκάκι","areaSlug":"koykaki","count":855,"passesThreshold":true,"nearestDistanceKm":0.03240357443173243},{"areaId":"municipalities_b85b54408d92","areaName":"Θησείο","areaSlug":"thiseio","count":849,"passesThreshold":true,"nearestDistanceKm":0.08292401975417248},{"areaId":"municipalities_2f324ee27306","areaName":"Εξάρχεια","areaSlug":"exarcheia","count":848,"passesThreshold":true,"nearestDistanceKm":0.08690050688547628}],"passesThreshold":true}},"__N_SSG":true}