{"pageProps":{"payload":{"area":{"id":"municipalities_5bc013791cf8","name":"Πλάκα","nameEn":"Plaka","region":"Κέντρο Αθήνας","regionEn":"Athens Center","lat":37.9726,"lng":23.7297,"urlSlug":"plaka","aliases":["Πλάκα","Plaka","Πλάκα Athens Center","Plaka Athens Center","plaka-5bc0","plaka"]},"category":null,"entities":[{"entity":{"id":"greekRestaurants_e299a6be96f9","slug":"to-kafeneio-e299","kind":"restaurant","name":"Το Καφενείο","lat":37.97255962660001,"lng":23.729567011443763,"url":"https://maps.app.goo.gl/3s8YnKNXM61cpsz69","address":"Επιχάρμου 1, Αθήνα 105 58","categoryIds":["greek-restaurants"],"categories":["Greek Restaurants"]},"distanceKm":0.012491754607387504},{"entity":{"id":"dessertsRestaurants_db3d47fd588a","slug":"arte-athens-db3d","kind":"restaurant","name":"Arte Athens","lat":37.97243004672386,"lng":23.729479004279412,"url":"https://maps.app.goo.gl/Lqr3t1JFkHesFNnk6?g_st=ipc","address":"Τριπόδων 16, Αθήνα 105 58","categoryIds":["desserts"],"categories":["Dessert Shops"]},"distanceKm":0.027062667032199905},{"entity":{"id":"dessertsRestaurants_d2c71b210d1a","slug":"solo-gelato-d2c7","kind":"restaurant","name":"Solo Gelato","lat":37.972749067243114,"lng":23.730253715604512,"url":"https://maps.app.goo.gl/NjipC5csKbXMwq4j7?g_st=ipc","address":"Αδριανού 120, Αθήνα 105 58","categoryIds":["desserts"],"categories":["Dessert Shops"]},"distanceKm":0.05128848795565426},{"entity":{"id":"monasteriesChurches_10f29f7ed669","slug":"ieros-naos-agioy-nikolaoy-ragkava-10f2","kind":"restaurant","name":"Ιερός Ναός Αγίου Νικολάου Ραγκαβά","lat":37.972457611954724,"lng":23.729131060991204,"url":"https://maps.app.goo.gl/HnQHckK1xrE13jmu5?g_st=ipc","address":"Πρυτανείου 1, Αθήνα 105 58","categoryIds":["monasteries-churches"],"categories":["Monasteries & Spiritual Sites"]},"distanceKm":0.052323654512375514},{"entity":{"id":"coffeeBrunchRestaurants_ef8ff3ba5523","slug":"melina-mercouri-cafe-ef8f","kind":"restaurant","name":"Melina Mercouri Café","lat":37.973329408985265,"lng":23.72859454809977,"url":"https://maps.app.goo.gl/fE5D7HkmY8kdkhM6A?g_st=ic","address":"Lisiou 22, Athina 105 56","categoryIds":["coffee-brunch"],"categories":["Coffee & Brunch Spots"]},"distanceKm":0.1263629446508417},{"entity":{"id":"monasteriesChurches_8533fc9b9b94","slug":"ieros-naos-agion-anargyron-kolokynthi-metochion-panagioy-tafoy-8533","kind":"restaurant","name":"Ιερός Ναός Αγίων Αναργύρων Κολοκύνθη - Μετόχιον Παναγίου Τάφου","lat":37.97293435768165,"lng":23.728208879310362,"url":"https://maps.app.goo.gl/nKcEJuoZ25jXrQqeA?g_st=ipc","address":"Ερεχθέως 18, Αθήνα 105 56","categoryIds":["monasteries-churches"],"categories":["Monasteries & Spiritual Sites"]},"distanceKm":0.13588958737096163},{"entity":{"id":"mustSeeAttractions_f9286196691d","slug":"anafiotika-f928","kind":"restaurant","name":"Αναφιώτικα","lat":37.97237012452399,"lng":23.728116657972198,"url":"https://maps.app.goo.gl/tWCR6cy3umt66P4p6?g_st=ipc","address":"Αθήνα 105 58","categoryIds":["attractions"],"categories":["Must-See Attractions"]},"distanceKm":0.1411230726575214},{"entity":{"id":"luxuryDiningRestaurants_915576fc1c0f","slug":"samano-radio-restaurant-9155","kind":"restaurant","name":"Samano Radio Restaurant","lat":37.97164530530575,"lng":23.731079390163124,"url":"https://maps.app.goo.gl/HCtBkZVH9f9shwEp9?g_st=ipc","address":"Πλ. Φιλόμουσου Εταιρίας 3, Αθήνα 105 58","categoryIds":["luxury-dining"],"categories":["Luxury Dining"]},"distanceKm":0.16090075751744892},{"entity":{"id":"coffeeBrunchRestaurants_6b3f7db90a24","slug":"nonnas-athens-6b3f","kind":"restaurant","name":"Nonnas Athens","lat":37.971651792837406,"lng":23.731123841030353,"url":"https://maps.app.goo.gl/5RFfLvtqnpk2BDQp8?g_st=ipc","address":"Pl. Filomousou Eterias 3, Athina 105 58","categoryIds":["coffee-brunch"],"categories":["Coffee & Brunch Spots"]},"distanceKm":0.1633824815851473},{"entity":{"id":"coffeeBrunchRestaurants_ca5c6fd3b033","slug":"plakaki-cafe-ca5c","kind":"restaurant","name":"Plakaki Cafe","lat":37.97168034602651,"lng":23.731177071228885,"url":"https://maps.app.goo.gl/fCZvCfcqYbM4mrRz8?g_st=ic","address":"Pl. Filomousou Eterias 2, Athina 105 58","categoryIds":["coffee-brunch"],"categories":["Coffee & Brunch Spots"]},"distanceKm":0.16498747963145832},{"entity":{"id":"mustSeeAttractions_513259a6b06d","slug":"olympioy-dios-5132","kind":"restaurant","name":"Ολυμπίου Διός","lat":37.97177631416209,"lng":23.731310537974434,"url":"https://maps.app.goo.gl/FgkJ1umuygHQYmoC8?g_st=ipc","address":"Αθήνα 105 58","categoryIds":["attractions"],"categories":["Must-See Attractions"]},"distanceKm":0.16828126492792694},{"entity":{"id":"mustSeeAttractions_8085cf28024a","slug":"choragic-monument-of-lysicrates-8085","kind":"restaurant","name":"Choragic Monument of Lysicrates","lat":37.97108971386169,"lng":23.72994596958006,"url":"https://maps.app.goo.gl/7Xgk65sqPNFM93Sy9?g_st=ipc","address":"Epimenidou 3, Athina 105 58","categoryIds":["attractions"],"categories":["Must-See Attractions"]},"distanceKm":0.16931456330144148},{"entity":{"id":"coffeeBrunchRestaurants_d230a95180a5","slug":"anafiotika-cafe-restaurant-d230","kind":"restaurant","name":"Anafiotika Cafe - Restaurant","lat":37.97339153102626,"lng":23.727755098705728,"url":"https://maps.app.goo.gl/5TUnwM6DgvopJtKt9?g_st=ipc","address":"Μνησικλέους 24β, Αθήνα 105 56","categoryIds":["coffee-brunch"],"categories":["Coffee & Brunch Spots"]},"distanceKm":0.1918595357949702},{"entity":{"id":"rooftopLoungesRestaurants_6bc9125d2c6e","slug":"odos-lysioy-6bc9","kind":"restaurant","name":"Οδος Λυσιου","lat":37.97368556896764,"lng":23.727989877138466,"url":"https://maps.app.goo.gl/QFStwG4KRSZkG2Em7?g_st=ipc","address":"Mnisikleous 22 and, Lisiou corner, Athina 105 56","categoryIds":["rooftop-lounges"],"categories":["Rooftop Lounges"]},"distanceKm":0.19246048862890522},{"entity":{"id":"rooftopLoungesRestaurants_d90628c167d7","slug":"anefani-d906","kind":"restaurant","name":"Ανεφάνη","lat":37.97353358251965,"lng":23.727822920102838,"url":"https://maps.app.goo.gl/cvCxoTrVfjboNT7X7?g_st=ipc","address":"Μνησικλέους 24, Αθήνα 105 56","categoryIds":["rooftop-lounges"],"categories":["Rooftop Lounges"]},"distanceKm":0.19454647897563898},{"entity":{"id":"fishTavernasRestaurants_2ec8563b4367","slug":"anefani-2ec8","kind":"restaurant","name":"Ανεφάνη","lat":37.973535712152035,"lng":23.727823659961384,"url":"https://maps.app.goo.gl/ZNPzCDATcCosWfhTA?g_st=ipc","address":"Μνησικλέους 24, Αθήνα 105 56","categoryIds":["fish-tavernas"],"categories":["Fish Tavernas"]},"distanceKm":0.19461812899245926},{"entity":{"id":"greekRestaurants_4d35ec674015","slug":"taverna-saita-4d35","kind":"restaurant","name":"Taverna Saita","lat":37.97248143588815,"lng":23.732031545694568,"url":"https://maps.app.goo.gl/SCwWcqyGvhz7WVrE8","address":"Κυδαθηναίων 21, Αθήνα 105 58","categoryIds":["greek-restaurants"],"categories":["Greek Restaurants"]},"distanceKm":0.20479781712759643},{"entity":{"id":"luxuryDiningRestaurants_d7864d62c4d5","slug":"electra-roof-garden-d786","kind":"restaurant","name":"Electra Roof Garden","lat":37.97379853875271,"lng":23.731619747681133,"url":"https://maps.app.goo.gl/DRSR8qGkR5GU1Bts9?g_st=ipc","address":"Ναυάρχου Νικοδήμου 18-20, Αθήνα 105 57","categoryIds":["luxury-dining"],"categories":["Luxury Dining"]},"distanceKm":0.21465737692238357},{"entity":{"id":"rooftopLoungesRestaurants_e53024397065","slug":"electra-roof-garden-e530","kind":"restaurant","name":"Electra Roof Garden","lat":37.973799293487446,"lng":23.731619153637734,"url":"https://maps.app.goo.gl/ieHySBRUu73ccrv99?g_st=ipc","address":"Ναυάρχου Νικοδήμου 18-20, Αθήνα 105 57","categoryIds":["rooftop-lounges"],"categories":["Rooftop Lounges"]},"distanceKm":0.214668683073632},{"entity":{"id":"coffeeBrunchRestaurants_af73cfd62392","slug":"the-zillers-pastry-bar-af73","kind":"restaurant","name":"The Zillers Pastry Bar","lat":37.97475815330705,"lng":23.729657937121086,"url":"https://maps.app.goo.gl/F16LXUX65PanPNx76?g_st=ipc","address":"Παλαιολόγου Μπενιζέλου 6, Αθήνα 105 56","categoryIds":["coffee-brunch"],"categories":["Coffee & Brunch Spots"]},"distanceKm":0.24000402047051295},{"entity":{"id":"greekRestaurants_93f1c5af7d4e","slug":"evgenia-restaurant-93f1","kind":"restaurant","name":"Evgenia Restaurant","lat":37.9738473626084,"lng":23.732008770618236,"url":"https://maps.app.goo.gl/snfb8zhcUBZxSoPx9","address":"Βουλής 44Α, Αθήνα 105 58","categoryIds":["greek-restaurants"],"categories":["Greek Restaurants"]},"distanceKm":0.24534333563980346},{"entity":{"id":"greekRestaurants_75bff303ba08","slug":"symposio-restaurant-75bf","kind":"restaurant","name":"Symposio Restaurant","lat":37.97466836386933,"lng":23.73070242967316,"url":"https://maps.app.goo.gl/tMkNDw4cpv1tsuv86?g_st=ipc","address":"Apollonos 22, Athina 105 56","categoryIds":["greek-restaurants"],"categories":["Greek Restaurants"]},"distanceKm":0.2462047471066449},{"entity":{"id":"rooftopLoungesRestaurants_ffccd88e3b0f","slug":"thea-terrace-bar-ffcc","kind":"restaurant","name":"Thea Terrace Bar","lat":37.97456272302777,"lng":23.731138501787182,"url":"https://maps.app.goo.gl/KVbnoHN86FaFe6Ch8?g_st=ipc","address":"Απόλλωνος 21, Αθήνα 105 57","categoryIds":["rooftop-lounges"],"categories":["Rooftop Lounges"]},"distanceKm":0.2520510623186498},{"entity":{"id":"vegetarianRestaurants_e1e5ea98ec84","slug":"jaipur-palace-plaka-e1e5","kind":"restaurant","name":"Jaipur Palace Plaka","lat":37.9746957700778,"lng":23.728563859316758,"url":"https://maps.app.goo.gl/aNRwgGJgRT99wmHt5?g_st=ipc","address":"Mnisikleous 7B, Athina 105 56","categoryIds":["vegetarian"],"categories":["Vegetarian Friendly Restaurants"]},"distanceKm":0.2534262479958765},{"entity":{"id":"greekRestaurants_60d2190d08b8","slug":"aerides-mezedopoleio-plaka-60d2","kind":"restaurant","name":"Αέρηδες Μεζεδοπωλείο Πλάκα","lat":37.974495755428926,"lng":23.72798871305526,"url":"https://maps.app.goo.gl/Cx6gQQWkCy2n1mXw6","address":"Διογένους 3, Αθήνα 105 56","categoryIds":["greek-restaurants"],"categories":["Greek Restaurants"]},"distanceKm":0.2587209029837702},{"entity":{"id":"gyrosSouvlakiRestaurants_514910b62a38","slug":"souvlaki-monastiraki-5149","kind":"restaurant","name":"Souvlaki Monastiraki","lat":37.975,"lng":23.729,"url":"https://maps.app.goo.gl/sample29","address":"Mitropoleos 2, Athina 105 63","categoryIds":["cheap-eats"],"categories":["Gyros & Cheap Eats"]},"distanceKm":0.2738306467202473},{"entity":{"id":"gyrosSouvlakiRestaurants_ddb106f4030b","slug":"gyros-psyrri-ddb1","kind":"restaurant","name":"Gyros Psyrri","lat":37.974,"lng":23.727,"url":"https://maps.app.goo.gl/sample30","address":"Agiou Filippou 19, Athina 105 55","categoryIds":["cheap-eats"],"categories":["Gyros & Cheap Eats"]},"distanceKm":0.2832766033045482},{"entity":{"id":"greekRestaurants_2ce35eba5f67","slug":"aspro-alogo-i-e-white-horse-traditional-greek-food-2ce3","kind":"restaurant","name":"Aspro Alogo (i.e. White Horse) Traditional Greek Food","lat":37.9748589013975,"lng":23.731279347476626,"url":"https://maps.app.goo.gl/Lo9db7KSrAQMHjXi6","address":"Απόλλωνος, Αθήνα 105 57","categoryIds":["greek-restaurants"],"categories":["Greek Restaurants"]},"distanceKm":0.2868016982126224},{"entity":{"id":"mustSeeAttractions_186b78600e45","slug":"parthenonas-186b","kind":"restaurant","name":"Παρθενώνας","lat":37.97152775110389,"lng":23.726714874737574,"url":"https://maps.app.goo.gl/ztHmcesfndwzvFuRA?g_st=ipc","address":"Αθήνα 105 58","categoryIds":["attractions"],"categories":["Must-See Attractions"]},"distanceKm":0.2875479958563779},{"entity":{"id":"burgersRestaurants_bf81509e8678","slug":"ekiben-kitchen-bf81","kind":"restaurant","name":"EKIBEN KITCHEN","lat":37.97373737994253,"lng":23.732680748460968,"url":"https://maps.app.goo.gl/UYx5LEnNcAUkY8XX8?g_st=ipc","address":"Σκούφου 15, Αθήνα 105 57","categoryIds":["burgers"],"categories":["Burger Spots"]},"distanceKm":0.29027673070205606}],"counts":{"totalEntities":4118,"totalInArea":873,"totalInCategory":0,"totalCategoryArea":873},"relatedCategories":[{"categoryId":"coffee-brunch","categorySlug":"brunch","categoryName":"Coffee & Brunch Spots","count":142,"passesThreshold":true},{"categoryId":"cheap-eats","categorySlug":"cheap-eats","categoryName":"Gyros & Cheap Eats","count":117,"passesThreshold":true},{"categoryId":"greek-restaurants","categorySlug":"greek-restaurants","categoryName":"Greek Restaurants","count":100,"passesThreshold":true},{"categoryId":"desserts","categorySlug":"desserts","categoryName":"Dessert Shops","count":83,"passesThreshold":true},{"categoryId":"vegetarian","categorySlug":"vegetarian","categoryName":"Vegetarian Friendly Restaurants","count":76,"passesThreshold":true},{"categoryId":"luxury-dining","categorySlug":"luxury-dining","categoryName":"Luxury Dining","count":72,"passesThreshold":true},{"categoryId":"italian","categorySlug":"italian","categoryName":"Italian Restaurants","count":54,"passesThreshold":true},{"categoryId":"rooftop-lounges","categorySlug":"rooftops","categoryName":"Rooftop Lounges","count":52,"passesThreshold":true},{"categoryId":"attractions","categorySlug":"attractions","categoryName":"Must-See Attractions","count":43,"passesThreshold":true},{"categoryId":"burgers","categorySlug":"burgers","categoryName":"Burger Spots","count":40,"passesThreshold":true}],"relatedAreas":[{"areaId":"municipalities_877c3bc81df5","areaName":"Σύνταγμα","areaSlug":"syntagma","count":868,"passesThreshold":true,"nearestDistanceKm":0.009392084429921843},{"areaId":"municipalities_0cae2c00b932","areaName":"Κολωνάκι","areaSlug":"kolonaki","count":859,"passesThreshold":true,"nearestDistanceKm":0.019551496670837543},{"areaId":"municipalities_d7e1aaaed4f9","areaName":"Μοναστηράκι","areaSlug":"monastiraki","count":858,"passesThreshold":true,"nearestDistanceKm":0.0015439249117317326},{"areaId":"municipalities_4149fa79e27b","areaName":"Ακρόπολη","areaSlug":"akropoli","count":857,"passesThreshold":true,"nearestDistanceKm":0.005729795337023071},{"areaId":"municipalities_0fd1d03201a0","areaName":"Μετς","areaSlug":"mets","count":857,"passesThreshold":true,"nearestDistanceKm":0.0655206557127576},{"areaId":"municipalities_2bcfcb8b899f","areaName":"Ψυρρή","areaSlug":"psyrri","count":856,"passesThreshold":true,"nearestDistanceKm":0.047074153549061026},{"areaId":"municipalities_616efd2a0d9b","areaName":"Κουκάκι","areaSlug":"koykaki","count":855,"passesThreshold":true,"nearestDistanceKm":0.03240357443173243},{"areaId":"municipalities_b85b54408d92","areaName":"Θησείο","areaSlug":"thiseio","count":849,"passesThreshold":true,"nearestDistanceKm":0.08292401975417248},{"areaId":"municipalities_2f324ee27306","areaName":"Εξάρχεια","areaSlug":"exarcheia","count":848,"passesThreshold":true,"nearestDistanceKm":0.08690050688547628},{"areaId":"municipalities_0eb5ad956816","areaName":"Νέος Κόσμος","areaSlug":"neos-kosmos","count":836,"passesThreshold":true,"nearestDistanceKm":0.15564971404304465}],"passesThreshold":true}},"__N_SSG":true}