{"pageProps":{"payload":{"area":{"id":"municipalities_b1ae4c3dd84d","name":"Καισαριανή","nameEn":"Kaisariani","region":"Κέντρο Αθήνας","regionEn":"Athens Center","lat":37.9667,"lng":23.7833,"urlSlug":"kaisariani","aliases":["Καισαριανή","Kaisariani","Καισαριανή Athens Center","Kaisariani Athens Center","Kesariani","kaisariani-b1ae","kaisariani"]},"category":null,"entities":[{"entity":{"id":"greekRestaurants_a9322c09c3bf","slug":"kopsidi-kaisariani-a932","kind":"restaurant","name":"Κοψίδι Καισαριανή","lat":37.96646380448841,"lng":23.772981113467992,"url":"https://maps.app.goo.gl/CbctoDQWoy2zSwT78","address":"Λεωφ. Εθ. Αντιστάσεως 240, Αθήνα 161 22","categoryIds":["greek-restaurants"],"categories":["Greek Restaurants"]},"distanceKm":0.9049627680486279},{"entity":{"id":"dessertsRestaurants_e0203acd657d","slug":"kreperi-mpoem-e020","kind":"restaurant","name":"Κρεπερί Μποεμ","lat":37.976396515703,"lng":23.775114076679657,"url":"https://maps.app.goo.gl/SwofWM31tTZW4hKH9?g_st=ipc","address":"Λεωφ. Στρατάρχου Αλεξάνδρου Παπάγου 126, Ζωγράφου 157 73","categoryIds":["desserts"],"categories":["Dessert Shops"]},"distanceKm":1.2951458996538932},{"entity":{"id":"monasteriesChurches_ab2f1ef6db23","slug":"iera-moni-kaisarianis-ab2f","kind":"restaurant","name":"Ιερά Μονή Καισαριανής","lat":37.96085617263528,"lng":23.798163534107264,"url":"https://maps.app.goo.gl/tKzi13MSJeMrbus97?g_st=ipc","address":"Καισαριανή 161 22","categoryIds":["monasteries-churches"],"categories":["Monasteries & Spiritual Sites"]},"distanceKm":1.4560651563274059},{"entity":{"id":"cheapEatsRestaurants_d88ce6fa51b6","slug":"kempap-paradosiako-d88c","kind":"restaurant","name":"Κεμπάπ Παραδοσιακό","lat":37.97476714198204,"lng":23.766791010773026,"url":"https://maps.app.goo.gl/PPUd3JeoTmqcayFz5?g_st=ipc","address":"Αμμοχώστου 4, Ζωγράφου 157 71","categoryIds":["cheap-eats"],"categories":["Gyros & Cheap Eats"]},"distanceKm":1.7026071691477878},{"entity":{"id":"greekRestaurants_6d8ba6e8459c","slug":"o-tsompanakos-6d8b","kind":"restaurant","name":"Ο Τσομπανάκος","lat":37.96567041818392,"lng":23.763543849190544,"url":"https://maps.app.goo.gl/D1121EC8pmNBFqbK9","address":"Ανακρέοντος 2, Καισαριανή 161 22","categoryIds":["greek-restaurants"],"categories":["Greek Restaurants"]},"distanceKm":1.7356669053314002},{"entity":{"id":"coffeeBrunchRestaurants_6490fab080eb","slug":"anapsyktirio-kalopoyla-6490","kind":"restaurant","name":"Αναψυκτήριο Καλοπούλα","lat":37.96354797529962,"lng":23.804248106884938,"url":"https://maps.app.goo.gl/uXF6EF7MznZrK5Jb9?g_st=ipc","address":"Unnamed Road, Καισαριανή","categoryIds":["coffee-brunch"],"categories":["Coffee & Brunch Spots"]},"distanceKm":1.8695516727007346},{"entity":{"id":"coffeeBrunchRestaurants_43e0979c68c8","slug":"oze-athens-43e0","kind":"restaurant","name":"oZé Athens","lat":37.97844398978006,"lng":23.767461364777404,"url":"https://maps.app.goo.gl/vEEphseUhHsbhVWs9?g_st=ipc","address":"Παπάγου 56, Ζωγράφου 157 71","categoryIds":["coffee-brunch"],"categories":["Coffee & Brunch Spots"]},"distanceKm":1.9059911165630545},{"entity":{"id":"coffeeBrunchRestaurants_8adec72ceea5","slug":"o-vrazilianos-8ade","kind":"restaurant","name":"Ο Βραζιλιάνος","lat":37.97904208015633,"lng":23.766074567747406,"url":"https://maps.app.goo.gl/5D1SdokXMKCgvPB27?g_st=ipc","address":"Παπάγου 37, Ζωγράφου 157 73","categoryIds":["coffee-brunch"],"categories":["Coffee & Brunch Spots"]},"distanceKm":2.040395062177637},{"entity":{"id":"cheapEatsRestaurants_51e57b41d79c","slug":"chrysanthos-51e5","kind":"restaurant","name":"Χρύσανθος","lat":37.980767151919686,"lng":23.76756797039495,"url":"https://maps.app.goo.gl/cG4RSw44nHayWytd9?g_st=ipc","address":"Γεωρ. Παπανδρέου 50, Ζωγράφου 157 73","categoryIds":["cheap-eats"],"categories":["Gyros & Cheap Eats"]},"distanceKm":2.08525520964387},{"entity":{"id":"greekRestaurants_d05f0b437e54","slug":"osonoypo-d05f","kind":"restaurant","name":"Οσονούπω","lat":37.968722862920075,"lng":23.75908756393202,"url":"https://maps.app.goo.gl/HBqT7hbWLLfdjPem9","address":"Πλ. Αναγεννήσεως 2, Καισαριανή 161 21","categoryIds":["greek-restaurants"],"categories":["Greek Restaurants"]},"distanceKm":2.13438049389824},{"entity":{"id":"mexicanRestaurants_7f0e3c29626a","slug":"o-mexikanos-7f0e","kind":"restaurant","name":"Ο Μεξικανός","lat":37.98186119461787,"lng":23.768203133980027,"url":"https://maps.app.goo.gl/bgqno3epSEAwFEp1A?g_st=ipc","address":"157 73, Γεωρ. Παπανδρέου 47, Ζωγράφου 157 73","categoryIds":["mexican"],"categories":["Mexican Restaurants"]},"distanceKm":2.14317258021102},{"entity":{"id":"mexicanRestaurants_246d0cbd5711","slug":"kaisaras-mpar-kaisaras-bar-246d","kind":"restaurant","name":"Καίσαρας Μπαρ - Kaisaras Bar","lat":37.96879437306453,"lng":23.758782238098565,"url":"https://maps.app.goo.gl/dNnjqQMeoX6QVGm38?g_st=ipc","address":"Πλατεία Παναγιώτη Μακρή 7-9, Καισαριανή 161 21","categoryIds":["mexican"],"categories":["Mexican Restaurants"]},"distanceKm":2.1618396501866535},{"entity":{"id":"greekRestaurants_90f9e65f33cf","slug":"alsos-mezedopoleio-90f9","kind":"restaurant","name":"Αλσος μεζεδοπωλείο","lat":37.97542863089566,"lng":23.76053636122563,"url":"https://maps.app.goo.gl/LFkoegopciPhWfk59","address":"Ούλωφ Πάλμε 1, Ζωγράφου 115 28","categoryIds":["greek-restaurants"],"categories":["Greek Restaurants"]},"distanceKm":2.218929365197059},{"entity":{"id":"asianRestaurants_473a72132f5a","slug":"noodle-bar-zografou-473a","kind":"restaurant","name":"Noodle Bar Zografou","lat":37.98033900085368,"lng":23.7645797480279,"url":"https://maps.app.goo.gl/mX2bUrDUmSpXcEdF7","address":"Geor. Papandreou 31, Zografou 157 73","categoryIds":["asian"],"categories":["Asian Restaurants"]},"distanceKm":2.2344201971708504},{"entity":{"id":"cheapEatsRestaurants_acd6f4163dcb","slug":"ta-psita-tis-pareas-acd6","kind":"restaurant","name":"Τα ψητά της παρέας","lat":37.97804935076976,"lng":23.76224805570561,"url":"https://maps.app.goo.gl/Kxmp13A9x2etHv317?g_st=ipc","address":"Ούλωφ Πάλμε 25, Ζωγράφου 157 71","categoryIds":["cheap-eats"],"categories":["Gyros & Cheap Eats"]},"distanceKm":2.235585680723618},{"entity":{"id":"italianRestaurants_98c72b583c4b","slug":"nonna-edda-98c7","kind":"restaurant","name":"Nonna Edda","lat":37.968437805608076,"lng":23.757681215549333,"url":"https://maps.app.goo.gl/QWSrhfiNkAJznHfQA?g_st=ipc","address":"Λεωφ. Εθ. Αντιστάσεως 62, Καισαριανή 161 21","categoryIds":["italian"],"categories":["Italian Restaurants"]},"distanceKm":2.254079915963412},{"entity":{"id":"coffeeBrunchRestaurants_778f1a8f2b27","slug":"noemi-athens-778f","kind":"restaurant","name":"Noemi Athens","lat":37.98261642912539,"lng":23.76682899259837,"url":"https://maps.app.goo.gl/CUvMnKb1Hruhtibb8?g_st=ipc","address":"Παπαδιαμαντοπούλου 138, Αθήνα 157 73","categoryIds":["coffee-brunch"],"categories":["Coffee & Brunch Spots"]},"distanceKm":2.283999444777667},{"entity":{"id":"coffeeBrunchRestaurants_015dc365632d","slug":"bless-hopes-drinks-015d","kind":"restaurant","name":"Bless Hopes & Drinks","lat":37.98177476738277,"lng":23.764992470497013,"url":"https://maps.app.goo.gl/bMheYFALtaZQt2eg9?g_st=ipc","address":"Παπαδιαμαντοπούλου 118, Ζωγράφου 157 73","categoryIds":["coffee-brunch"],"categories":["Coffee & Brunch Spots"]},"distanceKm":2.3205387251138454},{"entity":{"id":"cheapEatsRestaurants_d31bf93dd3fb","slug":"prunas-d31b","kind":"restaurant","name":"Prunas","lat":37.98295319401702,"lng":23.765808326891843,"url":"https://maps.app.goo.gl/TvHy3uq6zYjv7y1f9?g_st=ipc","address":"Δημ. Γουλιάμου 58, Αθήνα 115 27","categoryIds":["cheap-eats"],"categories":["Gyros & Cheap Eats"]},"distanceKm":2.3700047370161976},{"entity":{"id":"coffeeBrunchRestaurants_767a9009c272","slug":"mademoiselle-coffee-brunch-767a","kind":"restaurant","name":"Mademoiselle Coffee & Brunch","lat":37.954517599815006,"lng":23.760305394672425,"url":"https://maps.app.goo.gl/swhTHqBQtRNT8ZAx6?g_st=ipc","address":"Μαγνησίας 91, Βύρωνας 162 33","categoryIds":["coffee-brunch"],"categories":["Coffee & Brunch Spots"]},"distanceKm":2.4287827940465627},{"entity":{"id":"monasteriesChurches_f9758a225b79","slug":"iera-moni-taxiarchon-asterioy-f975","kind":"restaurant","name":"Ιερά Μονή Ταξιαρχών Αστερίου","lat":37.96963791637043,"lng":23.811299998354023,"url":"https://maps.app.goo.gl/3bMH4x4NEyFmUZJ97?g_st=ipc","address":"Ζωγράφου 157 72","categoryIds":["monasteries-churches"],"categories":["Monasteries & Spiritual Sites"]},"distanceKm":2.476147075048979},{"entity":{"id":"burgersRestaurants_1d9dede89409","slug":"hippy-joe-1d9d","kind":"restaurant","name":"Hippy Joe","lat":37.95458600508715,"lng":23.75943276506492,"url":"https://maps.app.goo.gl/crkq6yzRLRbaTy288?g_st=ipc","address":"Καραολή και Δημητρίου 5, Βύρωνας 162 31","categoryIds":["burgers"],"categories":["Burger Spots"]},"distanceKm":2.488520875807737},{"entity":{"id":"cheapEatsRestaurants_08d52517e6fc","slug":"mparmpa-mitsos-vyronas-08d5","kind":"restaurant","name":"Μπάρμπα Μήτσος Βύρωνας","lat":37.95390974598432,"lng":23.759679171308928,"url":"https://maps.app.goo.gl/1eSEWa3g6EhnDAvb6?g_st=ipc","address":"Επταλόφου 88, Βύρωνας 162 33","categoryIds":["cheap-eats"],"categories":["Gyros & Cheap Eats"]},"distanceKm":2.512185387986888},{"entity":{"id":"cheapEatsRestaurants_bf6249591df7","slug":"taverna-psistaria-mandrakis-bf62","kind":"restaurant","name":"Ταβέρνα - Ψησταριά Μανδράκης","lat":37.96926409248282,"lng":23.754508850206804,"url":"https://maps.app.goo.gl/oqmBo1caT2qX5wtB9?g_st=ipc","address":"Λεωφ. Εθ. Αντιστάσεως 11, Καισαριανή 161 21","categoryIds":["cheap-eats"],"categories":["Gyros & Cheap Eats"]},"distanceKm":2.5399153663865053},{"entity":{"id":"greekRestaurants_eb74ce369d8c","slug":"skalakia-eb74","kind":"restaurant","name":"Σκαλάκια","lat":37.97743768834,"lng":23.756590141442583,"url":"https://maps.app.goo.gl/awU151ZstgomSVZZ8","address":"Διονυσίου Αιγινήτου 32, Αθήνα 115 28","categoryIds":["greek-restaurants"],"categories":["Greek Restaurants"]},"distanceKm":2.6281531213313154},{"entity":{"id":"asianRestaurants_11e9b056b89d","slug":"bulacan-halo-halo-11e9","kind":"restaurant","name":"Bulacan Halo-Halo","lat":37.98164028909841,"lng":23.759642721567413,"url":"https://maps.app.goo.gl/XM8Buphrtabi3YYC9?g_st=ipc","address":"Μιχαλακοπούλου 105, Αθήνα 115 27","categoryIds":["asian"],"categories":["Asian Restaurants"]},"distanceKm":2.65704286461674},{"entity":{"id":"cheapEatsRestaurants_c3e978d4eac2","slug":"5f-c3e9","kind":"restaurant","name":"5Φ","lat":37.97277642269308,"lng":23.753966804299914,"url":"https://maps.app.goo.gl/Jtpipww8tzt83Z1fA?g_st=ipc","address":"Diocharous 31 &, Κλεισούρας, Αθήνα 161 21","categoryIds":["cheap-eats"],"categories":["Gyros & Cheap Eats"]},"distanceKm":2.6586081177444734},{"entity":{"id":"greekRestaurants_7edc46b44623","slug":"5f-7edc","kind":"restaurant","name":"5Φ","lat":37.972863677998646,"lng":23.753932616513207,"url":"https://maps.app.goo.gl/ZMLzvJ9Vxp7NSoVNA","address":"Diocharous 31 &, Κλεισούρας, Αθήνα 161 21","categoryIds":["greek-restaurants"],"categories":["Greek Restaurants"]},"distanceKm":2.663984846636401},{"entity":{"id":"greekRestaurants_f3fc125c2d89","slug":"psistaria-to-agrinio-f3fc","kind":"restaurant","name":"Ψησταριά Το Αγρίνιο","lat":37.98365341957495,"lng":23.761708124944604,"url":"https://maps.app.goo.gl/C245RwiHHTqtJUfs8","address":"Σινώπης 18, Αθήνα 115 27","categoryIds":["greek-restaurants"],"categories":["Greek Restaurants"]},"distanceKm":2.6712530507337675},{"entity":{"id":"luxuryDiningRestaurants_5f111a9bb710","slug":"seeds-restaurant-5f11","kind":"restaurant","name":"Seeds Restaurant","lat":37.97301735223458,"lng":23.75389127288081,"url":"https://maps.app.goo.gl/dJm31W4p6fxcPwDr7?g_st=ipc","address":"Oumplianis 14, Diocharous 27, & 161 21","categoryIds":["luxury-dining"],"categories":["Luxury Dining"]},"distanceKm":2.671926030720565}],"counts":{"totalEntities":4117,"totalInArea":132,"totalInCategory":0,"totalCategoryArea":132},"relatedCategories":[{"categoryId":"cheap-eats","categorySlug":"cheap-eats","categoryName":"Gyros & Cheap Eats","count":26,"passesThreshold":true},{"categoryId":"coffee-brunch","categorySlug":"brunch","categoryName":"Coffee & Brunch Spots","count":18,"passesThreshold":true},{"categoryId":"desserts","categorySlug":"desserts","categoryName":"Dessert Shops","count":16,"passesThreshold":true},{"categoryId":"greek-restaurants","categorySlug":"greek-restaurants","categoryName":"Greek Restaurants","count":14,"passesThreshold":true},{"categoryId":"burgers","categorySlug":"burgers","categoryName":"Burger Spots","count":11,"passesThreshold":true},{"categoryId":"luxury-dining","categorySlug":"luxury-dining","categoryName":"Luxury Dining","count":10,"passesThreshold":true},{"categoryId":"asian","categorySlug":"asian-restaurants","categoryName":"Asian Restaurants","count":9,"passesThreshold":true},{"categoryId":"vegetarian","categorySlug":"vegetarian","categoryName":"Vegetarian Friendly Restaurants","count":8,"passesThreshold":true},{"categoryId":"italian","categorySlug":"italian","categoryName":"Italian Restaurants","count":6,"passesThreshold":true},{"categoryId":"monasteries-churches","categorySlug":"monasteries-churches","categoryName":"Monasteries & Spiritual Sites","count":3,"passesThreshold":true}],"relatedAreas":[{"areaId":"municipalities_5bc013791cf8","areaName":"Πλάκα","areaSlug":"plaka","count":872,"passesThreshold":true,"nearestDistanceKm":0.012491754607387504},{"areaId":"municipalities_877c3bc81df5","areaName":"Σύνταγμα","areaSlug":"syntagma","count":867,"passesThreshold":true,"nearestDistanceKm":0.009392084429921843},{"areaId":"municipalities_0cae2c00b932","areaName":"Κολωνάκι","areaSlug":"kolonaki","count":858,"passesThreshold":true,"nearestDistanceKm":0.019551496670837543},{"areaId":"municipalities_d7e1aaaed4f9","areaName":"Μοναστηράκι","areaSlug":"monastiraki","count":857,"passesThreshold":true,"nearestDistanceKm":0.0015439249117317326},{"areaId":"municipalities_4149fa79e27b","areaName":"Ακρόπολη","areaSlug":"akropoli","count":856,"passesThreshold":true,"nearestDistanceKm":0.005729795337023071},{"areaId":"municipalities_0fd1d03201a0","areaName":"Μετς","areaSlug":"mets","count":856,"passesThreshold":true,"nearestDistanceKm":0.0655206557127576},{"areaId":"municipalities_2bcfcb8b899f","areaName":"Ψυρρή","areaSlug":"psyrri","count":855,"passesThreshold":true,"nearestDistanceKm":0.047074153549061026},{"areaId":"municipalities_616efd2a0d9b","areaName":"Κουκάκι","areaSlug":"koykaki","count":854,"passesThreshold":true,"nearestDistanceKm":0.03240357443173243},{"areaId":"municipalities_b85b54408d92","areaName":"Θησείο","areaSlug":"thiseio","count":848,"passesThreshold":true,"nearestDistanceKm":0.08292401975417248},{"areaId":"municipalities_2f324ee27306","areaName":"Εξάρχεια","areaSlug":"exarcheia","count":847,"passesThreshold":true,"nearestDistanceKm":0.08690050688547628}],"passesThreshold":true},"topGuides":[{"slug":"tap-water-safe-greece-el","title":"Είναι Ασφαλές να Πίνετε Νερό Βρύσης στην Ελλάδα;","date":"2026-03-04"},{"slug":"tap-water-safe-greece","title":"Is Tap Water Safe to Drink in Greece?","date":"2026-03-04"},{"slug":"traveling-to-greece-on-a-budget-el","title":"Ταξιδι στην Ελλαδα με μικρο budget","date":"2026-02-10"}]},"__N_SSG":true}