{"pageProps":{"entity":{"id":"italianRestaurants_4d0287b65d26","slug":"arancini-restaurant-4d02","kind":"restaurant","name":"Arancini - Restaurant","lat":38.00362078615682,"lng":23.878168070453672,"url":"https://maps.app.goo.gl/1Y5w6FVjdG8zz4d67?g_st=ipc","address":"Λεωφ. Μαραθώνος 56, Παλλήνη 153 51","categoryIds":["italian"],"categories":["Italian Restaurants"]},"sameCategory":[{"id":"italianRestaurants_e3c2b10afd7e","slug":"bellagio-pizza-pasta-bar-e3c2","kind":"restaurant","name":"Bellagio Pizza & Pasta Bar","lat":38.005496461487304,"lng":23.82824148801167,"url":"https://maps.app.goo.gl/fzHTDB9dRXhv8Puh9?g_st=ipc","address":"Αγίου Ιωάννου 82, Αγ. Παρασκευή 153 42","categoryIds":["italian"],"categories":["Italian Restaurants"]},{"id":"italianRestaurants_206a9064f7f4","slug":"forget-about-it-206a","kind":"restaurant","name":"Forget About It","lat":38.03770860286521,"lng":23.82639404104221,"url":"https://maps.app.goo.gl/T4kAMQjZQmhxQyFN7?g_st=ipc","address":"Θέτιδος 1, Βριλήσσια 152 38","categoryIds":["italian"],"categories":["Italian Restaurants"]},{"id":"italianRestaurants_f7f3095a84cf","slug":"marika-f7f3","kind":"restaurant","name":"Μαρίκα","lat":38.01804412743968,"lng":23.809906247881305,"url":"https://maps.app.goo.gl/osUqCcuWwvgZPCpT6?g_st=ipc","address":"Αγίας Παρασκευής 109, Χαλάνδρι 152 34","categoryIds":["italian"],"categories":["Italian Restaurants"]},{"id":"italianRestaurants_3f60e58e5074","slug":"nolio-restaurant-3f60","kind":"restaurant","name":"Nolio Restaurant","lat":38.0541360368352,"lng":23.842912804517134,"url":"https://maps.app.goo.gl/yrWwCAmRFC73bnXRA?g_st=ipc","address":"Π. Τσαλδάρη 32-34, Μελίσσια 151 27","categoryIds":["italian"],"categories":["Italian Restaurants"]},{"id":"italianRestaurants_eac42fd61c0e","slug":"coupepe-eac4","kind":"restaurant","name":"COUPEPE","lat":38.059126782333124,"lng":23.858013173173166,"url":"https://maps.app.goo.gl/dhSjH71uBwFmJRQg8?g_st=ipc","address":"Ηρ. Πολυτεχνείου 43, Νέα Πεντέλη 152 39","categoryIds":["italian"],"categories":["Italian Restaurants"]},{"id":"italianRestaurants_cc723f5b71ae","slug":"aperio-cucina-vino-cc72","kind":"restaurant","name":"Aperio cucina & vino","lat":38.00607265187326,"lng":23.797703238142986,"url":"https://maps.app.goo.gl/GkHg15eafgAV4fou5?g_st=ipc","address":"Μεσογείων 258, Χολαργός 155 61","categoryIds":["italian"],"categories":["Italian Restaurants"]},{"id":"italianRestaurants_449a551f4dc8","slug":"come-a-casa-449a","kind":"restaurant","name":"Come A Casa","lat":38.020170312119056,"lng":23.798225694950606,"url":"https://maps.app.goo.gl/Go53VnWKyGjFvBK38?g_st=ipc","address":"Καραολη Δημήτριου 17, Χαλάνδρι 152 32","categoryIds":["italian"],"categories":["Italian Restaurants"]},{"id":"italianRestaurants_9e93d0527186","slug":"casareccio-trattoria-pizzeria-9e93","kind":"restaurant","name":"Casareccio trattoria pizzeria","lat":37.995258640416544,"lng":23.796024502616564,"url":"https://maps.app.goo.gl/f357srheHFN2PfBk6?g_st=ipc","address":"Ξανθίππου 84, Χολαργός 155 61","categoryIds":["italian"],"categories":["Italian Restaurants"]},{"id":"italianRestaurants_08976c540f77","slug":"alpino-cucina-italiana-0897","kind":"restaurant","name":"Alpino Cucina Italiana","lat":38.017273062811554,"lng":23.796958155707255,"url":"https://maps.app.goo.gl/vifqCWxK1J8ZiiCu7?g_st=ipc","address":"Παπανικολή 66, Χαλάνδρι 152 32","categoryIds":["italian"],"categories":["Italian Restaurants"]},{"id":"italianRestaurants_0499cd7a1aa6","slug":"totonno-pizzeria-0499","kind":"restaurant","name":"Totonno Pizzeria","lat":38.0207813740758,"lng":23.7979881651798,"url":"https://maps.app.goo.gl/nUn81XsFVAHwxcV18?g_st=ipc","address":"Καλογρέζης 1, Χαλάνδρι 152 32","categoryIds":["italian"],"categories":["Italian Restaurants"]},{"id":"italianRestaurants_6b466717928c","slug":"lollo-s-atene-6b46","kind":"restaurant","name":"Lollo's Atene","lat":38.01753697922701,"lng":23.795618164928833,"url":"https://maps.app.goo.gl/1D9mpaGYtG23tshYA?g_st=ipc","address":"Εθ. Αντιστάσεως 3α, Χαλάνδρι 152 32","categoryIds":["italian"],"categories":["Italian Restaurants"]},{"id":"italianRestaurants_5125cdfe0b5a","slug":"portofino-pizza-xalandri-5125","kind":"restaurant","name":"Portofino Pizza Xalandri","lat":38.0247038627797,"lng":23.797586721157028,"url":"https://maps.app.goo.gl/D9rRduThcXn2ff1i8?g_st=ipc","address":"Γρ. Γυφτοπούλου 23, Χαλάνδρι 152 33","categoryIds":["italian"],"categories":["Italian Restaurants"]}],"nearby":[{"id":"cheapEatsRestaurants_e8be7933bd6e","slug":"i-love-souvlaki-e8be","kind":"restaurant","name":"I Love Souvlaki","lat":38.00365767820438,"lng":23.880036032400344,"url":"https://maps.app.goo.gl/TceiwQJnedx4muqW7?g_st=ipc","address":"Λεωφ. Μαραθώνος 72, Παλλήνη 153 51","categoryIds":["cheap-eats"],"categories":["Gyros & Cheap Eats"],"distanceKm":0.1637193307779008},{"id":"cheapEatsRestaurants_6aba6b4d71c3","slug":"cook-and-grill-pallinis-6aba","kind":"restaurant","name":"Cook And Grill Παλλήνης","lat":38.00364715720239,"lng":23.880433616458955,"url":"https://maps.app.goo.gl/KtBirzLenbmGoPCW9?g_st=ipc","address":"Λεωφ. Μαραθώνος 76, Παλλήνη 153 51","categoryIds":["cheap-eats"],"categories":["Gyros & Cheap Eats"],"distanceKm":0.19852529974345032},{"id":"dessertsRestaurants_811168d74e33","slug":"galaktopoleio-stamoy-8111","kind":"restaurant","name":"Γαλακτοπωλείο ΣΤΑΜΟΥ","lat":38.00342843509359,"lng":23.88465857262915,"url":"https://maps.app.goo.gl/o476BKf3dKiVdLTg6?g_st=ipc","address":"Λεωφ. Μαραθώνος, Παλλαδος Αθηνας &, Παλλήνη 153 51","categoryIds":["desserts"],"categories":["Dessert Shops"],"distanceKm":0.5690906955322003},{"id":"familyFriendly_5510b3f1c00f","slug":"the-wall-5510","kind":"restaurant","name":"THE WALL","lat":38.00928367382339,"lng":23.8721127138081,"url":"https://maps.app.goo.gl/ikBxVbssGYshQenA7?g_st=ipc","address":"Αγίου Αθανασίου 12, Παλλήνη 153 51","categoryIds":["family-friendly"],"categories":["Kid Friendly Locations"],"distanceKm":0.8233928288509975},{"id":"coffeeBrunchRestaurants_3667c08b817e","slug":"garazaki-3667","kind":"restaurant","name":"Garazaki","lat":38.00820112050225,"lng":23.859624038909082,"url":"https://maps.app.goo.gl/nhS7zheSxj71qxXFA?g_st=ipc","address":"Θεσσαλονίκης 33, Γέρακας 153 44","categoryIds":["coffee-brunch"],"categories":["Coffee & Brunch Spots"],"distanceKm":1.7027054241543826},{"id":"dessertsRestaurants_c8d21c4fe9cf","slug":"katamaya-bakery-c8d2","kind":"restaurant","name":"katamaya Bakery","lat":38.007980001797705,"lng":23.85734830290807,"url":"https://maps.app.goo.gl/ZpojSaEBYd5LNBoG9?g_st=ipc","address":"Λεωφόρος Μαραθώνος 113, Ηρώων Πολυτεχνείου 1, Γέρακας 153 44","categoryIds":["desserts"],"categories":["Dessert Shops"],"distanceKm":1.8874453696818254},{"id":"familyFriendly_0326a78aaa56","slug":"leontario-entertainment-center-0326","kind":"restaurant","name":"Leontario Entertainment Center","lat":37.996183572327645,"lng":23.899494670938427,"url":"https://maps.app.goo.gl/Qjmb6xRCJvU3Lj87A?g_st=ipc","address":"Αμαζονoσ 15, Παλληνη 15344","categoryIds":["family-friendly"],"categories":["Kid Friendly Locations"],"distanceKm":2.043509774737192},{"id":"greekRestaurants_f61d819e1926","slug":"taverna-toyrkantoni-f61d","kind":"restaurant","name":"Ταβέρνα Τουρκαντώνη","lat":38.01211262091287,"lng":23.8515403603164,"url":"https://maps.app.goo.gl/B6AxbVv7MU6bztsX6","address":"Μιαούλη 59, Γέρακας 153 44","categoryIds":["greek-restaurants"],"categories":["Greek Restaurants"],"distanceKm":2.516790506890767},{"id":"coffeeBrunchRestaurants_e7c71ac4865d","slug":"petrino-anthousa-e7c7","kind":"restaurant","name":"Petrino Anthousa","lat":38.02672241020409,"lng":23.873783158410454,"url":"https://maps.app.goo.gl/9BhYBbp4S79LCn6k9?g_st=ic","address":"Edipsou 2-6, Anthousa 153 49","categoryIds":["coffee-brunch"],"categories":["Coffee & Brunch Spots"],"distanceKm":2.5973468566548177},{"id":"greekRestaurants_2ee34caffafc","slug":"to-mprizoladiko-toy-geraka-2ee3","kind":"restaurant","name":"Το Μπριζολάδικο του Γέρακα","lat":38.02301749370778,"lng":23.859957200296044,"url":"https://maps.app.goo.gl/neQoZEu5PGEjM9DP9","address":"Λεωφ. Γέρακας 84, Γέρακας 153 44","categoryIds":["greek-restaurants"],"categories":["Greek Restaurants"],"distanceKm":2.6827497523625103},{"id":"dessertsRestaurants_26e3d9025bbd","slug":"andrias-26e3","kind":"restaurant","name":"Ανδριάς","lat":38.01747699050525,"lng":23.845245187937905,"url":"https://maps.app.goo.gl/UStQ38USzcHtSQQz8?g_st=ipc","address":"Κλεισθένους 80, Γέρακας 153 44","categoryIds":["desserts"],"categories":["Dessert Shops"],"distanceKm":3.2700958376601967},{"id":"familyFriendly_9cc1c30ecd05","slug":"designer-outlet-athens-9cc1","kind":"restaurant","name":"Designer Outlet Athens","lat":37.98621935732948,"lng":23.91050612444449,"url":"https://maps.app.goo.gl/FiJWknWTB14td3ra9?g_st=ipc","address":"D-Oikodomiko Tetragono, Γυαλού E71, Σπάτα 190 04","categoryIds":["family-friendly"],"categories":["Kid Friendly Locations"],"distanceKm":3.4313489854613843},{"id":"greekRestaurants_077f474cb97d","slug":"stis-ellis-077f","kind":"restaurant","name":"Στης Έλλης","lat":38.01628513050535,"lng":23.840166535568635,"url":"https://maps.app.goo.gl/o1oe4gt1mipnzHE77?g_st=ipc","address":"Ἁγ. Τριάδος 57, Αγ. Παρασκευή 153 43","categoryIds":["greek-restaurants"],"categories":["Greek Restaurants"],"distanceKm":3.614916490392563},{"id":"monasteriesChurches_20d9168100a7","slug":"iera-moni-agioy-ioannoy-toy-kynigoy-20d9","kind":"restaurant","name":"Ιερά Μονή Αγίου Ιωάννου του Κυνηγού","lat":38.00278956163498,"lng":23.836715813242602,"url":"https://maps.app.goo.gl/TkGr97r8sSTcdTYu9?g_st=ipc","address":"Ανατολικής Μεσογείου, Αγ. Παρασκευή 153 42","categoryIds":["monasteries-churches"],"categories":["Monasteries & Spiritual Sites"],"distanceKm":3.633179847535689},{"id":"familyFriendly_0ccded432145","slug":"smart-park-0ccd","kind":"restaurant","name":"Smart Park","lat":37.98478188179295,"lng":23.913104747091037,"url":"https://maps.app.goo.gl/JecbscmoWg1c4Snw5?g_st=ipc","address":"Εμπορικό Πάρκο Smart Park, Ε. Πουλακη, OT 71, & 72, Σπάτα 190 04","categoryIds":["family-friendly"],"categories":["Kid Friendly Locations"],"distanceKm":3.7095655859166623},{"id":"familyFriendly_8ed15a9c84d5","slug":"attica-zoological-park-8ed1","kind":"restaurant","name":"Attica Zoological Park","lat":37.98044022083859,"lng":23.910805906852257,"url":"https://maps.app.goo.gl/f6rw3vWAJG1aAtPU6?g_st=ipc","address":"Spata 190 04","categoryIds":["family-friendly"],"categories":["Kid Friendly Locations"],"distanceKm":3.8502157415437663},{"id":"greekRestaurants_9269793e1504","slug":"taverna-monaxia-9269","kind":"restaurant","name":"Ταβέρνα Μοναξιά","lat":37.99741941255288,"lng":23.922943419662634,"url":"https://maps.app.goo.gl/VBA846ekAAGscrWa6","address":"Leoforos Marathonos 19th klm, Παλλήνη Αττικής 153 51","categoryIds":["greek-restaurants"],"categories":["Greek Restaurants"],"distanceKm":3.983451223340162},{"id":"familyFriendly_db6ace0662f1","slug":"aquapolis-athens-db6a","kind":"restaurant","name":"Aquapolis Athens","lat":37.97858312845216,"lng":23.91151007116057,"url":"https://maps.app.goo.gl/5Ru3eXW4yXz7efi98?g_st=ic","address":"Θέση Γιαλού, Spata 190 04","categoryIds":["family-friendly"],"categories":["Kid Friendly Locations"],"distanceKm":4.03588146052446},{"id":"familyFriendly_b5b6b464edb9","slug":"planet-cosmos-b5b6","kind":"restaurant","name":"Planet Cosmos","lat":38.036967894838305,"lng":23.858200213835428,"url":"https://maps.app.goo.gl/p7oh1sqhz5MkfN978?g_st=ipc","address":"Κλεισθένους 399, Γέρακας 153 44","categoryIds":["family-friendly"],"categories":["Kid Friendly Locations"],"distanceKm":4.099881080598751},{"id":"greekRestaurants_e6bbe405c9d9","slug":"tala-s-local-meze-aperitivo-e6bb","kind":"restaurant","name":"Tala's local meze & aperitivo","lat":38.01588032621049,"lng":23.833680348991113,"url":"https://maps.app.goo.gl/1ZTu39mrajPM1MYFA?g_st=ipc","address":"Θρασύβουλου 3, Αγ. Παρασκευή 153 43","categoryIds":["greek-restaurants"],"categories":["Greek Restaurants"],"distanceKm":4.129134773677879},{"id":"dessertsRestaurants_78c1b48a02f1","slug":"le-greche-agia-paraskevi-78c1","kind":"restaurant","name":"Le Greche Agia Paraskevi","lat":38.013608144326774,"lng":23.83072625387381,"url":"https://maps.app.goo.gl/bgontMhqzf4bbQEm7?g_st=ipc","address":"Λεωφ. Μεσογείων 456, Αγ. Παρασκευή 153 41","categoryIds":["desserts"],"categories":["Dessert Shops"],"distanceKm":4.302298040776607},{"id":"italianRestaurants_e3c2b10afd7e","slug":"bellagio-pizza-pasta-bar-e3c2","kind":"restaurant","name":"Bellagio Pizza & Pasta Bar","lat":38.005496461487304,"lng":23.82824148801167,"url":"https://maps.app.goo.gl/fzHTDB9dRXhv8Puh9?g_st=ipc","address":"Αγίου Ιωάννου 82, Αγ. Παρασκευή 153 42","categoryIds":["italian"],"categories":["Italian Restaurants"],"distanceKm":4.3794040432848105},{"id":"dessertsRestaurants_a5a68f44450d","slug":"pagota-glyka-alma-a5a6","kind":"restaurant","name":"Παγωτά - Γλυκά ALMA","lat":37.99764401288888,"lng":23.928554302603118,"url":"https://maps.app.goo.gl/5u8wGdMD9tri8wLBA?g_st=ipc","address":"19o ΧΛΜ, Λεωφ. Μαραθώνος, Ήμερος Πεύκος 190 09","categoryIds":["desserts"],"categories":["Dessert Shops"],"distanceKm":4.464684837504664},{"id":"coffeeBrunchRestaurants_047701412132","slug":"big-spoon-0477","kind":"restaurant","name":"Big Spoon","lat":38.00695313454604,"lng":23.827222163103215,"url":"https://maps.app.goo.gl/xKV3uQ5sHdPxcNpR6?g_st=ipc","address":"Αγίου Ιωάννου 65, Αγ. Παρασκευή 153 42","categoryIds":["coffee-brunch"],"categories":["Coffee & Brunch Spots"],"distanceKm":4.479054261609686}],"mentionedGuides":[],"canonicalSlug":"arancini-restaurant-4d02","enrichment":{"summary_en":"Arancini - Restaurant is a curated restaurant in Παλλήνη 153 51 in the Italian Restaurants collection. It is connected to 4 nearby Googlementor picks to help travelers build a stronger local route.","summary_el":"Arancini - Restaurant είναι ένα επιλεγμένο σημείο φαγητού στην περιοχή Παλλήνη 153 51 και ανήκει στη συλλογή Italian Restaurants. Συνδέεται με 4 κοντινές προτάσεις του Googlementor για πιο ολοκληρωμένη εμπειρία.","vibe_tags":["curated"],"best_for":["first-time visitors","food lovers"],"visit_moments":["lunch stop","dinner stop"],"practical_note":"Address and direct map link are available for easy turn-by-turn access.","nearby_walkable_count":4,"nearby_count_2km":8,"confidence":0.98},"areaContext":{"slug":"pallini","name":"Pallini","nameEl":"Παλλήνη"},"intentContexts":[]},"__N_SSG":true}