{"pageProps":{"entity":{"id":"mustSeeAttractions_d2b428b50440","slug":"archaiologikos-choros-soynioy-d2b4","kind":"restaurant","name":"Αρχαιολογικός Χώρος Σουνίου","lat":37.65015898457581,"lng":24.02460331248824,"url":"https://maps.app.goo.gl/H1hDYWZinAPpvjKR9?g_st=ipc","address":"Λαυρεωτική 195 00","categoryIds":["attractions"],"categories":["Must-See Attractions"]},"sameCategory":[{"id":"mustSeeAttractions_4af28e33d14a","slug":"naos-poseidona-4af2","kind":"restaurant","name":"Ναός Ποσειδώνα","lat":37.65020662017392,"lng":24.024585105239044,"url":"https://maps.app.goo.gl/TiGdJ3goZZvH3vQTA?g_st=ipc","address":"Σούνιο 195 00","categoryIds":["attractions"],"categories":["Must-See Attractions"]},{"id":"mustSeeAttractions_96c6dc77490d","slug":"limni-voyliagmenis-96c6","kind":"restaurant","name":"Λίμνη Βουλιαγμένης","lat":37.80708594211009,"lng":23.78595413697381,"url":"https://maps.app.goo.gl/HJESfC3rnS8i8UYa9?g_st=ipc","address":"Βουλιαγμένη 166 71","categoryIds":["attractions"],"categories":["Must-See Attractions"]},{"id":"mustSeeAttractions_28785f0c1603","slug":"naos-vrayronias-artemidos-2878","kind":"restaurant","name":"Ναός Βραυρωνίας Αρτέμιδος","lat":37.925951413998256,"lng":23.993485515950447,"url":"https://maps.app.goo.gl/GHxTmYXX8KQuXnnF8?g_st=ipc","address":"Βραυρώνα 190 03","categoryIds":["attractions"],"categories":["Must-See Attractions"]},{"id":"mustSeeAttractions_7720a421889c","slug":"marina-floisvoy-7720","kind":"restaurant","name":"Μαρίνα Φλοίσβου","lat":37.9311951612676,"lng":23.68504538337465,"url":"https://maps.app.goo.gl/vxdQs7SscGUC98hY9?g_st=ipc","address":"Flisvos Marina, Αθήνα 175 61","categoryIds":["attractions"],"categories":["Must-See Attractions"]},{"id":"mustSeeAttractions_3fcc6eb77276","slug":"panathinaiko-stadio-3fcc","kind":"restaurant","name":"Παναθηναϊκό Στάδιο","lat":37.96833218533537,"lng":23.741113035876687,"url":"https://maps.app.goo.gl/EoVCRRTzjoVCkEm18?g_st=ipc","address":"Λεωφ. Βασιλέως Κωνσταντίνου, Αθήνα 116 35","categoryIds":["attractions"],"categories":["Must-See Attractions"]},{"id":"familyFriendly_a3e2f6188bf1","slug":"kentro-politismoy-idryma-stayros-niarchos-a3e2","kind":"restaurant","name":"Κέντρο Πολιτισμού Ίδρυμα Σταύρος Νιάρχος","lat":37.93985683037055,"lng":23.692122482978903,"url":"https://maps.app.goo.gl/ib2tnNRmM1foX6zd8?g_st=ipc","address":"Λεωφ. Ανδρέα Συγγρού 364, Καλλιθέα 176 74","categoryIds":["family-friendly","attractions"],"categories":["Kid Friendly Locations","Must-See Attractions"],"legacySlugs":["kentro-politismoy-idryma-stayros-niarchos-dc50"]},{"id":"mustSeeAttractions_ad424ca48b94","slug":"kipoi-zappeioy-ad42","kind":"restaurant","name":"Κήποι Ζαππείου","lat":37.97023042997274,"lng":23.73586719386634,"url":"https://maps.app.goo.gl/5RjMWARRwZPM2Kdw6?g_st=ipc","address":"Λεωφ. Βασιλίσσης Όλγας 1, Αθήνα 105 57","categoryIds":["attractions"],"categories":["Must-See Attractions"]},{"id":"mustSeeAttractions_4e1c093b1a30","slug":"vyzantino-kai-christianiko-moyseio-4e1c","kind":"restaurant","name":"Βυζαντινό και Χριστιανικό Μουσείο","lat":37.9753760157153,"lng":23.744611863575788,"url":"https://maps.app.goo.gl/jffFuAXc3Vq1DSsD8?g_st=ipc","address":"Λεωφ. Βασιλίσσης Σοφίας 22, Αθήνα 106 75","categoryIds":["attractions"],"categories":["Must-See Attractions"]},{"id":"mustSeeAttractions_a7a2908a9221","slug":"naos-toy-olympioy-dios-a7a2","kind":"restaurant","name":"Ναός του Ολυμπίου Διός","lat":37.96929966455042,"lng":23.733099967898216,"url":"https://maps.app.goo.gl/MRiS2rx9HUUxeppD6?g_st=ipc","address":"Αθήνα 105 57","categoryIds":["attractions"],"categories":["Must-See Attractions"]},{"id":"mustSeeAttractions_a63ab05582ba","slug":"zappeio-megaro-a63a","kind":"restaurant","name":"Ζάππειο Μέγαρο","lat":37.971521700592604,"lng":23.73672254708253,"url":"https://maps.app.goo.gl/Hb78YQFedU1ZBjDY7?g_st=ipc","address":"Λεωφ. Βασιλίσσης Όλγας, Αθήνα 105 57","categoryIds":["attractions"],"categories":["Must-See Attractions"]},{"id":"mustSeeAttractions_48ddcd3e9742","slug":"megaro-moysikis-athinon-48dd","kind":"restaurant","name":"Μέγαρο Μουσικής Αθηνών","lat":37.98113320826234,"lng":23.754226747419665,"url":"https://maps.app.goo.gl/fcKT8gTb8XfWLvDa7?g_st=ipc","address":"Βασιλίσσης Σοφίας, Πέτρου Κόκκαλη &, Αθήνα","categoryIds":["attractions"],"categories":["Must-See Attractions"]},{"id":"familyFriendly_97da3f56afb5","slug":"ethnikos-kipos-97da","kind":"restaurant","name":"Εθνικός Κήπος","lat":37.97258568206085,"lng":23.73743382176546,"url":"https://maps.app.goo.gl/MCnnH77ndto6n5WT8?g_st=ipc","address":"Αθήνα 105 57","categoryIds":["family-friendly","attractions"],"categories":["Kid Friendly Locations","Must-See Attractions"],"legacySlugs":["ethnikos-kipos-9c8c"]}],"nearby":[{"id":"mustSeeAttractions_4af28e33d14a","slug":"naos-poseidona-4af2","kind":"restaurant","name":"Ναός Ποσειδώνα","lat":37.65020662017392,"lng":24.024585105239044,"url":"https://maps.app.goo.gl/TiGdJ3goZZvH3vQTA?g_st=ipc","address":"Σούνιο 195 00","categoryIds":["attractions"],"categories":["Must-See Attractions"],"distanceKm":0.0055340699802971715},{"id":"fishTavernasRestaurants_4f8b38351522","slug":"akrogiali-4f8b","kind":"restaurant","name":"Ακρογιάλι","lat":37.65493906656911,"lng":24.024336259308715,"url":"https://maps.app.goo.gl/79yGx1u8SDf1eccW7?g_st=ipc","address":"Lavrion 195 00","categoryIds":["fish-tavernas"],"categories":["Fish Tavernas"],"distanceKm":0.5320405714345042},{"id":"fishTavernasRestaurants_0d4e91934017","slug":"psarotaverna-o-ilias-0d4e","kind":"restaurant","name":"Ψαροταβέρνα Ο Ηλίας","lat":37.65514957480802,"lng":24.024008483511512,"url":"https://maps.app.goo.gl/HjnPeLQuxSvNKiyCA?g_st=ipc","address":"Σούνιο 195 00","categoryIds":["fish-tavernas"],"categories":["Fish Tavernas"],"distanceKm":0.5573936519410312},{"id":"fishTavernasRestaurants_ce6329f6bd44","slug":"vallis-restaurant-syrtaki-ce63","kind":"restaurant","name":"Vallis Restaurant Syrtaki","lat":37.66509395086791,"lng":24.035863264626645,"url":"https://maps.app.goo.gl/YDzUffe7ge8q4jKf9?g_st=ipc","address":"195 00, Λεωφ. Σουνίου 114, Κάτω Σούνιο 195 00","categoryIds":["fish-tavernas"],"categories":["Fish Tavernas"],"distanceKm":1.9340141523946446},{"id":"fishTavernasRestaurants_3d3979b06e71","slug":"taverna-stamatis-3d39","kind":"restaurant","name":"Ταβέρνα Σταμάτης","lat":37.662782663333054,"lng":24.004791713992123,"url":"https://maps.app.goo.gl/gJf1KcE3sZPjDyz8A?g_st=ipc","address":"Λεωφόρος Αθηνών Σουνίου,Εσπερίδες, Σούνιο 195 00","categoryIds":["fish-tavernas"],"categories":["Fish Tavernas"],"distanceKm":2.2387601868075673},{"id":"fishTavernasRestaurants_250ac79e5fa5","slug":"marida-soynio-250a","kind":"restaurant","name":"Μαρίδα Σούνιο","lat":37.663243704417745,"lng":24.000465853725956,"url":"https://maps.app.goo.gl/8emqMV9UqAiZvW9q9?g_st=ipc","address":"64,5 χλμ. παραλιακη Αθηνων-Σουνίου, Λεγραινα, Σούνιο 195 00","categoryIds":["fish-tavernas"],"categories":["Fish Tavernas"],"distanceKm":2.575247291339531},{"id":"fishTavernasRestaurants_57dd1c9928eb","slug":"theodoros-eleni-57dd","kind":"restaurant","name":"Θεόδωρος & Ελένη","lat":37.66821016175742,"lng":23.995505349183023,"url":"https://maps.app.goo.gl/5HLB654RHJNN8sJg6?g_st=ipc","address":"Λεωφ. Λεγραινών, Λαυρεωτική 195 00","categoryIds":["fish-tavernas"],"categories":["Fish Tavernas"],"distanceKm":3.254207953596549},{"id":"greekRestaurants_b0e401ff0ee4","slug":"koytsi-katsika-layrio-b0e4","kind":"restaurant","name":"Κουτσή Κατσίκα Λαύριο","lat":37.712808004930835,"lng":24.055992621254646,"url":"https://maps.app.goo.gl/GZaKZri1vc4Knfup7?g_st=ipc","address":"Κουντουριώτη, Λιμάνι Λαυρίου 6, Λαύριο 195 00","categoryIds":["greek-restaurants"],"categories":["Greek Restaurants"],"distanceKm":7.4939379949605165},{"id":"fishTavernasRestaurants_747917a1e974","slug":"agkyra-7479","kind":"restaurant","name":"Άγκυρα","lat":37.714457783213085,"lng":24.05577913623349,"url":"https://maps.app.goo.gl/FXSCcGp2kJVSweSb7?g_st=ipc","address":"Ψαραγορά Λαύριο 3, Ανδρέα Αλεξάνδρου, Λαύριο 195 00","categoryIds":["fish-tavernas"],"categories":["Fish Tavernas"],"distanceKm":7.65800424297152},{"id":"fishTavernasRestaurants_c99168937472","slug":"rerras-c991","kind":"restaurant","name":"Ρέρρας","lat":37.714742366222666,"lng":24.055779972024514,"url":"https://maps.app.goo.gl/vTuWH4xsgnxg1ctN7?g_st=ipc","address":"Κων/νου Πλειώνη, Ανδρέα Αλεξάνδρου και, Λαύριο 195 00","categoryIds":["fish-tavernas"],"categories":["Fish Tavernas"],"distanceKm":7.687580758506531},{"id":"dessertsRestaurants_af542a277d7b","slug":"solo-gelato-layrio-af54","kind":"restaurant","name":"Solo Gelato Λαύριο","lat":37.715574795821375,"lng":24.054591619024354,"url":"https://maps.app.goo.gl/N2FmFnyANGsotRZs7?g_st=ipc","address":"Πλ. Ηρ. Πολυτεχνείου 28, Λαύριο 195 00","categoryIds":["desserts"],"categories":["Dessert Shops"],"distanceKm":7.7378251411192},{"id":"cheapEatsRestaurants_598437c8481b","slug":"gyradiko-o-christos-5984","kind":"restaurant","name":"Γυραδικο \"Ο Χρήστος\"","lat":37.7173396733135,"lng":24.054314949086613,"url":"https://maps.app.goo.gl/Kg9SVim1DWH8Lytb6?g_st=ipc","address":"Λεωφ. Σουνίου 6, Λαύριο 195 00","categoryIds":["cheap-eats","greek-restaurants"],"categories":["Gyros & Cheap Eats","Greek Restaurants"],"legacySlugs":["gyradiko-o-christos-d71e"],"distanceKm":7.9145005520214315},{"id":"fishTavernasRestaurants_c23b79f3de18","slug":"taverna-antigoni-c23b","kind":"restaurant","name":"Ταβερνα Αντιγόνη","lat":37.69076965870636,"lng":23.94467815593701,"url":"https://maps.app.goo.gl/HmragYkeYQJ2VW7G6?g_st=ipc","address":"Μακροδημητραίων, Θυμάρι 190 13","categoryIds":["fish-tavernas"],"categories":["Fish Tavernas"],"distanceKm":8.359271246215762},{"id":"fishTavernasRestaurants_06b05ccb28e3","slug":"o-foros-psarotaverna-06b0","kind":"restaurant","name":"Ο Φόρος Ψαροταβέρνα","lat":37.730230476020374,"lng":24.052869189449837,"url":"https://maps.app.goo.gl/3QEEjs3jdS92q1p9A?g_st=ipc","address":"Θορικό 195 00","categoryIds":["fish-tavernas"],"categories":["Fish Tavernas"],"distanceKm":9.244406994152994},{"id":"fishTavernasRestaurants_bee964d3fc5b","slug":"akrogiali-bee9","kind":"restaurant","name":"ΑΚΡΟΓΙΑΛΙ","lat":37.71656419364308,"lng":23.94570181232825,"url":"https://maps.app.goo.gl/zRnJu32Cpbu5tH579?g_st=ipc","address":"Λεωφ. Αθηνών Σουνίου 5, Παλαιά Φώκαια 190 13","categoryIds":["fish-tavernas"],"categories":["Fish Tavernas"],"distanceKm":10.135675399415868},{"id":"wineriesVineyards_fb04a0d726bd","slug":"oinopoieio-prifti-fb04","kind":"restaurant","name":"Οινοποιείο Πρίφτη","lat":37.742934639668164,"lng":24.024928046003534,"url":"https://maps.app.goo.gl/s9SpDZV9kTGdK3aE6?g_st=ipc","address":"Μαρκάτι 190 01","categoryIds":["wineries-vineyards"],"categories":["Wineries & Vineyards"],"distanceKm":10.316221727555144},{"id":"coffeeBrunchRestaurants_e72432c365d7","slug":"nisos-cafe-bar-e724","kind":"restaurant","name":"Nisos Café Bar","lat":37.71981320719648,"lng":23.912954314854076,"url":"https://maps.app.goo.gl/c8xgWYxc6QFikVut9?g_st=ipc","address":"Λεωφ. Αθηνών Σουνίου 48 5, Ανάβυσσος 190 13","categoryIds":["coffee-brunch"],"categories":["Coffee & Brunch Spots"],"distanceKm":12.51064115230287},{"id":"familyFriendly_18bddf615bf3","slug":"anima-club-18bd","kind":"restaurant","name":"Anima Club","lat":37.74050273423326,"lng":23.921750567749367,"url":"https://maps.app.goo.gl/iMm9xyAzQoQ2dUJU9?g_st=ipc","address":"Υακίνθου Str, Ανάβυσσος 190 13","categoryIds":["family-friendly"],"categories":["Kid Friendly Locations"],"distanceKm":13.520794560711236},{"id":"greekRestaurants_fbdca7941b9f","slug":"stafylomeli-fbdc","kind":"restaurant","name":"Σταφυλομέλι","lat":37.80427446071782,"lng":23.98986829628017,"url":"https://maps.app.goo.gl/aDeFKvVmZyVF7ZpSA","address":"Επαρ.Οδ. Κερατέας-Ανάβυσσου 77, Κερατέα 190 01","categoryIds":["greek-restaurants"],"categories":["Greek Restaurants"],"distanceKm":17.40701377001361},{"id":"cheapEatsRestaurants_d994fad95b5a","slug":"aroma-elladas-d994","kind":"restaurant","name":"Άρωμα Ελλάδας","lat":37.80578649121729,"lng":23.9833913286695,"url":"https://maps.app.goo.gl/cDRv243YonNg2qnB6?g_st=ipc","address":"Ευεργέτη Κωνσταντίνου Πρίφτη 57, Κερατέα 190 01","categoryIds":["cheap-eats"],"categories":["Gyros & Cheap Eats"],"distanceKm":17.680479733312456},{"id":"greekRestaurants_69fc9f288c42","slug":"lazo-69fc","kind":"restaurant","name":"Λάζο","lat":37.808550661496035,"lng":23.978467603150243,"url":"https://maps.app.goo.gl/fKnjDEunWNjANCQ27","address":"Αθηνών Σουνίου 53, Κερατέα 190 01","categoryIds":["greek-restaurants"],"categories":["Greek Restaurants"],"distanceKm":18.0736681840452},{"id":"dessertsRestaurants_630fa546c8bd","slug":"zacharoplasteio-th-e-k-a-630f","kind":"restaurant","name":"Ζαχαροπλαστείο Θ.Ε.Κ.Α.","lat":37.809996734741844,"lng":23.981187744739113,"url":"https://maps.app.goo.gl/k7AZJfKYi8WUV3oM9?g_st=ipc","address":"Επαρ.Οδ. Κερατέας-Κακής Θάλασσας, Κερατέα 190 01","categoryIds":["desserts"],"categories":["Dessert Shops"],"distanceKm":18.17864180953013},{"id":"fishTavernasRestaurants_01155b02f60d","slug":"kyra-popi-taverna-0115","kind":"restaurant","name":"Κυρά Πόπη Ταβέρνα","lat":37.78165801312647,"lng":23.89057104630703,"url":"https://maps.app.goo.gl/inr16Vqi6f4XARj86?g_st=ipc","address":"40.5, Λεωφ. Αθηνών Σουνίου, Καλύβια Θορικού 190 10","categoryIds":["fish-tavernas"],"categories":["Fish Tavernas"],"distanceKm":18.782941032576105},{"id":"cheapEatsRestaurants_2fe91c5ec4e8","slug":"pita-lagonisi-2fe9","kind":"restaurant","name":"Πίτα Λαγονήσι","lat":37.787769077925994,"lng":23.886240321695578,"url":"https://maps.app.goo.gl/gnVwTeJ7a9GqoCGQ9?g_st=ipc","address":"Λεωφ. Καλυβίων 4, Σαρωνικός 190 10","categoryIds":["cheap-eats"],"categories":["Gyros & Cheap Eats"],"distanceKm":19.55115248082707}],"mentionedGuides":[],"canonicalSlug":"archaiologikos-choros-soynioy-d2b4","enrichment":{"summary_en":"Αρχαιολογικός Χώρος Σουνίου is a curated restaurant in Greece in the Must-See Attractions collection. It is connected to 4 nearby Googlementor picks to help travelers build a stronger local route.","summary_el":"Αρχαιολογικός Χώρος Σουνίου είναι ένα επιλεγμένο σημείο φαγητού στην περιοχή Greece και ανήκει στη συλλογή Must-See Attractions. Συνδέεται με 4 κοντινές προτάσεις του Googlementor για πιο ολοκληρωμένη εμπειρία.","vibe_tags":["curated"],"best_for":["first-time visitors","food lovers"],"visit_moments":["lunch stop","dinner stop"],"practical_note":"Address and direct map link are available for easy turn-by-turn access.","nearby_walkable_count":4,"nearby_count_2km":5,"confidence":0.98},"areaContext":null,"intentContexts":[]},"__N_SSG":true}