{"pageProps":{"entity":{"id":"cheapEatsRestaurants_b8837f726b0e","slug":"avraam-cholargos-b883","kind":"restaurant","name":"Αβραάμ Χολαργός","lat":37.99365661341766,"lng":23.796975079778093,"url":"https://maps.app.goo.gl/njaacvURe6u87qaX6?g_st=ipc","address":"Αναστάσεως 111, Χολαργός 155 61","categoryIds":["cheap-eats"],"categories":["Gyros & Cheap Eats"]},"sameCategory":[{"id":"cheapEatsRestaurants_69bbfb44507d","slug":"papigko-69bb","kind":"restaurant","name":"Πάπιγκο","lat":37.9930301423727,"lng":23.798961270934143,"url":"https://maps.app.goo.gl/7eU14tbuLV6n9imX7?g_st=ipc","address":"25ης Μαρτίου 9, Χολαργός 155 61","categoryIds":["cheap-eats"],"categories":["Gyros & Cheap Eats"]},{"id":"cheapEatsRestaurants_33f4e7b2d02a","slug":"dix-sept-33f4","kind":"restaurant","name":"Dix Sept","lat":37.99369686292994,"lng":23.79952330912713,"url":"https://maps.app.goo.gl/LQP8izqcwdktGcwX6?g_st=ipc","address":"25ης Μαρτίου 17, Χολαργός 155 61","categoryIds":["cheap-eats"],"categories":["Gyros & Cheap Eats"]},{"id":"cheapEatsRestaurants_9a8ccf003ba5","slug":"spitiki-koyzina-cholargos-9a8c","kind":"restaurant","name":"Σπιτική Κουζίνα - Χολαργός","lat":37.99895841021995,"lng":23.798536677313294,"url":"https://maps.app.goo.gl/KtAC7AzUgjd3Jmuk8?g_st=ipc","address":"Λεωφ. Περικλέους 50, Χολαργός 155 61","categoryIds":["cheap-eats"],"categories":["Gyros & Cheap Eats"]},{"id":"cheapEatsRestaurants_03694aa725a0","slug":"geysidromio-0369","kind":"restaurant","name":"Γευσηδρόμιο","lat":38.00041852140095,"lng":23.792910266059533,"url":"https://maps.app.goo.gl/NVZiDeS8yd6auwo78?g_st=ipc","address":"Ασπασίας 63, Χολαργός 155 61","categoryIds":["cheap-eats"],"categories":["Gyros & Cheap Eats"]},{"id":"cheapEatsRestaurants_4884ead367e7","slug":"platanos-kempap-soyvlaki-4884","kind":"restaurant","name":"Πλάτανος Κεμπάπ-Σουβλάκι","lat":38.00070110906074,"lng":23.792623402226006,"url":"https://maps.app.goo.gl/mqGbLZnM6T5sQ3YF9?g_st=ipc","address":"Βουτσινά 66, Χολαργός 155 61","categoryIds":["cheap-eats"],"categories":["Gyros & Cheap Eats"]},{"id":"cheapEatsRestaurants_4972a0c1f005","slug":"o-fotis-4972","kind":"restaurant","name":"Ο ΦΩΤΗΣ","lat":37.997971184116544,"lng":23.807075270455382,"url":"https://maps.app.goo.gl/AtknvuaCHijVG2ha8?g_st=ipc","address":"17ης Νοεμβρίου 122, Χολαργός 155 62","categoryIds":["cheap-eats"],"categories":["Gyros & Cheap Eats"]},{"id":"cheapEatsRestaurants_27cac1fed09e","slug":"cocofino-i-nea-geysi-sto-kotopoylo-27ca","kind":"restaurant","name":"Cocofino Η Νέα Γεύση Στο Κοτόπουλο","lat":38.005115910403084,"lng":23.79578002602544,"url":"https://maps.app.goo.gl/uKWqbt6RdiChRPZi8?g_st=ipc","address":"Φανερωμένης 1α, Χολαργός 155 61","categoryIds":["cheap-eats"],"categories":["Gyros & Cheap Eats"]},{"id":"cheapEatsRestaurants_6fffd649c703","slug":"ta-soyvlakia-tis-lilas-6fff","kind":"restaurant","name":"Τα Σουβλάκια της Λίλας","lat":38.005272385766645,"lng":23.785280918308118,"url":"https://maps.app.goo.gl/47M2HP8TwbyX2Zp37?g_st=ipc","address":"25ης Μαρτίου 41, Νέο Ψυχικό 154 51","categoryIds":["cheap-eats"],"categories":["Gyros & Cheap Eats"]},{"id":"cheapEatsRestaurants_1dedf7a650a7","slug":"pita-pan-psychiko-1ded","kind":"restaurant","name":"Πίτα Παν Ψυχικό","lat":38.000864793942334,"lng":23.776520342405362,"url":"https://maps.app.goo.gl/ZXh8jCZFq67QiKQq7?g_st=ipc","address":"Αγγέλου Σικελιανού 28, Νέο Ψυχικό 154 51","categoryIds":["cheap-eats"],"categories":["Gyros & Cheap Eats"]},{"id":"cheapEatsRestaurants_ec9b2c37ec79","slug":"o-ellinaras-ec9b","kind":"restaurant","name":"Ο ΕΛΛΗΝΑΡΑΣ","lat":38.017568546798636,"lng":23.799181700850475,"url":"https://maps.app.goo.gl/3g2yxFrBJ6V2KPZm7?g_st=ipc","address":"Παλαιολόγου 63, Χαλάνδρι 152 32","categoryIds":["cheap-eats"],"categories":["Gyros & Cheap Eats"]},{"id":"asianRestaurants_4bddf7fbcbe7","slug":"street-wok-4bdd","kind":"restaurant","name":"Street Wok","lat":37.99333429542986,"lng":23.76565696133404,"url":"https://maps.app.goo.gl/xgYqVodevf1ae8hY7?g_st=ipc","address":"Ampelokipi Menemeni, Πανόρμου 115Ζ, Αθήνα 115 24","categoryIds":["asian","cheap-eats"],"categories":["Asian Restaurants","Gyros & Cheap Eats"],"legacySlugs":["street-wok-3ae9"]},{"id":"cheapEatsRestaurants_19bf55f57647","slug":"soyvlakochorio-19bf","kind":"restaurant","name":"Σουβλακοχωριό","lat":38.019021009797974,"lng":23.79620669265203,"url":"https://maps.app.goo.gl/Qngg6pY64nb2i3sX9?g_st=ipc","address":"25ης Μαρτίου 33, Χαλάνδρι 152 32","categoryIds":["cheap-eats"],"categories":["Gyros & Cheap Eats"]}],"nearby":[{"id":"cheapEatsRestaurants_69bbfb44507d","slug":"papigko-69bb","kind":"restaurant","name":"Πάπιγκο","lat":37.9930301423727,"lng":23.798961270934143,"url":"https://maps.app.goo.gl/7eU14tbuLV6n9imX7?g_st=ipc","address":"25ης Μαρτίου 9, Χολαργός 155 61","categoryIds":["cheap-eats"],"categories":["Gyros & Cheap Eats"],"distanceKm":0.1874739160698513},{"id":"italianRestaurants_9e93d0527186","slug":"casareccio-trattoria-pizzeria-9e93","kind":"restaurant","name":"Casareccio trattoria pizzeria","lat":37.995258640416544,"lng":23.796024502616564,"url":"https://maps.app.goo.gl/f357srheHFN2PfBk6?g_st=ipc","address":"Ξανθίππου 84, Χολαργός 155 61","categoryIds":["italian"],"categories":["Italian Restaurants"],"distanceKm":0.19665078917533899},{"id":"cheapEatsRestaurants_33f4e7b2d02a","slug":"dix-sept-33f4","kind":"restaurant","name":"Dix Sept","lat":37.99369686292994,"lng":23.79952330912713,"url":"https://maps.app.goo.gl/LQP8izqcwdktGcwX6?g_st=ipc","address":"25ης Μαρτίου 17, Χολαργός 155 61","categoryIds":["cheap-eats"],"categories":["Gyros & Cheap Eats"],"distanceKm":0.22334708243871348},{"id":"dessertsRestaurants_a4d470fd6efd","slug":"dix-sept-a4d4","kind":"restaurant","name":"Dix Sept","lat":37.99369642530963,"lng":23.799524104459625,"url":"https://maps.app.goo.gl/UywSucCQ3HFw2LJ1A?g_st=ipc","address":"25is Martiou 17, Cholargos 155 61","categoryIds":["desserts"],"categories":["Dessert Shops"],"distanceKm":0.22341579488637686},{"id":"familyFriendly_7679184c0c6a","slug":"alsos-papagoy-7679","kind":"restaurant","name":"Άλσος Παπάγου","lat":37.99340202683861,"lng":23.794076076253262,"url":"https://maps.app.goo.gl/rJbRGPSSoVw8phSo6?g_st=ipc","address":"Κορυτσάς 31, Παπάγου 156 69","categoryIds":["family-friendly"],"categories":["Kid Friendly Locations"],"distanceKm":0.25561361804724114},{"id":"coffeeBrunchRestaurants_8ebbeeadfb00","slug":"jerry-s-8ebb","kind":"restaurant","name":"JERRY’S","lat":37.99081436071943,"lng":23.798622930452883,"url":"https://maps.app.goo.gl/s7TjtfQj1q9s9Tnk8?g_st=ipc","address":"Εθ. Αμύνης 27, Παπάγου 156 69","categoryIds":["coffee-brunch","vegetarian"],"categories":["Coffee & Brunch Spots","Vegetarian Friendly Restaurants"],"legacySlugs":["jerry-s-4010"],"distanceKm":0.34747164106066103},{"id":"coffeeBrunchRestaurants_273a7e7d2a9d","slug":"piu-verde-273a","kind":"restaurant","name":"Piu Verde","lat":37.993592134048,"lng":23.792630644928746,"url":"https://maps.app.goo.gl/uttCEc9rHvmfUF3c7?g_st=ipc","address":"Στρατ, Αλ. Παπάγου, Παπάγου 156 69","categoryIds":["coffee-brunch","family-friendly"],"categories":["Coffee & Brunch Spots","Kid Friendly Locations"],"legacySlugs":["piu-verde-840f"],"distanceKm":0.3807721373799252},{"id":"familyFriendly_c4b368df83c1","slug":"oikogeneiako-parko-perivallontikis-eyaisthitopoiisis-c4b3","kind":"restaurant","name":"Οικογενειακό Πάρκο Περιβαλλοντικής Ευαισθητοποίησης","lat":37.99329104933058,"lng":23.791786076511723,"url":"https://maps.app.goo.gl/ah7MLHXrkbxTWacS8?g_st=ipc","address":"Λεωφ. Παπάγου, Παπάγου 156 69","categoryIds":["family-friendly"],"categories":["Kid Friendly Locations"],"distanceKm":0.4565287126499689},{"id":"coffeeBrunchRestaurants_f3a3be0d750a","slug":"alsos-cholargou-alsos-cholargoy-f3a3","kind":"restaurant","name":"Alsos Cholargou / Άλσος Χολαργού","lat":37.99731205193856,"lng":23.801346586633024,"url":"https://maps.app.goo.gl/9NgrgwXAtnAhzyQM7?g_st=ipc","address":"Ευριπίδου 1, Χολαργός 155 62","categoryIds":["coffee-brunch","family-friendly"],"categories":["Coffee & Brunch Spots","Kid Friendly Locations"],"legacySlugs":["alsos-cholargou-alsos-cholargoy-af91"],"distanceKm":0.5585295891482492},{"id":"coffeeBrunchRestaurants_1fbd5adec6bb","slug":"olivia-s-brother-1fbd","kind":"restaurant","name":"Olivia’s Brother","lat":37.99842910582675,"lng":23.799666763449746,"url":"https://maps.app.goo.gl/j4jHouWVFDNbqaBK6?g_st=ipc","address":"Leof. Perikleous, Κεραμεικού 4, Χολαργός 155 61","categoryIds":["coffee-brunch"],"categories":["Coffee & Brunch Spots"],"distanceKm":0.5807328044272514},{"id":"cheapEatsRestaurants_9a8ccf003ba5","slug":"spitiki-koyzina-cholargos-9a8c","kind":"restaurant","name":"Σπιτική Κουζίνα - Χολαργός","lat":37.99895841021995,"lng":23.798536677313294,"url":"https://maps.app.goo.gl/KtAC7AzUgjd3Jmuk8?g_st=ipc","address":"Λεωφ. Περικλέους 50, Χολαργός 155 61","categoryIds":["cheap-eats"],"categories":["Gyros & Cheap Eats"],"distanceKm":0.6052055890401185},{"id":"burgersRestaurants_2779a1763d04","slug":"juicy-grill-athens-2779","kind":"restaurant","name":"Juicy Grill Athens","lat":37.999820550809126,"lng":23.797970198704302,"url":"https://maps.app.goo.gl/KoWkVLRYW6WDrfte9?g_st=ipc","address":"Λεωφ. Περικλέους 37, Χολαργός 155 61","categoryIds":["burgers"],"categories":["Burger Spots"],"distanceKm":0.69092319173592},{"id":"italianRestaurants_db8c50049699","slug":"pizzaiolo-db8c","kind":"restaurant","name":"pizzaiolo","lat":38.00035069734868,"lng":23.79281060180485,"url":"https://maps.app.goo.gl/KW1onnVwQCy1jQXk7?g_st=ipc","address":"Ασπασίας 63, Χολαργός 155 61","categoryIds":["italian"],"categories":["Italian Restaurants"],"distanceKm":0.8289869933047265},{"id":"cheapEatsRestaurants_03694aa725a0","slug":"geysidromio-0369","kind":"restaurant","name":"Γευσηδρόμιο","lat":38.00041852140095,"lng":23.792910266059533,"url":"https://maps.app.goo.gl/NVZiDeS8yd6auwo78?g_st=ipc","address":"Ασπασίας 63, Χολαργός 155 61","categoryIds":["cheap-eats"],"categories":["Gyros & Cheap Eats"],"distanceKm":0.8319891419360032},{"id":"cheapEatsRestaurants_4884ead367e7","slug":"platanos-kempap-soyvlaki-4884","kind":"restaurant","name":"Πλάτανος Κεμπάπ-Σουβλάκι","lat":38.00070110906074,"lng":23.792623402226006,"url":"https://maps.app.goo.gl/mqGbLZnM6T5sQ3YF9?g_st=ipc","address":"Βουτσινά 66, Χολαργός 155 61","categoryIds":["cheap-eats"],"categories":["Gyros & Cheap Eats"],"distanceKm":0.8711966144516747},{"id":"coffeeBrunchRestaurants_848168a5d6a3","slug":"cornell-8481","kind":"restaurant","name":"Cornell","lat":38.00169766553315,"lng":23.79390617469456,"url":"https://maps.app.goo.gl/GzFQB9fD18CsSH7k9?g_st=ipc","address":"Αετιδέων 18 &, Βουτσινά, Χολαργός 155 61","categoryIds":["coffee-brunch"],"categories":["Coffee & Brunch Spots"],"distanceKm":0.9336879186390206},{"id":"cheapEatsRestaurants_4972a0c1f005","slug":"o-fotis-4972","kind":"restaurant","name":"Ο ΦΩΤΗΣ","lat":37.997971184116544,"lng":23.807075270455382,"url":"https://maps.app.goo.gl/AtknvuaCHijVG2ha8?g_st=ipc","address":"17ης Νοεμβρίου 122, Χολαργός 155 62","categoryIds":["cheap-eats"],"categories":["Gyros & Cheap Eats"],"distanceKm":1.0067248089254015},{"id":"asianRestaurants_0a06ecfadcd2","slug":"shisan-sushi-bar-0a06","kind":"restaurant","name":"Shisan Sushi Bar","lat":38.001841672610425,"lng":23.790637059082073,"url":"https://maps.app.goo.gl/EPmJ2jqs6hWddn566?g_st=ipc","address":"Μεσογείων 204, Χολαργός 155 61","categoryIds":["asian"],"categories":["Asian Restaurants"],"distanceKm":1.0662024605842024},{"id":"burgersRestaurants_97ab28e57798","slug":"f-smashing-cholargos-97ab","kind":"restaurant","name":"F* Smashing Cholargos","lat":38.00204211707431,"lng":23.791067777673266,"url":"https://maps.app.goo.gl/VHtz6unCWyzdNiiZ8?g_st=ipc","address":"Λεωφ. Μεσογείων 206, Χολαργός 155 61","categoryIds":["burgers"],"categories":["Burger Spots"],"distanceKm":1.0664696724616394},{"id":"greekRestaurants_01e264743001","slug":"fysarmonika-mezedopoteion-01e2","kind":"restaurant","name":"Φυσαρμόνικα Μεζεδοποτείον","lat":38.00112458767409,"lng":23.7879961644195,"url":"https://maps.app.goo.gl/v3uZu1tCQdfHr7kAA?g_st=ipc","address":"Λεωφ. Μεσογείων 180, Χολαργός 155 61","categoryIds":["greek-restaurants"],"categories":["Greek Restaurants"],"distanceKm":1.1439393663052597},{"id":"coffeeBrunchRestaurants_e4c2bdc534b9","slug":"bookali-e4c2","kind":"restaurant","name":"bookAli","lat":38.00429979988101,"lng":23.794394502333493,"url":"https://maps.app.goo.gl/36ShHJ9gS1j7CesG9?g_st=ipc","address":"Λεωφ. Μεσογείων 236, Χολαργός 155 61","categoryIds":["coffee-brunch"],"categories":["Coffee & Brunch Spots"],"distanceKm":1.204876681390015},{"id":"cheapEatsRestaurants_27cac1fed09e","slug":"cocofino-i-nea-geysi-sto-kotopoylo-27ca","kind":"restaurant","name":"Cocofino Η Νέα Γεύση Στο Κοτόπουλο","lat":38.005115910403084,"lng":23.79578002602544,"url":"https://maps.app.goo.gl/uKWqbt6RdiChRPZi8?g_st=ipc","address":"Φανερωμένης 1α, Χολαργός 155 61","categoryIds":["cheap-eats"],"categories":["Gyros & Cheap Eats"],"distanceKm":1.278511170950434},{"id":"greekRestaurants_444a91b0d47e","slug":"palia-istoria-444a","kind":"restaurant","name":"Palia Istoria","lat":38.00382710735469,"lng":23.80429280671415,"url":"https://maps.app.goo.gl/B17edct7kP9fC5KM6?g_st=ipc","address":"Αμφίσσης 34, Χολαργός 155 62","categoryIds":["greek-restaurants"],"categories":["Greek Restaurants"],"distanceKm":1.300039442829373},{"id":"coffeeBrunchRestaurants_3e3ae547e829","slug":"hidden-cholargos-3e3a","kind":"restaurant","name":"Hidden Χολαργός","lat":38.00530967929583,"lng":23.799191777899182,"url":"https://maps.app.goo.gl/NV3sFCcDPqZUeRzWA?g_st=ipc","address":"Πυθαγόρα, Χίου 6, Χολαργός 155 62","categoryIds":["coffee-brunch"],"categories":["Coffee & Brunch Spots"],"distanceKm":1.3102388177620485}],"mentionedGuides":[],"canonicalSlug":"avraam-cholargos-b883","enrichment":{"summary_en":"Αβραάμ Χολαργός is a curated restaurant in Χολαργός 155 61 in the Gyros & Cheap Eats collection. It is connected to 13 nearby Googlementor picks to help travelers build a stronger local route.","summary_el":"Αβραάμ Χολαργός είναι ένα επιλεγμένο σημείο φαγητού στην περιοχή Χολαργός 155 61 και ανήκει στη συλλογή Gyros & Cheap Eats. Συνδέεται με 13 κοντινές προτάσεις του Googlementor για πιο ολοκληρωμένη εμπειρία.","vibe_tags":["curated","budget-friendly"],"best_for":["first-time visitors","food lovers","budget travelers"],"visit_moments":["lunch stop","dinner stop"],"practical_note":"Address and direct map link are available for easy turn-by-turn access.","nearby_walkable_count":13,"nearby_count_2km":41,"confidence":0.98},"areaContext":{"slug":"papagoy-cholargos","name":"Papagou - Cholargos","nameEl":"Παπάγου - Χολαργός"},"intentContexts":[{"href":"/cheap-eats/papagoy-cholargos","label":"Gyros & Cheap Eats in Papagou - Cholargos","categorySlug":"cheap-eats","categoryName":"Gyros & Cheap Eats","areaSlug":"papagoy-cholargos","areaName":"Papagou - Cholargos","areaNameEl":"Παπάγου - Χολαργός"}]},"__N_SSG":true}