{"pageProps":{"entity":{"id":"burgersRestaurants_fe3476589c94","slug":"barbara-que-fe34","kind":"restaurant","name":"BarBara Que","lat":38.035803199648754,"lng":23.82668456854574,"url":"https://maps.app.goo.gl/qDrH9onsxTkW9iau8?g_st=ipc","address":"Εθ. Αντιστάσεως 27, Βριλήσσια 152 35","categoryIds":["burgers"],"categories":["Burger Spots"]},"sameCategory":[{"id":"burgersRestaurants_cdde40de0c45","slug":"the-burger-dudes-cdde","kind":"restaurant","name":"The Burger Dudes","lat":38.037808685524865,"lng":23.82651013380888,"url":"https://maps.app.goo.gl/nCm18QqReRW4TNmb6?g_st=ipc","address":"Θέτιδος 1, Βριλήσσια 152 35","categoryIds":["burgers"],"categories":["Burger Spots"]},{"id":"burgersRestaurants_264306258d6e","slug":"busty-s-burger-2643","kind":"restaurant","name":"Busty's Burger","lat":38.05283037769694,"lng":23.815776704443905,"url":"https://maps.app.goo.gl/ZPYfcdYHMWXyKwF16?g_st=ipc","address":"Οδός Πεντέλης, Μαρούσι 151 26","categoryIds":["burgers"],"categories":["Burger Spots"]},{"id":"burgersRestaurants_11e6ae00efca","slug":"melt-burgers-11e6","kind":"restaurant","name":"Melt Burgers","lat":38.037895872437886,"lng":23.799602975307902,"url":"https://maps.app.goo.gl/17z1ma6NXSDvgsM2A?g_st=ipc","address":"Λεωφ. Κηφισίας 59, Μαρούσι 151 24","categoryIds":["burgers"],"categories":["Burger Spots"]},{"id":"burgersRestaurants_b5cd5e9d8f33","slug":"comet-street-gourmet-athens-b5cd","kind":"restaurant","name":"Comet Street Gourmet Athens","lat":38.05458806834009,"lng":23.84252767987863,"url":"https://maps.app.goo.gl/7yT5TAqAFBttQ8yZ7?g_st=ipc","address":"Σωκράτους 3, Μελίσσια 151 27","categoryIds":["burgers"],"categories":["Burger Spots"]},{"id":"burgersRestaurants_ceb67d2517dd","slug":"godgilla-umami-street-food-ceb6","kind":"restaurant","name":"Godgilla umami street food","lat":38.056565975998105,"lng":23.814008768575892,"url":"https://maps.app.goo.gl/WyovvCKHo17WtrPb8?g_st=ipc","address":"Γεωρ. Κοτζιά 2, Μαρούσι 151 26","categoryIds":["burgers","cheap-eats"],"categories":["Burger Spots","Gyros & Cheap Eats"],"legacySlugs":["godgilla-umami-street-food-784d"]},{"id":"burgersRestaurants_c336eb92f70f","slug":"benjamin-burger-house-c336","kind":"restaurant","name":"Benjamin Burger House","lat":38.02349485615921,"lng":23.79940305236398,"url":"https://maps.app.goo.gl/1oUJJNhHwJDfzkoK6?g_st=ipc","address":"Ανδρέα Γκίνη 8-12, Χαλάνδρι 152 33","categoryIds":["burgers"],"categories":["Burger Spots"]},{"id":"burgersRestaurants_a6200663c2fc","slug":"enkelt-eatery-drinkery-a620","kind":"restaurant","name":"Enkelt Eatery Drinkery","lat":38.02213524779596,"lng":23.799867459817303,"url":"https://maps.app.goo.gl/vHwx7oKoUfgScAFL9?g_st=ipc","address":"Ανδρέα Παπανδρέου 9, Χαλάνδρι 152 34","categoryIds":["burgers"],"categories":["Burger Spots"]},{"id":"burgersRestaurants_3d23e4017c79","slug":"f-smashing-marousi-delivery-take-away-only-3d23","kind":"restaurant","name":"F* Smashing Marousi (Delivery & Take away Only!)","lat":38.05659414043942,"lng":23.807978426457023,"url":"https://maps.app.goo.gl/YDf78cc6DThEFAdSA?g_st=ipc","address":"Π. Κυριακού 18, Μαρούσι 151 24","categoryIds":["burgers"],"categories":["Burger Spots"]},{"id":"burgersRestaurants_ec4983f25d99","slug":"nob-burger-ec49","kind":"restaurant","name":"NOB Burger","lat":38.02272062579597,"lng":23.79844865880115,"url":"https://maps.app.goo.gl/wpfmqU8MnEBtDwTH8?g_st=ic","address":"Κολοκοτρώνη 15 &, Gyftopoulou 10, Chalandri 152 33","categoryIds":["burgers"],"categories":["Burger Spots"]},{"id":"burgersRestaurants_9c281ee4457d","slug":"butcher-s-burger-halandri-steak-house-9c28","kind":"restaurant","name":"Butcher's Burger Halandri & Steak House","lat":38.02102226567013,"lng":23.79979731523688,"url":"https://maps.app.goo.gl/NnWhxpUGcKRnuxNb6?g_st=ipc","address":"Αγίας Παρασκευής 17, Χαλάνδρι 152 34","categoryIds":["burgers"],"categories":["Burger Spots"]},{"id":"burgersRestaurants_e22a52b46127","slug":"raw-street-burger-chalandri-e22a","kind":"restaurant","name":"Raw Street Burger - Chalandri","lat":38.0212493909348,"lng":23.79901287705001,"url":"https://maps.app.goo.gl/hgvkfPtXihqrFqAA8?g_st=ic","address":"Agias Paraskevis 2, Chalandri 152 32","categoryIds":["burgers"],"categories":["Burger Spots"]},{"id":"burgersRestaurants_020aef5345e3","slug":"raw-street-burger-chalandri-020a","kind":"restaurant","name":"Raw Street Burger - Chalandri","lat":38.02124916375188,"lng":23.799011494235714,"url":"https://maps.app.goo.gl/BoNocomx2EgJt83f6?g_st=ipc","address":"Αγίας Παρασκευής 2, Χαλάνδρι 152 32","categoryIds":["burgers"],"categories":["Burger Spots"]}],"nearby":[{"id":"cheapEatsRestaurants_26f9a7f050c1","slug":"the-handmade-souvlaki-ascension-26f9","kind":"restaurant","name":"The Handmade souvlaki Ascension","lat":38.035547141118364,"lng":23.82691676685056,"url":"https://maps.app.goo.gl/bx6SursnbZv26g7m7?g_st=ic","address":"Eth. Antistaseos 26, Vrilissia 152 35","categoryIds":["cheap-eats"],"categories":["Gyros & Cheap Eats"],"distanceKm":0.034988991397386135},{"id":"dessertsRestaurants_6ff752e919a0","slug":"nana-gioti-6ff7","kind":"restaurant","name":"Nana Gioti","lat":38.03608519844928,"lng":23.825679872970344,"url":"https://maps.app.goo.gl/AeWy5Es4sYdLyFSs7?g_st=ic","address":"Leof. Pentelis 24, Vrilissia 152 35","categoryIds":["desserts"],"categories":["Dessert Shops"],"distanceKm":0.09341134729525759},{"id":"coffeeBrunchRestaurants_4c5186ad6b82","slug":"the-roosters-vrilissia-4c51","kind":"restaurant","name":"The Roosters Vrilissia","lat":38.037656279094364,"lng":23.82632315275067,"url":"https://maps.app.goo.gl/Ujy91XzzUb5AuEK38?g_st=ipc","address":"Θέτιδος 1 &, Ομήρου 2, Βριλήσσια 152 38","categoryIds":["coffee-brunch"],"categories":["Coffee & Brunch Spots"],"distanceKm":0.20846996563554157},{"id":"cheapEatsRestaurants_8375fe8079e7","slug":"umami-8375","kind":"restaurant","name":"umami","lat":38.03544459297975,"lng":23.82429599041442,"url":"https://maps.app.goo.gl/f1Pk44iqYYgPwZeK9?g_st=ipc","address":"Λεωφ. Πεντέλης 7A, Βριλήσσια 152 35","categoryIds":["cheap-eats"],"categories":["Gyros & Cheap Eats"],"distanceKm":0.2129586988800829},{"id":"italianRestaurants_206a9064f7f4","slug":"forget-about-it-206a","kind":"restaurant","name":"Forget About It","lat":38.03770860286521,"lng":23.82639404104221,"url":"https://maps.app.goo.gl/T4kAMQjZQmhxQyFN7?g_st=ipc","address":"Θέτιδος 1, Βριλήσσια 152 38","categoryIds":["italian"],"categories":["Italian Restaurants"],"distanceKm":0.21339351834023568},{"id":"burgersRestaurants_cdde40de0c45","slug":"the-burger-dudes-cdde","kind":"restaurant","name":"The Burger Dudes","lat":38.037808685524865,"lng":23.82651013380888,"url":"https://maps.app.goo.gl/nCm18QqReRW4TNmb6?g_st=ipc","address":"Θέτιδος 1, Βριλήσσια 152 35","categoryIds":["burgers"],"categories":["Burger Spots"],"distanceKm":0.2235225166550018},{"id":"coffeeBrunchRestaurants_a0c4a7f4af97","slug":"oi-pites-tis-giagias-eyridikis-a0c4","kind":"restaurant","name":"Οι πίτες της γιαγιάς Ευριδίκης","lat":38.03426712689994,"lng":23.833618598910473,"url":"https://maps.app.goo.gl/SZ38YLhtn9HgUGAZ9?g_st=ipc","address":"Κύπρου 25, Βριλήσσια 152 35","categoryIds":["coffee-brunch"],"categories":["Coffee & Brunch Spots"],"distanceKm":0.6308513900100637},{"id":"dessertsRestaurants_86ff71ff4014","slug":"galaktopoleio-stamoy-chalandri-attikis-86ff","kind":"restaurant","name":"Γαλακτοπωλείο ΣΤΑΜΟΥ, Χαλάνδρι Αττικής","lat":38.03271950189133,"lng":23.82056453380515,"url":"https://maps.app.goo.gl/rfjXhvBFEFZmw45z9?g_st=ipc","address":"Λεωφ. Πεντέλης 139, Χαλάνδρι 152 43","categoryIds":["desserts"],"categories":["Dessert Shops"],"distanceKm":0.6362977570084258},{"id":"cheapEatsRestaurants_5a1b3de4b0cd","slug":"ta-soyvlakia-tis-giagias-5a1b","kind":"restaurant","name":"Τα σουβλάκια της γιαγιάς","lat":38.04199101993577,"lng":23.824597588199378,"url":"https://maps.app.goo.gl/K9azEutYtVeRFeTB9?g_st=ipc","address":"Κυπρίων Αγωνιστών 50, Μαρούσι 151 26","categoryIds":["cheap-eats"],"categories":["Gyros & Cheap Eats"],"distanceKm":0.7119153703641653},{"id":"dessertsRestaurants_40ab106f41d5","slug":"la-fete-du-chocolat-40ab","kind":"restaurant","name":"La fete du chocolat","lat":38.03120511173637,"lng":23.818970445559835,"url":"https://maps.app.goo.gl/4agqQggB3EisbRqZ6?g_st=ipc","address":"Λεωφ. Πεντέλης 118, Χαλάνδρι 152 34","categoryIds":["desserts"],"categories":["Dessert Shops"],"distanceKm":0.8472775945688209},{"id":"familyFriendly_aade95e892c7","slug":"parko-mikis-theodorakis-typet-aade","kind":"restaurant","name":"Πάρκο Μίκης Θεοδωράκης - ΤΥΠΕΤ","lat":38.0376288072202,"lng":23.83650236719041,"url":"https://maps.app.goo.gl/pvC5VhagjzGcsF3b7?g_st=ipc","address":"Υμηττού 57, Βριλήσσια 152 35","categoryIds":["family-friendly"],"categories":["Kid Friendly Locations"],"distanceKm":0.8834701854387382},{"id":"familyFriendly_a06976665fe3","slug":"dentrospito-a069","kind":"restaurant","name":"Δεντρόσπιτο","lat":38.04193059212469,"lng":23.83336989792643,"url":"https://maps.app.goo.gl/xX4rv5hpzm2R55iv8?g_st=ipc","address":"Λεωφ. Πεντέλης 102, Βριλήσσια 152 35","categoryIds":["family-friendly"],"categories":["Kid Friendly Locations"],"distanceKm":0.898331928227095},{"id":"greekRestaurants_3a95a72d63b7","slug":"to-steki-toy-andrea-sto-chalandri-3a95","kind":"restaurant","name":"Το Στέκι του Ανδρέα στο Χαλάνδρι","lat":38.02735400038434,"lng":23.82467794898433,"url":"https://maps.app.goo.gl/Wp9gL9KTg1iHqv8R6?g_st=ipc","address":"Μεσσηνίας 46, Χαλάνδρι 152 34","categoryIds":["greek-restaurants"],"categories":["Greek Restaurants"],"distanceKm":0.9558051457321876},{"id":"dessertsRestaurants_7fcc53b965fc","slug":"koletsas-7fcc","kind":"restaurant","name":"Κολέτσας","lat":38.02545147763619,"lng":23.823091396273647,"url":"https://maps.app.goo.gl/LLAgTzMRsxERgimg9?g_st=ipc","address":"Μεταμορφώσεως 50, Χαλάνδρι 152 34","categoryIds":["desserts"],"categories":["Dessert Shops"],"distanceKm":1.193306568421842},{"id":"familyFriendly_d45bb5296460","slug":"maroussi-tennis-club-d45b","kind":"restaurant","name":"Maroussi Tennis Club","lat":38.04651986209008,"lng":23.825630520397997,"url":"https://maps.app.goo.gl/pF3h6gGnqMiku8Wg9?g_st=ic","address":"Sismanogliou 74, Marousi 151 26","categoryIds":["family-friendly"],"categories":["Kid Friendly Locations"],"distanceKm":1.1952082843479186},{"id":"familyFriendly_86f9e83bcddf","slug":"parko-proin-naytikis-vasis-86f9","kind":"restaurant","name":"Πάρκο Πρώην Ναυτικής Βάσης","lat":38.045491355804536,"lng":23.838523859146985,"url":"https://maps.app.goo.gl/bVGsyiVv6EgBKgQg7?g_st=ipc","address":"Λεωφ. Πεντέλης 41, Βριλήσσια 152 35","categoryIds":["family-friendly"],"categories":["Kid Friendly Locations"],"distanceKm":1.4951613112185995},{"id":"greekRestaurants_420dc8617ebb","slug":"to-vrasto-420d","kind":"restaurant","name":"Το Βραστό","lat":38.02920880289756,"lng":23.811047379895488,"url":"https://maps.app.goo.gl/GRjH6qkfc2wa5Tcv9?g_st=ipc","address":"Ρόδων 3, Χαλάνδρι 152 33","categoryIds":["greek-restaurants"],"categories":["Greek Restaurants"],"distanceKm":1.5535083377054326},{"id":"greekRestaurants_217beb188c9d","slug":"to-peyko-taverna-fagito-sto-choro-take-away-delivery-217b","kind":"restaurant","name":"Το Πευκο | Ταβέρνα - Φαγητό στο χώρο - Take Away - Delivery","lat":38.048953774865154,"lng":23.835609448784652,"url":"https://maps.app.goo.gl/2DPr3yhvS2JApV5x5","address":"Τήνου 12, Μελίσσια 151 27","categoryIds":["greek-restaurants"],"categories":["Greek Restaurants"],"distanceKm":1.658043345945571},{"id":"dessertsRestaurants_4f529b02c261","slug":"zacharoplasteia-konstantinidis-4f52","kind":"restaurant","name":"ΖΑΧΑΡΟΠΛΑΣΤΕΙΑ ΚΩΝΣΤΑΝΤΙΝΙΔΗΣ","lat":38.02641289961005,"lng":23.811254354041353,"url":"https://maps.app.goo.gl/eFBXtmFxkCpQxQLK7?g_st=ipc","address":"Λεωφ. Πεντέλης 72, Αθήνα 115 24","categoryIds":["desserts"],"categories":["Dessert Shops"],"distanceKm":1.7078390493240287},{"id":"asianRestaurants_a4e89dbc83d0","slug":"salamat-asian-food-store-a4e8","kind":"restaurant","name":"Salamat | Asian Food Store","lat":38.02126807453902,"lng":23.819767317882288,"url":"https://maps.app.goo.gl/62Tadxw4r6L1Cia48?g_st=ipc","address":"Δουκίσσης Πλακεντίας 68, Χαλάνδρι 152 34","categoryIds":["asian"],"categories":["Asian Restaurants"],"distanceKm":1.7260615398594739},{"id":"cheapEatsRestaurants_4ec639153a0b","slug":"kantina-billy-4ec6","kind":"restaurant","name":"Καντίνα - Billy","lat":38.02609394796825,"lng":23.81064307512727,"url":"https://maps.app.goo.gl/9r8QWiSRkMH7dPqZA?g_st=ipc","address":"Λεωφ. Πεντέλης 68, Χαλάνδρι 152 34","categoryIds":["cheap-eats"],"categories":["Gyros & Cheap Eats"],"distanceKm":1.7718982450991783},{"id":"fishTavernasRestaurants_62c7b8f3faa2","slug":"porfyra-62c7","kind":"restaurant","name":"ΠΟΡΦΥΡΑ","lat":38.05133265699478,"lng":23.83230614489945,"url":"https://maps.app.goo.gl/TQBY6fhE1DqGovNJ9?g_st=ipc","address":"Leof. Dimokratias 29, Melissia 151 27","categoryIds":["fish-tavernas"],"categories":["Fish Tavernas"],"distanceKm":1.7955980649639989},{"id":"familyFriendly_a9b8fd64bf88","slug":"funmily-eat-drink-play-a9b8","kind":"restaurant","name":"FUNMILY eat-drink-play","lat":38.051902735451634,"lng":23.82889440448781,"url":"https://maps.app.goo.gl/5ypCQjX1CzhhmDWMA?g_st=ipc","address":"Οδός Πεντέλης 114, Μαρούσι 151 26","categoryIds":["family-friendly"],"categories":["Kid Friendly Locations"],"distanceKm":1.8006157099951352},{"id":"fishTavernasRestaurants_b5ecf6b7087f","slug":"psaromania-b5ec","kind":"restaurant","name":"Ψαρομανία","lat":38.048408639606166,"lng":23.81356249118105,"url":"https://maps.app.goo.gl/h2KMfix1JBmXpQQB9?g_st=ipc","address":"Δάφνης 57, Μαρούσι 151 25","categoryIds":["fish-tavernas"],"categories":["Fish Tavernas"],"distanceKm":1.8125008512484468}],"mentionedGuides":[],"canonicalSlug":"barbara-que-fe34","enrichment":{"summary_en":"BarBara Que is a curated restaurant in Βριλήσσια 152 35 in the Burger Spots collection. It is connected to 9 nearby Googlementor picks to help travelers build a stronger local route.","summary_el":"BarBara Que είναι ένα επιλεγμένο σημείο φαγητού στην περιοχή Βριλήσσια 152 35 και ανήκει στη συλλογή Burger Spots. Συνδέεται με 9 κοντινές προτάσεις του Googlementor για πιο ολοκληρωμένη εμπειρία.","vibe_tags":["curated"],"best_for":["first-time visitors","food lovers"],"visit_moments":["lunch stop","dinner stop"],"practical_note":"Address and direct map link are available for easy turn-by-turn access.","nearby_walkable_count":9,"nearby_count_2km":30,"confidence":0.98},"areaContext":{"slug":"agia-paraskeyi","name":"Agia Paraskevi","nameEl":"Αγία Παρασκευή"},"intentContexts":[{"href":"/burgers/agia-paraskeyi","label":"Burger Spots in Agia Paraskevi","categorySlug":"burgers","categoryName":"Burger Spots","areaSlug":"agia-paraskeyi","areaName":"Agia Paraskevi","areaNameEl":"Αγία Παρασκευή"}]},"__N_SSG":true}