{"pageProps":{"entity":{"id":"coffeeBrunchRestaurants_c6ccd807225a","slug":"bread-b-c-bread-before-christ-c6cc","kind":"restaurant","name":"BREAD B.C. Bread Before Christ","lat":38.02007274297337,"lng":23.803168344895795,"url":"https://maps.app.goo.gl/TyGqvKXydEaJvedUA?g_st=ipc","address":"Αγίας Παρασκευής 59, Χαλάνδρι 152 34","categoryIds":["coffee-brunch","desserts"],"categories":["Coffee & Brunch Spots","Dessert Shops"],"legacySlugs":["bread-b-c-bread-before-christ-012b"]},"sameCategory":[{"id":"coffeeBrunchRestaurants_19b78b1041b1","slug":"fisi-the-project-19b7","kind":"restaurant","name":"Fisi The Project","lat":38.02103923737401,"lng":23.803142982241283,"url":"https://maps.app.goo.gl/9VmK3qL1LECkBAycA?g_st=ipc","address":"Αγίου Γεωργίου 28, Χαλάνδρι 152 31","categoryIds":["coffee-brunch"],"categories":["Coffee & Brunch Spots"]},{"id":"coffeeBrunchRestaurants_c2dcfed13dc1","slug":"to-vazaki-juice-bar-c2dc","kind":"restaurant","name":"Το Βαζάκι Juice Bar","lat":38.021003514175945,"lng":23.80272580711501,"url":"https://maps.app.goo.gl/nDbFuEsz56BPrtWV8?g_st=ipc","address":"Αριστοτέλους 33, Χαλάνδρι 152 34","categoryIds":["coffee-brunch","vegetarian"],"categories":["Coffee & Brunch Spots","Vegetarian Friendly Restaurants"],"legacySlugs":["to-vazaki-juice-bar-fee3"]},{"id":"coffeeBrunchRestaurants_6c7c61c89617","slug":"the-blind-spot-chalandri-6c7c","kind":"restaurant","name":"The Blind Spot Chalandri","lat":38.02081193268296,"lng":23.800852260132338,"url":"https://maps.app.goo.gl/meU9KZcd4KyskmW5A?g_st=ipc","address":"Αγίας Παρασκευής 29, Χαλάνδρι 152 34","categoryIds":["coffee-brunch"],"categories":["Coffee & Brunch Spots"]},{"id":"coffeeBrunchRestaurants_1645d021693b","slug":"butterfly-all-day-bar-1645","kind":"restaurant","name":"Butterfly All Day Bar","lat":38.02255116891241,"lng":23.802059077338257,"url":"https://maps.app.goo.gl/iFPzHyPcLoNrFRsNA?g_st=ipc","address":"Λεωφόρος Πεντέλης 8 , Στρατάρχου Παπάγου 5, Χαλάνδρι 152 33","categoryIds":["coffee-brunch"],"categories":["Coffee & Brunch Spots"]},{"id":"coffeeBrunchRestaurants_9494334a3889","slug":"theory-bar-9494","kind":"restaurant","name":"Theory Bar","lat":38.02145412084465,"lng":23.799757422872677,"url":"https://maps.app.goo.gl/zwkhVzdkQughii3i7?g_st=ipc","address":"Πλάτωνος 14, Χαλάνδρι 152 34","categoryIds":["coffee-brunch"],"categories":["Coffee & Brunch Spots"]},{"id":"coffeeBrunchRestaurants_99f4eb4b50a8","slug":"paul-99f4","kind":"restaurant","name":"Paul","lat":38.02202464306638,"lng":23.799672884172303,"url":"https://maps.app.goo.gl/aQCR8vB88aVXiVXh6?g_st=ic","address":"Andrea Papandreou 13, Chalandri 152 34","categoryIds":["coffee-brunch"],"categories":["Coffee & Brunch Spots"]},{"id":"coffeeBrunchRestaurants_fee7b450e2e2","slug":"bored-c-mon-hub-fee7","kind":"restaurant","name":"Bored, C'mon hub","lat":38.02345514252141,"lng":23.803073599949013,"url":"https://maps.app.goo.gl/VKSg4V9NPf89H1ha7?g_st=ipc","address":"Λεωφ. Πεντέλης 15, Χαλάνδρι 152 34","categoryIds":["coffee-brunch"],"categories":["Coffee & Brunch Spots"]},{"id":"coffeeBrunchRestaurants_c494cdae0eac","slug":"penny-lane-comfort-food-c494","kind":"restaurant","name":"Penny Lane Comfort Food","lat":38.02034857308637,"lng":23.798833782982413,"url":"https://maps.app.goo.gl/pHD9NuQvxt5E3ECz5?g_st=ipc","address":"Θουκυδίδου 12, Χαλάνδρι 152 32","categoryIds":["coffee-brunch"],"categories":["Coffee & Brunch Spots"]},{"id":"coffeeBrunchRestaurants_9458a245dc3c","slug":"mr-peacock-9458","kind":"restaurant","name":"Mr Peacock","lat":38.02229439663125,"lng":23.799067122766484,"url":"https://maps.app.goo.gl/VZMRfmKCQeAiaXpR6?g_st=ipc","address":"Κατσουλιέρη 7, Χαλάνδρι 152 33","categoryIds":["coffee-brunch"],"categories":["Coffee & Brunch Spots"]},{"id":"coffeeBrunchRestaurants_37f29da6a3ac","slug":"petite-fleur-chalandri-37f2","kind":"restaurant","name":"Petite Fleur Chalandri","lat":38.02118310968284,"lng":23.79790895879059,"url":"https://maps.app.goo.gl/3oREsLJ4wCJ3pzXJA?g_st=ipc","address":"Πλατεία Ελευθερωτών 16, Platia Eleftheroton 16, Χαλάνδρι 152 32","categoryIds":["coffee-brunch"],"categories":["Coffee & Brunch Spots"]},{"id":"coffeeBrunchRestaurants_e07c2fe046a1","slug":"koulouri-lab-e07c","kind":"restaurant","name":"Koulouri Lab","lat":38.02001411382259,"lng":23.797606580273964,"url":"https://maps.app.goo.gl/PenVFxTnARKzLw62A?g_st=ipc","address":"Ανδρέα Παπανδρέου 36, Αθήνα 152 32","categoryIds":["coffee-brunch"],"categories":["Coffee & Brunch Spots"]},{"id":"coffeeBrunchRestaurants_13c765a56547","slug":"gardenista-13c7","kind":"restaurant","name":"Gardenista","lat":38.022288294318166,"lng":23.791808518147295,"url":"https://maps.app.goo.gl/Ae2mzr6PphQKvoxT8?g_st=ipc","address":"Παπανικολή 18, Χαλάνδρι 152 32","categoryIds":["coffee-brunch"],"categories":["Coffee & Brunch Spots"]}],"nearby":[{"id":"dessertsRestaurants_4b614377342f","slug":"a-la-gkrek-4b61","kind":"restaurant","name":"Α λα γκρεκ","lat":38.01997084545109,"lng":23.803610791226863,"url":"https://maps.app.goo.gl/ErAvKczSJTMADaCZ7?g_st=ipc","address":"Αγίας Παρασκευής 65, Χαλάνδρι 152 34","categoryIds":["desserts"],"categories":["Dessert Shops"],"distanceKm":0.040380031009103125},{"id":"coffeeBrunchRestaurants_19b78b1041b1","slug":"fisi-the-project-19b7","kind":"restaurant","name":"Fisi The Project","lat":38.02103923737401,"lng":23.803142982241283,"url":"https://maps.app.goo.gl/9VmK3qL1LECkBAycA?g_st=ipc","address":"Αγίου Γεωργίου 28, Χαλάνδρι 152 31","categoryIds":["coffee-brunch"],"categories":["Coffee & Brunch Spots"],"distanceKm":0.10749223649319602},{"id":"coffeeBrunchRestaurants_c2dcfed13dc1","slug":"to-vazaki-juice-bar-c2dc","kind":"restaurant","name":"Το Βαζάκι Juice Bar","lat":38.021003514175945,"lng":23.80272580711501,"url":"https://maps.app.goo.gl/nDbFuEsz56BPrtWV8?g_st=ipc","address":"Αριστοτέλους 33, Χαλάνδρι 152 34","categoryIds":["coffee-brunch","vegetarian"],"categories":["Coffee & Brunch Spots","Vegetarian Friendly Restaurants"],"legacySlugs":["to-vazaki-juice-bar-fee3"],"distanceKm":0.11051879111694993},{"id":"greekRestaurants_a120da3cfe10","slug":"mezedopoleio-iordanis-a120","kind":"restaurant","name":"Μεζεδοπωλείο Ιορδάνης","lat":38.020133303757966,"lng":23.80185334902281,"url":"https://maps.app.goo.gl/FYyCghhM4WWKom5n9?g_st=ipc","address":"Αριστοτέλους 42, Χαλάνδρι 152 32","categoryIds":["greek-restaurants"],"categories":["Greek Restaurants"],"distanceKm":0.11538869121179929},{"id":"greekRestaurants_166b7c278db9","slug":"tzitzikas-kai-mermigkas-166b","kind":"restaurant","name":"Τζίτζικας Και Μέρμηγκας","lat":38.02047878345652,"lng":23.804706604274816,"url":"https://maps.app.goo.gl/8pYJH9GZBYeQD5mk6?g_st=ipc","address":"Αισχύλου 26, Χαλάνδρι 152 34","categoryIds":["greek-restaurants"],"categories":["Greek Restaurants"],"distanceKm":0.14211216849333846},{"id":"greekRestaurants_332aa0a30f34","slug":"to-koytoyki-332a","kind":"restaurant","name":"Το Κουτούκι","lat":38.01916385299786,"lng":23.80500366441751,"url":"https://maps.app.goo.gl/SuZCLAfs8GjCTcWG6?g_st=ipc","address":"Υψηλάντου 5, Χαλάνδρι 152 32","categoryIds":["greek-restaurants"],"categories":["Greek Restaurants"],"distanceKm":0.1898994905962529},{"id":"luxuryDiningRestaurants_b7dbfaaef165","slug":"hunters-room-grill-restaurant-b7db","kind":"restaurant","name":"Hunters Room & Grill Restaurant","lat":38.021923789577265,"lng":23.8032446662537,"url":"https://maps.app.goo.gl/UynpfTCs73NDwhL67?g_st=ipc","address":"Αριστοτέλους 23, & Παπάγου 17, Χαλάνδρι 152 34","categoryIds":["luxury-dining"],"categories":["Luxury Dining"],"distanceKm":0.20593554157513186},{"id":"coffeeBrunchRestaurants_6c7c61c89617","slug":"the-blind-spot-chalandri-6c7c","kind":"restaurant","name":"The Blind Spot Chalandri","lat":38.02081193268296,"lng":23.800852260132338,"url":"https://maps.app.goo.gl/meU9KZcd4KyskmW5A?g_st=ipc","address":"Αγίας Παρασκευής 29, Χαλάνδρι 152 34","categoryIds":["coffee-brunch"],"categories":["Coffee & Brunch Spots"],"distanceKm":0.21890248915167243},{"id":"greekRestaurants_6657f75f25c7","slug":"trypia-dekara-6657","kind":"restaurant","name":"Τρύπια Δεκάρα","lat":38.020535111511364,"lng":23.799981150995844,"url":"https://maps.app.goo.gl/aTApNBNRqHkEo3CH8?g_st=ipc","address":"Θεμιστοκλέους 6, Χαλάνδρι 152 32","categoryIds":["greek-restaurants"],"categories":["Greek Restaurants"],"distanceKm":0.28388785798376537},{"id":"coffeeBrunchRestaurants_1645d021693b","slug":"butterfly-all-day-bar-1645","kind":"restaurant","name":"Butterfly All Day Bar","lat":38.02255116891241,"lng":23.802059077338257,"url":"https://maps.app.goo.gl/iFPzHyPcLoNrFRsNA?g_st=ipc","address":"Λεωφόρος Πεντέλης 8 , Στρατάρχου Παπάγου 5, Χαλάνδρι 152 33","categoryIds":["coffee-brunch"],"categories":["Coffee & Brunch Spots"],"distanceKm":0.29221695881188925},{"id":"burgersRestaurants_9c281ee4457d","slug":"butcher-s-burger-halandri-steak-house-9c28","kind":"restaurant","name":"Butcher's Burger Halandri & Steak House","lat":38.02102226567013,"lng":23.79979731523688,"url":"https://maps.app.goo.gl/NnWhxpUGcKRnuxNb6?g_st=ipc","address":"Αγίας Παρασκευής 17, Χαλάνδρι 152 34","categoryIds":["burgers"],"categories":["Burger Spots"],"distanceKm":0.31360399975958364},{"id":"dessertsRestaurants_1340f4510458","slug":"terkenlis-chalandri-1340","kind":"restaurant","name":"Τερκενλής Χαλάνδρι","lat":38.017510768826554,"lng":23.80115941464693,"url":"https://maps.app.goo.gl/KH7YfmY3KwdAXppf7?g_st=ipc","address":"Παπανικολή 100, Χαλάνδρι 152 32","categoryIds":["desserts"],"categories":["Dessert Shops"],"distanceKm":0.3348518811386522},{"id":"coffeeBrunchRestaurants_9494334a3889","slug":"theory-bar-9494","kind":"restaurant","name":"Theory Bar","lat":38.02145412084465,"lng":23.799757422872677,"url":"https://maps.app.goo.gl/zwkhVzdkQughii3i7?g_st=ipc","address":"Πλάτωνος 14, Χαλάνδρι 152 34","categoryIds":["coffee-brunch"],"categories":["Coffee & Brunch Spots"],"distanceKm":0.33595987600977023},{"id":"greekRestaurants_69231f24503b","slug":"mpakalotaverna-6923","kind":"restaurant","name":"Μπακαλοταβέρνα","lat":38.02091962634735,"lng":23.79935272546419,"url":"https://maps.app.goo.gl/D6gW3fsdkz7sh9bg8?g_st=ipc","address":"Θουκυδίδου 6, Χαλάνδρι 152 32","categoryIds":["greek-restaurants"],"categories":["Greek Restaurants"],"distanceKm":0.3472540829094347},{"id":"asianRestaurants_2fedddceed72","slug":"noodle-bar-2fed","kind":"restaurant","name":"Noodle Bar","lat":38.022609797953606,"lng":23.8008077638359,"url":"https://maps.app.goo.gl/RDSLJTa1W2roeGbr9?g_st=ic","address":"Leof. Pentelis 1, Chalandri 152 34","categoryIds":["asian"],"categories":["Asian Restaurants"],"distanceKm":0.34977550129070883},{"id":"dessertsRestaurants_a1cf45fe2274","slug":"the-bakers-chalandri-a1cf","kind":"restaurant","name":"The Bakers Chalandri","lat":38.0226181576528,"lng":23.800807066742404,"url":"https://maps.app.goo.gl/gQq4yFd1tL46Twha8?g_st=ipc","address":"Λεωφ. Πεντέλης 1, Χαλάνδρι 152 34","categoryIds":["desserts"],"categories":["Dessert Shops"],"distanceKm":0.3505616743053353},{"id":"burgersRestaurants_a6200663c2fc","slug":"enkelt-eatery-drinkery-a620","kind":"restaurant","name":"Enkelt Eatery Drinkery","lat":38.02213524779596,"lng":23.799867459817303,"url":"https://maps.app.goo.gl/vHwx7oKoUfgScAFL9?g_st=ipc","address":"Ανδρέα Παπανδρέου 9, Χαλάνδρι 152 34","categoryIds":["burgers"],"categories":["Burger Spots"],"distanceKm":0.3690586961144825},{"id":"cheapEatsRestaurants_70af29f6373f","slug":"holy-pasta-chalandri-70af","kind":"restaurant","name":"Holy Pasta Chalandri","lat":38.02090646389776,"lng":23.799055964157045,"url":"https://maps.app.goo.gl/dD7x8SrXxBd8mmDX7?g_st=ipc","address":"Ηρακλείου 3, Χαλάνδρι 152 32","categoryIds":["cheap-eats"],"categories":["Gyros & Cheap Eats"],"distanceKm":0.3719750657603713},{"id":"coffeeBrunchRestaurants_99f4eb4b50a8","slug":"paul-99f4","kind":"restaurant","name":"Paul","lat":38.02202464306638,"lng":23.799672884172303,"url":"https://maps.app.goo.gl/aQCR8vB88aVXiVXh6?g_st=ic","address":"Andrea Papandreou 13, Chalandri 152 34","categoryIds":["coffee-brunch"],"categories":["Coffee & Brunch Spots"],"distanceKm":0.3753156036974172},{"id":"coffeeBrunchRestaurants_fee7b450e2e2","slug":"bored-c-mon-hub-fee7","kind":"restaurant","name":"Bored, C'mon hub","lat":38.02345514252141,"lng":23.803073599949013,"url":"https://maps.app.goo.gl/VKSg4V9NPf89H1ha7?g_st=ipc","address":"Λεωφ. Πεντέλης 15, Χαλάνδρι 152 34","categoryIds":["coffee-brunch"],"categories":["Coffee & Brunch Spots"],"distanceKm":0.3761972275083668},{"id":"coffeeBrunchRestaurants_c494cdae0eac","slug":"penny-lane-comfort-food-c494","kind":"restaurant","name":"Penny Lane Comfort Food","lat":38.02034857308637,"lng":23.798833782982413,"url":"https://maps.app.goo.gl/pHD9NuQvxt5E3ECz5?g_st=ipc","address":"Θουκυδίδου 12, Χαλάνδρι 152 32","categoryIds":["coffee-brunch"],"categories":["Coffee & Brunch Spots"],"distanceKm":0.3809384746597084},{"id":"burgersRestaurants_e22a52b46127","slug":"raw-street-burger-chalandri-e22a","kind":"restaurant","name":"Raw Street Burger - Chalandri","lat":38.0212493909348,"lng":23.79901287705001,"url":"https://maps.app.goo.gl/hgvkfPtXihqrFqAA8?g_st=ic","address":"Agias Paraskevis 2, Chalandri 152 32","categoryIds":["burgers"],"categories":["Burger Spots"],"distanceKm":0.3868106574369804},{"id":"burgersRestaurants_020aef5345e3","slug":"raw-street-burger-chalandri-020a","kind":"restaurant","name":"Raw Street Burger - Chalandri","lat":38.02124916375188,"lng":23.799011494235714,"url":"https://maps.app.goo.gl/BoNocomx2EgJt83f6?g_st=ipc","address":"Αγίας Παρασκευής 2, Χαλάνδρι 152 32","categoryIds":["burgers"],"categories":["Burger Spots"],"distanceKm":0.3869161108545882},{"id":"mexicanRestaurants_6c5519ffe304","slug":"picasso-athens-6c55","kind":"restaurant","name":"Picasso Athens","lat":38.019815508215686,"lng":23.798687453855152,"url":"https://maps.app.goo.gl/J7mbR7We3G9gTLqS6?g_st=ipc","address":"Καραολη Δημήτριου 22, Χαλάνδρι 152 32","categoryIds":["mexican"],"categories":["Mexican Restaurants"],"distanceKm":0.3935621917285014}],"mentionedGuides":[],"canonicalSlug":"bread-b-c-bread-before-christ-c6cc","enrichment":{"summary_en":"BREAD B.C. Bread Before Christ is a curated restaurant in Χαλάνδρι 152 34 in the Coffee & Brunch Spots collection. It is connected to 65 nearby Googlementor picks to help travelers build a stronger local route.","summary_el":"BREAD B.C. Bread Before Christ είναι ένα επιλεγμένο σημείο φαγητού στην περιοχή Χαλάνδρι 152 34 και ανήκει στη συλλογή Coffee & Brunch Spots. Συνδέεται με 65 κοντινές προτάσεις του Googlementor για πιο ολοκληρωμένη εμπειρία.","vibe_tags":["curated","sweet-stop","daytime-favorite"],"best_for":["first-time visitors","food lovers"],"visit_moments":["early morning","late brunch"],"practical_note":"Address and direct map link are available for easy turn-by-turn access.","nearby_walkable_count":65,"nearby_count_2km":120,"confidence":0.98},"areaContext":{"slug":"chalandri","name":"Chalandri","nameEl":"Χαλάνδρι"},"intentContexts":[{"href":"/brunch/chalandri","label":"Coffee & Brunch Spots in Chalandri","categorySlug":"brunch","categoryName":"Coffee & Brunch Spots","areaSlug":"chalandri","areaName":"Chalandri","areaNameEl":"Χαλάνδρι"},{"href":"/desserts/chalandri","label":"Dessert Shops in Chalandri","categorySlug":"desserts","categoryName":"Dessert Shops","areaSlug":"chalandri","areaName":"Chalandri","areaNameEl":"Χαλάνδρι"}]},"__N_SSG":true}