{"pageProps":{"entity":{"id":"dessertsRestaurants_4106b45265a3","slug":"bueno-4106","kind":"restaurant","name":"Bueno","lat":38.101101437687646,"lng":23.743308167267262,"url":"https://maps.app.goo.gl/3f4yVgyuCXzvh6Ac6?g_st=ipc","address":"Leof. Kon/nou Karamanli 53, Acharnes 136 72","categoryIds":["desserts"],"categories":["Dessert Shops"]},"sameCategory":[{"id":"dessertsRestaurants_0891a505b36b","slug":"galaktopoleio-stamoy-0891","kind":"restaurant","name":"Γαλακτοπωλείο Στάμου","lat":38.11472562186031,"lng":23.74537333629416,"url":"https://maps.app.goo.gl/4FRYPvoU2rB5btZX8?g_st=ipc","address":"Θρακομακεδόνων 154, Αχαρνές 136 79","categoryIds":["desserts"],"categories":["Dessert Shops"]},{"id":"dessertsRestaurants_48328c9fc5f0","slug":"galaktopoleio-stamoy-4832","kind":"restaurant","name":"Γαλακτοπωλείο ΣΤΑΜΟΥ","lat":38.07926600844486,"lng":23.73816605072715,"url":"https://maps.app.goo.gl/kVZvesD6UgeQooPB9?g_st=ipc","address":"Κωνσταντινουπόλεως 307, Αχαρνές 136 74","categoryIds":["desserts"],"categories":["Dessert Shops"]},{"id":"dessertsRestaurants_35fad49944d3","slug":"oikogeneia-stayrati-35fa","kind":"restaurant","name":"Οικογένεια Σταυράτη","lat":38.064333617477246,"lng":23.775971928887216,"url":"https://maps.app.goo.gl/nFJr46bSggFggK8U6?g_st=ipc","address":"Λεωφ. Ηρακλείου 531, Ηράκλειο 141 22","categoryIds":["desserts"],"categories":["Dessert Shops"]},{"id":"dessertsRestaurants_8a872edfde79","slug":"galaktopoleio-stamoy-8a87","kind":"restaurant","name":"Γαλακτοπωλείο ΣΤΑΜΟΥ","lat":38.06113010578425,"lng":23.71402739614515,"url":"https://maps.app.goo.gl/yspbknaZbJ3DjmUr6?g_st=ipc","address":"Λ, Φυλής 70, Καματερό 134 51","categoryIds":["desserts"],"categories":["Dessert Shops"]},{"id":"dessertsRestaurants_91ba7ff0c788","slug":"galaktopoleio-stamoy-91ba","kind":"restaurant","name":"Γαλακτοπωλείο ΣΤΑΜΟΥ","lat":38.06327717225913,"lng":23.780942994591154,"url":"https://maps.app.goo.gl/rMwhBDoVuWArY4T36?g_st=ipc","address":"Λεωφ. Αμαρουσίου 29, Λυκόβρυση 141 23","categoryIds":["desserts"],"categories":["Dessert Shops"]},{"id":"dessertsRestaurants_ee67f4c4f773","slug":"galaktopoleio-stamoy-ee67","kind":"restaurant","name":"Γαλακτοπωλείο ΣΤΑΜΟΥ","lat":38.050308447326216,"lng":23.764543130470138,"url":"https://maps.app.goo.gl/ct5eAdJBTvtvp5Kb6?g_st=ipc","address":"Λεωφ. Ηρακλείου 388, Ηράκλειο 141 22","categoryIds":["desserts"],"categories":["Dessert Shops"]},{"id":"dessertsRestaurants_4ba5b007aaee","slug":"san-zachari-4ba5","kind":"restaurant","name":"Σαν Ζάχαρη","lat":38.0467822413905,"lng":23.750604774962436,"url":"https://maps.app.goo.gl/hEf4BAiafjzg3vVT6?g_st=ipc","address":"Ελ. Βενιζέλου 119, Νέα Ιωνία 142 31","categoryIds":["desserts"],"categories":["Dessert Shops"]},{"id":"dessertsRestaurants_11d8eb3a5116","slug":"solo-gelato-pefki-11d8","kind":"restaurant","name":"Solo Gelato Pefki","lat":38.058776038280556,"lng":23.79284350703131,"url":"https://maps.app.goo.gl/SjAsiViMGast8vsf9?g_st=ipc","address":"Σοφούλη 3, Πεύκη 151 21","categoryIds":["desserts"],"categories":["Dessert Shops"]},{"id":"dessertsRestaurants_265283fa47ed","slug":"zacharoplasteio-ta-gioylia-2652","kind":"restaurant","name":"Ζαχαροπλαστείο Τα Γιούλια","lat":38.04320708683717,"lng":23.75268041981327,"url":"https://maps.app.goo.gl/yT8dXGYHeqfAeL4K8?g_st=ipc","address":"Μεσολογγίου 24, Νέα Ιωνία 142 31","categoryIds":["desserts"],"categories":["Dessert Shops"]},{"id":"dessertsRestaurants_1c368e954317","slug":"pavlov-patisserie-1c36","kind":"restaurant","name":"Pavlov Patisserie","lat":38.08975934404975,"lng":23.817098827828467,"url":"https://maps.app.goo.gl/ubJrroH9LAtGxodP6?g_st=ipc","address":"Πατριάρχου Γρηγορίου Ε 15, Νέα Ερυθραία 146 71","categoryIds":["desserts"],"categories":["Dessert Shops"]},{"id":"dessertsRestaurants_f804624daa3e","slug":"galaktopoleio-stamoy-f804","kind":"restaurant","name":"Γαλακτοπωλείο ΣΤΑΜΟΥ","lat":38.078347329723904,"lng":23.813788874375867,"url":"https://maps.app.goo.gl/TbxAEXt4zNT9s8Sk6?g_st=ipc","address":"Λεωφ. Κηφισίας 270, Κηφισιά 145 63","categoryIds":["desserts"],"categories":["Dessert Shops"]},{"id":"dessertsRestaurants_67eb41f4d85c","slug":"tart-sweet-days-67eb","kind":"restaurant","name":"Tart sweet days","lat":38.07504554962464,"lng":23.81197664881859,"url":"https://maps.app.goo.gl/n5GCkRnzxw6tu9wv5?g_st=ipc","address":"Λεωφόρος Κηφισίας 289 και, Όθωνος, Κηφισιά 145 61","categoryIds":["desserts"],"categories":["Dessert Shops"]}],"nearby":[{"id":"coffeeBrunchRestaurants_3e87c6ffcc50","slug":"bueno-3e87","kind":"restaurant","name":"Bueno","lat":38.101108774458396,"lng":23.743311119938365,"url":"https://maps.app.goo.gl/nWns9tgS4rLXo1Dm9?g_st=ipc","address":"Λεωφ. Κωνσταντίνου Καραμανλή 53, Αχαρνές 136 72","categoryIds":["coffee-brunch"],"categories":["Coffee & Brunch Spots"],"distanceKm":0.0008557457395468013},{"id":"italianRestaurants_27d92444b722","slug":"goloso-acharnes-27d9","kind":"restaurant","name":"GOLOSO - ΑΧΑΡΝΕΣ","lat":38.09475606530576,"lng":23.739483205778253,"url":"https://maps.app.goo.gl/fx2nPPeJ6gGMBbSBA","address":"Agiou Eleftheriou 18, Acharnes 136 74","categoryIds":["italian"],"categories":["Italian Restaurants"],"distanceKm":0.7809363151297015},{"id":"greekRestaurants_5d8a4cf10a66","slug":"o-laios-taverna-5d8a","kind":"restaurant","name":"Ο Λάιος Ταβέρνα","lat":38.10626654490386,"lng":23.736261492242534,"url":"https://maps.app.goo.gl/r5ZTDusqKfZ21E9b8","address":"Λεωφ. Κωνσταντίνου Καραμανλή 6, Αχαρνές 136 72","categoryIds":["greek-restaurants"],"categories":["Greek Restaurants"],"distanceKm":0.8426294808029731},{"id":"familyFriendly_2b5afed6feac","slug":"aidonakia-playcity-2b5a","kind":"restaurant","name":"Αηδονάκια PlayCity","lat":38.09606577414195,"lng":23.75333886341834,"url":"https://maps.app.goo.gl/66tZd4g5Ha8fLC1g6?g_st=ipc","address":"Ξενοδοχοϋπαλλήλων 22, Αχαρνές 136 72","categoryIds":["family-friendly"],"categories":["Kid Friendly Locations"],"distanceKm":1.041129927306047},{"id":"dessertsRestaurants_0891a505b36b","slug":"galaktopoleio-stamoy-0891","kind":"restaurant","name":"Γαλακτοπωλείο Στάμου","lat":38.11472562186031,"lng":23.74537333629416,"url":"https://maps.app.goo.gl/4FRYPvoU2rB5btZX8?g_st=ipc","address":"Θρακομακεδόνων 154, Αχαρνές 136 79","categoryIds":["desserts"],"categories":["Dessert Shops"],"distanceKm":1.52567765474522},{"id":"greekRestaurants_ecad8f17d794","slug":"taverna-kitsaronas-ecad","kind":"restaurant","name":"Ταβέρνα Κιτσαρώνας","lat":38.081090797205825,"lng":23.73517147403274,"url":"https://maps.app.goo.gl/CdrwzhJ6AF8GwRvr7","address":"Π. Μελά 8, Αχαρνές 136 75","categoryIds":["greek-restaurants"],"categories":["Greek Restaurants"],"distanceKm":2.336244195054955},{"id":"dessertsRestaurants_48328c9fc5f0","slug":"galaktopoleio-stamoy-4832","kind":"restaurant","name":"Γαλακτοπωλείο ΣΤΑΜΟΥ","lat":38.07926600844486,"lng":23.73816605072715,"url":"https://maps.app.goo.gl/kVZvesD6UgeQooPB9?g_st=ipc","address":"Κωνσταντινουπόλεως 307, Αχαρνές 136 74","categoryIds":["desserts"],"categories":["Dessert Shops"],"distanceKm":2.4693402250312273},{"id":"cheapEatsRestaurants_7db196676e19","slug":"karaflas-7db1","kind":"restaurant","name":"Καράφλας","lat":38.07655628972639,"lng":23.739456286868005,"url":"https://maps.app.goo.gl/DzK7LaFGANeLebDQ7?g_st=ipc","address":"Φιλαδέλφειας 56-58, Αχαρνές 136 71","categoryIds":["cheap-eats"],"categories":["Gyros & Cheap Eats"],"distanceKm":2.75003543544593},{"id":"familyFriendly_2b8da1a48e6d","slug":"paradise-park-2b8d","kind":"restaurant","name":"Paradise Park","lat":38.07150243306409,"lng":23.752975610444484,"url":"https://maps.app.goo.gl/gx1m825JjfkqNKfC6?g_st=ipc","address":"Ε.Ο. Κόμβος, Metamorfoseos 100, Acharnes 136 71","categoryIds":["family-friendly"],"categories":["Kid Friendly Locations"],"distanceKm":3.398272506176811},{"id":"italianRestaurants_764eadc47084","slug":"pizza-days-ano-liosion-764e","kind":"restaurant","name":"Pizza Days - Άνω Λιοσίων","lat":38.08738762293733,"lng":23.705019354443774,"url":"https://maps.app.goo.gl/j8oAF5aTcAufPq229?g_st=ipc","address":"Πηνειού 38, Άνω Λιόσια 133 41","categoryIds":["italian"],"categories":["Italian Restaurants"],"distanceKm":3.681336865623886},{"id":"greekRestaurants_3985a63bf69c","slug":"taverna-pappas-3985","kind":"restaurant","name":"Ταβέρνα Παππάς","lat":38.13707378465122,"lng":23.751130974888763,"url":"https://maps.app.goo.gl/cf1v4bYNnpWbWW7u9","address":"Θεσσαλονίκης 2, Αχαρνές 136 76","categoryIds":["greek-restaurants"],"categories":["Greek Restaurants"],"distanceKm":4.05806153165309},{"id":"familyFriendly_90a0540fcd7e","slug":"ninja-park-athens-90a0","kind":"restaurant","name":"Ninja Park Athens","lat":38.08643856775193,"lng":23.788809005523504,"url":"https://maps.app.goo.gl/e5jXXHYZC2NhJgZy7?g_st=ipc","address":"Καλυφτάκη 74, Κηφισιά 145 64","categoryIds":["family-friendly"],"categories":["Kid Friendly Locations"],"distanceKm":4.302686938273649},{"id":"familyFriendly_03b3e4324315","slug":"northern-suburbs-riding-club-03b3","kind":"restaurant","name":"Northern Suburbs Riding Club","lat":38.120645518273435,"lng":23.786586294729055,"url":"https://maps.app.goo.gl/56QDyzWUMbJuYDJ66?g_st=ic","address":"Tatoiou 137, Acharnes 136 72","categoryIds":["family-friendly"],"categories":["Kid Friendly Locations"],"distanceKm":4.365742972513596},{"id":"greekRestaurants_9919fac2ca6c","slug":"mezedopoleio-aney-oron-9919","kind":"restaurant","name":"Μεζεδοπωλείο Άνευ Όρων","lat":38.07817620964211,"lng":23.702197123618852,"url":"https://maps.app.goo.gl/hQsQJwctvni6scyCA","address":"Δημαρχείου 8, Άνω Λιόσια 133 41","categoryIds":["greek-restaurants"],"categories":["Greek Restaurants"],"distanceKm":4.409403393868726},{"id":"monasteriesChurches_5170cd1cd8e1","slug":"monastiri-agias-eirinis-chrysovalantoy-5170","kind":"restaurant","name":"Μοναστήρι Αγίας Ειρήνης Χρυσοβαλάντου","lat":38.0757087984453,"lng":23.784060169292047,"url":"https://maps.app.goo.gl/Kmbb6BYr6fSV4pFRA?g_st=ipc","address":"Δημητσάνας 1, Λυκόβρυση 141 23","categoryIds":["monasteries-churches"],"categories":["Monasteries & Spiritual Sites"],"distanceKm":4.548870939044585},{"id":"cheapEatsRestaurants_372f0ee727b9","slug":"rigani-thymari-372f","kind":"restaurant","name":"Ρίγανη θυμάρι","lat":38.06157357464134,"lng":23.72960229805207,"url":"https://maps.app.goo.gl/Up1hU92hpZRnvgdJ8?g_st=ipc","address":"Αγίας Άννης 37, Αχαρνές 136 75","categoryIds":["cheap-eats"],"categories":["Gyros & Cheap Eats"],"distanceKm":4.556063563157744},{"id":"familyFriendly_d9ebf8b00250","slug":"athlitiko-parko-parnithas-kai-moyseio-palaion-epaggelmaton-d9eb","kind":"restaurant","name":"Αθλητικό Πάρκο Πάρνηθας και Μουσείο Παλαιών Επαγγελμάτων","lat":38.11083610723094,"lng":23.69169674427175,"url":"https://maps.app.goo.gl/J7UHi8dDFoMJKKUh7?g_st=ipc","address":"Ρόδων, Άνω Λιόσια 133 43","categoryIds":["family-friendly"],"categories":["Kid Friendly Locations"],"distanceKm":4.643715242990489},{"id":"cheapEatsRestaurants_f41f24c34bd1","slug":"o-christaras-f41f","kind":"restaurant","name":"Ο Χρηστάρας","lat":38.06513658858884,"lng":23.770452923606605,"url":"https://maps.app.goo.gl/73hetj8YZUmHBV4M7?g_st=ipc","address":"κ, Δεξαμενής, Θεοτοκοπούλου και, Μεταμόρφωση 144 52","categoryIds":["cheap-eats"],"categories":["Gyros & Cheap Eats"],"distanceKm":4.651591290179676},{"id":"greekRestaurants_be5c399cb3b9","slug":"to-vietnam-be5c","kind":"restaurant","name":"Το Βιετνάμ","lat":38.0615311115762,"lng":23.764059030004713,"url":"https://maps.app.goo.gl/xC1aTbCCv97NuUkz6?g_st=ipc","address":"Agiou Konstantinou 18, Metamorfosi 144 52","categoryIds":["greek-restaurants"],"categories":["Greek Restaurants"],"distanceKm":4.760132900758158},{"id":"familyFriendly_814843d50658","slug":"k9-arena-8148","kind":"restaurant","name":"K9 Arena","lat":38.07105818937244,"lng":23.783776935008227,"url":"https://maps.app.goo.gl/x9xASynDZReucwX5A?g_st=ipc","address":"Χαλκίδος 15, Λυκόβρυση 141 23","categoryIds":["family-friendly"],"categories":["Kid Friendly Locations"],"distanceKm":4.868724552554347},{"id":"dessertsRestaurants_35fad49944d3","slug":"oikogeneia-stayrati-35fa","kind":"restaurant","name":"Οικογένεια Σταυράτη","lat":38.064333617477246,"lng":23.775971928887216,"url":"https://maps.app.goo.gl/nFJr46bSggFggK8U6?g_st=ipc","address":"Λεωφ. Ηρακλείου 531, Ηράκλειο 141 22","categoryIds":["desserts"],"categories":["Dessert Shops"],"distanceKm":4.988792223682997},{"id":"dessertsRestaurants_8a872edfde79","slug":"galaktopoleio-stamoy-8a87","kind":"restaurant","name":"Γαλακτοπωλείο ΣΤΑΜΟΥ","lat":38.06113010578425,"lng":23.71402739614515,"url":"https://maps.app.goo.gl/yspbknaZbJ3DjmUr6?g_st=ipc","address":"Λ, Φυλής 70, Καματερό 134 51","categoryIds":["desserts"],"categories":["Dessert Shops"],"distanceKm":5.130556611198555},{"id":"cheapEatsRestaurants_f527d097e08b","slug":"mpampis-soyvlatzidiko-f527","kind":"restaurant","name":"Μπάμπης (Σουβλατζίδικο)","lat":38.07798891290964,"lng":23.794191207475013,"url":"https://maps.app.goo.gl/FPtnwFuAA6xGZThWA?g_st=ipc","address":"Γεωρ. Λύρα 5, Κηφισιά 145 64","categoryIds":["cheap-eats"],"categories":["Gyros & Cheap Eats"],"distanceKm":5.141465015843468},{"id":"greekRestaurants_88c2247c1ee0","slug":"kivotos-88c2","kind":"restaurant","name":"Κιβωτός","lat":38.09806564019595,"lng":23.80316229730133,"url":"https://maps.app.goo.gl/U5NQdUWeNcGPMbcs9","address":"Διός 32, Κηφισιά 145 64","categoryIds":["greek-restaurants"],"categories":["Greek Restaurants"],"distanceKm":5.2483237216112135}],"mentionedGuides":[],"canonicalSlug":"bueno-4106","enrichment":{"summary_en":"Bueno is a curated restaurant in Acharnes 136 72 in the Dessert Shops collection. It is connected to 2 nearby Googlementor picks to help travelers build a stronger local route.","summary_el":"Bueno είναι ένα επιλεγμένο σημείο φαγητού στην περιοχή Acharnes 136 72 και ανήκει στη συλλογή Dessert Shops. Συνδέεται με 2 κοντινές προτάσεις του Googlementor για πιο ολοκληρωμένη εμπειρία.","vibe_tags":["curated","sweet-stop"],"best_for":["first-time visitors","food lovers"],"visit_moments":["afternoon break","after dinner"],"practical_note":"Address and direct map link are available for easy turn-by-turn access.","nearby_walkable_count":2,"nearby_count_2km":5,"confidence":0.9},"areaContext":{"slug":"acharnes","name":"Acharnes","nameEl":"Αχαρνές"},"intentContexts":[]},"__N_SSG":true}