{"pageProps":{"entity":{"id":"italianRestaurants_2fd6901849b7","slug":"cardamomo-2fd6","kind":"restaurant","name":"Cardamomo","lat":37.4446572877169,"lng":25.396868169763824,"url":"https://maps.app.goo.gl/sh5TMZCTCw3tQKQP9?g_st=ipc","address":"Unnamed Road, Ano Mera 846 00","categoryIds":["italian"],"categories":["Italian Restaurants"]},"sameCategory":[{"id":"italianRestaurants_26298b2afd51","slug":"sistina-mykonos-2629","kind":"restaurant","name":"Sistina Mykonos","lat":37.42270720054724,"lng":25.33392940009779,"url":"https://maps.app.goo.gl/jbVQZaFoXT3nCmEQ6?g_st=ipc","address":"Platis Gialos, Mikonos 846 00","categoryIds":["italian"],"categories":["Italian Restaurants"]},{"id":"italianRestaurants_abc3cc5c720d","slug":"d-angelo-abc3","kind":"restaurant","name":"D'Angelo","lat":37.44362332101064,"lng":25.32719398144958,"url":"https://maps.app.goo.gl/AvAZtykcYFB85kTp6?g_st=ipc","address":"Axioti, Mikonos 846 00","categoryIds":["italian"],"categories":["Italian Restaurants"]},{"id":"italianRestaurants_3ea0826fab26","slug":"casa-di-giorgio-mykonos-3ea0","kind":"restaurant","name":"Casa di Giorgio Mykonos","lat":37.44560651190884,"lng":25.326934720051547,"url":"https://maps.app.goo.gl/Cf4S8nv5DHQYNzkR7?g_st=ipc","address":"Mitropoleos 1, Hora 846 00","categoryIds":["italian"],"categories":["Italian Restaurants"]},{"id":"italianRestaurants_519a6524c076","slug":"farina-cucina-italiana-ornos-beach-519a","kind":"restaurant","name":"Farina Cucina Italiana Ornos Beach","lat":37.423083029478946,"lng":25.323628340986495,"url":"https://maps.app.goo.gl/M9VCoMv93LnDJZyTA?g_st=ipc","address":"Beach, Ornos 846 00","categoryIds":["italian"],"categories":["Italian Restaurants"]},{"id":"italianRestaurants_ef50c7962b4c","slug":"napule-tinos-restaurant-ef50","kind":"restaurant","name":"Napule Tinos Restaurant","lat":37.561247297622636,"lng":25.19153362351099,"url":"https://maps.app.goo.gl/KMmm7YcXtzQmk7Zh8?g_st=ipc","address":"Τριαντάρος 842 00","categoryIds":["italian","luxury-dining"],"categories":["Italian Restaurants","Luxury Dining"],"legacySlugs":["napule-tinos-restaurant-5194"]},{"id":"italianRestaurants_7d6f32d35713","slug":"dal-professore-naxos-7d6f","kind":"restaurant","name":"Dal Professore Naxos","lat":37.10347764120069,"lng":25.374650593867482,"url":"https://maps.app.goo.gl/GLP6dYmT8CK2v8Rk9?g_st=ipc","address":"Sea front - Naxos town Naxos Town, 843 00","categoryIds":["italian"],"categories":["Italian Restaurants"]},{"id":"italianRestaurants_81fb3a3e7792","slug":"etere-ristorante-spritzeria-81fb","kind":"restaurant","name":"ETERE Ristorante•Spritzeria","lat":37.10293986337665,"lng":25.375171669884853,"url":"https://maps.app.goo.gl/hwE3v2eAEfeWwtVD6?g_st=ipc","address":"Σχοινούσας, Kiprou &, Naxos 843 00","categoryIds":["italian"],"categories":["Italian Restaurants"]},{"id":"italianRestaurants_b7cf983e2771","slug":"casa-giacomo-paros-b7cf","kind":"restaurant","name":"Casa Giacomo Paros","lat":37.12454320720165,"lng":25.238458349168585,"url":"https://maps.app.goo.gl/Ciaf8V2SrHA91Eqw7?g_st=ipc","address":"Little Venice, Naousa 844 01","categoryIds":["italian"],"categories":["Italian Restaurants"]},{"id":"italianRestaurants_c3995e275001","slug":"amvix-c399","kind":"restaurant","name":"Amvix","lat":37.44099934175907,"lng":24.940807847227685,"url":"https://maps.app.goo.gl/pvyKHGGD2fbgASCE8?g_st=ipc","address":"Akti Papagoi 26, Ermoupoli 841 00","categoryIds":["italian"],"categories":["Italian Restaurants"]},{"id":"italianRestaurants_4f96313e6daa","slug":"mitos-arternative-bar-4f96","kind":"restaurant","name":"Mitos ARTernative BAR","lat":37.06317254380818,"lng":25.48274579484659,"url":"https://maps.app.goo.gl/jstAML7uYBqEdQYq6?g_st=ipc","address":"Χαλκείο 843 02","categoryIds":["italian"],"categories":["Italian Restaurants"]},{"id":"italianRestaurants_338afaa92d9f","slug":"caya-italian-cuisine-cocktail-bar-338a","kind":"restaurant","name":"Caya Italian Cuisine Cocktail Bar","lat":37.05775350559496,"lng":25.360162570769955,"url":"https://maps.app.goo.gl/aQBfn7JeavM87SvT6?g_st=ipc","address":"Πλάκα Ναξος Κυκλάδες, 843 00","categoryIds":["italian"],"categories":["Italian Restaurants"]},{"id":"italianRestaurants_aef2b7848975","slug":"impasto-aef2","kind":"restaurant","name":"Impasto","lat":37.081621983659346,"lng":25.14571923250388,"url":"https://maps.app.goo.gl/Hzvu5t3VhUBHB7JC7?g_st=ipc","address":"Paros 844 00","categoryIds":["italian"],"categories":["Italian Restaurants"]}],"nearby":[{"id":"fishTavernasRestaurants_07e9864c5c78","slug":"tsaf-07e9","kind":"restaurant","name":"Tsaf","lat":37.44718665279816,"lng":25.39108104189754,"url":"https://maps.app.goo.gl/kJps23htN4HRkisa6?g_st=ipc","address":"Πλατεία Ανω μερας, Ano Mera 846 00","categoryIds":["fish-tavernas"],"categories":["Fish Tavernas"],"distanceKm":0.5831924488480201},{"id":"greekRestaurants_38ad3b7a8b6d","slug":"oti-apomeine-38ad","kind":"restaurant","name":"Οτι Απόμεινε","lat":37.44787622617612,"lng":25.39114702118571,"url":"https://maps.app.goo.gl/FKEVGaJFP958nDfq6?g_st=ipc","address":"Άνω Μερά 846 00","categoryIds":["greek-restaurants"],"categories":["Greek Restaurants"],"distanceKm":0.6190347635306985},{"id":"mexicanRestaurants_ef3256c8f86b","slug":"appaloosa-bar-restaurant-ef32","kind":"restaurant","name":"Appaloosa Bar Restaurant","lat":37.45234589794245,"lng":25.38409135881813,"url":"https://maps.app.goo.gl/x9fF3ksZjKbckcRR9?g_st=ipc","address":"Άνω Μερά 846 00","categoryIds":["mexican"],"categories":["Mexican Restaurants"],"distanceKm":1.4153047072626774},{"id":"greekRestaurants_f7c457ab18f6","slug":"rizes-mykonos-folkore-farmstead-f7c4","kind":"restaurant","name":"RIZES Mykonos - Folkore Farmstead","lat":37.45817265669343,"lng":25.40349643556608,"url":"https://maps.app.goo.gl/PJSn3dijenQzfVKcA?g_st=ipc","address":"Maou, Άνω Μερά 846 00","categoryIds":["greek-restaurants"],"categories":["Greek Restaurants"],"distanceKm":1.6127236023318823},{"id":"fishTavernasRestaurants_25699dc17efe","slug":"spilia-mykonos-seaside-restaurant-2569","kind":"restaurant","name":"Spilia Mykonos Seaside Restaurant","lat":37.4346532807744,"lng":25.419253772230018,"url":"https://maps.app.goo.gl/WjiGf9HWCLVQssrK7?g_st=ipc","address":"Καλαφάτη 846 00","categoryIds":["fish-tavernas","luxury-dining"],"categories":["Fish Tavernas","Luxury Dining"],"legacySlugs":["spilia-mykonos-seaside-restaurant-5ef9"],"distanceKm":2.2679308137875203},{"id":"luxuryDiningRestaurants_68f1019ed7a6","slug":"cabbanes-mykonos-68f1","kind":"restaurant","name":"Cabbanes Mykonos","lat":37.42267215380325,"lng":25.39444539705876,"url":"https://maps.app.goo.gl/dn2BSTCZPyK4NYU26?g_st=ipc","address":"Elia Beach, Mikonos 846 00","categoryIds":["luxury-dining"],"categories":["Luxury Dining"],"distanceKm":2.453977059440008},{"id":"luxuryDiningRestaurants_8d846343f376","slug":"alemagou-8d84","kind":"restaurant","name":"Alemagou","lat":37.4646482904714,"lng":25.380862426799272,"url":"https://maps.app.goo.gl/CFqVN5ZTnDi5b6gYA?g_st=ipc","address":"Greece, Mikonos","categoryIds":["luxury-dining"],"categories":["Luxury Dining"],"distanceKm":2.6338896100689704},{"id":"fishTavernasRestaurants_d4e628ae7f3c","slug":"lia-tavern-d4e6","kind":"restaurant","name":"Lia Tavern","lat":37.44620505587329,"lng":25.435439300552154,"url":"https://maps.app.goo.gl/tS93xJU8Wr7t5Kdn6?g_st=ipc","address":"Unnamed Road, Mikonos 846 00","categoryIds":["fish-tavernas"],"categories":["Fish Tavernas"],"distanceKm":3.4094559265114013},{"id":"dessertsRestaurants_a10d2504f9c7","slug":"n-ice-cream-mykonos-a10d","kind":"restaurant","name":"N'ice Cream Mykonos","lat":37.45205375388753,"lng":25.358864338055778,"url":"https://maps.app.goo.gl/JpGxtdjqrzWaKvb36?g_st=ipc","address":"Κλούβας 846 00","categoryIds":["desserts"],"categories":["Dessert Shops"],"distanceKm":3.4542369158110677},{"id":"fishTavernasRestaurants_0347c26ff2c2","slug":"fokos-taverna-0347","kind":"restaurant","name":"Fokos Taverna","lat":37.48058147464832,"lng":25.4091552850878,"url":"https://maps.app.goo.gl/NuKJCrD5oxJ47mE18?g_st=ipc","address":"Fokos Φωκός, Ano Mera 846 00","categoryIds":["fish-tavernas"],"categories":["Fish Tavernas"],"distanceKm":4.139179868672336},{"id":"familyFriendly_03f29a25699e","slug":"funbox-03f2","kind":"restaurant","name":"Funbox","lat":37.450143269337566,"lng":25.34837194743214,"url":"https://maps.app.goo.gl/BEmUn1htaDH92gUZ7?g_st=ic","address":"Famelis Spiros, Mikonos 846 00","categoryIds":["family-friendly"],"categories":["Kid Friendly Locations"],"distanceKm":4.324437623552966},{"id":"luxuryDiningRestaurants_60ad37649fda","slug":"principote-mykonos-60ad","kind":"restaurant","name":"Principote Mykonos","lat":37.47661163546428,"lng":25.359897401386203,"url":"https://maps.app.goo.gl/Ru8EWbLUas6Xvf7K9?g_st=ipc","address":"Panormos Beach, Mikonos 846 00","categoryIds":["luxury-dining"],"categories":["Luxury Dining"],"distanceKm":4.824229883918051},{"id":"greekRestaurants_5401b7812885","slug":"xarathymio-5401","kind":"restaurant","name":"Ξαραθυμιο","lat":37.43064695338044,"lng":25.34483466442765,"url":"https://maps.app.goo.gl/k93muyVGMB9vZMRS6?g_st=ipc","address":"Skalado 846 00","categoryIds":["greek-restaurants"],"categories":["Greek Restaurants"],"distanceKm":4.851020189633984},{"id":"fishTavernasRestaurants_198b2ec0807d","slug":"pelao-tavern-198b","kind":"restaurant","name":"Pelao Tavern","lat":37.47762741859572,"lng":25.360085295125813,"url":"https://maps.app.goo.gl/xEc3zgbQENWmj7bk8?g_st=ipc","address":"Stopelao@gmail.com, Πάνορμος 846 00","categoryIds":["fish-tavernas"],"categories":["Fish Tavernas"],"distanceKm":4.8969897536199465},{"id":"greekRestaurants_d1b39b4f3e00","slug":"amethystos-mykonos-d1b3","kind":"restaurant","name":"Amethystos Mykonos","lat":37.43458136770975,"lng":25.342119704198275,"url":"https://maps.app.goo.gl/AKNrBroi1VZKtHvZ7?g_st=ipc","address":"Μύκονος 846 00","categoryIds":["greek-restaurants"],"categories":["Greek Restaurants"],"distanceKm":4.961790011204286},{"id":"coffeeBrunchRestaurants_7ef5924c8dc6","slug":"velanos-mykonos-brunch-breakfast-cocktails-7ef5","kind":"restaurant","name":"Velanos Mykonos - Brunch, Breakfast & Cocktails","lat":37.43406109514676,"lng":25.3414091685473,"url":"https://maps.app.goo.gl/8BRmDPmozseUfqLY6?g_st=ipc","address":"Skalado, Mikonos 846 00","categoryIds":["coffee-brunch"],"categories":["Coffee & Brunch Spots"],"distanceKm":5.036158120475808},{"id":"greekRestaurants_4f8fc805eb7d","slug":"to-karteri-4f8f","kind":"restaurant","name":"Το καρτερι","lat":37.432738323612284,"lng":25.341244801500245,"url":"https://maps.app.goo.gl/ZPLYvNbeUn9uhSA56?g_st=ipc","address":"Προς Παρανταις, Μύκονος 846 00","categoryIds":["greek-restaurants"],"categories":["Greek Restaurants"],"distanceKm":5.086636849017703},{"id":"coffeeBrunchRestaurants_305022a62a4f","slug":"to-davelaki-3050","kind":"restaurant","name":"To Davelaki","lat":37.43471134705592,"lng":25.340570140407053,"url":"https://maps.app.goo.gl/s3ATMeRgiCtC4BjXA?g_st=ic","address":"Unnamed Road, Mikonos 846 00","categoryIds":["coffee-brunch"],"categories":["Coffee & Brunch Spots"],"distanceKm":5.091995586735237},{"id":"greekRestaurants_e4bc58632d82","slug":"i-mortissa-e4bc","kind":"restaurant","name":"Η Μόρτισσα","lat":37.445499840376385,"lng":25.33915107946274,"url":"https://maps.app.goo.gl/N1vfxuYLu3Ld3pfT6?g_st=ipc","address":"Αγιου Γεωργίου Αργύραινα, Μύκονος 846 00","categoryIds":["greek-restaurants"],"categories":["Greek Restaurants"],"distanceKm":5.096224699158629},{"id":"greekRestaurants_72c19d32a8b6","slug":"local-bbq-souvlaki-mykonos-delivery-72c1","kind":"restaurant","name":"Local BBQ & Souvlaki Mykonos - Delivery","lat":37.44672138479704,"lng":25.33835911787914,"url":"https://maps.app.goo.gl/smobAtRLSyc56rHg8?g_st=ipc","address":"Argyraina, Επαρ.Οδ. Μυκόνου-'Ανω Μεριάς 1422, Μύκονος 846 00","categoryIds":["greek-restaurants"],"categories":["Greek Restaurants"],"distanceKm":5.170333794690322},{"id":"dessertsRestaurants_84cc29a238aa","slug":"kyklamino-patisserie-84cc","kind":"restaurant","name":"Kyklamino Patisserie","lat":37.44220457179905,"lng":25.335568445326103,"url":"https://maps.app.goo.gl/dBRJbrtLhCesFwGn6?g_st=ic","address":"Mykonos 846 00","categoryIds":["desserts"],"categories":["Dessert Shops"],"distanceKm":5.4186315338281466},{"id":"coffeeBrunchRestaurants_f9e9f62cb460","slug":"el-burro-mykonos-f9e9","kind":"restaurant","name":"El Burro Mykonos","lat":37.44164494565894,"lng":25.3350374340187,"url":"https://maps.app.goo.gl/mFrsGY4rfvzHZgy28?g_st=ipc","address":"37°26'30.4\"N 25°20'06.2\"E, Mikonos 846 00","categoryIds":["coffee-brunch"],"categories":["Coffee & Brunch Spots"],"distanceKm":5.468930969805567},{"id":"mexicanRestaurants_c15838bdee62","slug":"azul-condesa-mykonos-c158","kind":"restaurant","name":"Azul Condesa Mykonos","lat":37.445318743092045,"lng":25.33424731325651,"url":"https://maps.app.goo.gl/PtCSKGqYbgCdSXyz5?g_st=ipc","address":"Πετειναρος, Μύκονος 846 00","categoryIds":["mexican"],"categories":["Mexican Restaurants"],"distanceKm":5.528772258444105},{"id":"fishTavernasRestaurants_d5334aaf38d0","slug":"kiki-s-tavern-d533","kind":"restaurant","name":"Kiki's Tavern","lat":37.48580571700608,"lng":25.36037551259411,"url":"https://maps.app.goo.gl/zDFvBri1oSmdB6aV8?g_st=ipc","address":"Κυκλαδες μυκονος, Ag. Sostis 846 00","categoryIds":["fish-tavernas"],"categories":["Fish Tavernas"],"distanceKm":5.595400157435196}],"mentionedGuides":[],"canonicalSlug":"cardamomo-2fd6","enrichment":{"summary_en":"Cardamomo is a curated restaurant in Ano Mera 846 00 in the Italian Restaurants collection. It is connected to 2 nearby Googlementor picks to help travelers build a stronger local route.","summary_el":"Cardamomo είναι ένα επιλεγμένο σημείο φαγητού στην περιοχή Ano Mera 846 00 και ανήκει στη συλλογή Italian Restaurants. Συνδέεται με 2 κοντινές προτάσεις του Googlementor για πιο ολοκληρωμένη εμπειρία.","vibe_tags":["curated"],"best_for":["first-time visitors","food lovers"],"visit_moments":["lunch stop","dinner stop"],"practical_note":"Address and direct map link are available for easy turn-by-turn access.","nearby_walkable_count":2,"nearby_count_2km":4,"confidence":0.9},"areaContext":{"slug":"ormos","name":"Ornos","nameEl":"Όρμος"},"intentContexts":[]},"__N_SSG":true}