{"pageProps":{"entity":{"id":"coffeeBrunchRestaurants_61bbbed9f0b5","slug":"castra-all-day-terrace-bar-61bb","kind":"restaurant","name":"Castra- All Day Terrace Bar","lat":40.641322666802424,"lng":22.958308851938888,"url":"https://maps.app.goo.gl/bvxf6vbBiEtuPwrh9?g_st=ipc","address":"Eptapirgiou 122, Thessaloniki 546 34","categoryIds":["coffee-brunch"],"categories":["Coffee & Brunch Spots"]},"sameCategory":[{"id":"coffeeBrunchRestaurants_142cba27d845","slug":"cedar-142c","kind":"restaurant","name":"Cedar","lat":40.637496852872374,"lng":22.964756224661162,"url":"https://maps.app.goo.gl/yNB87tJxbm51sRh69?g_st=ipc","address":"Leof. Ochi 25, Ag. Pavlos 554 38","categoryIds":["coffee-brunch"],"categories":["Coffee & Brunch Spots"]},{"id":"coffeeBrunchRestaurants_f04e1b347f8a","slug":"tabya-f04e","kind":"restaurant","name":"Tabya","lat":40.6330498721733,"lng":22.954427623261545,"url":"https://maps.app.goo.gl/FxsAHzVitWKgJyqY8?g_st=ipc","address":"Kon/nou Melenikou 14, Thessaloniki 546 35","categoryIds":["coffee-brunch"],"categories":["Coffee & Brunch Spots"]},{"id":"coffeeBrunchRestaurants_1ba6faa5ef16","slug":"naked-1ba6","kind":"restaurant","name":"NAKED","lat":40.6351156138034,"lng":22.949358819047884,"url":"https://maps.app.goo.gl/tVt4qfxaTjfyP7oG8?g_st=ipc","address":"Filippou 62, Thessaloniki 546 35","categoryIds":["coffee-brunch"],"categories":["Coffee & Brunch Spots"]},{"id":"coffeeBrunchRestaurants_cec31106b257","slug":"canela-kamara-cec3","kind":"restaurant","name":"CANELA KAMARA","lat":40.63288705394979,"lng":22.951924664943846,"url":"https://maps.app.goo.gl/uer9gPdcnKtNqaiA8?g_st=ipc","address":"Vasou 2, Thessaloniki 546 35","categoryIds":["coffee-brunch"],"categories":["Coffee & Brunch Spots"]},{"id":"coffeeBrunchRestaurants_3e6cfb10198f","slug":"shed-3e6c","kind":"restaurant","name":"shed","lat":40.63516182787635,"lng":22.9483681936243,"url":"https://maps.app.goo.gl/bczd7kAPu1ihwt9fA?g_st=ipc","address":"Patriarchoi Dionisii E 11, Thessaloniki 546 35","categoryIds":["coffee-brunch"],"categories":["Coffee & Brunch Spots"]},{"id":"coffeeBrunchRestaurants_e22044bf3986","slug":"hue-roastery-e220","kind":"restaurant","name":"Hue Roastery","lat":40.63626725764962,"lng":22.94719442659408,"url":"https://maps.app.goo.gl/PGp8KLsttADm6bE79?g_st=ipc","address":"Filippou 38, Thessaloniki 546 31","categoryIds":["coffee-brunch"],"categories":["Coffee & Brunch Spots"]},{"id":"coffeeBrunchRestaurants_8c2176607636","slug":"donkey-garden-8c21","kind":"restaurant","name":"Donkey Garden","lat":40.63233978923016,"lng":22.94821185116991,"url":"https://maps.app.goo.gl/Kev7Tos1LbMdirKcA?g_st=ipc","address":"Skra 3, Thessaloniki 546 22","categoryIds":["coffee-brunch"],"categories":["Coffee & Brunch Spots"]},{"id":"coffeeBrunchRestaurants_b5c74e889058","slug":"bunny-tail-b5c7","kind":"restaurant","name":"Bunny Tail","lat":40.63263326905148,"lng":22.947686149858708,"url":"https://maps.app.goo.gl/5s2tkstCJrJZyR4TA?g_st=ipc","address":"Αλεξάνδρου Σβώλου 1, Patriarchou Ioakim 2, Thessaloniki 546 22","categoryIds":["coffee-brunch"],"categories":["Coffee & Brunch Spots"]},{"id":"cheapEatsRestaurants_14153fc76d40","slug":"because-bagel-1415","kind":"restaurant","name":"Because Bagel","lat":40.63057520882739,"lng":22.951254328665513,"url":"https://maps.app.goo.gl/F867e4fDb8YFQcHN9?g_st=ipc","address":"Al. Svolou 41, Thessaloniki 546 21","categoryIds":["cheap-eats","coffee-brunch"],"categories":["Gyros & Cheap Eats","Coffee & Brunch Spots"],"legacySlugs":["because-bagel-f384"]},{"id":"coffeeBrunchRestaurants_24b6a5a5bc93","slug":"brunchsin-24b6","kind":"restaurant","name":"Brunchsin","lat":40.63142362221095,"lng":22.94824040063862,"url":"https://maps.app.goo.gl/oQiMBEdPePBk3uAQ9?g_st=ipc","address":"Paleon Patron Germanou 26, Thessaloniki 546 22","categoryIds":["coffee-brunch"],"categories":["Coffee & Brunch Spots"]},{"id":"coffeeBrunchRestaurants_ad573219eedf","slug":"ergon-agora-ad57","kind":"restaurant","name":"ERGON Agora","lat":40.63187081672803,"lng":22.94735121723834,"url":"https://maps.app.goo.gl/ozYptsUfXEMA3PdNA?g_st=ipc","address":"P. Mela 42, Thessaloniki 546 22","categoryIds":["coffee-brunch"],"categories":["Coffee & Brunch Spots"]},{"id":"coffeeBrunchRestaurants_34a8b22d1957","slug":"cin-cin-34a8","kind":"restaurant","name":"Cin Cin","lat":40.632298193619214,"lng":22.946596687138204,"url":"https://maps.app.goo.gl/n6rxkXLoJv7xWQhy9?g_st=ipc","address":"Iktinou 22, Thessaloniki 546 22","categoryIds":["coffee-brunch"],"categories":["Coffee & Brunch Spots"]}],"nearby":[{"id":"greekRestaurants_c253491b9a8d","slug":"to-igglis-taverna-c253","kind":"restaurant","name":"το \"Ιγγλις\" ταβέρνα","lat":40.63880204066886,"lng":22.95710932601345,"url":"https://maps.app.goo.gl/dRFfUaqod6DSYEDx8?g_st=ipc","address":"Ηροδότου 32, Θεσσαλονίκη 546 34","categoryIds":["greek-restaurants"],"categories":["Greek Restaurants"],"distanceKm":0.29799526214932254},{"id":"greekRestaurants_26adfb378173","slug":"toicho-toicho-26ad","kind":"restaurant","name":"Τοίχο Τοίχο","lat":40.64280442360803,"lng":22.955285045566942,"url":"https://maps.app.goo.gl/98dknE2zQL7T8npUA?g_st=ipc","address":"Στεργίου Πολυδώρου 1, Θεσσαλονίκη 546 34","categoryIds":["greek-restaurants"],"categories":["Greek Restaurants"],"distanceKm":0.3037082789829164},{"id":"fishTavernasRestaurants_f7102e19ba0d","slug":"koukida-fun-seafood-f710","kind":"restaurant","name":"Koukida Fun-Seafood","lat":40.643445839214266,"lng":22.95570392041812,"url":"https://maps.app.goo.gl/B9KYRcx4RDrq1Zh48?g_st=ipc","address":"Agrafon 13, Thessaloniki 546 34","categoryIds":["fish-tavernas"],"categories":["Fish Tavernas"],"distanceKm":0.32255709873284805},{"id":"mustSeeAttractions_72fd08699c11","slug":"thessaloniki-acropolis-72fd","kind":"restaurant","name":"Thessaloniki Acropolis","lat":40.644004048967396,"lng":22.961770870557544,"url":"https://maps.app.goo.gl/Pj3FuXA7LeypGUARA?g_st=ipc","address":"Eptapirgiou 130, Thessaloniki 546 34","categoryIds":["attractions"],"categories":["Must-See Attractions"],"distanceKm":0.41739719381376766},{"id":"mustSeeAttractions_d05b087a8840","slug":"heptapyrgion-of-thessaloniki-d05b","kind":"restaurant","name":"Heptapyrgion of Thessaloniki","lat":40.64405781477335,"lng":22.96178016442897,"url":"https://maps.app.goo.gl/1s8aj4cc3MbpvaGq9?g_st=ipc","address":"Επταπύργιο, Eptapirgiou 40, Thessaloniki 546 34","categoryIds":["attractions"],"categories":["Must-See Attractions"],"distanceKm":0.4222319907869839},{"id":"greekRestaurants_284ab55d844a","slug":"drosia-284a","kind":"restaurant","name":"Δροσιά","lat":40.64461236646585,"lng":22.953803286668357,"url":"https://maps.app.goo.gl/APT3HJiqoZGsnyPs9?g_st=ipc","address":"Μεσολογγίου 44, Θεσσαλονίκη 566 25","categoryIds":["greek-restaurants"],"categories":["Greek Restaurants"],"distanceKm":0.5275604860586913},{"id":"greekRestaurants_8cc725e89b2f","slug":"doxa-8cc7","kind":"restaurant","name":"Δόξα","lat":40.63645880387639,"lng":22.95480906477019,"url":"https://maps.app.goo.gl/v7a1JB4C1wDKAViy6?g_st=ipc","address":"Αποστόλου Παύλου 25, Θεσσαλονίκη 546 34","categoryIds":["greek-restaurants"],"categories":["Greek Restaurants"],"distanceKm":0.6162057760715131},{"id":"cheapEatsRestaurants_aa2a8e3577a2","slug":"liga-ke-kala-aa2a","kind":"restaurant","name":"Liga ke kala","lat":40.63627784998205,"lng":22.954179728027064,"url":"https://maps.app.goo.gl/KNAkyJUgnkqkuPQs9?g_st=ipc","address":"Kassandrou 132, Thessaloniki 546 34","categoryIds":["cheap-eats"],"categories":["Gyros & Cheap Eats"],"distanceKm":0.6603497399781323},{"id":"coffeeBrunchRestaurants_142cba27d845","slug":"cedar-142c","kind":"restaurant","name":"Cedar","lat":40.637496852872374,"lng":22.964756224661162,"url":"https://maps.app.goo.gl/yNB87tJxbm51sRh69?g_st=ipc","address":"Leof. Ochi 25, Ag. Pavlos 554 38","categoryIds":["coffee-brunch"],"categories":["Coffee & Brunch Spots"],"distanceKm":0.6905966417500501},{"id":"mustSeeAttractions_aab957c1e5d6","slug":"ataturk-museum-of-thessaloniki-aab9","kind":"restaurant","name":"Ataturk Museum of Thessaloniki","lat":40.63574901751839,"lng":22.954355092076376,"url":"https://maps.app.goo.gl/RFapK1M21jxWogbVA?g_st=ipc","address":"Apostolou Pavlou 17, Thessaloniki 546 34","categoryIds":["attractions"],"categories":["Must-See Attractions"],"distanceKm":0.7038475272856173},{"id":"greekRestaurants_0c9a78977f40","slug":"nea-folia-0c9a","kind":"restaurant","name":"Νέα Φωλιά","lat":40.63831468853848,"lng":22.95095515507328,"url":"https://maps.app.goo.gl/RoPE5F5QLpWFB4rcA?g_st=ipc","address":"Αριστομένους 4, Θεσσαλονίκη 546 34","categoryIds":["greek-restaurants"],"categories":["Greek Restaurants"],"distanceKm":0.7048891485201045},{"id":"cheapEatsRestaurants_c01da58dabd8","slug":"pizza-romea-c01d","kind":"restaurant","name":"Pizza Romea","lat":40.636170436374,"lng":22.952743400099628,"url":"https://maps.app.goo.gl/jsFLzjxU7rbpCatGA?g_st=ipc","address":"Ag. Dimitriou 135, Thessaloniki 546 35","categoryIds":["cheap-eats"],"categories":["Gyros & Cheap Eats"],"distanceKm":0.7407720091192096},{"id":"greekRestaurants_f55cb9debc6f","slug":"iliopetra-f55c","kind":"restaurant","name":"Ηλιόπετρα","lat":40.637407844896174,"lng":22.95118029752211,"url":"https://maps.app.goo.gl/twTSSnJJWA1rop578?g_st=ipc","address":"Αισχύλου 5, Θεσσαλονίκη 546 34","categoryIds":["greek-restaurants"],"categories":["Greek Restaurants"],"distanceKm":0.742483709191619},{"id":"cheapEatsRestaurants_949277637a55","slug":"grill-105-street-9492","kind":"restaurant","name":"Grill 105 Street","lat":40.63849961526695,"lng":22.950253004997894,"url":"https://maps.app.goo.gl/ZgMdxKzTjuAureyV8?g_st=ic","address":"Kassandrou 105, Thessaloniki 546 33","categoryIds":["cheap-eats"],"categories":["Gyros & Cheap Eats"],"distanceKm":0.7487094867942184},{"id":"greekRestaurants_c3b293abf29a","slug":"taverna-asylo-c3b2","kind":"restaurant","name":"Ταβέρνα Άσυλο","lat":40.634483959485976,"lng":22.957970652421718,"url":"https://maps.app.goo.gl/YcnTd1dcPwKyoKFT9?g_st=ipc","address":"Πανεπιστημίου 2, Αγ. Παύλος 546 36","categoryIds":["greek-restaurants"],"categories":["Greek Restaurants"],"distanceKm":0.7609648312896093},{"id":"greekRestaurants_429218289710","slug":"ta-mikra-kalyvia-4292","kind":"restaurant","name":"Τα μικρά Καλύβια","lat":40.63664047814548,"lng":22.951162513295422,"url":"https://maps.app.goo.gl/Z39MqbdKvPEFnvnK6?g_st=ipc","address":"Ἁγ. Δημητρίου 136, Θεσσαλονίκη 546 35","categoryIds":["greek-restaurants"],"categories":["Greek Restaurants"],"distanceKm":0.7966566188192972},{"id":"dessertsRestaurants_eb88db21bc35","slug":"dorkada-eb88","kind":"restaurant","name":"Dorkada","lat":40.63877718781837,"lng":22.949276397393735,"url":"https://maps.app.goo.gl/56EQSujX5a55tWkk6?g_st=ipc","address":"Kassandrou 66, Thessaloniki 546 33","categoryIds":["desserts"],"categories":["Dessert Shops"],"distanceKm":0.8129893730494685},{"id":"greekRestaurants_64b68d7e42ed","slug":"oinohoos-64b6","kind":"restaurant","name":"Oinohoos","lat":40.63481540848585,"lng":22.95364872951098,"url":"https://maps.app.goo.gl/roxmt796zNAdVec76?g_st=ipc","address":"Kon/nou Melenikou 39, Thessaloniki 546 35","categoryIds":["greek-restaurants"],"categories":["Greek Restaurants"],"distanceKm":0.8235160926070637},{"id":"cheapEatsRestaurants_963344db5c1c","slug":"mimis-9633","kind":"restaurant","name":"Mimis","lat":40.63706330748784,"lng":22.950306559309492,"url":"https://maps.app.goo.gl/m8WS13tHpdvSyxE99?g_st=ipc","address":"Ag. Dimitriou 126, Thessaloniki 546 35","categoryIds":["cheap-eats"],"categories":["Gyros & Cheap Eats"],"distanceKm":0.8247601788657857},{"id":"vegetarianRestaurants_8b165a3d11ad","slug":"tarantoula-8b16","kind":"restaurant","name":"Tarantoúla","lat":40.635244984518486,"lng":22.952246319112277,"url":"https://maps.app.goo.gl/8ipQFrqJVpwS17GS7?g_st=ipc","address":"Olympou 127, Thessaloniki 546 35","categoryIds":["vegetarian"],"categories":["Vegetarian Friendly Restaurants"],"distanceKm":0.8475836192982339},{"id":"cheapEatsRestaurants_6f8bdca7e315","slug":"aigli-24h-crepe-toast-coffee-bougatsa-6f8b","kind":"restaurant","name":"\"AIGLI\" 24h CREPE-toast-coffee-BOUGATSA","lat":40.638115571761915,"lng":22.948717629555613,"url":"https://maps.app.goo.gl/LWSzARXmcX6GhcQdA?g_st=ipc","address":"Ag. Dimitriou 89, Thessaloniki 546 33","categoryIds":["cheap-eats"],"categories":["Gyros & Cheap Eats"],"distanceKm":0.8843660898254401},{"id":"greekRestaurants_6297c85e5b73","slug":"to-limeri-6297","kind":"restaurant","name":"Το λημέρι","lat":40.63585070853852,"lng":22.950530015801274,"url":"https://maps.app.goo.gl/WWLkDZFBAptyzgH88?g_st=ipc","address":"Ολύμπου 116, Θεσσαλονίκη 546 35","categoryIds":["greek-restaurants"],"categories":["Greek Restaurants"],"distanceKm":0.8950038527677582},{"id":"cheapEatsRestaurants_7ae963e72327","slug":"last-bite-7ae9","kind":"restaurant","name":"LAST BITE","lat":40.63432876296427,"lng":22.95290522955353,"url":"https://maps.app.goo.gl/qLtPEtu7Ux91nEnP8?g_st=ipc","address":"Kiriakou Manolaki 1, Thessaloniki 546 35","categoryIds":["cheap-eats","desserts"],"categories":["Gyros & Cheap Eats","Dessert Shops"],"legacySlugs":["last-bite-cc54"],"distanceKm":0.9014935104463004},{"id":"cheapEatsRestaurants_3a84f1e5b6b2","slug":"pizza-chris-3a84","kind":"restaurant","name":"Pizza Chris","lat":40.634238789767664,"lng":22.952894059300746,"url":"https://maps.app.goo.gl/rMq3J3GrNZNoRMpZ9?g_st=ipc","address":"Armenopoulou 17, Thessaloniki 546 35","categoryIds":["cheap-eats"],"categories":["Gyros & Cheap Eats"],"distanceKm":0.9106108654880829}],"mentionedGuides":[],"canonicalSlug":"castra-all-day-terrace-bar-61bb","enrichment":{"summary_en":"Castra- All Day Terrace Bar is a curated restaurant in Thessaloniki 546 34 in the Coffee & Brunch Spots collection. It is connected to 17 nearby Googlementor picks to help travelers build a stronger local route.","summary_el":"Castra- All Day Terrace Bar είναι ένα επιλεγμένο σημείο φαγητού στην περιοχή Thessaloniki 546 34 και ανήκει στη συλλογή Coffee & Brunch Spots. Συνδέεται με 17 κοντινές προτάσεις του Googlementor για πιο ολοκληρωμένη εμπειρία.","vibe_tags":["curated","daytime-favorite"],"best_for":["first-time visitors","food lovers"],"visit_moments":["early morning","late brunch"],"practical_note":"Address and direct map link are available for easy turn-by-turn access.","nearby_walkable_count":17,"nearby_count_2km":253,"confidence":0.98},"areaContext":{"slug":"ano-poli","name":"Ano Poli","nameEl":"Άνω Πόλη"},"intentContexts":[{"href":"/brunch/ano-poli","label":"Coffee & Brunch Spots in Ano Poli","categorySlug":"brunch","categoryName":"Coffee & Brunch Spots","areaSlug":"ano-poli","areaName":"Ano Poli","areaNameEl":"Άνω Πόλη"}]},"__N_SSG":true}