{"pageProps":{"entity":{"id":"asianRestaurants_674b8df64d5a","slug":"ceci-hong-kong-hot-pot-restaurant-674b","kind":"restaurant","name":"Ceci Hong Kong Hot Pot Restaurant","lat":37.96299269251651,"lng":23.714788342397448,"url":"https://maps.app.goo.gl/qSsZbhQeQPjLVDck8?g_st=ipc","address":"Λεωφ. Ελ. Βενιζέλου 14, Αθήνα 176 76","categoryIds":["asian"],"categories":["Asian Restaurants"]},"sameCategory":[{"id":"asianRestaurants_a89412856273","slug":"koyasan-in-koukaki-a894","kind":"restaurant","name":"Koyasan in koukaki","lat":37.96291366771106,"lng":23.723242897494586,"url":"https://maps.app.goo.gl/4sTjgzzfABYKexbx6?g_st=ipc","address":"17 & Ο, Ζαν Μωρεάς, Γεωρ. Ανδρούτσου, Αθήνα 117 41","categoryIds":["asian"],"categories":["Asian Restaurants"]},{"id":"asianRestaurants_83a81f921b31","slug":"tuk-tuk-thai-street-food-83a8","kind":"restaurant","name":"TUK TUK THAI STREET FOOD","lat":37.96606521122011,"lng":23.725716482971748,"url":"https://maps.app.goo.gl/dLSj52rnQDPAbaGg8?g_st=ipc","address":"Βεΐκου 40, Αθήνα 117 42","categoryIds":["asian"],"categories":["Asian Restaurants"]},{"id":"asianRestaurants_be2d9e8cfa29","slug":"kuchisabishii-sakaba-be2d","kind":"restaurant","name":"Kuchisabishii Sakaba","lat":37.965507796335324,"lng":23.72667501899547,"url":"https://maps.app.goo.gl/mwPcNGYBVTJSy6C59?g_st=ic","address":"Falirou 36, Athina 117 42","categoryIds":["asian"],"categories":["Asian Restaurants"]},{"id":"asianRestaurants_f1cd493b50d2","slug":"zafran-indian-kitchen-f1cd","kind":"restaurant","name":"Zafran Indian Kitchen","lat":37.977657888236905,"lng":23.712403701256626,"url":"https://maps.app.goo.gl/JyaNzBjgKky4afGL8?g_st=ipc","address":"Περσεφόνης 25, Αθήνα 118 54","categoryIds":["asian"],"categories":["Asian Restaurants"]},{"id":"asianRestaurants_38b8b7a5de82","slug":"garum-athens-38b8","kind":"restaurant","name":"Garum Athens","lat":37.96322815000365,"lng":23.734456659008355,"url":"https://maps.app.goo.gl/MU1e8JQujzPUM5ZN6","address":"Kelsou 10, Athina 116 36","categoryIds":["asian","luxury-dining"],"categories":["Asian Restaurants","Luxury Dining"],"legacySlugs":["garum-athens-dc2b"]},{"id":"asianRestaurants_6ef4181fa78e","slug":"kenko-japanese-restaurant-6ef4","kind":"restaurant","name":"Kenko Japanese Restaurant","lat":37.94729381865282,"lng":23.715042181127906,"url":"https://maps.app.goo.gl/XHTSnCRdEDq5dRxc7?g_st=ipc","address":"Λεωφ. Ελ. Βενιζέλου 22, Νέα Σμύρνη 171 21","categoryIds":["asian","luxury-dining"],"categories":["Asian Restaurants","Luxury Dining"],"legacySlugs":["kenko-japanese-restaurant-c964"]},{"id":"asianRestaurants_ea18f7423739","slug":"streetwok-ea18","kind":"restaurant","name":"StreetWok","lat":37.94661589274436,"lng":23.715316438751927,"url":"https://maps.app.goo.gl/Wb2pGeyp5yUdVqfd9?g_st=ipc","address":"Λεωφ. Ελ. Βενιζέλου 37, Νέα Σμύρνη 171 23","categoryIds":["asian","cheap-eats"],"categories":["Asian Restaurants","Gyros & Cheap Eats"],"legacySlugs":["streetwok-7394"]},{"id":"asianRestaurants_3e39975f70d5","slug":"streetwok-3e39","kind":"restaurant","name":"StreetWok","lat":37.97689230907057,"lng":23.727592595188877,"url":"https://maps.app.goo.gl/qhpXyetVXaLisBEWA?g_st=ipc","address":"Αιόλου 21, Αθήνα 105 63","categoryIds":["asian","cheap-eats"],"categories":["Asian Restaurants","Gyros & Cheap Eats"],"legacySlugs":["streetwok-7239"]},{"id":"asianRestaurants_245947f00892","slug":"one-piece-sushi-noodlebar-2459","kind":"restaurant","name":"One Piece Sushi & NoodleBar","lat":37.95987156768248,"lng":23.736223837796196,"url":"https://maps.app.goo.gl/haanYsUxepJjZsmTA?g_st=ipc","address":"Ilia Iliou 6, Μενεκράτους 39, Αθήνα 116 36","categoryIds":["asian"],"categories":["Asian Restaurants"]},{"id":"asianRestaurants_f31c7fe7455a","slug":"168-bar-f31c","kind":"restaurant","name":"168 Bar","lat":37.97952828529781,"lng":23.72107861467235,"url":"https://maps.app.goo.gl/kfZE6p7Ddwomz7Zd9?g_st=ipc","address":"Διπύλου 6, Αθήνα 105 53","categoryIds":["asian"],"categories":["Asian Restaurants"]},{"id":"asianRestaurants_ddcb57380116","slug":"ekiben-kitchen-ddcb","kind":"restaurant","name":"EKIBEN KITCHEN","lat":37.97373780649657,"lng":23.73268249015655,"url":"https://maps.app.goo.gl/phQR869HE6dZNJGS9?g_st=ipc","address":"Σκούφου 15, Αθήνα 105 57","categoryIds":["asian","burgers"],"categories":["Asian Restaurants","Burger Spots"],"legacySlugs":["ekiben-kitchen-bf81"]},{"id":"asianRestaurants_c79d456ae7d7","slug":"noodle-bar-c79d","kind":"restaurant","name":"Noodle Bar","lat":37.97469670323124,"lng":23.731836375056524,"url":"https://maps.app.goo.gl/2JAZWHPydSGiN1Vz5?g_st=ipc","address":"Απόλλωνος 11, Αθήνα 105 57","categoryIds":["asian"],"categories":["Asian Restaurants"]}],"nearby":[{"id":"italianRestaurants_a131f0639f33","slug":"trattoria-italia-d-onofrio-a131","kind":"restaurant","name":"Trattoria Italia D'onofrio","lat":37.96439892270411,"lng":23.71376404461326,"url":"https://maps.app.goo.gl/QybTqvRE6JzNcqyYA?g_st=ipc","address":"Βαρνουντος 6, Αθήνα 117 41","categoryIds":["italian"],"categories":["Italian Restaurants"],"distanceKm":0.18031524366573384},{"id":"fishTavernasRestaurants_29b7a2cb7567","slug":"parkbench-29b7","kind":"restaurant","name":"PARKBENCH","lat":37.96471554544835,"lng":23.714402162518947,"url":"https://maps.app.goo.gl/ZwWcfuMochSRxPUk8?g_st=ipc","address":"Πραμάντων 10, Αθήνα 117 41","categoryIds":["fish-tavernas"],"categories":["Fish Tavernas"],"distanceKm":0.19454093280739143},{"id":"fishTavernasRestaurants_edc276d1ee37","slug":"papalina-edc2","kind":"restaurant","name":"Παπαλίνα","lat":37.96476188274757,"lng":23.713898599739846,"url":"https://maps.app.goo.gl/JpVSQDpzvzWZWivJ9?g_st=ipc","address":"Πραμάντων 20, Αθήνα 117 41","categoryIds":["fish-tavernas"],"categories":["Fish Tavernas"],"distanceKm":0.21162404588039832},{"id":"greekRestaurants_c751a3d5b17d","slug":"koyvelos-c751","kind":"restaurant","name":"Κουβελος","lat":37.96561446275287,"lng":23.714982571965468,"url":"https://maps.app.goo.gl/FmVVezpy5Uwrec5e9","address":"Γενναίου Κολοκοτρώνη 66, Αθήνα 117 41","categoryIds":["greek-restaurants"],"categories":["Greek Restaurants"],"distanceKm":0.29202437924999},{"id":"coffeeBrunchRestaurants_43a4eab28734","slug":"omsom-koukaki-43a4","kind":"restaurant","name":"Omsom koukaki","lat":37.96237188971574,"lng":23.719324269228586,"url":"https://maps.app.goo.gl/JSsTgH7xa3anCw4c9?g_st=ipc","address":"Βεΐκου 110, Αθήνα 117 41","categoryIds":["coffee-brunch"],"categories":["Coffee & Brunch Spots"],"distanceKm":0.4035998993165052},{"id":"burgersRestaurants_0329702a3adc","slug":"hankypanky-0329","kind":"restaurant","name":"HankyPanky","lat":37.967400114692225,"lng":23.71303845092353,"url":"https://maps.app.goo.gl/nQP3ShaVnqxgTCSC7?g_st=ipc","address":"Δεινοχαρους 1, Αθήνα 118 52","categoryIds":["burgers"],"categories":["Burger Spots"],"distanceKm":0.5135307701724173},{"id":"coffeeBrunchRestaurants_ae05cdf60e88","slug":"adad-books-cafe-ae05","kind":"restaurant","name":"Adad Books & Café","lat":37.96743015453438,"lng":23.712567122435633,"url":"https://maps.app.goo.gl/5eeqssWqrJZXeHGk6?g_st=ipc","address":"Ανταίου 1, Αθήνα 118 52","categoryIds":["coffee-brunch"],"categories":["Coffee & Brunch Spots"],"distanceKm":0.5304555554433923},{"id":"greekRestaurants_3bad5c31fe5b","slug":"kappari-3bad","kind":"restaurant","name":"Κάππαρη","lat":37.967385035347,"lng":23.71216312954278,"url":"https://maps.app.goo.gl/3JxpXTF4ssEgfTEA9?g_st=ipc","address":"Dorieon 36, Athina 118 51","categoryIds":["greek-restaurants"],"categories":["Greek Restaurants"],"distanceKm":0.5399110938758567},{"id":"cheapEatsRestaurants_1f6ebf17e5fc","slug":"pita-status-1f6e","kind":"restaurant","name":"Pita Status","lat":37.96762299813557,"lng":23.71283351407897,"url":"https://maps.app.goo.gl/QzPB3fhcnsDGCLfk8?g_st=ipc","address":"Καλλισθένους 82, Αθήνα 118 52","categoryIds":["cheap-eats"],"categories":["Gyros & Cheap Eats"],"distanceKm":0.5426367824061961},{"id":"coffeeBrunchRestaurants_10b5704edcd7","slug":"karminio-all-day-eatery-10b5","kind":"restaurant","name":"KARMINIO - All Day Eatery","lat":37.963365261808825,"lng":23.721069408577183,"url":"https://maps.app.goo.gl/B47HWPSnhF6mtY1M8?g_st=ipc","address":"Βεΐκου 86, Αθήνα 117 41","categoryIds":["coffee-brunch","vegetarian"],"categories":["Coffee & Brunch Spots","Vegetarian Friendly Restaurants"],"legacySlugs":["karminio-all-day-eatery-44c1"],"distanceKm":0.5521970374840546},{"id":"cheapEatsRestaurants_4de598be41da","slug":"johnie-hot-dog-syggroy-4de5","kind":"restaurant","name":"Johnie Hot Dog Συγγρού","lat":37.959239923680194,"lng":23.71954717101243,"url":"https://maps.app.goo.gl/WUCUWAGV3GyPBumi7?g_st=ipc","address":"Λεωφ. Ανδρέα Συγγρού 136, Καλλιθέα 176 71","categoryIds":["cheap-eats"],"categories":["Gyros & Cheap Eats"],"distanceKm":0.5900747633812989},{"id":"vegetarianRestaurants_06ce84bd30cd","slug":"mother-vegan-bistro-06ce","kind":"restaurant","name":"Mother Vegan Bistro","lat":37.962693218314804,"lng":23.721538252984118,"url":"https://maps.app.goo.gl/TZgz9fcY4M4aZZQD6?g_st=ipc","address":"Δημητρακοπούλου, Αγίου Νικολάου 95, Αθήνα 117 41","categoryIds":["vegetarian"],"categories":["Vegetarian Friendly Restaurants"],"distanceKm":0.5926818222980204},{"id":"mexicanRestaurants_b734434ef46c","slug":"el-burro-tacos-y-tequila-b734","kind":"restaurant","name":"El burro tacos y tequila","lat":37.962922862445566,"lng":23.7215865155236,"url":"https://maps.app.goo.gl/5kJKHTBcWjkVftX99?g_st=ipc","address":"Δημητρακοπούλου 102, Αθήνα 117 41","categoryIds":["mexican"],"categories":["Mexican Restaurants"],"distanceKm":0.5960262856416891},{"id":"dessertsRestaurants_565a86e193ac","slug":"loukoumania-koukaki-565a","kind":"restaurant","name":"Loukoumania Koukaki","lat":37.96292938267619,"lng":23.721586647006472,"url":"https://maps.app.goo.gl/ZLLgE9gFjGjPVqBp7?g_st=ipc","address":"Δημητρακοπούλου 102, Αθήνα 117 41","categoryIds":["desserts"],"categories":["Dessert Shops"],"distanceKm":0.5960287808131751},{"id":"greekRestaurants_6497d4b8be55","slug":"o-mitos-kritiko-rakadiko-mezedopoleio-6497","kind":"restaurant","name":"Ο Μίτος (Κρητικό Ρακάδικο-Μεζεδοπωλείο)","lat":37.95902391394004,"lng":23.710171017106486,"url":"https://maps.app.goo.gl/fWEdbaEvd9cA8Enr9","address":"Αριστείδου 62, Καλλιθέα 176 71","categoryIds":["greek-restaurants"],"categories":["Greek Restaurants"],"distanceKm":0.5988440475434524},{"id":"coffeeBrunchRestaurants_93d5a5bf934a","slug":"bite-box-93d5","kind":"restaurant","name":"Bite Box","lat":37.963687328724134,"lng":23.72159915102945,"url":"https://maps.app.goo.gl/szSB6mZP4tWEA46h7?g_st=ipc","address":"Βεΐκου 84, Αθήνα 117 41","categoryIds":["coffee-brunch"],"categories":["Coffee & Brunch Spots"],"distanceKm":0.6020555819707792},{"id":"luxuryDiningRestaurants_b29116d56a30","slug":"herve-restaurant-b291","kind":"restaurant","name":"Herve Restaurant","lat":37.96670241575443,"lng":23.709370285349806,"url":"https://maps.app.goo.gl/o5KA9u8fZnaZ9XMY6?g_st=ipc","address":"Τριών Ιεραρχών 170, Αθήνα 118 52","categoryIds":["luxury-dining"],"categories":["Luxury Dining"],"distanceKm":0.6290925099434684},{"id":"cheapEatsRestaurants_f167ae0efa67","slug":"kalyvas-oikogeneiako-psitopoleio-f167","kind":"restaurant","name":"Καλύβας οικογενειακό ψητοπωλείο","lat":37.962881286635515,"lng":23.721970322127277,"url":"https://maps.app.goo.gl/tfkKpGgKP9PAqPWX9?g_st=ipc","address":"Dimitrakopoulou 91-93, G Olymbiou 10, Athina 117 41","categoryIds":["cheap-eats"],"categories":["Gyros & Cheap Eats"],"distanceKm":0.6297449245428575},{"id":"greekRestaurants_f1eb108e1b22","slug":"taverna-t-aschimopapo-f1eb","kind":"restaurant","name":"Ταβέρνα Τ' Ασχημόπαπο","lat":37.96881098076761,"lng":23.714190146946947,"url":"https://maps.app.goo.gl/dNg85MBr8ViicbBL6","address":"Ιώνων 61, Αθήνα 118 51","categoryIds":["greek-restaurants"],"categories":["Greek Restaurants"],"distanceKm":0.649085924707233},{"id":"greekRestaurants_f4bfdaeebedd","slug":"karderina-f4bf","kind":"restaurant","name":"Καρδερίνα","lat":37.96886028012467,"lng":23.713545491142042,"url":"https://maps.app.goo.gl/JZ7NHd5aYDr2jXELA","address":"Καλλισθένους 67, Αθήνα 118 52","categoryIds":["greek-restaurants"],"categories":["Greek Restaurants"],"distanceKm":0.6614804879033572},{"id":"dessertsRestaurants_f792b1129076","slug":"flour-of-youth-f792","kind":"restaurant","name":"Flour Of Youth","lat":37.96404409092071,"lng":23.722471600259,"url":"https://maps.app.goo.gl/FibffjzNDReT3bDx7?g_st=ipc","address":"Βεΐκου 91, Αθήνα 117 41","categoryIds":["desserts"],"categories":["Dessert Shops"],"distanceKm":0.6836340650669431},{"id":"cheapEatsRestaurants_94dff4f67b62","slug":"to-soyvlaki-tis-charokopoy-94df","kind":"restaurant","name":"Το Σουβλάκι Της Χαροκόπου","lat":37.95770921844376,"lng":23.710571236714188,"url":"https://maps.app.goo.gl/Rh99dawd3iLza1Vz7?g_st=ipc","address":"Χαροκόπου 46, Καλλιθέα 176 71","categoryIds":["cheap-eats"],"categories":["Gyros & Cheap Eats"],"distanceKm":0.6941466940370979},{"id":"coffeeBrunchRestaurants_6154e62b6cd6","slug":"mpel-rey-6154","kind":"restaurant","name":"Μπελ Ρεϋ","lat":37.96239606904346,"lng":23.722769926662476,"url":"https://maps.app.goo.gl/zGZShvHird8bq92Q9?g_st=ipc","address":"Φαλήρου 88, Αθήνα 117 41","categoryIds":["coffee-brunch"],"categories":["Coffee & Brunch Spots"],"distanceKm":0.7028622786130936},{"id":"mexicanRestaurants_ec31cb806a86","slug":"dos-banditos-ec31","kind":"restaurant","name":"Dos Banditos","lat":37.957023186399105,"lng":23.71172894880883,"url":"https://maps.app.goo.gl/A9S8uhRtFHyQhuDh6?g_st=ipc","address":"Δημοσθένους 31, Καλλιθέα 176 71","categoryIds":["mexican"],"categories":["Mexican Restaurants"],"distanceKm":0.7159214942035504}],"mentionedGuides":[],"canonicalSlug":"ceci-hong-kong-hot-pot-restaurant-674b","enrichment":{"summary_en":"Ceci Hong Kong Hot Pot Restaurant is a curated restaurant in Αθήνα 176 76 in the Asian Restaurants collection. It is connected to 38 nearby Googlementor picks to help travelers build a stronger local route.","summary_el":"Ceci Hong Kong Hot Pot Restaurant είναι ένα επιλεγμένο σημείο φαγητού στην περιοχή Αθήνα 176 76 και ανήκει στη συλλογή Asian Restaurants. Συνδέεται με 38 κοντινές προτάσεις του Googlementor για πιο ολοκληρωμένη εμπειρία.","vibe_tags":["curated"],"best_for":["first-time visitors","food lovers"],"visit_moments":["lunch stop","dinner stop"],"practical_note":"Address and direct map link are available for easy turn-by-turn access.","nearby_walkable_count":38,"nearby_count_2km":353,"confidence":0.98},"areaContext":{"slug":"petralona","name":"Petralona","nameEl":"Πετράλωνα"},"intentContexts":[{"href":"/asian-restaurants/petralona","label":"Asian Restaurants in Petralona","categorySlug":"asian-restaurants","categoryName":"Asian Restaurants","areaSlug":"petralona","areaName":"Petralona","areaNameEl":"Πετράλωνα"}]},"__N_SSG":true}