{"pageProps":{"entity":{"id":"dessertsRestaurants_19a8d37c0b4c","slug":"cinnabon-19a8","kind":"restaurant","name":"Cinnabon","lat":40.646492769432,"lng":22.920799139987686,"url":"https://maps.app.goo.gl/Ndu5vJgYbtj4ou9s5?g_st=ipc","address":"Giannitson 61, Thessaloniki 546 27","categoryIds":["desserts"],"categories":["Dessert Shops"]},"sameCategory":[{"id":"dessertsRestaurants_31d6f488c2f0","slug":"terkenlis-ose-31d6","kind":"restaurant","name":"Terkenlis OSE","lat":40.64470252527838,"lng":22.92850176756682,"url":"https://maps.app.goo.gl/6mo1DJtrfFXMber56?g_st=ipc","address":"Monastiriou, Thessaloniki 546 27","categoryIds":["desserts"],"categories":["Dessert Shops"]},{"id":"dessertsRestaurants_72b74e57e81d","slug":"pastelopoiion-72b7","kind":"restaurant","name":"Pastelopoiḯon","lat":40.63949021546042,"lng":22.936170041434007,"url":"https://maps.app.goo.gl/QqgTsF7F3e7rFPXh6?g_st=ipc","address":"Dodekanisou 3, Thessaloniki 546 26","categoryIds":["desserts"],"categories":["Dessert Shops"]},{"id":"dessertsRestaurants_0eed40d3488f","slug":"helios-pastry-shop-0eed","kind":"restaurant","name":"Helios Pastry Shop","lat":40.639377492095335,"lng":22.93909008861793,"url":"https://maps.app.goo.gl/wxVoFxomNfq7egVX7?g_st=ipc","address":"Adigonidon 7, Thessaloniki 546 30","categoryIds":["desserts"],"categories":["Dessert Shops"]},{"id":"dessertsRestaurants_d6f56e7bfdf1","slug":"terkenlis-ktel-makedonias-d6f5","kind":"restaurant","name":"Τερκενλής ΚΤΕΛ Μακεδονίας","lat":40.654156711472844,"lng":22.902064012379874,"url":"https://maps.app.goo.gl/M3GHqH2wSqH8EMUj7?g_st=ipc","address":"Monastiriou, Menemeni 546 28","categoryIds":["desserts"],"categories":["Dessert Shops"]},{"id":"dessertsRestaurants_77934967676e","slug":"souffler-7793","kind":"restaurant","name":"Soufflér","lat":40.63479159488401,"lng":22.93892769842922,"url":"https://maps.app.goo.gl/BLrPEMBFAqcE5fZP6?g_st=ipc","address":"Rogkoti 4, Thessaloniki 546 24","categoryIds":["desserts"],"categories":["Dessert Shops"]},{"id":"dessertsRestaurants_70ba1f9e9560","slug":"sokolata-agapitos-patisserie-1944-70ba","kind":"restaurant","name":"Sokolata Agapitos Patisserie 1944","lat":40.63465415609907,"lng":22.93927735818438,"url":"https://maps.app.goo.gl/M7U7vTzULNaTuLAg7?g_st=ic","address":"Tsimiski 10, Thessaloniki 546 24","categoryIds":["desserts"],"categories":["Dessert Shops"]},{"id":"dessertsRestaurants_e887adc877c7","slug":"choureal-choux-profiterole-e887","kind":"restaurant","name":"CHOUREAL - Choux & Profiterole","lat":40.63486867839386,"lng":22.939852872521865,"url":"https://maps.app.goo.gl/UwfdcZR8Tfa1XRB89?g_st=ipc","address":"El. Venizelou 20, Thessaloniki 546 24","categoryIds":["desserts"],"categories":["Dessert Shops"]},{"id":"dessertsRestaurants_dcc7c5a7a10c","slug":"proficherie-dcc7","kind":"restaurant","name":"PROFICHÉRIE","lat":40.635435050961,"lng":22.940491002950786,"url":"https://maps.app.goo.gl/vrmA8yCaVwtzavyo7?g_st=ic","address":"El. Venizelou 28, Thessaloniki 546 24","categoryIds":["desserts"],"categories":["Dessert Shops"]},{"id":"dessertsRestaurants_f577f5bbd8fd","slug":"nick-alexoudas-f577","kind":"restaurant","name":"NICK ALEXOUDAS","lat":40.640152390023324,"lng":22.946508561358726,"url":"https://maps.app.goo.gl/mqxpWWxFf4unYCA89?g_st=ipc","address":"Kassandrou 48, Thessaloniki 546 33","categoryIds":["desserts"],"categories":["Dessert Shops"]},{"id":"dessertsRestaurants_fa6b1cda2935","slug":"terkenlis-fa6b","kind":"restaurant","name":"Terkenlis","lat":40.63318101509439,"lng":22.941941930979123,"url":"https://maps.app.goo.gl/x8RmTioRat9tbKBd8?g_st=ipc","address":"Tsimiski 30, Thessaloniki 546 36","categoryIds":["desserts"],"categories":["Dessert Shops"]},{"id":"dessertsRestaurants_9a44dfef37c2","slug":"softie-9a44","kind":"restaurant","name":"Softie","lat":40.63175293928538,"lng":22.94216885639287,"url":"https://maps.app.goo.gl/wypmiNMsE5au37Mr7?g_st=ic","address":"Proxenou Koromila 5, Thessaloniki 546 23","categoryIds":["desserts"],"categories":["Dessert Shops"]},{"id":"dessertsRestaurants_e8be0b820869","slug":"sarantis-bakery-patisserie-e8be","kind":"restaurant","name":"Σαράντης Bakery Patisserie","lat":40.63827380747778,"lng":22.947664759270584,"url":"https://maps.app.goo.gl/RefSjsyuU49WN5f89?g_st=ipc","address":"Ag. Dimitriou 98, Thessaloniki 546 31","categoryIds":["desserts"],"categories":["Dessert Shops"]}],"nearby":[{"id":"cheapEatsRestaurants_4ad6c8183391","slug":"crats-mexican-4ad6","kind":"restaurant","name":"Crats Mexican","lat":40.646440943227944,"lng":22.920915607467233,"url":"https://maps.app.goo.gl/L84rScHZkgehJUri7?g_st=ipc","address":"Giannitson 61, Thessaloniki 546 27","categoryIds":["cheap-eats","mexican"],"categories":["Gyros & Cheap Eats","Mexican Restaurants"],"legacySlugs":["crats-mexican-d628"],"distanceKm":0.011391387581900843},{"id":"coffeeBrunchRestaurants_9b9341bfba14","slug":"join-juice-bars-9b93","kind":"restaurant","name":"JOIN juice bars","lat":40.646571727400875,"lng":22.92141339579847,"url":"https://maps.app.goo.gl/pSgB53k7vyQwHX78A?g_st=ipc","address":"Giannitson 61, Thessaloniki 546 27","categoryIds":["coffee-brunch","vegetarian"],"categories":["Coffee & Brunch Spots","Vegetarian Friendly Restaurants"],"legacySlugs":["join-juice-bars-3c92"],"distanceKm":0.052562179369759265},{"id":"luxuryDiningRestaurants_f884c9044ca6","slug":"iberico-f884","kind":"restaurant","name":"Iberico","lat":40.644771791421974,"lng":22.920737302788805,"url":"https://maps.app.goo.gl/zswCQ5dz9hpLhfwE6?g_st=ipc","address":"Νικ. Μάντζαρου 18 &, Kotta Roulia, Thessaloniki 546 27","categoryIds":["luxury-dining"],"categories":["Luxury Dining"],"distanceKm":0.19143512842334445},{"id":"cheapEatsRestaurants_6688c0081a92","slug":"ta-babatsika-giro-6688","kind":"restaurant","name":"Ta Babatsika Giro","lat":40.647745410832044,"lng":22.928067747195957,"url":"https://maps.app.goo.gl/gB9jG1sW8aaCssEs7?g_st=ipc","address":"Αγίων Πάντων 28, Thessaloniki 561 23","categoryIds":["cheap-eats"],"categories":["Gyros & Cheap Eats"],"distanceKm":0.6288544191294767},{"id":"cheapEatsRestaurants_65901adf52a7","slug":"mama-tereza-6590","kind":"restaurant","name":"Μαμά Τερέζα","lat":40.64077907495011,"lng":22.91819947384191,"url":"https://maps.app.goo.gl/huQUwoVx5eZ9dY357?g_st=ipc","address":"26is Oktovriou 15, Thessaloniki 546 27","categoryIds":["cheap-eats"],"categories":["Gyros & Cheap Eats"],"distanceKm":0.6721299554823956},{"id":"dessertsRestaurants_31d6f488c2f0","slug":"terkenlis-ose-31d6","kind":"restaurant","name":"Terkenlis OSE","lat":40.64470252527838,"lng":22.92850176756682,"url":"https://maps.app.goo.gl/6mo1DJtrfFXMber56?g_st=ipc","address":"Monastiriou, Thessaloniki 546 27","categoryIds":["desserts"],"categories":["Dessert Shops"],"distanceKm":0.6796721467989799},{"id":"fishTavernasRestaurants_a0a70eb01c99","slug":"ouzeri-kosmas-a0a7","kind":"restaurant","name":"Ouzeri \"Kosmas\"","lat":40.64801268123014,"lng":22.93043130003418,"url":"https://maps.app.goo.gl/vEURBm27mFZ4pGJfA?g_st=ipc","address":"Vasilikis Papathanasiou 74, Thessaloniki 546 29","categoryIds":["fish-tavernas"],"categories":["Fish Tavernas"],"distanceKm":0.8300286748297159},{"id":"cheapEatsRestaurants_2966a9f7f7df","slug":"karbouniariko-2966","kind":"restaurant","name":"Karbouniáriko","lat":40.65687885553669,"lng":22.9247874320993,"url":"https://maps.app.goo.gl/HehrRz31yKnDYNa49?g_st=ipc","address":"Nik. Plastira 11, Ampelokipi 561 23","categoryIds":["cheap-eats"],"categories":["Gyros & Cheap Eats"],"distanceKm":1.2028936007159658},{"id":"coffeeBrunchRestaurants_9f516ac09de5","slug":"tsitsanki-9f51","kind":"restaurant","name":"Tsitsanki","lat":40.65105910915655,"lng":22.93545214874879,"url":"https://maps.app.goo.gl/fcosc9VFnpPap1qs5?g_st=ipc","address":"Λαγκαδά 116, Neapoli 567 27","categoryIds":["coffee-brunch"],"categories":["Coffee & Brunch Spots"],"distanceKm":1.336422309640274},{"id":"fishTavernasRestaurants_20b8b4ae6be5","slug":"karnagio-psarotaverna-20b8","kind":"restaurant","name":"Καρνάγιο ΨΑΡΟΤΑΒΕΡΝΑ","lat":40.65672226446403,"lng":22.929289665430808,"url":"https://maps.app.goo.gl/dET6AhcimdU74KXm7?g_st=ipc","address":"Akriton 15, Ampelokipi 561 23","categoryIds":["fish-tavernas"],"categories":["Fish Tavernas"],"distanceKm":1.3442045689083513},{"id":"fishTavernasRestaurants_669c4e5a11b9","slug":"nisaki-669c","kind":"restaurant","name":"Nisaki","lat":40.656777734821844,"lng":22.92922500008805,"url":"https://maps.app.goo.gl/hvKpXiAYMeS5Y9za8?g_st=ipc","address":"Akriton 13, Ampelokipi 561 23","categoryIds":["fish-tavernas"],"categories":["Fish Tavernas"],"distanceKm":1.3465400717474196},{"id":"coffeeBrunchRestaurants_dd910adc2566","slug":"beyond-the-walls-dd91","kind":"restaurant","name":"BEYOND The Walls","lat":40.63839199621431,"lng":22.934457510684794,"url":"https://maps.app.goo.gl/p8QR7tTcw9DAMN2e9?g_st=ipc","address":"Fragkon 2, Thessaloniki 546 26","categoryIds":["coffee-brunch"],"categories":["Coffee & Brunch Spots"],"distanceKm":1.4626733396909077},{"id":"dessertsRestaurants_72b74e57e81d","slug":"pastelopoiion-72b7","kind":"restaurant","name":"Pastelopoiḯon","lat":40.63949021546042,"lng":22.936170041434007,"url":"https://maps.app.goo.gl/QqgTsF7F3e7rFPXh6?g_st=ipc","address":"Dodekanisou 3, Thessaloniki 546 26","categoryIds":["desserts"],"categories":["Dessert Shops"],"distanceKm":1.512681917399472},{"id":"greekRestaurants_8f48f269fd50","slug":"koru-inspired-cuisine-8f48","kind":"restaurant","name":"KORU INSPIRED CUISINE","lat":40.6419170569474,"lng":22.93912654198058,"url":"https://maps.app.goo.gl/z6JvmY8nTC7yzJmFA?g_st=ipc","address":"Ολύμπου 15, Θεσσαλονίκη 546 30","categoryIds":["greek-restaurants"],"categories":["Greek Restaurants"],"distanceKm":1.6278623312664873},{"id":"italianRestaurants_767d6c96919e","slug":"funghi-pizza-pasta-767d","kind":"restaurant","name":"Funghi Pizza & Pasta","lat":40.6605072820276,"lng":22.9274131044966,"url":"https://maps.app.goo.gl/SJNcMHpxLNtQxnKLA?g_st=ipc","address":"Iatrou Gogousi 25, κέντρο 564 30","categoryIds":["italian"],"categories":["Italian Restaurants"],"distanceKm":1.6552163238533784},{"id":"greekRestaurants_35929975107f","slug":"tandur-meze-bar-3592","kind":"restaurant","name":"Tandur meze-bar","lat":40.65350641836204,"lng":22.93893939189117,"url":"https://maps.app.goo.gl/i8gDRLqa1MtexdZ17?g_st=ipc","address":"Αγίου Γεωργίου 42, Νεάπολη 567 27","categoryIds":["greek-restaurants"],"categories":["Greek Restaurants"],"distanceKm":1.7176404004352561},{"id":"coffeeBrunchRestaurants_1c6ae917ccf8","slug":"romantzo-1c6a","kind":"restaurant","name":"Romantzo","lat":40.637344096207045,"lng":22.93721658740342,"url":"https://maps.app.goo.gl/xTf6UJFe7tcY4vHU7?g_st=ipc","address":"Veroias 2, Thessaloniki 546 25","categoryIds":["coffee-brunch"],"categories":["Coffee & Brunch Spots"],"distanceKm":1.718625235636238},{"id":"cheapEatsRestaurants_41498834b457","slug":"crats-fried-chicken-egnatia-4149","kind":"restaurant","name":"Crats Fried Chicken Egnatia","lat":40.63898844732417,"lng":22.938638631354078,"url":"https://maps.app.goo.gl/ck9L5Pz4C9MGKVbV7?g_st=ipc","address":"Egnatia 27, Thessaloniki 546 30","categoryIds":["cheap-eats"],"categories":["Gyros & Cheap Eats"],"distanceKm":1.7210001201576002},{"id":"dessertsRestaurants_0eed40d3488f","slug":"helios-pastry-shop-0eed","kind":"restaurant","name":"Helios Pastry Shop","lat":40.639377492095335,"lng":22.93909008861793,"url":"https://maps.app.goo.gl/wxVoFxomNfq7egVX7?g_st=ipc","address":"Adigonidon 7, Thessaloniki 546 30","categoryIds":["desserts"],"categories":["Dessert Shops"],"distanceKm":1.7342493761001878},{"id":"burgersRestaurants_90d16bd5f050","slug":"pratina-burger-project-90d1","kind":"restaurant","name":"PRATINA Burger Project","lat":40.63713764523389,"lng":22.937597600102066,"url":"https://maps.app.goo.gl/rE8kgxhDvdzbh9hw7","address":"Veroias 5, Thessaloniki 546 25","categoryIds":["burgers","cheap-eats"],"categories":["Burger Spots","Gyros & Cheap Eats"],"legacySlugs":["pratina-burger-project-47ac"],"distanceKm":1.7581262548853402},{"id":"greekRestaurants_49d951272a6f","slug":"charoypi-49d9","kind":"restaurant","name":"Χαρούπι","lat":40.63543442383406,"lng":22.935693784240467,"url":"https://maps.app.goo.gl/Doz2MeGM9WFBW6vBA?g_st=ipc","address":"Δόξης 4, Θεσσαλονίκη 546 25","categoryIds":["greek-restaurants"],"categories":["Greek Restaurants"],"distanceKm":1.7582356285943854},{"id":"burgersRestaurants_b5205e897d93","slug":"tarantino-sandwiches-fries-b520","kind":"restaurant","name":"Tarantino Sandwiches & Fries","lat":40.63667870510283,"lng":22.93716261995098,"url":"https://maps.app.goo.gl/NKZaYUsTivGGc1mU7?g_st=ipc","address":"Ernestou Emprar 5, Thessaloniki 546 25","categoryIds":["burgers"],"categories":["Burger Spots"],"distanceKm":1.759859612320648},{"id":"asianRestaurants_8419e93bcb2d","slug":"ikigai-the-dumpling-experience-8419","kind":"restaurant","name":"Ikigai - The Dumpling Experience","lat":40.637093410026516,"lng":22.93763984161015,"url":"https://maps.app.goo.gl/zEYfCsMm5fXf8Dd78?g_st=ipc","address":"Veroias 5, Thessaloniki 546 25","categoryIds":["asian"],"categories":["Asian Restaurants"],"distanceKm":1.7639111965695056},{"id":"italianRestaurants_7cee9388f440","slug":"pizza-hood-7cee","kind":"restaurant","name":"Pizza Hood","lat":40.63650781158609,"lng":22.937112758246737,"url":"https://maps.app.goo.gl/PSUf6oyYdwKAkgEFA","address":"Ernestou Emprar 2, Thessaloniki 546 25","categoryIds":["italian"],"categories":["Italian Restaurants"],"distanceKm":1.7684304633729528}],"mentionedGuides":[],"canonicalSlug":"cinnabon-19a8","enrichment":{"summary_en":"Cinnabon is a curated restaurant in Thessaloniki 546 27 in the Dessert Shops collection. It is connected to 6 nearby Googlementor picks to help travelers build a stronger local route.","summary_el":"Cinnabon είναι ένα επιλεγμένο σημείο φαγητού στην περιοχή Thessaloniki 546 27 και ανήκει στη συλλογή Dessert Shops. Συνδέεται με 6 κοντινές προτάσεις του Googlementor για πιο ολοκληρωμένη εμπειρία.","vibe_tags":["curated","sweet-stop"],"best_for":["first-time visitors","food lovers"],"visit_moments":["afternoon break","after dinner"],"practical_note":"Address and direct map link are available for easy turn-by-turn access.","nearby_walkable_count":6,"nearby_count_2km":64,"confidence":0.98},"areaContext":{"slug":"vardaris","name":"Vardaris","nameEl":"Βαρδάρης"},"intentContexts":[{"href":"/desserts/vardaris","label":"Dessert Shops in Vardaris","categorySlug":"desserts","categoryName":"Dessert Shops","areaSlug":"vardaris","areaName":"Vardaris","areaNameEl":"Βαρδάρης"}]},"__N_SSG":true}