{"pageProps":{"entity":{"id":"luxuryDiningRestaurants_83e86c45f94e","slug":"dolli-s-83e8","kind":"restaurant","name":"DOLLI•S","lat":37.97581257538226,"lng":23.728126338151636,"url":"https://maps.app.goo.gl/otc3c7Va7CjPm1DW6?g_st=ipc","address":"Μητροπόλεως 49, Αθήνα 105 56","categoryIds":["luxury-dining","rooftop-lounges"],"categories":["Luxury Dining","Rooftop Lounges"],"legacySlugs":["dolli-s-6749"]},"sameCategory":[{"id":"coffeeBrunchRestaurants_52c7c7c59252","slug":"ciel-athens-52c7","kind":"restaurant","name":"Ciel Athens","lat":37.975701684177345,"lng":23.72877509005901,"url":"https://maps.app.goo.gl/U1toAvoUiB34xk528?g_st=ipc","address":"ΜΝΗΣΙΚΛΕΟΥΣ, Μητροπόλεως 2, Αθήνα 105 56","categoryIds":["coffee-brunch","luxury-dining"],"categories":["Coffee & Brunch Spots","Luxury Dining"],"legacySlugs":["ciel-athens-4c25"]},{"id":"luxuryDiningRestaurants_1ec414f34680","slug":"okra-1ec4","kind":"restaurant","name":"Okra","lat":37.976265060511366,"lng":23.727023267502062,"url":"https://maps.app.goo.gl/WKQy9EmSUhqhWCug7?g_st=ipc","address":"Μητροπόλεως 82, Αθήνα 105 55","categoryIds":["luxury-dining","rooftop-lounges"],"categories":["Luxury Dining","Rooftop Lounges"],"legacySlugs":["okra-912c"]},{"id":"luxuryDiningRestaurants_2a500f95083c","slug":"the-zillers-rooftop-gastronomy-2a50","kind":"restaurant","name":"The Zillers Rooftop Gastronomy","lat":37.97561073825588,"lng":23.729618727455946,"url":"https://maps.app.goo.gl/3rX2B6EznK5THCsX9?g_st=ipc","address":"Μητροπόλεως 54, Αθήνα 105 63","categoryIds":["luxury-dining","rooftop-lounges"],"categories":["Luxury Dining","Rooftop Lounges"],"legacySlugs":["the-zillers-rooftop-gastronomy-deda"]},{"id":"greekRestaurants_9a0e0e6e3a9d","slug":"feedel-urban-gastronomy-9a0e","kind":"restaurant","name":"Feedέλ Urban Gastronomy","lat":37.976600766846424,"lng":23.729911306320325,"url":"https://maps.app.goo.gl/Uppwoqd1GbSaLvCe7","address":"Κτενά 1, Αθήνα 105 63","categoryIds":["greek-restaurants","luxury-dining"],"categories":["Greek Restaurants","Luxury Dining"],"legacySlugs":["feedel-urban-gastronomy-858d"]},{"id":"luxuryDiningRestaurants_e80ec81a6e88","slug":"ateno-cook-deli-e80e","kind":"restaurant","name":"Ateno Cook & Deli","lat":37.97838376630937,"lng":23.72811686512798,"url":"https://maps.app.goo.gl/f7xcdqi6HEkGGDrXA?g_st=ipc","address":"Αιόλου 52 &, Μιλτιάδου, Αθήνα 105 60","categoryIds":["luxury-dining"],"categories":["Luxury Dining"]},{"id":"luxuryDiningRestaurants_45e8a4dd5c78","slug":"metropolis-roof-garden-45e8","kind":"restaurant","name":"Metropolis Roof Garden","lat":37.97522262578899,"lng":23.732019777211896,"url":"https://maps.app.goo.gl/zUugGUWG4UDszZX58?g_st=ipc","address":"Μητροπόλεως 15, Αθήνα 105 57","categoryIds":["luxury-dining","rooftop-lounges"],"categories":["Luxury Dining","Rooftop Lounges"],"legacySlugs":["metropolis-roof-garden-f3d7"]},{"id":"luxuryDiningRestaurants_c75b4f75eed4","slug":"geco-athens-c75b","kind":"restaurant","name":"Geco Athens","lat":37.97686179118327,"lng":23.732026538746123,"url":"https://maps.app.goo.gl/p3ytMHs2cKCwK2j76?g_st=ipc","address":"Λέκκα 14, Αθήνα 105 62","categoryIds":["luxury-dining"],"categories":["Luxury Dining"]},{"id":"luxuryDiningRestaurants_d7864d62c4d5","slug":"electra-roof-garden-d786","kind":"restaurant","name":"Electra Roof Garden","lat":37.97379853875271,"lng":23.731619747681133,"url":"https://maps.app.goo.gl/DRSR8qGkR5GU1Bts9?g_st=ipc","address":"Ναυάρχου Νικοδήμου 18-20, Αθήνα 105 57","categoryIds":["luxury-dining","rooftop-lounges"],"categories":["Luxury Dining","Rooftop Lounges"],"legacySlugs":["electra-roof-garden-e530"]},{"id":"asianRestaurants_e28b11d8898b","slug":"nolan-e28b","kind":"restaurant","name":"Nolan","lat":37.97479795746223,"lng":23.732371775380916,"url":"https://maps.app.goo.gl/X3KiMCEXwDEoAj3N6?g_st=ipc","address":"Βουλής 31 - 33, Αθήνα 105 57","categoryIds":["asian","luxury-dining"],"categories":["Asian Restaurants","Luxury Dining"],"legacySlugs":["nolan-d22b"]},{"id":"asianRestaurants_0d95e4345c8a","slug":"sushimou-0d95","kind":"restaurant","name":"Sushimou","lat":37.97442757213257,"lng":23.73246192997683,"url":"https://maps.app.goo.gl/1y3Cs2ks6GF4C85F6?g_st=ipc","address":"Σκούφου 6, Αθήνα 105 57","categoryIds":["asian","luxury-dining"],"categories":["Asian Restaurants","Luxury Dining"],"legacySlugs":["sushimou-47da"]},{"id":"luxuryDiningRestaurants_737b98c16994","slug":"anthes-restaurant-737b","kind":"restaurant","name":"ANTHES RESTAURANT","lat":37.974547276465074,"lng":23.732673103940233,"url":"https://maps.app.goo.gl/RDyBCidSMuRkERcq8?g_st=ipc","address":"Σκούφου 3, Αθήνα 105 57","categoryIds":["luxury-dining"],"categories":["Luxury Dining"]},{"id":"luxuryDiningRestaurants_34782393fe41","slug":"makris-athens-fine-dining-restaurant-3478","kind":"restaurant","name":"Makris Athens Fine Dining Restaurant","lat":37.97675780023075,"lng":23.722883040179465,"url":"https://maps.app.goo.gl/3itc1dgDWbdcs6649?g_st=ipc","address":"Astiggos 10, Ερμού 119, Αθήνα 105 55","categoryIds":["luxury-dining"],"categories":["Luxury Dining"]}],"nearby":[{"id":"coffeeBrunchRestaurants_52c7c7c59252","slug":"ciel-athens-52c7","kind":"restaurant","name":"Ciel Athens","lat":37.975701684177345,"lng":23.72877509005901,"url":"https://maps.app.goo.gl/U1toAvoUiB34xk528?g_st=ipc","address":"ΜΝΗΣΙΚΛΕΟΥΣ, Μητροπόλεως 2, Αθήνα 105 56","categoryIds":["coffee-brunch","luxury-dining"],"categories":["Coffee & Brunch Spots","Luxury Dining"],"legacySlugs":["ciel-athens-4c25"],"distanceKm":0.05818577524884775},{"id":"burgersRestaurants_72777d81b2c1","slug":"cadillac-burgers-7277","kind":"restaurant","name":"Cadillac Burgers","lat":37.97549144814891,"lng":23.728731411277973,"url":"https://maps.app.goo.gl/tbzr2ePrf29seJBFA?g_st=ipc","address":"Μνησικλέους 6, Αθήνα 105 56","categoryIds":["burgers"],"categories":["Burger Spots"],"distanceKm":0.06393619538954913},{"id":"monasteriesChurches_33b82b7e9f7b","slug":"ieros-panepistimiakos-naos-eisodion-tis-theotokoy-kapnikarea-33b8","kind":"restaurant","name":"Ιερός Πανεπιστημιακός Ναός Εισοδίων της Θεοτόκου (Καπνικαρέα)","lat":37.97637980025147,"lng":23.72861650689245,"url":"https://maps.app.goo.gl/7LkLpxAa7L7V3fr8A?g_st=ipc","address":"Πλ. Καπνικαρέας 3, Αθήνα 105 63","categoryIds":["monasteries-churches"],"categories":["Monasteries & Spiritual Sites"],"distanceKm":0.07631543069988539},{"id":"rooftopLoungesRestaurants_f5cf87cae9d4","slug":"city-zen-all-day-bar-restaurant-f5cf","kind":"restaurant","name":"City ZEN All Day Bar Restaurant","lat":37.97627508580123,"lng":23.72741558524515,"url":"https://maps.app.goo.gl/jqRmCH3g4tS3Er5o8?g_st=ipc","address":"Αιόλου 11, Αθήνα 105 55","categoryIds":["rooftop-lounges"],"categories":["Rooftop Lounges"],"distanceKm":0.08078381923506649},{"id":"dessertsRestaurants_5e0cb4cc4116","slug":"zuccherino-5e0c","kind":"restaurant","name":"Zuccherino","lat":37.97623565675873,"lng":23.72722343699636,"url":"https://maps.app.goo.gl/boMtKFAnr9YpgWRf9?g_st=ipc","address":"Μητροπόλεως 80, Αθήνα 105 60","categoryIds":["desserts"],"categories":["Dessert Shops"],"distanceKm":0.09206746035603176},{"id":"rooftopLoungesRestaurants_dccec8a54ab2","slug":"taratsa-athens-dcce","kind":"restaurant","name":"Taratsa Athens","lat":37.97577225088555,"lng":23.729185158634564,"url":"https://maps.app.goo.gl/jwnF2SS5G6PYqRPf9?g_st=ipc","address":"Μητροπόλεως 60, Αθήνα 105 63","categoryIds":["rooftop-lounges"],"categories":["Rooftop Lounges"],"distanceKm":0.09291568358420897},{"id":"vegetarianRestaurants_7e314f6791f9","slug":"fontana-7e31","kind":"restaurant","name":"Fontana","lat":37.976643434278735,"lng":23.727544640785275,"url":"https://maps.app.goo.gl/AuBtWGWtH3xRZBEV8?g_st=ipc","address":"Αιόλου 17, Αθήνα 105 51","categoryIds":["vegetarian"],"categories":["Vegetarian Friendly Restaurants"],"distanceKm":0.10552266144752313},{"id":"luxuryDiningRestaurants_1ec414f34680","slug":"okra-1ec4","kind":"restaurant","name":"Okra","lat":37.976265060511366,"lng":23.727023267502062,"url":"https://maps.app.goo.gl/WKQy9EmSUhqhWCug7?g_st=ipc","address":"Μητροπόλεως 82, Αθήνα 105 55","categoryIds":["luxury-dining","rooftop-lounges"],"categories":["Luxury Dining","Rooftop Lounges"],"legacySlugs":["okra-912c"],"distanceKm":0.10899371506093183},{"id":"coffeeBrunchRestaurants_86c49b223ca7","slug":"gaya-athens-86c4","kind":"restaurant","name":"GAYA Athens","lat":37.97655155960143,"lng":23.729000167842386,"url":"https://maps.app.goo.gl/wY2FhMBr8ApzzSLw5?g_st=ipc","address":"Καλαμιώτου 2, Αθήνα 105 63","categoryIds":["coffee-brunch"],"categories":["Coffee & Brunch Spots"],"distanceKm":0.11233208232340286},{"id":"cheapEatsRestaurants_8b657b1197a5","slug":"hoocut-8b65","kind":"restaurant","name":"Hoocut","lat":37.976849062316084,"lng":23.72809711402173,"url":"https://maps.app.goo.gl/gP2JFL8Nk8hDVyEZ6?g_st=ipc","address":"Πλ. Αγίας Ειρήνης 9, Αθήνα 105 63","categoryIds":["cheap-eats"],"categories":["Gyros & Cheap Eats"],"distanceKm":0.11528055056169716},{"id":"gyrosSouvlakiRestaurants_514910b62a38","slug":"souvlaki-monastiraki-5149","kind":"restaurant","name":"Souvlaki Monastiraki","lat":37.975,"lng":23.729,"url":"https://maps.app.goo.gl/sample29","address":"Mitropoleos 2, Athina 105 63","categoryIds":["cheap-eats"],"categories":["Gyros & Cheap Eats"],"distanceKm":0.1184404395413786},{"id":"cheapEatsRestaurants_f2848f6727ab","slug":"tylixto-monastiraki-f284","kind":"restaurant","name":"TYLIXTO MONASTIRAKI","lat":37.976859135543,"lng":23.727597993730694,"url":"https://maps.app.goo.gl/s8G17xLU1a1prvZq8?g_st=ipc","address":"Aiolou 19 TYLIXTO, Αιόλου 19, Αθήνα 105 51","categoryIds":["cheap-eats"],"categories":["Gyros & Cheap Eats"],"distanceKm":0.12524813741495183},{"id":"burgersRestaurants_ca036ca42e3f","slug":"pax-burgers-ca03","kind":"restaurant","name":"Pax burgers","lat":37.97692157366875,"lng":23.727728305189554,"url":"https://maps.app.goo.gl/w3oRJbpwaMiNHFW39?g_st=ipc","address":"Αιόλου 34, Αθήνα 105 63","categoryIds":["burgers"],"categories":["Burger Spots"],"distanceKm":0.12815520854779108},{"id":"asianRestaurants_3e39975f70d5","slug":"streetwok-3e39","kind":"restaurant","name":"StreetWok","lat":37.97689230907057,"lng":23.727592595188877,"url":"https://maps.app.goo.gl/qhpXyetVXaLisBEWA?g_st=ipc","address":"Αιόλου 21, Αθήνα 105 63","categoryIds":["asian","cheap-eats"],"categories":["Asian Restaurants","Gyros & Cheap Eats"],"legacySlugs":["streetwok-7239"],"distanceKm":0.12885372641037837},{"id":"vegetarianRestaurants_e1e5ea98ec84","slug":"jaipur-palace-plaka-e1e5","kind":"restaurant","name":"Jaipur Palace Plaka","lat":37.9746957700778,"lng":23.728563859316758,"url":"https://maps.app.goo.gl/aNRwgGJgRT99wmHt5?g_st=ipc","address":"Mnisikleous 7B, Athina 105 56","categoryIds":["vegetarian"],"categories":["Vegetarian Friendly Restaurants"],"distanceKm":0.12996977538840507},{"id":"burgersRestaurants_7c6e8e764472","slug":"the-smashers-athens-7c6e","kind":"restaurant","name":"The Smashers Athens","lat":37.97685470027012,"lng":23.728849657560023,"url":"https://maps.app.goo.gl/uKyi2SUBZv1EWPoV7?g_st=ic","address":"Kalamiotou 7, Athina 105 63","categoryIds":["burgers"],"categories":["Burger Spots"],"distanceKm":0.13208886038647596},{"id":"burgersRestaurants_594f0da03951","slug":"the-smashers-athens-594f","kind":"restaurant","name":"The Smashers Athens","lat":37.976855263908405,"lng":23.728850035341498,"url":"https://maps.app.goo.gl/eZb9zRu5ZEKX8jLZ6?g_st=ipc","address":"Καλαμιώτου 7, Αθήνα 105 63","categoryIds":["burgers"],"categories":["Burger Spots"],"distanceKm":0.1321597361935225},{"id":"rooftopLoungesRestaurants_62315092aa2e","slug":"theathine-6231","kind":"restaurant","name":"Theathine","lat":37.976366087632414,"lng":23.72946341912717,"url":"https://maps.app.goo.gl/5zX4VEAQCzogaiPF9?g_st=ipc","address":"Ερμού 46, Αθήνα 105 63","categoryIds":["rooftop-lounges"],"categories":["Rooftop Lounges"],"distanceKm":0.13237543071815333},{"id":"luxuryDiningRestaurants_2a500f95083c","slug":"the-zillers-rooftop-gastronomy-2a50","kind":"restaurant","name":"The Zillers Rooftop Gastronomy","lat":37.97561073825588,"lng":23.729618727455946,"url":"https://maps.app.goo.gl/3rX2B6EznK5THCsX9?g_st=ipc","address":"Μητροπόλεως 54, Αθήνα 105 63","categoryIds":["luxury-dining","rooftop-lounges"],"categories":["Luxury Dining","Rooftop Lounges"],"legacySlugs":["the-zillers-rooftop-gastronomy-deda"],"distanceKm":0.13272196335393524},{"id":"dessertsRestaurants_0f0c49ba7b9d","slug":"lukumades-0f0c","kind":"restaurant","name":"LUKUMAΔΕΣ","lat":37.97694430629526,"lng":23.727608988769845,"url":"https://maps.app.goo.gl/wq9zqPDm2JRLP8hZ7?g_st=ipc","address":"Eolou 21, & Aghias Irinis Str, Athina 105 51","categoryIds":["desserts"],"categories":["Dessert Shops"],"distanceKm":0.13376349216858327},{"id":"rooftopLoungesRestaurants_fd3b2b6edd97","slug":"anglais-athens-fd3b","kind":"restaurant","name":"Anglais Athens","lat":37.97603265069114,"lng":23.726612987310695,"url":"https://maps.app.goo.gl/3tBECibCkAn27cvf9?g_st=ipc","address":"Κηρυκείου 6, Αθήνα 105 55","categoryIds":["rooftop-lounges"],"categories":["Rooftop Lounges"],"distanceKm":0.13488594277730176},{"id":"fishTavernasRestaurants_96126d9ba88c","slug":"zisis-9612","kind":"restaurant","name":"Ζήσης","lat":37.97677236195616,"lng":23.729130321852065,"url":"https://maps.app.goo.gl/B6NXu9TchhZNtX1m9?g_st=ipc","address":"Αθηναΐδος 3, Αθήνα 105 63","categoryIds":["fish-tavernas"],"categories":["Fish Tavernas"],"distanceKm":0.13832546803318788},{"id":"vegetarianRestaurants_5b207cd61024","slug":"av-it-5b20","kind":"restaurant","name":"AV IT","lat":37.976939825548584,"lng":23.728942581826033,"url":"https://maps.app.goo.gl/Kt7esiHQgo5rmoWc7?g_st=ipc","address":"Καλαμιώτου 8, Αθήνα 105 60","categoryIds":["vegetarian"],"categories":["Vegetarian Friendly Restaurants"],"distanceKm":0.14432557515163572},{"id":"greekRestaurants_60d2190d08b8","slug":"aerides-mezedopoleio-plaka-60d2","kind":"restaurant","name":"Αέρηδες Μεζεδοπωλείο Πλάκα","lat":37.974495755428926,"lng":23.72798871305526,"url":"https://maps.app.goo.gl/Cx6gQQWkCy2n1mXw6","address":"Διογένους 3, Αθήνα 105 56","categoryIds":["greek-restaurants"],"categories":["Greek Restaurants"],"distanceKm":0.14691977298085107}],"mentionedGuides":[],"canonicalSlug":"dolli-s-83e8","enrichment":{"summary_en":"DOLLI•S is a curated restaurant in Αθήνα 105 56 in the Luxury Dining collection. It is connected to 311 nearby Googlementor picks to help travelers build a stronger local route.","summary_el":"DOLLI•S είναι ένα επιλεγμένο σημείο φαγητού στην περιοχή Αθήνα 105 56 και ανήκει στη συλλογή Luxury Dining. Συνδέεται με 311 κοντινές προτάσεις του Googlementor για πιο ολοκληρωμένη εμπειρία.","vibe_tags":["curated","premium-dining","city-views"],"best_for":["first-time visitors","food lovers","special occasions"],"visit_moments":["golden hour","night out"],"practical_note":"Address and direct map link are available for easy turn-by-turn access.","nearby_walkable_count":311,"nearby_count_2km":655,"confidence":0.98},"areaContext":{"slug":"monastiraki","name":"Monastiraki","nameEl":"Μοναστηράκι"},"intentContexts":[{"href":"/luxury-dining/monastiraki","label":"Luxury Dining in Monastiraki","categorySlug":"luxury-dining","categoryName":"Luxury Dining","areaSlug":"monastiraki","areaName":"Monastiraki","areaNameEl":"Μοναστηράκι"},{"href":"/rooftops/monastiraki","label":"Rooftop Lounges in Monastiraki","categorySlug":"rooftops","categoryName":"Rooftop Lounges","areaSlug":"monastiraki","areaName":"Monastiraki","areaNameEl":"Μοναστηράκι"}]},"__N_SSG":true}