{"pageProps":{"entity":{"id":"greekRestaurants_8e907eeb8136","slug":"fagopoteion-stoy-thoma-8e90","kind":"restaurant","name":"Φαγοποτείον στου Θωμά","lat":37.954509819048326,"lng":23.642613690114224,"url":"https://maps.app.goo.gl/jQSs2dndkMDG9Tsq7","address":"Μαυρομιχάλη 22-24, Πειραιάς 185 45","categoryIds":["greek-restaurants"],"categories":["Greek Restaurants"]},"sameCategory":[{"id":"greekRestaurants_e914468cc862","slug":"oinopantopoleio-to-eidikon-e914","kind":"restaurant","name":"Οινοπαντοπωλείο Tο Ειδικόν","lat":37.953880471733605,"lng":23.63384583394419,"url":"https://maps.app.goo.gl/PMXGHCEV52xT7G7w7","address":"Ψαρών 38, Πειραιάς 185 46","categoryIds":["greek-restaurants"],"categories":["Greek Restaurants"]},{"id":"greekRestaurants_f42ac62c3249","slug":"bounty-all-aboard-f42a","kind":"restaurant","name":"Bounty all aboard","lat":37.949723445369806,"lng":23.63332963263093,"url":"https://maps.app.goo.gl/2iShe5bzo7qg3ohc6","address":"Εθ. Αντιστάσεως 10, Δραπετσώνα 186 48","categoryIds":["greek-restaurants"],"categories":["Greek Restaurants"]},{"id":"greekRestaurants_899916cf9819","slug":"izampela-armenikes-nostimies-8999","kind":"restaurant","name":"Ιζαμπέλα - Αρμένικες νοστιμιές","lat":37.95153993965958,"lng":23.631088706562064,"url":"https://maps.app.goo.gl/r3twrz7bwRr76j8n8","address":"Αναπαύσεως 36, Δραπετσώνα 185 46","categoryIds":["greek-restaurants"],"categories":["Greek Restaurants"]},{"id":"greekRestaurants_77340ab1d76d","slug":"zachos-kaminia-7734","kind":"restaurant","name":"Ζάχος Καμίνια","lat":37.95283160176507,"lng":23.658993462418696,"url":"https://maps.app.goo.gl/24c8zd5zA2MCbP6f8","address":"185 41, Κομοτηνής 37, Πειραιάς 185 41","categoryIds":["greek-restaurants"],"categories":["Greek Restaurants"]},{"id":"greekRestaurants_a448ec3cfffd","slug":"to-koytoyki-toy-antoni-a448","kind":"restaurant","name":"Το κουτούκι του Αντώνη","lat":37.9618540673877,"lng":23.656289861821378,"url":"https://maps.app.goo.gl/SJ9Ya21w7zZToFhx8","address":"Αργυροκάστρου 26, Πειραιάς 185 42","categoryIds":["greek-restaurants"],"categories":["Greek Restaurants"]},{"id":"greekRestaurants_0105e2b1bfb5","slug":"i-taverna-toy-katsogiannoy-0105","kind":"restaurant","name":"Η ταβέρνα του Κατσόγιαννου","lat":37.9460888309485,"lng":23.627498476767997,"url":"https://maps.app.goo.gl/JYrJ78md5Yy4N4n89","address":"Αγίου Παντελεήμονος 15, Δραπετσώνα 186 48","categoryIds":["greek-restaurants"],"categories":["Greek Restaurants"]},{"id":"greekRestaurants_559e0d9ef868","slug":"marigo-edesmatopoleio-559e","kind":"restaurant","name":"Μαριγώ Εδεσματοπωλείο","lat":37.93961721991741,"lng":23.641779536091324,"url":"https://maps.app.goo.gl/4advyD22Ta7qiUEv7","address":"Φίλωνος 133, Πειραιάς 185 36","categoryIds":["greek-restaurants"],"categories":["Greek Restaurants"]},{"id":"greekRestaurants_7773207b8a15","slug":"little-ginger-7773","kind":"restaurant","name":"Little Ginger","lat":37.93943083536511,"lng":23.6501378633564,"url":"https://maps.app.goo.gl/ekwyDGT5qeED8gtk8","address":"Αγγέλου Μεταξά 13, Πειραιάς 185 34","categoryIds":["greek-restaurants"],"categories":["Greek Restaurants"]},{"id":"greekRestaurants_31681c66c6ca","slug":"zoodochos-pigi-oinomageirion-3168","kind":"restaurant","name":"Ζωοδόχος Πηγή Οινομαγειρίον","lat":37.95501437395202,"lng":23.663299464502014,"url":"https://maps.app.goo.gl/Yhe2M5tujhjVHEAG6","address":"Κατσούλη 77, Πειραιάς 185 41","categoryIds":["greek-restaurants"],"categories":["Greek Restaurants"]},{"id":"greekRestaurants_16a49956bee9","slug":"mparmpalexis-anatolitikes-geyseis-16a4","kind":"restaurant","name":"Μπαρμπαλέξης Ανατολίτικες Γεύσεις","lat":37.95564763526353,"lng":23.669084735339375,"url":"https://maps.app.goo.gl/8iwKbcyFQg5iwckU9?g_st=ipc","address":"Flemingk 48, Ag. Ioannis Rentis 182 33","categoryIds":["greek-restaurants"],"categories":["Greek Restaurants"]},{"id":"greekRestaurants_71ccb1aa4b83","slug":"taverna-o-vasilis-71cc","kind":"restaurant","name":"Ταβέρνα Ο Βασίλης","lat":37.983639078803165,"lng":23.65172200450781,"url":"https://maps.app.goo.gl/P3D4J5ff2iNtoGc99","address":"Κολοκοτρώνη 160, Κορυδαλλός 181 21","categoryIds":["greek-restaurants"],"categories":["Greek Restaurants"]},{"id":"greekRestaurants_be3d05b1fe1e","slug":"to-zempereki-koytoyki-moschato-be3d","kind":"restaurant","name":"Το Ζεμπερέκι - Κουτούκι | Μοσχάτο","lat":37.95039414676294,"lng":23.681530575454058,"url":"https://maps.app.goo.gl/D3JyGs93dHL849c59","address":"Σολωμού 92, Μοσχάτο 183 45","categoryIds":["greek-restaurants"],"categories":["Greek Restaurants"]}],"nearby":[{"id":"greekRestaurants_e914468cc862","slug":"oinopantopoleio-to-eidikon-e914","kind":"restaurant","name":"Οινοπαντοπωλείο Tο Ειδικόν","lat":37.953880471733605,"lng":23.63384583394419,"url":"https://maps.app.goo.gl/PMXGHCEV52xT7G7w7","address":"Ψαρών 38, Πειραιάς 185 46","categoryIds":["greek-restaurants"],"categories":["Greek Restaurants"],"distanceKm":0.7719223441423106},{"id":"cheapEatsRestaurants_06c18b2e0a28","slug":"o-polyvios-06c1","kind":"restaurant","name":"ο Πολύβιος","lat":37.94989609662676,"lng":23.635292950073545,"url":"https://maps.app.goo.gl/hykabQee4Gtqnvuk9?g_st=ipc","address":"Αγίου Δημητρίου 28, Πειραιάς 185 45","categoryIds":["cheap-eats"],"categories":["Gyros & Cheap Eats"],"distanceKm":0.8217080249060698},{"id":"luxuryDiningRestaurants_ef48010de0b4","slug":"mitsis-n-u-piraeus-port-ef48","kind":"restaurant","name":"Mitsis N'U Piraeus Port","lat":37.946256281878604,"lng":23.642735306655823,"url":"https://maps.app.goo.gl/3DKm52Lh2ApKNN1X8?g_st=ipc","address":"Αριστείδου 16-20, Πειραιάς 185 31","categoryIds":["luxury-dining"],"categories":["Luxury Dining"],"distanceKm":0.9178134095213124},{"id":"cheapEatsRestaurants_44069571c770","slug":"o-giorgos-4406","kind":"restaurant","name":"Ο Γιώργος","lat":37.94626514113319,"lng":23.644321784628165,"url":"https://maps.app.goo.gl/41PfRyTP8uJ6c3uy9?g_st=ipc","address":"Γούναρη 18 και, Νικήτα, Πειραιάς 185 31","categoryIds":["cheap-eats"],"categories":["Gyros & Cheap Eats"],"distanceKm":0.9289194635621992},{"id":"burgersRestaurants_d46a3e1807bd","slug":"what-they-said-d46a","kind":"restaurant","name":"What They Said","lat":37.94935179980419,"lng":23.633928811446484,"url":"https://maps.app.goo.gl/1hcPfQeHfJrzqf8KA","address":"Eth. Antistaseos 37, Drapetsona 186 48","categoryIds":["burgers"],"categories":["Burger Spots"],"distanceKm":0.9533228470768659},{"id":"greekRestaurants_f42ac62c3249","slug":"bounty-all-aboard-f42a","kind":"restaurant","name":"Bounty all aboard","lat":37.949723445369806,"lng":23.63332963263093,"url":"https://maps.app.goo.gl/2iShe5bzo7qg3ohc6","address":"Εθ. Αντιστάσεως 10, Δραπετσώνα 186 48","categoryIds":["greek-restaurants"],"categories":["Greek Restaurants"],"distanceKm":0.9725723150112254},{"id":"fishTavernasRestaurants_cfbde0cf6e1b","slug":"psaraki-meze-cfbd","kind":"restaurant","name":"Ψαράκι μεζέ","lat":37.954110812866894,"lng":23.653950848247767,"url":"https://maps.app.goo.gl/xP92x5imjgkE5bYk8?g_st=ipc","address":"Αραχώβης 21, Πειραιάς 185 40","categoryIds":["fish-tavernas"],"categories":["Fish Tavernas"],"distanceKm":0.995001780883911},{"id":"dessertsRestaurants_bd4141abfc88","slug":"paylakis-zacharoplasteio-bd41","kind":"restaurant","name":"Παυλάκης Ζαχαροπλαστείο","lat":37.95571450585217,"lng":23.63113250439145,"url":"https://maps.app.goo.gl/uG9ew76UW6orfg278?g_st=ipc","address":"Σπάρτης 129, Πειραιάς 185 46","categoryIds":["desserts"],"categories":["Dessert Shops"],"distanceKm":1.015502861114018},{"id":"dessertsRestaurants_bfa57b4eb085","slug":"little-bear-piraeus-vegan-patisserie-bistro-bfa5","kind":"restaurant","name":"Little Bear Piraeus - Vegan Patisserie & Bistro","lat":37.946303720961154,"lng":23.647731238367324,"url":"https://maps.app.goo.gl/u2qFa1uh9dMczD9G6?g_st=ipc","address":"Ελ. Βενιζέλου 14, Πειραιάς 185 31","categoryIds":["desserts"],"categories":["Dessert Shops"],"distanceKm":1.0168383526014546},{"id":"vegetarianRestaurants_8b929e1b12ca","slug":"little-bear-piraeus-vegan-patisserie-bistro-8b92","kind":"restaurant","name":"Little Bear Piraeus - Vegan Patisserie & Bistro","lat":37.94629157937497,"lng":23.647726020498503,"url":"https://maps.app.goo.gl/JNBSLzAJfWz7F5zV6?g_st=ipc","address":"Little Bear Piraeus - Vegan Patisserie & Bistro","categoryIds":["vegetarian"],"categories":["Vegetarian Friendly Restaurants"],"distanceKm":1.017848490781311},{"id":"greekRestaurants_899916cf9819","slug":"izampela-armenikes-nostimies-8999","kind":"restaurant","name":"Ιζαμπέλα - Αρμένικες νοστιμιές","lat":37.95153993965958,"lng":23.631088706562064,"url":"https://maps.app.goo.gl/r3twrz7bwRr76j8n8","address":"Αναπαύσεως 36, Δραπετσώνα 185 46","categoryIds":["greek-restaurants"],"categories":["Greek Restaurants"],"distanceKm":1.0630904757019028},{"id":"cheapEatsRestaurants_e1efa6cc4eb9","slug":"kebab-hub-e1ef","kind":"restaurant","name":"KEBAB HUB","lat":37.96544893408382,"lng":23.64762675898248,"url":"https://maps.app.goo.gl/1jU1MDHhWUfkjuNTA?g_st=ipc","address":"Εφέσου 49, Νίκαια 184 50","categoryIds":["cheap-eats"],"categories":["Gyros & Cheap Eats"],"distanceKm":1.2933387279637103},{"id":"dessertsRestaurants_1148b5deca52","slug":"galaktopoleio-stamoy-1148","kind":"restaurant","name":"Γαλακτοπωλείο ΣΤΑΜΟΥ","lat":37.9652037202668,"lng":23.635596413779496,"url":"https://maps.app.goo.gl/rrTmftHWRasbJb7aA?g_st=ipc","address":"Πέτρου Ράλλη 438, Νίκαια 184 51","categoryIds":["desserts"],"categories":["Dessert Shops"],"distanceKm":1.338827809569543},{"id":"cheapEatsRestaurants_2f84b1901b79","slug":"soyvlakia-o-serkos-2f84","kind":"restaurant","name":"Σουβλάκια ο Σέρκος","lat":37.96321249323642,"lng":23.6546161405587,"url":"https://maps.app.goo.gl/g55ZF34fH7dzCpi29?g_st=ipc","address":"Ίωνος Δραγούμη 39-41, Πειραιάς 185 42","categoryIds":["cheap-eats"],"categories":["Gyros & Cheap Eats"],"distanceKm":1.4295870425722879},{"id":"cheapEatsRestaurants_5cd53c0e6d00","slug":"la-jacka-5cd5","kind":"restaurant","name":"La Jacka","lat":37.9421277470468,"lng":23.647527719022438,"url":"https://maps.app.goo.gl/4aXg5d6SUN73hXDt8?g_st=ic","address":"Καραΐσκου 117, Pireas 185 32","categoryIds":["cheap-eats"],"categories":["Gyros & Cheap Eats"],"distanceKm":1.442672661526738},{"id":"greekRestaurants_77340ab1d76d","slug":"zachos-kaminia-7734","kind":"restaurant","name":"Ζάχος Καμίνια","lat":37.95283160176507,"lng":23.658993462418696,"url":"https://maps.app.goo.gl/24c8zd5zA2MCbP6f8","address":"185 41, Κομοτηνής 37, Πειραιάς 185 41","categoryIds":["greek-restaurants"],"categories":["Greek Restaurants"],"distanceKm":1.4482207272436547},{"id":"greekRestaurants_a448ec3cfffd","slug":"to-koytoyki-toy-antoni-a448","kind":"restaurant","name":"Το κουτούκι του Αντώνη","lat":37.9618540673877,"lng":23.656289861821378,"url":"https://maps.app.goo.gl/SJ9Ya21w7zZToFhx8","address":"Αργυροκάστρου 26, Πειραιάς 185 42","categoryIds":["greek-restaurants"],"categories":["Greek Restaurants"],"distanceKm":1.450714598887374},{"id":"cheapEatsRestaurants_b825154bd7ab","slug":"systimatiko-soyvlatzidiko-o-karampelas-b825","kind":"restaurant","name":"Συστηματικό Σουβλατζίδικο Ο Καράμπελας","lat":37.94518871094833,"lng":23.654274337068934,"url":"https://maps.app.goo.gl/DkaV9CriKcsiVg296?g_st=ipc","address":"Πύλης 53, Πειραιάς 185 34","categoryIds":["cheap-eats"],"categories":["Gyros & Cheap Eats"],"distanceKm":1.4558936355335046},{"id":"fishTavernasRestaurants_ae0677e73373","slug":"zarkadoylas-ta-kavoyrakia-ae06","kind":"restaurant","name":"ΖΑΡΚΑΔΟΥΛΑΣ - ΤΑ ΚΑΒΟΥΡΑΚΙΑ","lat":37.966878654895595,"lng":23.649066817348377,"url":"https://maps.app.goo.gl/NBfwV1GcmoeRk6M28?g_st=ipc","address":"Βιθυνίας 32, Νίκαια 184 50","categoryIds":["fish-tavernas"],"categories":["Fish Tavernas"],"distanceKm":1.4871646917062809},{"id":"coffeeBrunchRestaurants_fe42c1fe0d07","slug":"la-belle-epoque-fe42","kind":"restaurant","name":"La Belle Époque","lat":37.94126457803724,"lng":23.646089165937596,"url":"https://maps.app.goo.gl/BAXbDkZ2it9TjYv19?g_st=ipc","address":"Αριστοτέλους 10, Πειραιάς 185 35","categoryIds":["coffee-brunch"],"categories":["Coffee & Brunch Spots"],"distanceKm":1.5040017626854023},{"id":"burgersRestaurants_108c8d4114f6","slug":"bbc-burger-barbeque-corner-108c","kind":"restaurant","name":"BBC Burger Barbeque Corner","lat":37.952390409927204,"lng":23.625437904614223,"url":"https://maps.app.goo.gl/G6x3d2ZUCEMQrN3k7?g_st=ipc","address":"Ἀναπαύσεως 90, Κερατσίνι 187 55","categoryIds":["burgers"],"categories":["Burger Spots"],"distanceKm":1.5242736248620408},{"id":"coffeeBrunchRestaurants_dede4a68abbb","slug":"temps-perdu-dede","kind":"restaurant","name":"Temps Perdu","lat":37.94112588112371,"lng":23.646526456108827,"url":"https://maps.app.goo.gl/ABEv497Uv63A5df28?g_st=ipc","address":"Καραΐσκου 114, Πειραιάς 185 35","categoryIds":["coffee-brunch"],"categories":["Coffee & Brunch Spots"],"distanceKm":1.527261688378621},{"id":"rooftopLoungesRestaurants_43009144e178","slug":"la-luna-see-the-view-4300","kind":"restaurant","name":"La Luna See The View","lat":37.94499432681891,"lng":23.62996124370496,"url":"https://maps.app.goo.gl/uPm46zTckTNqv3Qu9?g_st=ipc","address":"Παύλου, Κουντουριώτου 73, Δραπετσώνα 186 48","categoryIds":["rooftop-lounges"],"categories":["Rooftop Lounges"],"distanceKm":1.5330669392214442},{"id":"cheapEatsRestaurants_9166d63b45f7","slug":"enty-9166","kind":"restaurant","name":"ΕΝΤΥ","lat":37.96700050503918,"lng":23.65031239624474,"url":"https://maps.app.goo.gl/TJbtwJ75EUsRPcRt8?g_st=ipc","address":"Δημ. Καρακουλουξή 4, Νίκαια 184 54","categoryIds":["cheap-eats"],"categories":["Gyros & Cheap Eats"],"distanceKm":1.5442130059725303}],"mentionedGuides":[],"canonicalSlug":"fagopoteion-stoy-thoma-8e90","enrichment":{"summary_en":"Φαγοποτείον στου Θωμά is a curated restaurant in Πειραιάς 185 45 in the Greek Restaurants collection. It is connected to 2 nearby Googlementor picks to help travelers build a stronger local route.","summary_el":"Φαγοποτείον στου Θωμά είναι ένα επιλεγμένο σημείο φαγητού στην περιοχή Πειραιάς 185 45 και ανήκει στη συλλογή Greek Restaurants. Συνδέεται με 2 κοντινές προτάσεις του Googlementor για πιο ολοκληρωμένη εμπειρία.","vibe_tags":["curated"],"best_for":["first-time visitors","food lovers"],"visit_moments":["lunch stop","dinner stop"],"practical_note":"Address and direct map link are available for easy turn-by-turn access.","nearby_walkable_count":2,"nearby_count_2km":54,"confidence":0.9},"areaContext":{"slug":"kaminia","name":"Kaminia","nameEl":"Καμίνια"},"intentContexts":[{"href":"/greek-restaurants/kaminia","label":"Greek Restaurants in Kaminia","categorySlug":"greek-restaurants","categoryName":"Greek Restaurants","areaSlug":"kaminia","areaName":"Kaminia","areaNameEl":"Καμίνια"}]},"__N_SSG":true}