{"pageProps":{"entity":{"id":"vegetarianRestaurants_fcbe4baf2c7e","slug":"falafel-fcbe","kind":"restaurant","name":"Falafel","lat":36.90090309185306,"lng":25.976584244849658,"url":"https://maps.app.goo.gl/aKeeZyXVaADfNUQU9?g_st=ipc","address":"Ormos Egialis 840 08","categoryIds":["vegetarian"],"categories":["Vegetarian Friendly Restaurants"]},"sameCategory":[{"id":"vegetarianRestaurants_b8ffd99027d0","slug":"amorgos-organic-b8ff","kind":"restaurant","name":"Amorgos Organic","lat":36.82494496537346,"lng":25.86937679325385,"url":"https://maps.app.goo.gl/LLqFWY5v6jQQxyzV9?g_st=ipc","address":"Epar.Od. Katapolon-Mavris Mitis, Rachidi 840 08","categoryIds":["vegetarian"],"categories":["Vegetarian Friendly Restaurants"]},{"id":"vegetarianRestaurants_325f7a0c0fd0","slug":"pernera-vegan-restaurant-fairtrade-coffee-shop-market-325f","kind":"restaurant","name":"Pernera Vegan Restaurant & Fairtrade Coffee Shop & Market","lat":37.32400648961271,"lng":26.54252733878879,"url":"https://maps.app.goo.gl/N2k56TsPjEKAnPtL9?g_st=ipc","address":"Σκάλα 855 00","categoryIds":["vegetarian"],"categories":["Vegetarian Friendly Restaurants"]},{"id":"vegetarianRestaurants_e61f564cf6f0","slug":"melitini-e61f","kind":"restaurant","name":"Melitini","lat":36.46251191786666,"lng":25.380930558895514,"url":"https://maps.app.goo.gl/diHJtayCn8kgFPxW7?g_st=ipc","address":"Oia 847 02","categoryIds":["vegetarian"],"categories":["Vegetarian Friendly Restaurants"]},{"id":"vegetarianRestaurants_01ab7c5f61ba","slug":"seminario-01ab","kind":"restaurant","name":"SEMINARIO","lat":37.4442691864213,"lng":24.94407924993465,"url":"https://maps.app.goo.gl/67qtbde9XNL2VBgVA?g_st=ipc","address":"Kiparissou 7, Ermoupoli 841 00","categoryIds":["vegetarian"],"categories":["Vegetarian Friendly Restaurants"]},{"id":"vegetarianRestaurants_5e82930d8565","slug":"coconuts-nuts-specialties-5e82","kind":"restaurant","name":"COCONUTS Nuts & Specialties","lat":37.83974545115199,"lng":23.767343337140883,"url":"https://maps.app.goo.gl/C155rgfingteegQn8?g_st=ipc","address":"Λεωφ. Βασιλέως Παύλου 67, Βούλα 166 73","categoryIds":["vegetarian"],"categories":["Vegetarian Friendly Restaurants"]},{"id":"vegetarianRestaurants_4651fd50cc98","slug":"gi-4651","kind":"restaurant","name":"Γη","lat":37.867754101352695,"lng":23.757082449020576,"url":"https://maps.app.goo.gl/J8MbyuN6xbnsUxi89?g_st=ipc","address":"Γρ. Λαμπράκη 69, Γλυφάδα 166 75","categoryIds":["vegetarian"],"categories":["Vegetarian Friendly Restaurants"]},{"id":"coffeeBrunchRestaurants_8ebbeeadfb00","slug":"jerry-s-8ebb","kind":"restaurant","name":"JERRY’S","lat":37.99081436071943,"lng":23.798622930452883,"url":"https://maps.app.goo.gl/s7TjtfQj1q9s9Tnk8?g_st=ipc","address":"Εθ. Αμύνης 27, Παπάγου 156 69","categoryIds":["coffee-brunch","vegetarian"],"categories":["Coffee & Brunch Spots","Vegetarian Friendly Restaurants"],"legacySlugs":["jerry-s-4010"]},{"id":"coffeeBrunchRestaurants_c2dcfed13dc1","slug":"to-vazaki-juice-bar-c2dc","kind":"restaurant","name":"Το Βαζάκι Juice Bar","lat":38.021003514175945,"lng":23.80272580711501,"url":"https://maps.app.goo.gl/nDbFuEsz56BPrtWV8?g_st=ipc","address":"Αριστοτέλους 33, Χαλάνδρι 152 34","categoryIds":["coffee-brunch","vegetarian"],"categories":["Coffee & Brunch Spots","Vegetarian Friendly Restaurants"],"legacySlugs":["to-vazaki-juice-bar-fee3"]},{"id":"vegetarianRestaurants_1656162d68e6","slug":"the-sweet-lab-1656","kind":"restaurant","name":"Τhe Sweet Lab","lat":38.002062661373884,"lng":23.785233324910163,"url":"https://maps.app.goo.gl/Zb8o7YTUmMMx7EVx8?g_st=ipc","address":"Λεωφ. Δημοκρατίας 81, Kapodistriou 1, Athina 154 51","categoryIds":["vegetarian"],"categories":["Vegetarian Friendly Restaurants"]},{"id":"vegetarianRestaurants_a667646c43d0","slug":"pink-elephant-a667","kind":"restaurant","name":"Pink Elephant","lat":38.02048886312005,"lng":23.79851470032454,"url":"https://maps.app.goo.gl/JBEM9qi3Gh27zDWa9?g_st=ipc","address":"Sokratous 4Α, Chalandri 152 32","categoryIds":["vegetarian"],"categories":["Vegetarian Friendly Restaurants"]},{"id":"vegetarianRestaurants_146693dade4c","slug":"naya-lebanese-kitchen-1466","kind":"restaurant","name":"Naya Lebanese Kitchen","lat":38.02310312613848,"lng":23.798978117354526,"url":"https://maps.app.goo.gl/Wa7FtgvMdTD2Q6oT7?g_st=ipc","address":"Kolokotroni 10, Chalandri 152 33","categoryIds":["vegetarian"],"categories":["Vegetarian Friendly Restaurants"]},{"id":"vegetarianRestaurants_74f8ca9bcb55","slug":"dinette-dafni-74f8","kind":"restaurant","name":"Dinette Dafni","lat":37.949260684351316,"lng":23.73612865746863,"url":"https://maps.app.goo.gl/kkxVViHsfrAhDtz38?g_st=ipc","address":"Μιχαήλ Καραολή 1-3, Αθήνα 172 35","categoryIds":["vegetarian"],"categories":["Vegetarian Friendly Restaurants"]}],"nearby":[{"id":"fishTavernasRestaurants_da1220f4c7c3","slug":"limani-restaurant-da12","kind":"restaurant","name":"Limani Restaurant","lat":36.901162221052765,"lng":25.976288792173918,"url":"https://maps.app.goo.gl/CFKDV9FzeK4koTmt5?g_st=ipc","address":"Αιγιάλη 840 08","categoryIds":["fish-tavernas"],"categories":["Fish Tavernas"],"distanceKm":0.03899272644632693},{"id":"coffeeBrunchRestaurants_7ba1b6bfb809","slug":"embassa-cafe-bar-7ba1","kind":"restaurant","name":"embassa cafe bar","lat":36.901100293710016,"lng":25.976110975169213,"url":"https://maps.app.goo.gl/EQeLPXrV9KJNt6Ut5?g_st=ipc","address":"Aigiali, Ormos Egialis 840 08","categoryIds":["coffee-brunch"],"categories":["Coffee & Brunch Spots"],"distanceKm":0.04745323528154689},{"id":"fishTavernasRestaurants_66fa6dbae79f","slug":"amorgialos-66fa","kind":"restaurant","name":"Amorgialos","lat":36.90135301074789,"lng":25.97627688507805,"url":"https://maps.app.goo.gl/XzSf26up7JduLUrV9?g_st=ipc","address":"αιγιαλη, αμοργος 840 08","categoryIds":["fish-tavernas"],"categories":["Fish Tavernas"],"distanceKm":0.05700715548198191},{"id":"cheapEatsRestaurants_45215b23c30d","slug":"bloom-brothers-canteen-4521","kind":"restaurant","name":"Bloom Brothers canteen","lat":36.90173482477818,"lng":25.977068594760553,"url":"https://maps.app.goo.gl/JYSXRpKjkMx7aNHS7?g_st=ipc","address":"Λιμάνι, Lagada 840 08","categoryIds":["cheap-eats"],"categories":["Gyros & Cheap Eats"],"distanceKm":0.10202077420479704},{"id":"fishTavernasRestaurants_b4d1c19f6fe6","slug":"askas-restaurant-b4d1","kind":"restaurant","name":"Askas Restaurant","lat":36.90689335338981,"lng":25.97877118696508,"url":"https://maps.app.goo.gl/aQ4u4RqjucDESjM66?g_st=ipc","address":"Epar.Od. Katapola-Thalarias, Paralia Tholarion 840 08","categoryIds":["fish-tavernas"],"categories":["Fish Tavernas"],"distanceKm":0.6938906111967503},{"id":"coffeeBrunchRestaurants_23961ab696ae","slug":"seladi-cafe-bar-2396","kind":"restaurant","name":"Seladi cafe bar","lat":36.91575288586461,"lng":25.98223632900659,"url":"https://maps.app.goo.gl/K7ieijzQ2tNdrR3y5?g_st=ipc","address":"Epar.Od. Katapola-Thalarias, Lagada 840 08","categoryIds":["coffee-brunch"],"categories":["Coffee & Brunch Spots"],"distanceKm":1.725999167714025},{"id":"greekRestaurants_157599a160bf","slug":"loykaki-xana-1575","kind":"restaurant","name":"Λουκακη ξανά","lat":36.905937102929585,"lng":25.996147144494767,"url":"https://maps.app.goo.gl/NuFZSR1qmSHyPK8o9?g_st=ipc","address":"Lagkada kaminaki, Λαγκάδα 840 08","categoryIds":["greek-restaurants"],"categories":["Greek Restaurants"],"distanceKm":1.8273179632493182},{"id":"greekRestaurants_d31023546146","slug":"kali-kardia-kafeoyzomezedopoleio-d310","kind":"restaurant","name":"Καλή Καρδιά - Καφεουζομεζεδοπωλείο","lat":36.917331887831665,"lng":25.98375725217952,"url":"https://maps.app.goo.gl/GnAK7zv61PBEP4Kv5?g_st=ipc","address":"Θολάρια 840 08","categoryIds":["greek-restaurants"],"categories":["Greek Restaurants"],"distanceKm":1.9349221524062499},{"id":"greekRestaurants_3d0cf30d6db4","slug":"taverna-o-nikos-3d0c","kind":"restaurant","name":"Ταβέρνα ο Νίκος","lat":36.905852710685856,"lng":25.99753414716498,"url":"https://maps.app.goo.gl/YuCx2QjnBWhU51L28?g_st=ipc","address":"Amorgos(Aegiali, Κατάπολα 840 08","categoryIds":["greek-restaurants"],"categories":["Greek Restaurants"],"distanceKm":1.9424052780827552},{"id":"greekRestaurants_06432e64b492","slug":"taverna-to-panorama-0643","kind":"restaurant","name":"Ταβέρνα το Πανόραμα","lat":36.9174171661152,"lng":25.984684970241798,"url":"https://maps.app.goo.gl/DCLfAnauNS1Ji5Wc8?g_st=ipc","address":"Θολάρια 840 08","categoryIds":["greek-restaurants"],"categories":["Greek Restaurants"],"distanceKm":1.972478248314089},{"id":"greekRestaurants_c0a6e0720e97","slug":"loydaros-taverna-c0a6","kind":"restaurant","name":"Λουδάρος Ταβέρνα","lat":36.906368588133276,"lng":25.997981507339322,"url":"https://maps.app.goo.gl/tSoCWYgeceicNCo67?g_st=ipc","address":"Λαγκάδα 840 08","categoryIds":["greek-restaurants"],"categories":["Greek Restaurants"],"distanceKm":1.9972794491709869},{"id":"coffeeBrunchRestaurants_fa8dbaffc7b9","slug":"pergalidi-fa8d","kind":"restaurant","name":"Pergalídi","lat":36.9063101851879,"lng":25.998609552916683,"url":"https://maps.app.goo.gl/JbLEpGNTnyAChWqY7?g_st=ipc","address":"Lagada 840 08","categoryIds":["coffee-brunch"],"categories":["Coffee & Brunch Spots"],"distanceKm":2.048630964231543},{"id":"mustSeeAttractions_3720c0633a0c","slug":"holy-monastery-of-the-virgin-mary-chozoviotissa-3720","kind":"restaurant","name":"Holy Monastery of the Virgin Mary Chozoviotissa","lat":36.834565267585596,"lng":25.909512235575725,"url":"https://maps.app.goo.gl/v6AEM7JEAUPMzrvP7?g_st=ipc","address":"Amorgos 840 08","categoryIds":["attractions"],"categories":["Must-See Attractions"],"distanceKm":9.48748050476423},{"id":"greekRestaurants_4c848985d221","slug":"magiasi-4c84","kind":"restaurant","name":"Μαγιάσι","lat":36.831832905496256,"lng":25.899580231122016,"url":"https://maps.app.goo.gl/9Hs7jmTaUVVySR3V6?g_st=ipc","address":"Ano plateaki 840 08","categoryIds":["greek-restaurants"],"categories":["Greek Restaurants"],"distanceKm":10.291386601745081},{"id":"luxuryDiningRestaurants_da6f148eb7d8","slug":"apospero-da6f","kind":"restaurant","name":"Apospero","lat":36.83183844559143,"lng":25.899499966261363,"url":"https://maps.app.goo.gl/j3TAqCiUnajPnQUUA?g_st=ipc","address":"Χώρα 840 08","categoryIds":["luxury-dining"],"categories":["Luxury Dining"],"distanceKm":10.295681161940806},{"id":"greekRestaurants_d5207c2cea1d","slug":"armparoriza-d520","kind":"restaurant","name":"Aρμπαρόριζα","lat":36.83126528874217,"lng":25.899780664474996,"url":"https://maps.app.goo.gl/t6VhmiWHapwM9cy88?g_st=ipc","address":"ΧΩΡΑ ΑΜΟΡΓΟΣ ΚΥΚΛΑΔΕΣ, ΑΜΟΡΓΟΣ ΧΩΡΑ 840 08","categoryIds":["greek-restaurants"],"categories":["Greek Restaurants"],"distanceKm":10.32678522870225},{"id":"italianRestaurants_f73393157432","slug":"pizza-petrino-f733","kind":"restaurant","name":"Pizza Petrino","lat":36.83162048389455,"lng":25.898532535817935,"url":"https://maps.app.goo.gl/BxpBdgAak6UKLRYL7?g_st=ipc","address":"Χώρα 840 08","categoryIds":["italian"],"categories":["Italian Restaurants"],"distanceKm":10.371198990716524},{"id":"dessertsRestaurants_2726c61e3f6e","slug":"mikraki-gelato-2726","kind":"restaurant","name":"Μικράκι gelato","lat":36.83144131849213,"lng":25.898487086486654,"url":"https://maps.app.goo.gl/QD97vczb4ZtE7gzR9?g_st=ipc","address":"Χώρα 840 08","categoryIds":["desserts"],"categories":["Dessert Shops"],"distanceKm":10.38871503000475},{"id":"greekRestaurants_47770432a20a","slug":"kastanis-estiatorio-4777","kind":"restaurant","name":"Καστάνης Εστιατόριο","lat":36.83158752520646,"lng":25.898124106946245,"url":"https://maps.app.goo.gl/HGPYt5HhJh8iT4G56?g_st=ipc","address":"Χώρα 840 08","categoryIds":["greek-restaurants"],"categories":["Greek Restaurants"],"distanceKm":10.398276696080565},{"id":"coffeeBrunchRestaurants_15f758934efb","slug":"jazzmin-15f7","kind":"restaurant","name":"Jazzmin","lat":36.83137874729602,"lng":25.898307325862916,"url":"https://maps.app.goo.gl/YcQVqpGJyQtWEuk59?g_st=ipc","address":"Χώρα 840 08","categoryIds":["coffee-brunch"],"categories":["Coffee & Brunch Spots"],"distanceKm":10.404586775429923},{"id":"greekRestaurants_988a85889bca","slug":"tranzistoraki-988a","kind":"restaurant","name":"ΤρανζισΤοΡάκι","lat":36.83158272407629,"lng":25.897896255980164,"url":"https://maps.app.goo.gl/sp5wVpBx6d45B63S8?g_st=ipc","address":"Χώρα 840 08","categoryIds":["greek-restaurants"],"categories":["Greek Restaurants"],"distanceKm":10.41228886796266},{"id":"greekRestaurants_3fefb3b2b9b2","slug":"mpyr-zolaki-3fef","kind":"restaurant","name":"Μπυρ...ζολάκι","lat":36.83162335048387,"lng":25.897767804584305,"url":"https://maps.app.goo.gl/qnA3672RAyo5iyaZ9?g_st=ipc","address":"Amorgos island, Χώρα 840 08","categoryIds":["greek-restaurants"],"categories":["Greek Restaurants"],"distanceKm":10.41663207126839},{"id":"dessertsRestaurants_4247bc679f6e","slug":"kallisto-4247","kind":"restaurant","name":"Kallisto","lat":36.83193327608509,"lng":25.897182643444378,"url":"https://maps.app.goo.gl/zxMDWyaDa8oTgjvt6?g_st=ipc","address":"Χώρα 840 08","categoryIds":["desserts"],"categories":["Dessert Shops"],"distanceKm":10.426357977187214},{"id":"greekRestaurants_b0d37034cad9","slug":"liotrivi-estiatorio-kafe-mpar-b0d3","kind":"restaurant","name":"Λιοτρίβι εστιατόριο καφέ μπαρ","lat":36.83150696646691,"lng":25.89638993777969,"url":"https://maps.app.goo.gl/CYARdJ4AMpe1LegF8?g_st=ipc","address":"ΑΜΟΡΓΟΣ ΧΩΡΑ ΧΩΡΑ, ΑΜΟΡΓΟΥ 840 08","categoryIds":["greek-restaurants"],"categories":["Greek Restaurants"],"distanceKm":10.509032294053378}],"mentionedGuides":[],"canonicalSlug":"falafel-fcbe","enrichment":{"summary_en":"Falafel is a curated restaurant in Greece in the Vegetarian Friendly Restaurants collection. It is connected to 5 nearby Googlementor picks to help travelers build a stronger local route.","summary_el":"Falafel είναι ένα επιλεγμένο σημείο φαγητού στην περιοχή Greece και ανήκει στη συλλογή Vegetarian Friendly Restaurants. Συνδέεται με 5 κοντινές προτάσεις του Googlementor για πιο ολοκληρωμένη εμπειρία.","vibe_tags":["curated"],"best_for":["first-time visitors","food lovers"],"visit_moments":["lunch stop","dinner stop"],"practical_note":"Address and direct map link are available for easy turn-by-turn access.","nearby_walkable_count":5,"nearby_count_2km":11,"confidence":0.98},"areaContext":null,"intentContexts":[]},"__N_SSG":true}