{"pageProps":{"entity":{"id":"familyFriendly_42d6652d0a87","slug":"garden-of-roses-playground-42d6","kind":"restaurant","name":"Garden of Roses Playground","lat":40.60699253708574,"lng":22.950719648023778,"url":"https://maps.app.goo.gl/cAbkipq3qupUHj1v7?g_st=ipc","address":"Leof. Meg. Alexandrou 14, Thessaloniki 546 43","categoryIds":["family-friendly"],"categories":["Kid Friendly Locations"]},"sameCategory":[{"id":"familyFriendly_70d9d42feecb","slug":"odysseas-fokas-park-70d9","kind":"restaurant","name":"Odysseas Fokas Park","lat":40.612796604966135,"lng":22.95168040124591,"url":"https://maps.app.goo.gl/yMHqMAgG61irWESX9?g_st=ipc","address":"Επιθεωρητού Δημητρίου Μισυρλή 26, Thessaloniki 542 50","categoryIds":["family-friendly"],"categories":["Kid Friendly Locations"]},{"id":"familyFriendly_220ccb0fa158","slug":"road-safety-park-220c","kind":"restaurant","name":"Road Safety Park","lat":40.61702068861312,"lng":22.952313879309372,"url":"https://maps.app.goo.gl/dvUGTVktdMviyjRy9?g_st=ic","address":"Leof. Meg. Alexandrou 6, Thessaloniki 546 41","categoryIds":["family-friendly"],"categories":["Kid Friendly Locations"]},{"id":"familyFriendly_7f25af87c856","slug":"bikeit-7f25","kind":"restaurant","name":"BikeIT","lat":40.61873680277816,"lng":22.95194585489908,"url":"https://maps.app.goo.gl/JgmdrRTYY3tBNz6y8?g_st=ic","address":"Leof. Meg. Alexandrou 2, Thessaloniki 546 40","categoryIds":["family-friendly"],"categories":["Kid Friendly Locations"]},{"id":"familyFriendly_06e3b0e7591a","slug":"hado-arena-toumpa-06e3","kind":"restaurant","name":"HADO ARENA TOUMPA","lat":40.61298475023653,"lng":22.966163361832432,"url":"https://maps.app.goo.gl/Y3M4X3SLfpUBctf88?g_st=ipc","address":"Kleanthous 25, Thessaloniki 544 53","categoryIds":["family-friendly"],"categories":["Kid Friendly Locations"]},{"id":"familyFriendly_a5c1b620864c","slug":"pedion-areos-a5c1","kind":"restaurant","name":"Pedion Areos","lat":40.62247582832067,"lng":22.955391871168274,"url":"https://maps.app.goo.gl/hVHTxMywZzbL2Rr26?g_st=ic","address":"Eth. Aminis 28, Thessaloniki 546 21","categoryIds":["family-friendly"],"categories":["Kid Friendly Locations"]},{"id":"familyFriendly_b986941160fd","slug":"elaiorema-b986","kind":"restaurant","name":"Elaiorema","lat":40.60429462558645,"lng":22.984614393067023,"url":"https://maps.app.goo.gl/2QyvxSuh6SKLNY7X8?g_st=ic","address":"Pylaia 555 35","categoryIds":["family-friendly"],"categories":["Kid Friendly Locations"]},{"id":"familyFriendly_507eebfc1228","slug":"happy-play-507e","kind":"restaurant","name":"Happy Play","lat":40.58463538696909,"lng":22.98516339267734,"url":"https://maps.app.goo.gl/KdBGSDP4JgtkbeQQ7?g_st=ipc","address":"Ioanninon Rd 9-11, Pilea 555 35","categoryIds":["family-friendly"],"categories":["Kid Friendly Locations"]},{"id":"familyFriendly_e11e3c30b5f9","slug":"trees-trees-e11e","kind":"restaurant","name":"Trees Trees","lat":40.60274841786202,"lng":23.00941473830645,"url":"https://maps.app.goo.gl/NStAQS6bJYjXPSMi8?g_st=ipc","address":"Ανατολής, Elaionon και, Pilea 555 35","categoryIds":["family-friendly"],"categories":["Kid Friendly Locations"]},{"id":"familyFriendly_49ab59220094","slug":"love-sports-club-49ab","kind":"restaurant","name":"Love Sports Club","lat":40.576783631024576,"lng":22.994808120184832,"url":"https://maps.app.goo.gl/BJcVtK4p1mr7qG5B7?g_st=ipc","address":"Unnamed Road, Pilea Chortiatis 555 35","categoryIds":["family-friendly"],"categories":["Kid Friendly Locations"]},{"id":"familyFriendly_5fc832b90305","slug":"partyland-pylaia-playground-restaurant-events-5fc8","kind":"restaurant","name":"PARTYLAND ΠΥΛΑΙΑ | PLAYGROUND | RESTAURANT | EVENTS","lat":40.57242727995374,"lng":22.992912588988382,"url":"https://maps.app.goo.gl/hq2iSCHB7jfquAbeA?g_st=ic","address":"St.Kazantzidi 49, Pilea 555 36","categoryIds":["family-friendly"],"categories":["Kid Friendly Locations"]},{"id":"familyFriendly_91fdc1b07999","slug":"parko-tzeni-karezi-91fd","kind":"restaurant","name":"Πάρκο Τζένη Καρέζη","lat":40.65858356268694,"lng":22.948886429553223,"url":"https://maps.app.goo.gl/GLfxf6LcGPn5DhUJA?g_st=ipc","address":"Polichni 565 32","categoryIds":["family-friendly"],"categories":["Kid Friendly Locations"]},{"id":"coffeeBrunchRestaurants_3849ba172973","slug":"ergon-agora-east-3849","kind":"restaurant","name":"ERGON Agora (East)","lat":40.55876847950934,"lng":22.976949760424034,"url":"https://maps.app.goo.gl/um7bZpan68i3iqsx7?g_st=ipc","address":"Leof. Georgikis Scholis 50, Pilea Chortiatis 555 35","categoryIds":["coffee-brunch","family-friendly"],"categories":["Coffee & Brunch Spots","Kid Friendly Locations"],"legacySlugs":["ergon-agora-east-02cb"]}],"nearby":[{"id":"cheapEatsRestaurants_f00923c77588","slug":"terpsilaryngio-f009","kind":"restaurant","name":"Terpsilarýngio","lat":40.60676570771858,"lng":22.953926859309924,"url":"https://maps.app.goo.gl/AqaCxycK19KfYLPcA?g_st=ipc","address":"Mark. Mpotsari 14, Thessaloniki 546 43","categoryIds":["cheap-eats"],"categories":["Gyros & Cheap Eats"],"distanceKm":0.2719200253824386},{"id":"asianRestaurants_e9c045aff53d","slug":"sushaki-greek-sushi-experience-e9c0","kind":"restaurant","name":"Sushaki | Greek Sushi Experience","lat":40.60428165420744,"lng":22.954061100104322,"url":"https://maps.app.goo.gl/Tfd55EpuS182EpUw7","address":"Petrou Sindika 11, Thessaloniki 546 43","categoryIds":["asian"],"categories":["Asian Restaurants"],"distanceKm":0.41283904409030037},{"id":"greekRestaurants_cc662124d683","slug":"kafe-oyzeri-alekos-cc66","kind":"restaurant","name":"Καφέ Ουζερί Αλέκος","lat":40.6091971451293,"lng":22.955175029539653,"url":"https://maps.app.goo.gl/yo3KzKF59icWfQtFA?g_st=ipc","address":"Kosma tou Εtolou 22, Thessaloniki 546 43","categoryIds":["greek-restaurants"],"categories":["Greek Restaurants"],"distanceKm":0.44894604538091304},{"id":"asianRestaurants_0af7fecfc049","slug":"asian-house-0af7","kind":"restaurant","name":"Asian House","lat":40.6013142217221,"lng":22.95026357792361,"url":"https://maps.app.goo.gl/cFAfVvor8tZQsjbz6?g_st=ipc","address":"Koromila 3, Thessaloniki 546 45","categoryIds":["asian"],"categories":["Asian Restaurants"],"distanceKm":0.6325726915198548},{"id":"dessertsRestaurants_1eb1d7d0a39b","slug":"trigona-elenidis-antheon-1eb1","kind":"restaurant","name":"Τρίγωνα Ελενίδης (Ανθέων)","lat":40.601144746020374,"lng":22.95082783427097,"url":"https://maps.app.goo.gl/f4c7NqVni4s54aXE6?g_st=ipc","address":"Geor. Papandreou 6, Thessaloniki 546 45","categoryIds":["desserts"],"categories":["Dessert Shops"],"distanceKm":0.6503088382464927},{"id":"familyFriendly_70d9d42feecb","slug":"odysseas-fokas-park-70d9","kind":"restaurant","name":"Odysseas Fokas Park","lat":40.612796604966135,"lng":22.95168040124591,"url":"https://maps.app.goo.gl/yMHqMAgG61irWESX9?g_st=ipc","address":"Επιθεωρητού Δημητρίου Μισυρλή 26, Thessaloniki 542 50","categoryIds":["family-friendly"],"categories":["Kid Friendly Locations"],"distanceKm":0.6504587326107839},{"id":"coffeeBrunchRestaurants_b086083463ae","slug":"join-juice-bars-b086","kind":"restaurant","name":"JOIN juice bars","lat":40.60107511267006,"lng":22.949804539088774,"url":"https://maps.app.goo.gl/LQXcNjB3LwE4q56r7?g_st=ipc","address":"Marias Kallas 1, Thessaloniki 546 45","categoryIds":["coffee-brunch","vegetarian"],"categories":["Coffee & Brunch Spots","Vegetarian Friendly Restaurants"],"legacySlugs":["join-juice-bars-124c"],"distanceKm":0.662507385581897},{"id":"coffeeBrunchRestaurants_b83fc8a35279","slug":"byrek-b83f","kind":"restaurant","name":"Byrek","lat":40.604437611308434,"lng":22.958000236614392,"url":"https://maps.app.goo.gl/hxd33pfTMwrTNJ6K6?g_st=ic","address":"Petrou Sindika 46, Thessaloniki 542 48","categoryIds":["coffee-brunch"],"categories":["Coffee & Brunch Spots"],"distanceKm":0.6771082969637354},{"id":"coffeeBrunchRestaurants_f80aae297d57","slug":"the-coffee-rawsters-f80a","kind":"restaurant","name":"The Coffee Rawsters","lat":40.605074813300206,"lng":22.958339804305506,"url":"https://maps.app.goo.gl/6bHEuH2VrUaoPjxN6?g_st=ipc","address":"Delfon 117, Thessaloniki 546 44","categoryIds":["coffee-brunch"],"categories":["Coffee & Brunch Spots"],"distanceKm":0.6777119602514724},{"id":"cheapEatsRestaurants_0368efbccc32","slug":"grill-junior-0368","kind":"restaurant","name":"Grill Junior","lat":40.60286928963285,"lng":22.956953349868357,"url":"https://maps.app.goo.gl/KmNipqE8jJT8qrZ17?g_st=ipc","address":"Thermopilon 31, Thessaloniki 542 48","categoryIds":["cheap-eats"],"categories":["Gyros & Cheap Eats"],"distanceKm":0.697962549373812},{"id":"vegetarianRestaurants_afbddf6d4612","slug":"falaifel-afbd","kind":"restaurant","name":"Falaifel","lat":40.605220221287475,"lng":22.958853196988702,"url":"https://maps.app.goo.gl/GhD8UrgWEeP9DmB59?g_st=ipc","address":"Geor. Drosini 12, Thessaloniki 546 44","categoryIds":["vegetarian"],"categories":["Vegetarian Friendly Restaurants"],"distanceKm":0.7143510760288433},{"id":"dessertsRestaurants_e4f66f8adfe3","slug":"nikos-alexoudas-e4f6","kind":"restaurant","name":"Nikos Alexoudas","lat":40.610389059142975,"lng":22.958123238836652,"url":"https://maps.app.goo.gl/ifbqMFmsGqy7oaxA8?g_st=ipc","address":"Makedonias 18, Thessaloniki 546 42","categoryIds":["desserts"],"categories":["Dessert Shops"],"distanceKm":0.7302344665051477},{"id":"cheapEatsRestaurants_35033892194c","slug":"souvlaki-street-3503","kind":"restaurant","name":"Souvlaki Street","lat":40.60499215993171,"lng":22.95914208357667,"url":"https://maps.app.goo.gl/8hPpQdZA8iNRAksd7?g_st=ipc","address":"Geor. Drosini 14, Thessaloniki 546 44","categoryIds":["cheap-eats"],"categories":["Gyros & Cheap Eats"],"distanceKm":0.7449985192982886},{"id":"burgersRestaurants_3171f582de55","slug":"mpiftekadiko-to-paggaio-3171","kind":"restaurant","name":"ΜΠΙΦΤΕΚΑΔΙΚΟ \"ΤΟ ΠΑΓΓΑΙΟ\"","lat":40.60721344429672,"lng":22.960412947590548,"url":"https://maps.app.goo.gl/yBjtwqxUfodA37Zy6","address":"Mark. Mpotsari 49, Thessaloniki 546 44","categoryIds":["burgers"],"categories":["Burger Spots"],"distanceKm":0.8186589751442034},{"id":"burgersRestaurants_35e7234b2904","slug":"burger-house-pangeo-35e7","kind":"restaurant","name":"Burger House \"Pangèo\"","lat":40.6072060637355,"lng":22.960414958738784,"url":"https://maps.app.goo.gl/gtiPjSQBMAP3UP1C9?g_st=ic","address":"Mark. Mpotsari 49, Thessaloniki 546 44","categoryIds":["burgers"],"categories":["Burger Spots"],"distanceKm":0.8188045128812631},{"id":"greekRestaurants_c2f14c425e63","slug":"alatorigani-c2f1","kind":"restaurant","name":"Αλατορίγανη","lat":40.60015243009011,"lng":22.95443250325129,"url":"https://maps.app.goo.gl/8H2pummkPQFjon5o8?g_st=ipc","address":"Λεωφ. Βασιλίσσης Όλγας 177, Θεσσαλονίκη 546 45","categoryIds":["greek-restaurants"],"categories":["Greek Restaurants"],"distanceKm":0.8226421210280186},{"id":"cheapEatsRestaurants_811c63bc08c5","slug":"devido-811c","kind":"restaurant","name":"Devido","lat":40.599230791467505,"lng":22.95314409507896,"url":"https://maps.app.goo.gl/2EFX2fMBPiwhmmAv5?g_st=ipc","address":"25is Martiou 17, Thessaloniki 546 45","categoryIds":["cheap-eats"],"categories":["Gyros & Cheap Eats"],"distanceKm":0.8870050200100434},{"id":"vegetarianRestaurants_02c8bc386448","slug":"falafeleria-02c8","kind":"restaurant","name":"Falafeleria","lat":40.5988199696969,"lng":22.95250846403434,"url":"https://maps.app.goo.gl/snuFukejKVaEqQ597?g_st=ipc","address":"25is Martiou 14, Thessaloniki 546 46","categoryIds":["vegetarian"],"categories":["Vegetarian Friendly Restaurants"],"distanceKm":0.9212108469604817},{"id":"greekRestaurants_7ec3d69bed0e","slug":"paggaion-7ec3","kind":"restaurant","name":"Παγγαίον","lat":40.60814749933467,"lng":22.96161599459279,"url":"https://maps.app.goo.gl/LDfYbYAQqiNM26EUA?g_st=ipc","address":"Τομπάζη 31, Θεσσαλονίκη 546 44","categoryIds":["greek-restaurants"],"categories":["Greek Restaurants"],"distanceKm":0.9287649142048605},{"id":"greekRestaurants_f3f4dd42dcb0","slug":"rinokeros-f3f4","kind":"restaurant","name":"Rinókeros","lat":40.59858749847681,"lng":22.9516822591396,"url":"https://maps.app.goo.gl/6Kk5vxpU7Goxr2Zq7?g_st=ipc","address":"25is Martiou 2, Thessaloniki 546 46","categoryIds":["greek-restaurants"],"categories":["Greek Restaurants"],"distanceKm":0.9381242508946165},{"id":"coffeeBrunchRestaurants_4980bf5534c8","slug":"avenue-modern-cuisine-4980","kind":"restaurant","name":"AVENUE - Modern Cuisine","lat":40.6155426258885,"lng":22.952060123633387,"url":"https://maps.app.goo.gl/sbWsHkcndnd2Zv547?g_st=ipc","address":"Leof. Meg. Alexandrou 6, Thessaloniki 546 41","categoryIds":["coffee-brunch"],"categories":["Coffee & Brunch Spots"],"distanceKm":0.9574364560962627},{"id":"dessertsRestaurants_8b22dff88156","slug":"alfa-ice-cream-cafe-8b22","kind":"restaurant","name":"Alfa Ice-Cream Cafe","lat":40.60099594467994,"lng":22.959526782313244,"url":"https://maps.app.goo.gl/tbZTnf9V3BccEmubA?g_st=ipc","address":"Delfon 143, Thessaloniki 546 46","categoryIds":["desserts"],"categories":["Dessert Shops"],"distanceKm":0.9987124722679782},{"id":"cheapEatsRestaurants_6567e814aa5e","slug":"o-gyros-toy-michali-6567","kind":"restaurant","name":"Ο Γύρος του Μιχάλη","lat":40.60335488153119,"lng":22.961687059004745,"url":"https://maps.app.goo.gl/sNmZpvpUx9Yt5Avj6?g_st=ipc","address":"Makedonias 105, Thessaloniki 542 48","categoryIds":["cheap-eats"],"categories":["Gyros & Cheap Eats"],"distanceKm":1.0103742654155359},{"id":"burgersRestaurants_8a735b95eb4f","slug":"paul-s-burger-8a73","kind":"restaurant","name":"Paul’s Burger","lat":40.59788362738132,"lng":22.95216160608432,"url":"https://maps.app.goo.gl/9L8fryr5EiA3D5rR9?g_st=ipc","address":"Geor. Papandreou 38, Thessaloniki 546 46","categoryIds":["burgers","cheap-eats"],"categories":["Burger Spots","Gyros & Cheap Eats"],"legacySlugs":["paul-s-burger-a56a"],"distanceKm":1.020154019734192}],"mentionedGuides":[],"canonicalSlug":"garden-of-roses-playground-42d6","enrichment":{"summary_en":"Garden of Roses Playground is a curated restaurant in Thessaloniki 546 43 in the Kid Friendly Locations collection. It is connected to 14 nearby Googlementor picks to help travelers build a stronger local route.","summary_el":"Garden of Roses Playground είναι ένα επιλεγμένο σημείο φαγητού στην περιοχή Thessaloniki 546 43 και ανήκει στη συλλογή Kid Friendly Locations. Συνδέεται με 14 κοντινές προτάσεις του Googlementor για πιο ολοκληρωμένη εμπειρία.","vibe_tags":["curated","family-ready"],"best_for":["first-time visitors","food lovers","families"],"visit_moments":["lunch stop","dinner stop"],"practical_note":"Address and direct map link are available for easy turn-by-turn access.","nearby_walkable_count":14,"nearby_count_2km":84,"confidence":0.98},"areaContext":{"slug":"nea-paralia","name":"Nea Paralia","nameEl":"Νέα Παραλία"},"intentContexts":[{"href":"/family-friendly/nea-paralia","label":"Kid Friendly Locations in Nea Paralia","categorySlug":"family-friendly","categoryName":"Kid Friendly Locations","areaSlug":"nea-paralia","areaName":"Nea Paralia","areaNameEl":"Νέα Παραλία"}]},"__N_SSG":true}