{"pageProps":{"entity":{"id":"coffeeBrunchRestaurants_fbed74066d32","slug":"gran-caffe-italiano-fbed","kind":"restaurant","name":"Gran Caffè Italiano","lat":37.97787235686609,"lng":23.750751437299407,"url":"https://maps.app.goo.gl/6qkVJ1W6HAGxTfVV8?g_st=ipc","address":"Μονής Πετράκη 3, & Υψηλάντου 44, Αθήνα 115 21","categoryIds":["coffee-brunch"],"categories":["Coffee & Brunch Spots"]},"sameCategory":[{"id":"coffeeBrunchRestaurants_fe6dc1179f31","slug":"the-roosters-ilisia-fe6d","kind":"restaurant","name":"The Roosters Ilisia","lat":37.97416538642229,"lng":23.75106552061932,"url":"https://maps.app.goo.gl/owWsQcbJ7FzLk2VC9?g_st=ipc","address":"Ίωνος Δραγούμη 58, Αθήνα 115 28","categoryIds":["coffee-brunch"],"categories":["Coffee & Brunch Spots"]},{"id":"coffeeBrunchRestaurants_0854c47f51bb","slug":"lot-51-0854","kind":"restaurant","name":"LOT 51","lat":37.97889236924369,"lng":23.75608261699221,"url":"https://maps.app.goo.gl/XPiz8gPX1disrJLV9?g_st=ipc","address":"Παπαδιαμαντοπούλου 24Β, Αθήνα 115 28","categoryIds":["coffee-brunch"],"categories":["Coffee & Brunch Spots"]},{"id":"coffeeBrunchRestaurants_6c5755f458a3","slug":"vasilissa-melissa-athina-6c57","kind":"restaurant","name":"Βασίλισσα μέλισσα Αθήνα","lat":37.97835486257647,"lng":23.745084929463765,"url":"https://maps.app.goo.gl/gMvoN4EZdoGpDeZ47?g_st=ipc","address":"Πατριάρχου Ιωακείμ 45, Αθήνα 106 76","categoryIds":["coffee-brunch"],"categories":["Coffee & Brunch Spots"]},{"id":"coffeeBrunchRestaurants_3c4532938684","slug":"tromero-paidi-3c45","kind":"restaurant","name":"Τρομερό παιδί","lat":37.979193977677895,"lng":23.756620823918542,"url":"https://maps.app.goo.gl/LhCE2aHEwVVToKhc6?g_st=ipc","address":"Παπαδιαμαντοπούλου 30, Αθήνα 115 28","categoryIds":["coffee-brunch"],"categories":["Coffee & Brunch Spots"]},{"id":"coffeeBrunchRestaurants_218e6a31a50d","slug":"poco-a-poco-218e","kind":"restaurant","name":"Poco a poco","lat":37.977055798633465,"lng":23.743703400457175,"url":"https://maps.app.goo.gl/hkFGzq8fmpCWam4f8?g_st=ipc","address":"Loukianou 13, Athina 106 75","categoryIds":["coffee-brunch"],"categories":["Coffee & Brunch Spots"]},{"id":"coffeeBrunchRestaurants_f6e68f133ff0","slug":"chez-michel-f6e6","kind":"restaurant","name":"Chez Michel","lat":37.976675534882084,"lng":23.742456621704683,"url":"https://maps.app.goo.gl/XTb8dAWevvMWgsTW9?g_st=ic","address":"Irodotou 15, Athina 106 74","categoryIds":["coffee-brunch"],"categories":["Coffee & Brunch Spots"]},{"id":"coffeeBrunchRestaurants_0ab06e0868e5","slug":"me-kolonaki-0ab0","kind":"restaurant","name":"me kolonaki","lat":37.9765612906505,"lng":23.742423758521817,"url":"https://maps.app.goo.gl/LxVhS9ugcHWgEPFa7?g_st=ipc","address":"Καψάλη 10, Αθήνα 106 74","categoryIds":["coffee-brunch"],"categories":["Coffee & Brunch Spots"]},{"id":"coffeeBrunchRestaurants_f33248e61009","slug":"prasini-tenta-lykavittos-f332","kind":"restaurant","name":"Πράσινη Τέντα, Λυκαβηττός","lat":37.980853849375265,"lng":23.74311999324442,"url":"https://maps.app.goo.gl/Ra6VkFbWmNNsbYnu8?g_st=ipc","address":"Μονοπάτι Λυκαβηττού, Αθήνα 114 71","categoryIds":["coffee-brunch","rooftop-lounges"],"categories":["Coffee & Brunch Spots","Rooftop Lounges"],"legacySlugs":["prasini-tenta-lykavittos-3190"]},{"id":"coffeeBrunchRestaurants_6e5370c63d00","slug":"moden-6e53","kind":"restaurant","name":"Moden","lat":37.971223973274974,"lng":23.748242971172175,"url":"https://maps.app.goo.gl/LCSd8nHPjaUEMAGx8?g_st=ipc","address":"Αμασείας 6 &, Πρατίνου 53, Αθήνα 116 34","categoryIds":["coffee-brunch"],"categories":["Coffee & Brunch Spots"]},{"id":"coffeeBrunchRestaurants_32f3744210f1","slug":"ruins-athens-urban-area-32f3","kind":"restaurant","name":"Ruins Athens Urban Area","lat":37.97772096182225,"lng":23.740886798075717,"url":"https://maps.app.goo.gl/m4eWX6HzHjiKpfSEA?g_st=ipc","address":"Τσακάλωφ 4, Αθήνα 106 73","categoryIds":["coffee-brunch"],"categories":["Coffee & Brunch Spots"]},{"id":"coffeeBrunchRestaurants_da407c688cb3","slug":"cocona-da40","kind":"restaurant","name":"Cocona","lat":37.977556380518415,"lng":23.739553637845837,"url":"https://maps.app.goo.gl/eL1Nh7NXC2UfRJX69?g_st=ipc","address":"Μηλιώνη 10, Αθήνα 106 73","categoryIds":["coffee-brunch"],"categories":["Coffee & Brunch Spots"]},{"id":"coffeeBrunchRestaurants_b9df566768c1","slug":"kora-b9df","kind":"restaurant","name":"KORA","lat":37.98011321585773,"lng":23.739705197719534,"url":"https://maps.app.goo.gl/bGLYXaCD894A2zsQ8?g_st=ipc","address":"Παναγιώτου Αναγνωστοπούλου 44, Αθήνα 106 73","categoryIds":["coffee-brunch","desserts"],"categories":["Coffee & Brunch Spots","Dessert Shops"],"legacySlugs":["kora-96fe"]}],"nearby":[{"id":"luxuryDiningRestaurants_64a18bdb8e32","slug":"simul-64a1","kind":"restaurant","name":"Simul","lat":37.97792157218587,"lng":23.750427343616465,"url":"https://maps.app.goo.gl/mzwKBdesag7itwYi6?g_st=ipc","address":"Υψηλάντου 63, Αθήνα 115 21","categoryIds":["luxury-dining"],"categories":["Luxury Dining"],"distanceKm":0.028928885223295064},{"id":"luxuryDiningRestaurants_0dfbfc3ae821","slug":"cookoovaya-0dfb","kind":"restaurant","name":"Cookoovaya","lat":37.976921193543475,"lng":23.751481425496852,"url":"https://maps.app.goo.gl/eVWjuM8b4LpyY8yk7?g_st=ipc","address":"Χατζηγιάννη Μέξη 2a, Αθήνα 115 28","categoryIds":["luxury-dining"],"categories":["Luxury Dining"],"distanceKm":0.12361230537944755},{"id":"burgersRestaurants_bfe01035e2db","slug":"agora-select-bfe0","kind":"restaurant","name":"Agora Select","lat":37.97626574663726,"lng":23.751456733864202,"url":"https://maps.app.goo.gl/GxR6tX8MHegtVPLA7?g_st=ipc","address":"Χατζηγιάννη Μέξη 8 και, Κων/νου Βεντήρη 9, Αθήνα 115 28","categoryIds":["burgers","greek-restaurants"],"categories":["Burger Spots","Greek Restaurants"],"legacySlugs":["agora-select-aecd"],"distanceKm":0.18904061110884043},{"id":"dessertsRestaurants_bfef81917506","slug":"grigoris-terkenlis-bfef","kind":"restaurant","name":"Γρηγόρης - Τερκενλής","lat":37.97862799242535,"lng":23.752935643354185,"url":"https://maps.app.goo.gl/4h9LfxEi587omUSM9?g_st=ipc","address":"Βασ. Σοφίας 64, Αθήνα 115 28","categoryIds":["desserts"],"categories":["Dessert Shops"],"distanceKm":0.20906998228551038},{"id":"luxuryDiningRestaurants_fd7f4b7743de","slug":"ox-athens-fd7f","kind":"restaurant","name":"Ox Athens","lat":37.975866043758764,"lng":23.75171237040956,"url":"https://maps.app.goo.gl/Em7n6W5HcPciEXPN7?g_st=ipc","address":"Χατζηγιάννη Μέξη 9, Αθήνα 115 28","categoryIds":["luxury-dining"],"categories":["Luxury Dining"],"distanceKm":0.23846178108606797},{"id":"luxuryDiningRestaurants_b76457bf515f","slug":"vezene-athens-b764","kind":"restaurant","name":"Vezené Athens","lat":37.97470285308878,"lng":23.751002243210046,"url":"https://maps.app.goo.gl/u2HXnXpcXqTUxdbF6?g_st=ipc","address":"Βρασίδα 11, Αθήνα 115 28","categoryIds":["luxury-dining"],"categories":["Luxury Dining"],"distanceKm":0.3531176956400006},{"id":"cheapEatsRestaurants_61f60bc4ea81","slug":"beeftekopolis-61f6","kind":"restaurant","name":"Beeftekopolis","lat":37.97774283666473,"lng":23.746360813383102,"url":"https://maps.app.goo.gl/j2KRM4BYgZPKkWer5?g_st=ipc","address":"Marasli 23, Athina 106 76","categoryIds":["cheap-eats"],"categories":["Gyros & Cheap Eats"],"distanceKm":0.38510453953129675},{"id":"coffeeBrunchRestaurants_fe6dc1179f31","slug":"the-roosters-ilisia-fe6d","kind":"restaurant","name":"The Roosters Ilisia","lat":37.97416538642229,"lng":23.75106552061932,"url":"https://maps.app.goo.gl/owWsQcbJ7FzLk2VC9?g_st=ipc","address":"Ίωνος Δραγούμη 58, Αθήνα 115 28","categoryIds":["coffee-brunch"],"categories":["Coffee & Brunch Spots"],"distanceKm":0.41311461864993315},{"id":"cheapEatsRestaurants_ba468327c890","slug":"pita-pan-ba46","kind":"restaurant","name":"Πίτα Παν","lat":37.973982654052946,"lng":23.750253307976614,"url":"https://maps.app.goo.gl/WYXA6LyZWmcPcu219?g_st=ipc","address":"Ιοφώντος 33, Αθήνα 116 34","categoryIds":["cheap-eats"],"categories":["Gyros & Cheap Eats"],"distanceKm":0.4347134322401782},{"id":"dessertsRestaurants_e77e22a5c2ea","slug":"patisserie-despina-e77e","kind":"restaurant","name":"Patisserie Despina","lat":37.97835834410638,"lng":23.74575820284903,"url":"https://maps.app.goo.gl/RjyUkSTj6TwcuZnn6?g_st=ipc","address":"Patriarchou Ioakim 56, Athina 106 76","categoryIds":["desserts"],"categories":["Dessert Shops"],"distanceKm":0.4409753547052232},{"id":"luxuryDiningRestaurants_9eaec42e6069","slug":"hytra-restaurant-bar-9eae","kind":"restaurant","name":"Hytra Restaurant & Bar","lat":37.98167691309065,"lng":23.75272858120184,"url":"https://maps.app.goo.gl/VKy2rrBX11ogrt618?g_st=ipc","address":"1, Πέτρου Κόκκαλη STR, Αθήνα 115 21","categoryIds":["luxury-dining","rooftop-lounges"],"categories":["Luxury Dining","Rooftop Lounges"],"legacySlugs":["hytra-restaurant-bar-8f5c"],"distanceKm":0.4571637667482027},{"id":"mustSeeAttractions_48ddcd3e9742","slug":"megaro-moysikis-athinon-48dd","kind":"restaurant","name":"Μέγαρο Μουσικής Αθηνών","lat":37.98113320826234,"lng":23.754226747419665,"url":"https://maps.app.goo.gl/fcKT8gTb8XfWLvDa7?g_st=ipc","address":"Βασιλίσσης Σοφίας, Πέτρου Κόκκαλη &, Αθήνα","categoryIds":["attractions"],"categories":["Must-See Attractions"],"distanceKm":0.47355429564113954},{"id":"dessertsRestaurants_01136de60da9","slug":"l-arte-del-gelato-0113","kind":"restaurant","name":"L’arte del gelato","lat":37.97826235491174,"lng":23.745310264522946,"url":"https://maps.app.goo.gl/EjfGShRdB64dNF5s7?g_st=ipc","address":"Πατριάρχου Ιωακείμ 48-50, Αθήνα 106 76","categoryIds":["desserts"],"categories":["Dessert Shops"],"distanceKm":0.47888090826869434},{"id":"burgersRestaurants_349cb9dc8b75","slug":"smash-n-bun-349c","kind":"restaurant","name":"Smash'n Bun","lat":37.97817483675376,"lng":23.745292656199194,"url":"https://maps.app.goo.gl/4n21xowaSG1Zg8d79?g_st=ipc","address":"Πατριάρχου Ιωακείμ 48, Αθήνα 106 76","categoryIds":["burgers"],"categories":["Burger Spots"],"distanceKm":0.47963771519613685},{"id":"coffeeBrunchRestaurants_0854c47f51bb","slug":"lot-51-0854","kind":"restaurant","name":"LOT 51","lat":37.97889236924369,"lng":23.75608261699221,"url":"https://maps.app.goo.gl/XPiz8gPX1disrJLV9?g_st=ipc","address":"Παπαδιαμαντοπούλου 24Β, Αθήνα 115 28","categoryIds":["coffee-brunch"],"categories":["Coffee & Brunch Spots"],"distanceKm":0.480838754064289},{"id":"burgersRestaurants_01b4e6c2697b","slug":"smashtag-01b4","kind":"restaurant","name":"SmashTag","lat":37.97799517923772,"lng":23.75631086140523,"url":"https://maps.app.goo.gl/Yu7VLwDA42Wp7pZo8","address":"Michalakopoulou 68, Athina 115 28","categoryIds":["burgers"],"categories":["Burger Spots"],"distanceKm":0.4874701863071729},{"id":"italianRestaurants_0a253e52c51e","slug":"gorlomi-0a25","kind":"restaurant","name":"Gorlomi","lat":37.97728908184003,"lng":23.74514067416134,"url":"https://maps.app.goo.gl/XB7Fy2Zdva4f5Hrv6?g_st=ipc","address":"Πλουτάρχου 9, Αθήνα 106 75","categoryIds":["italian","luxury-dining"],"categories":["Italian Restaurants","Luxury Dining"],"legacySlugs":["gorlomi-6cf0"],"distanceKm":0.4960393474858077},{"id":"coffeeBrunchRestaurants_6c5755f458a3","slug":"vasilissa-melissa-athina-6c57","kind":"restaurant","name":"Βασίλισσα μέλισσα Αθήνα","lat":37.97835486257647,"lng":23.745084929463765,"url":"https://maps.app.goo.gl/gMvoN4EZdoGpDeZ47?g_st=ipc","address":"Πατριάρχου Ιωακείμ 45, Αθήνα 106 76","categoryIds":["coffee-brunch"],"categories":["Coffee & Brunch Spots"],"distanceKm":0.4995529063761578},{"id":"luxuryDiningRestaurants_16ebd8c6efae","slug":"forte-charitos-restaurant-16eb","kind":"restaurant","name":"Forte Charitos Restaurant","lat":37.97881342237638,"lng":23.745155145341098,"url":"https://maps.app.goo.gl/LvCPT5L2JR5q3a5TA?g_st=ipc","address":"Χάρητος 43, Αθήνα 106 76","categoryIds":["luxury-dining"],"categories":["Luxury Dining"],"distanceKm":0.5015451435258589},{"id":"greekRestaurants_eb74ce369d8c","slug":"skalakia-eb74","kind":"restaurant","name":"Σκαλάκια","lat":37.97743768834,"lng":23.756590141442583,"url":"https://maps.app.goo.gl/awU151ZstgomSVZZ8","address":"Διονυσίου Αιγινήτου 32, Αθήνα 115 28","categoryIds":["greek-restaurants"],"categories":["Greek Restaurants"],"distanceKm":0.5140367643118666},{"id":"italianRestaurants_3be4af98c471","slug":"trattoria-capanna-3be4","kind":"restaurant","name":"Trattoria Capanna","lat":37.978619151360974,"lng":23.74496219249258,"url":"https://maps.app.goo.gl/TbrGKuznviUTnbH8A?g_st=ipc","address":"Πλουτάρχου 38, Αθήνα 106 75","categoryIds":["italian","luxury-dining"],"categories":["Italian Restaurants","Luxury Dining"],"legacySlugs":["trattoria-capanna-78fc"],"distanceKm":0.5141701375106462},{"id":"italianRestaurants_468953c2e15e","slug":"malconi-s-italian-restaurant-4689","kind":"restaurant","name":"Malconi's Italian Restaurant","lat":37.9782776822669,"lng":23.744765633446125,"url":"https://maps.app.goo.gl/q6QEwwnvQiVfYob8A?g_st=ipc","address":"Patriarhou Ioakim 43 &, Πλουτάρχου 23, Αθήνα 106 75","categoryIds":["italian"],"categories":["Italian Restaurants"],"distanceKm":0.5265819708092347},{"id":"luxuryDiningRestaurants_ed36498bd60c","slug":"woowoo-athens-ed36","kind":"restaurant","name":"WooWoo Athens","lat":37.97826618328873,"lng":23.744714006159654,"url":"https://maps.app.goo.gl/gH4BTnSVsyBMroV17?g_st=ipc","address":"Πατριάρχου Ιωακείμ 43, Αθήνα 106 75","categoryIds":["luxury-dining"],"categories":["Luxury Dining"],"distanceKm":0.5309836474803294},{"id":"coffeeBrunchRestaurants_3c4532938684","slug":"tromero-paidi-3c45","kind":"restaurant","name":"Τρομερό παιδί","lat":37.979193977677895,"lng":23.756620823918542,"url":"https://maps.app.goo.gl/LhCE2aHEwVVToKhc6?g_st=ipc","address":"Παπαδιαμαντοπούλου 30, Αθήνα 115 28","categoryIds":["coffee-brunch"],"categories":["Coffee & Brunch Spots"],"distanceKm":0.5350212049857247}],"mentionedGuides":[],"canonicalSlug":"gran-caffe-italiano-fbed","enrichment":{"summary_en":"Gran Caffè Italiano is a curated restaurant in Αθήνα 115 21 in the Coffee & Brunch Spots collection. It is connected to 53 nearby Googlementor picks to help travelers build a stronger local route.","summary_el":"Gran Caffè Italiano είναι ένα επιλεγμένο σημείο φαγητού στην περιοχή Αθήνα 115 21 και ανήκει στη συλλογή Coffee & Brunch Spots. Συνδέεται με 53 κοντινές προτάσεις του Googlementor για πιο ολοκληρωμένη εμπειρία.","vibe_tags":["curated","daytime-favorite"],"best_for":["first-time visitors","food lovers"],"visit_moments":["early morning","late brunch"],"practical_note":"Address and direct map link are available for easy turn-by-turn access.","nearby_walkable_count":53,"nearby_count_2km":414,"confidence":0.98},"areaContext":{"slug":"ilisia","name":"Ilisia","nameEl":"Ιλίσια"},"intentContexts":[{"href":"/brunch/ilisia","label":"Coffee & Brunch Spots in Ilisia","categorySlug":"brunch","categoryName":"Coffee & Brunch Spots","areaSlug":"ilisia","areaName":"Ilisia","areaNameEl":"Ιλίσια"}]},"__N_SSG":true}