{"pageProps":{"entity":{"id":"burgersRestaurants_2c0faaef9d53","slug":"holy-smoke-bbq-streetfood-2c0f","kind":"restaurant","name":"Holy Smoke BBQ Streetfood","lat":40.846110747356505,"lng":25.87110606697465,"url":"https://maps.app.goo.gl/QRyzxeSuPPkZ7om56?g_st=ipc","address":"Eth. Antistaseos 136, Alexandroupoli 681 00","categoryIds":["burgers","cheap-eats"],"categories":["Burger Spots","Gyros & Cheap Eats"],"legacySlugs":["holy-smoke-bbq-streetfood-b910"]},"sameCategory":[{"id":"burgersRestaurants_4060fc5be247","slug":"maestro-cantina-4060","kind":"restaurant","name":"Maestro Cantina","lat":40.539870288194706,"lng":23.0207573353921,"url":"https://maps.app.goo.gl/WJTaYcJdPxACzwkXA?g_st=ipc","address":"EO Thessalonikis Poligirou 32, Thermi 570 01","categoryIds":["burgers","cheap-eats"],"categories":["Burger Spots","Gyros & Cheap Eats"],"legacySlugs":["maestro-cantina-5ff9"]},{"id":"burgersRestaurants_21be773739d0","slug":"brothers-in-law-smash-n-pasta-thermi-21be","kind":"restaurant","name":"Brothers in Law Smash 'n' Pasta Thermi","lat":40.5561230976469,"lng":23.012690012150046,"url":"https://maps.app.goo.gl/tDetHtpfpgzNvuNC7?g_st=ipc","address":"5 χλμ, Χαρ. Θέρμης 1ο χλμ, Thermi 570 01","categoryIds":["burgers","italian"],"categories":["Burger Spots","Italian Restaurants"],"legacySlugs":["brothers-in-law-smash-n-pasta-thermi-6cb6"]},{"id":"burgersRestaurants_d5586ce24d0b","slug":"osten-d558","kind":"restaurant","name":"OSTEN","lat":40.55792173583846,"lng":23.01007604885629,"url":"https://maps.app.goo.gl/JrNCtkPthNJns9L16?g_st=ipc","address":"4χλμ, Χαρ. Θέρμης, Thessaloniki 570 01","categoryIds":["burgers","desserts"],"categories":["Burger Spots","Dessert Shops"],"legacySlugs":["osten-07fc"]},{"id":"burgersRestaurants_96feec737ac7","slug":"brothers-in-law-96fe","kind":"restaurant","name":"Brothers In Law","lat":40.610811655039555,"lng":22.98741536304393,"url":"https://maps.app.goo.gl/VFJTVUrK126W1Uku9?g_st=ipc","address":"Grigoriou Lampraki 244, Pilea 543 52","categoryIds":["burgers"],"categories":["Burger Spots"]},{"id":"burgersRestaurants_54aa085a6ef8","slug":"sinners-smash-burgers-54aa","kind":"restaurant","name":"Sinners Smash Burgers","lat":40.57608642412674,"lng":22.98935981589618,"url":"https://maps.app.goo.gl/Y2NDJtMWMoJrutpZ6?g_st=ipc","address":"Στέλιου Καζαντζίδη 31, Pilea 555 35","categoryIds":["burgers","cheap-eats"],"categories":["Burger Spots","Gyros & Cheap Eats"],"legacySlugs":["sinners-smash-burgers-e79f"]},{"id":"burgersRestaurants_bb792caf2487","slug":"pax-burgers-bb79","kind":"restaurant","name":"Pax Burgers","lat":40.55495597120905,"lng":22.992844598481618,"url":"https://maps.app.goo.gl/TuduB4i2geBy2cb58?g_st=ipc","address":"ΘΕΣΣΑΛΟΝΙΚΗΣ-ΜΟΥΔΑΝΙΩΝ, Thermi 570 01","categoryIds":["burgers"],"categories":["Burger Spots"]},{"id":"burgersRestaurants_c2797cbf1cc8","slug":"jacaranda-c279","kind":"restaurant","name":"Jacaranda","lat":40.583007556132294,"lng":22.982557958626895,"url":"https://maps.app.goo.gl/1GxBYUFXBeTUU8iq6?g_st=ipc","address":"Στέλιου Καζαντζίδη 24, Pilea 555 35","categoryIds":["burgers","cheap-eats"],"categories":["Burger Spots","Gyros & Cheap Eats"],"legacySlugs":["jacaranda-05fa"]},{"id":"burgersRestaurants_d1aa1b03e041","slug":"evora-eatery-d1aa","kind":"restaurant","name":"Evora Eatery","lat":40.616537415041016,"lng":22.969055137519607,"url":"https://maps.app.goo.gl/nXZzhY9yFR2kDUGA9?g_st=ipc","address":"Diogenous 13, Thessaloniki 544 53","categoryIds":["burgers"],"categories":["Burger Spots"]},{"id":"burgersRestaurants_5cdf5651be04","slug":"dunk-smash-burgers-5cdf","kind":"restaurant","name":"Dunk Smash Burgers","lat":40.614049656844195,"lng":22.968949553843263,"url":"https://maps.app.goo.gl/ECaRWM59W66g3f6h8?g_st=ipc","address":"Peston 82, Thessaloniki 544 53","categoryIds":["burgers"],"categories":["Burger Spots"]},{"id":"burgersRestaurants_8f11f76e2e42","slug":"maverick-handmade-street-food-8f11","kind":"restaurant","name":"MAVERICK Handmade Street Food","lat":40.5733294711661,"lng":22.971759802516267,"url":"https://maps.app.goo.gl/Bc8D8iLK2oBQoFcm8?g_st=ipc","address":"Eth. Antistaseos 179, Kalamaria 551 34","categoryIds":["burgers","cheap-eats"],"categories":["Burger Spots","Gyros & Cheap Eats"],"legacySlugs":["maverick-handmade-street-food-77c2"]},{"id":"burgersRestaurants_35e7234b2904","slug":"burger-house-pangeo-35e7","kind":"restaurant","name":"Burger House \"Pangèo\"","lat":40.6072060637355,"lng":22.960414958738784,"url":"https://maps.app.goo.gl/gtiPjSQBMAP3UP1C9?g_st=ic","address":"Mark. Mpotsari 49, Thessaloniki 546 44","categoryIds":["burgers"],"categories":["Burger Spots"]},{"id":"burgersRestaurants_3171f582de55","slug":"mpiftekadiko-to-paggaio-3171","kind":"restaurant","name":"ΜΠΙΦΤΕΚΑΔΙΚΟ \"ΤΟ ΠΑΓΓΑΙΟ\"","lat":40.60721344429672,"lng":22.960412947590548,"url":"https://maps.app.goo.gl/yBjtwqxUfodA37Zy6","address":"Mark. Mpotsari 49, Thessaloniki 546 44","categoryIds":["burgers"],"categories":["Burger Spots"]}],"nearby":[{"id":"fishTavernasRestaurants_2332c66868ee","slug":"st-george-s-tavern-2332","kind":"restaurant","name":"St George's Tavern","lat":40.84895697847809,"lng":25.756806933273776,"url":"https://maps.app.goo.gl/Lq4bMhx6VUhzaNx37?g_st=ipc","address":"RQX4+HP, Makri 68150","categoryIds":["fish-tavernas"],"categories":["Fish Tavernas"],"distanceKm":9.619330461868685}],"mentionedGuides":[],"canonicalSlug":"holy-smoke-bbq-streetfood-2c0f","enrichment":{"summary_en":"Holy Smoke BBQ Streetfood is a curated restaurant in Alexandroupoli 681 00 in the Burger Spots collection. It is connected to 1 nearby Googlementor picks to help travelers build a stronger local route.","summary_el":"Holy Smoke BBQ Streetfood είναι ένα επιλεγμένο σημείο φαγητού στην περιοχή Alexandroupoli 681 00 και ανήκει στη συλλογή Burger Spots. Συνδέεται με 1 κοντινές προτάσεις του Googlementor για πιο ολοκληρωμένη εμπειρία.","vibe_tags":["curated","budget-friendly"],"best_for":["first-time visitors","food lovers","budget travelers"],"visit_moments":["lunch stop","dinner stop"],"practical_note":"Address and direct map link are available for easy turn-by-turn access.","nearby_walkable_count":1,"nearby_count_2km":1,"confidence":0.9},"areaContext":null,"intentContexts":[]},"__N_SSG":true}