{"pageProps":{"entity":{"id":"greekRestaurants_f6d227505896","slug":"i-gonia-toy-torva-f6d2","kind":"restaurant","name":"Η Γωνία του Τόρβα","lat":38.03925979288046,"lng":23.9433795766678,"url":"https://maps.app.goo.gl/LZohHFYr2FaVdjY49","address":"Πλαστηρα & Καραΐσκακη, Νταου Πεντελη - Ραφηνας 190 09","categoryIds":["greek-restaurants"],"categories":["Greek Restaurants"]},"sameCategory":[{"id":"greekRestaurants_9269793e1504","slug":"taverna-monaxia-9269","kind":"restaurant","name":"Ταβέρνα Μοναξιά","lat":37.99741941255288,"lng":23.922943419662634,"url":"https://maps.app.goo.gl/VBA846ekAAGscrWa6","address":"Leoforos Marathonos 19th klm, Παλλήνη Αττικής 153 51","categoryIds":["greek-restaurants"],"categories":["Greek Restaurants"]},{"id":"greekRestaurants_e13d6a44e9be","slug":"stoy-ladokosta-e13d","kind":"restaurant","name":"Στου Λαδόκωστα","lat":38.08813666230261,"lng":23.982996365102682,"url":"https://maps.app.goo.gl/mXkB4S51cYRYxwCe8","address":"Λεωφ. Ποσειδώνος, Νέα Μάκρη 190 05","categoryIds":["greek-restaurants"],"categories":["Greek Restaurants"]},{"id":"greekRestaurants_23f639b6098c","slug":"pilioreitiko-23f6","kind":"restaurant","name":"Πηλιορειτικο","lat":38.05554171208636,"lng":23.870789909416057,"url":"https://maps.app.goo.gl/ZkvmmnHQW4d3ivh49","address":"Κρυστάλλη Κωνσταντίνου 1, Πεντέλη 152 36","categoryIds":["greek-restaurants"],"categories":["Greek Restaurants"]},{"id":"greekRestaurants_c753372241fb","slug":"krystallis-c753","kind":"restaurant","name":"Κρυστάλλης","lat":38.05560270007769,"lng":23.870179792849736,"url":"https://maps.app.goo.gl/XofHBMHMp5Y8ecHi6","address":"Πλ. Αγίας Τριάδας, Πεντέλη 152 36","categoryIds":["greek-restaurants"],"categories":["Greek Restaurants"]},{"id":"greekRestaurants_2ee34caffafc","slug":"to-mprizoladiko-toy-geraka-2ee3","kind":"restaurant","name":"Το Μπριζολάδικο του Γέρακα","lat":38.02301749370778,"lng":23.859957200296044,"url":"https://maps.app.goo.gl/neQoZEu5PGEjM9DP9","address":"Λεωφ. Γέρακας 84, Γέρακας 153 44","categoryIds":["greek-restaurants"],"categories":["Greek Restaurants"]},{"id":"greekRestaurants_2a4d19d5fad0","slug":"karavaiki-2a4d","kind":"restaurant","name":"Καραβαϊκή","lat":38.05688896672271,"lng":23.85683837486962,"url":"https://maps.app.goo.gl/bDovbnEG8g4iXg669","address":"25ης Μαρτίου 3, Νέα Πεντέλη 152 36","categoryIds":["greek-restaurants"],"categories":["Greek Restaurants"]},{"id":"greekRestaurants_f61d819e1926","slug":"taverna-toyrkantoni-f61d","kind":"restaurant","name":"Ταβέρνα Τουρκαντώνη","lat":38.01211262091287,"lng":23.8515403603164,"url":"https://maps.app.goo.gl/B6AxbVv7MU6bztsX6","address":"Μιαούλη 59, Γέρακας 153 44","categoryIds":["greek-restaurants"],"categories":["Greek Restaurants"]},{"id":"greekRestaurants_898e4444f3d9","slug":"o-kalofagas-steakhouse-898e","kind":"restaurant","name":"Ο Καλοφαγάς Steakhouse","lat":38.046607872986925,"lng":23.84536540675465,"url":"https://maps.app.goo.gl/K5myWMM5kegmZRGj7","address":"Παλαιών Πατρών Γερμανού 1, Βριλήσσια 152 38","categoryIds":["greek-restaurants"],"categories":["Greek Restaurants"]},{"id":"greekRestaurants_6b39ddfea6e1","slug":"magginas-taverna-melissia-6b39","kind":"restaurant","name":"Μαγγινας Ταβέρνα Μελίσσια","lat":38.06545992903425,"lng":23.842357706146192,"url":"https://maps.app.goo.gl/FMMwbifodFsWzbX47","address":"Πλ. Εθ. Αντιστάσεως, Μελίσσια 151 27","categoryIds":["greek-restaurants"],"categories":["Greek Restaurants"]},{"id":"greekRestaurants_077f474cb97d","slug":"stis-ellis-077f","kind":"restaurant","name":"Στης Έλλης","lat":38.01628513050535,"lng":23.840166535568635,"url":"https://maps.app.goo.gl/o1oe4gt1mipnzHE77?g_st=ipc","address":"Ἁγ. Τριάδος 57, Αγ. Παρασκευή 153 43","categoryIds":["greek-restaurants"],"categories":["Greek Restaurants"]},{"id":"greekRestaurants_217beb188c9d","slug":"to-peyko-taverna-fagito-sto-choro-take-away-delivery-217b","kind":"restaurant","name":"Το Πευκο | Ταβέρνα - Φαγητό στο χώρο - Take Away - Delivery","lat":38.048953774865154,"lng":23.835609448784652,"url":"https://maps.app.goo.gl/2DPr3yhvS2JApV5x5","address":"Τήνου 12, Μελίσσια 151 27","categoryIds":["greek-restaurants"],"categories":["Greek Restaurants"]},{"id":"greekRestaurants_e5f425af5317","slug":"vlachos-mprizoles-choriatikes-pites-e5f4","kind":"restaurant","name":"Βλαχος, Μπριζόλες - Χωριάτικες πίτες","lat":38.06080156016513,"lng":23.83614625903362,"url":"https://maps.app.goo.gl/hue4bt53ZxfCUeXg6","address":"Κων/νου Καραμανλή, 17ης Νοεμβρίου και, Μελίσσια 151 27","categoryIds":["greek-restaurants"],"categories":["Greek Restaurants"]}],"nearby":[{"id":"monasteriesChurches_24b60ec568ad","slug":"iera-moni-tao-ntaoy-pentelis-24b6","kind":"restaurant","name":"Ιερά Μονή Ταώ (Νταού) Πεντέλης","lat":38.03988340784935,"lng":23.948125074372278,"url":"https://maps.app.goo.gl/xtRHYrHMqEtBMfwK9?g_st=ipc","address":"Νταού Πεντέλη 152 36","categoryIds":["monasteries-churches"],"categories":["Monasteries & Spiritual Sites"],"distanceKm":0.42133467139716974},{"id":"monasteriesChurches_c2b99534a746","slug":"osioy-fraim-c2b9","kind":"restaurant","name":"Οσίου Ἐφραίμ","lat":38.07494568017478,"lng":23.95319576902227,"url":"https://maps.app.goo.gl/t1Fe5nBcUY3vmfcE7?g_st=ipc","address":"Αγίου Εφραίμ, Νέα Μάκρη 190 05","categoryIds":["monasteries-churches"],"categories":["Monasteries & Spiritual Sites"],"distanceKm":4.060097662975752},{"id":"luxuryDiningRestaurants_d905caa27f80","slug":"meat-the-stars-d905","kind":"restaurant","name":"Meat the Stars","lat":38.00243883538717,"lng":23.941476693248035,"url":"https://maps.app.goo.gl/wrkHDhigdmHrrokL8?g_st=ipc","address":"Λεωφ. Μαραθώνος 63, Πικέρμι 190 09","categoryIds":["luxury-dining"],"categories":["Luxury Dining"],"distanceKm":4.097695400218662},{"id":"dessertsRestaurants_5958ec3ad958","slug":"to-plesti-5958","kind":"restaurant","name":"Το Πλέστι","lat":38.06758002269708,"lng":23.98228118791333,"url":"https://maps.app.goo.gl/8uS8BHW1y7vuZtMn8?g_st=ipc","address":"Λεωφ. Μαραθώνος 31ο, Νέα Μάκρη 190 05","categoryIds":["desserts"],"categories":["Dessert Shops"],"distanceKm":4.6388254370772755},{"id":"dessertsRestaurants_a5a68f44450d","slug":"pagota-glyka-alma-a5a6","kind":"restaurant","name":"Παγωτά - Γλυκά ALMA","lat":37.99764401288888,"lng":23.928554302603118,"url":"https://maps.app.goo.gl/5u8wGdMD9tri8wLBA?g_st=ipc","address":"19o ΧΛΜ, Λεωφ. Μαραθώνος, Ήμερος Πεύκος 190 09","categoryIds":["desserts"],"categories":["Dessert Shops"],"distanceKm":4.8062515605658245},{"id":"greekRestaurants_9269793e1504","slug":"taverna-monaxia-9269","kind":"restaurant","name":"Ταβέρνα Μοναξιά","lat":37.99741941255288,"lng":23.922943419662634,"url":"https://maps.app.goo.gl/VBA846ekAAGscrWa6","address":"Leoforos Marathonos 19th klm, Παλλήνη Αττικής 153 51","categoryIds":["greek-restaurants"],"categories":["Greek Restaurants"],"distanceKm":4.984986052720438},{"id":"familyFriendly_db07c7976a87","slug":"jumicar-db07","kind":"restaurant","name":"Jumicar","lat":38.07454902492717,"lng":23.982372514870235,"url":"https://maps.app.goo.gl/b5HKTfYuBC6WE3XP7?g_st=ipc","address":"Λεωφ. Μαραθώνος 1, Νέα Μάκρη 190 05","categoryIds":["family-friendly"],"categories":["Kid Friendly Locations"],"distanceKm":5.2012653571150995},{"id":"coffeeBrunchRestaurants_6aac58356d58","slug":"dimitris-kasimis-foyrnos-6aac","kind":"restaurant","name":"ΔΗΜΗΤΡΗΣ ΚΑΣΙΜΗΣ Φούρνος","lat":38.0797197655773,"lng":23.980827928192117,"url":"https://maps.app.goo.gl/HVgjvMDChspNvrjy7?g_st=ipc","address":"44 Marathonos Ave, Enanti DEI, Nea Makri, 19005","categoryIds":["coffee-brunch"],"categories":["Coffee & Brunch Spots"],"distanceKm":5.56687902178419},{"id":"coffeeBrunchRestaurants_cdd028e1f028","slug":"indianos-cdd0","kind":"restaurant","name":"Indianos","lat":38.07177701154969,"lng":23.99543112392712,"url":"https://maps.app.goo.gl/fQgSyiTZjMscc9UW9?g_st=ipc","address":"Μιαούλη 12, Νέα Μάκρη 190 05","categoryIds":["coffee-brunch"],"categories":["Coffee & Brunch Spots"],"distanceKm":5.817556998657153},{"id":"fishTavernasRestaurants_d1fdd80a5c4e","slug":"akrogiali-d1fd","kind":"restaurant","name":"Ακρογιάλι","lat":38.07176023911009,"lng":23.99585573289976,"url":"https://maps.app.goo.gl/xsBV1faj5k58gwi47?g_st=ipc","address":"Μιαούλη 8, Νέα Μάκρη 190 05","categoryIds":["fish-tavernas"],"categories":["Fish Tavernas"],"distanceKm":5.8455743665816104},{"id":"italianRestaurants_2acf318486cb","slug":"toto-s-little-italy-2acf","kind":"restaurant","name":"Toto's Little Italy","lat":38.083162778426875,"lng":23.980726245351242,"url":"https://maps.app.goo.gl/oSFQmUYzAW2nsJ8z6?g_st=ipc","address":"Νικ. Πλαστήρα 29, Νέα Μάκρη 190 05","categoryIds":["italian"],"categories":["Italian Restaurants"],"distanceKm":5.875603234344467},{"id":"familyFriendly_0326a78aaa56","slug":"leontario-entertainment-center-0326","kind":"restaurant","name":"Leontario Entertainment Center","lat":37.996183572327645,"lng":23.899494670938427,"url":"https://maps.app.goo.gl/Qjmb6xRCJvU3Lj87A?g_st=ipc","address":"Αμαζονoσ 15, Παλληνη 15344","categoryIds":["family-friendly"],"categories":["Kid Friendly Locations"],"distanceKm":6.1418283052097244},{"id":"coffeeBrunchRestaurants_e7c71ac4865d","slug":"petrino-anthousa-e7c7","kind":"restaurant","name":"Petrino Anthousa","lat":38.02672241020409,"lng":23.873783158410454,"url":"https://maps.app.goo.gl/9BhYBbp4S79LCn6k9?g_st=ic","address":"Edipsou 2-6, Anthousa 153 49","categoryIds":["coffee-brunch"],"categories":["Coffee & Brunch Spots"],"distanceKm":6.252877261388174},{"id":"familyFriendly_dd0083476ddc","slug":"farmamoo-dd00","kind":"restaurant","name":"Farmamoo","lat":38.095267950428,"lng":23.93118868435028,"url":"https://maps.app.goo.gl/6XzwEHQN7jNiKh5K7?g_st=ipc","address":"Λεωφ. Διονύσου, Νέα Μάκρη 190 05","categoryIds":["family-friendly"],"categories":["Kid Friendly Locations"],"distanceKm":6.318602404654239},{"id":"greekRestaurants_e13d6a44e9be","slug":"stoy-ladokosta-e13d","kind":"restaurant","name":"Στου Λαδόκωστα","lat":38.08813666230261,"lng":23.982996365102682,"url":"https://maps.app.goo.gl/mXkB4S51cYRYxwCe8","address":"Λεωφ. Ποσειδώνος, Νέα Μάκρη 190 05","categoryIds":["greek-restaurants"],"categories":["Greek Restaurants"],"distanceKm":6.447241239981656},{"id":"dessertsRestaurants_811168d74e33","slug":"galaktopoleio-stamoy-8111","kind":"restaurant","name":"Γαλακτοπωλείο ΣΤΑΜΟΥ","lat":38.00342843509359,"lng":23.88465857262915,"url":"https://maps.app.goo.gl/o476BKf3dKiVdLTg6?g_st=ipc","address":"Λεωφ. Μαραθώνος, Παλλαδος Αθηνας &, Παλλήνη 153 51","categoryIds":["desserts"],"categories":["Dessert Shops"],"distanceKm":6.506385507131468},{"id":"cheapEatsRestaurants_b230f7d2edc5","slug":"to-petrino-toy-stamati-kapralos-stamatios-th-b230","kind":"restaurant","name":"Το Πέτρινο Του Σταμάτη (Καπράλος Σταμάτιος Θ.)","lat":38.049806163763144,"lng":23.869838485555228,"url":"https://maps.app.goo.gl/AdKg349ahnUtzxXt9?g_st=ipc","address":"Βασ. Γεωργίου Β 10, Πεντέλη 152 36","categoryIds":["cheap-eats"],"categories":["Gyros & Cheap Eats"],"distanceKm":6.545863539827195},{"id":"familyFriendly_9cc1c30ecd05","slug":"designer-outlet-athens-9cc1","kind":"restaurant","name":"Designer Outlet Athens","lat":37.98621935732948,"lng":23.91050612444449,"url":"https://maps.app.goo.gl/FiJWknWTB14td3ra9?g_st=ipc","address":"D-Oikodomiko Tetragono, Γυαλού E71, Σπάτα 190 04","categoryIds":["family-friendly"],"categories":["Kid Friendly Locations"],"distanceKm":6.56342553758126},{"id":"greekRestaurants_23f639b6098c","slug":"pilioreitiko-23f6","kind":"restaurant","name":"Πηλιορειτικο","lat":38.05554171208636,"lng":23.870789909416057,"url":"https://maps.app.goo.gl/ZkvmmnHQW4d3ivh49","address":"Κρυστάλλη Κωνσταντίνου 1, Πεντέλη 152 36","categoryIds":["greek-restaurants"],"categories":["Greek Restaurants"],"distanceKm":6.609202870018323},{"id":"familyFriendly_0ccded432145","slug":"smart-park-0ccd","kind":"restaurant","name":"Smart Park","lat":37.98478188179295,"lng":23.913104747091037,"url":"https://maps.app.goo.gl/JecbscmoWg1c4Snw5?g_st=ipc","address":"Εμπορικό Πάρκο Smart Park, Ε. Πουλακη, OT 71, & 72, Σπάτα 190 04","categoryIds":["family-friendly"],"categories":["Kid Friendly Locations"],"distanceKm":6.612880488447222},{"id":"fishTavernasRestaurants_0b56e36ee289","slug":"trata-i-0b56","kind":"restaurant","name":"ΤΡΑΤΑ (Η)","lat":38.09030258735327,"lng":23.982252068927664,"url":"https://maps.app.goo.gl/4cT7yir2FyLEmVPB8?g_st=ipc","address":"Λεωφ. Ποσειδώνος 30, Νέα Μάκρη 190 05","categoryIds":["fish-tavernas"],"categories":["Fish Tavernas"],"distanceKm":6.617755893209463},{"id":"greekRestaurants_c753372241fb","slug":"krystallis-c753","kind":"restaurant","name":"Κρυστάλλης","lat":38.05560270007769,"lng":23.870179792849736,"url":"https://maps.app.goo.gl/XofHBMHMp5Y8ecHi6","address":"Πλ. Αγίας Τριάδας, Πεντέλη 152 36","categoryIds":["greek-restaurants"],"categories":["Greek Restaurants"],"distanceKm":6.662444898434879},{"id":"fishTavernasRestaurants_120bf543e9c4","slug":"to-plokami-120b","kind":"restaurant","name":"Το πλοκάμι","lat":38.09102735114395,"lng":23.981804303325717,"url":"https://maps.app.goo.gl/QuJBtKF3QD3n78sW8?g_st=ipc","address":"Λεωφ. Ποσειδώνος, Νέα Μάκρη 190 05","categoryIds":["fish-tavernas"],"categories":["Fish Tavernas"],"distanceKm":6.667129833863767},{"id":"cheapEatsRestaurants_6aba6b4d71c3","slug":"cook-and-grill-pallinis-6aba","kind":"restaurant","name":"Cook And Grill Παλλήνης","lat":38.00364715720239,"lng":23.880433616458955,"url":"https://maps.app.goo.gl/KtBirzLenbmGoPCW9?g_st=ipc","address":"Λεωφ. Μαραθώνος 76, Παλλήνη 153 51","categoryIds":["cheap-eats"],"categories":["Gyros & Cheap Eats"],"distanceKm":6.7885277165490185}],"mentionedGuides":[],"canonicalSlug":"i-gonia-toy-torva-f6d2","enrichment":{"summary_en":"Η Γωνία του Τόρβα is a curated restaurant in Νταου Πεντελη - Ραφηνας 190 09 in the Greek Restaurants collection. It is connected to 1 nearby Googlementor picks to help travelers build a stronger local route.","summary_el":"Η Γωνία του Τόρβα είναι ένα επιλεγμένο σημείο φαγητού στην περιοχή Νταου Πεντελη - Ραφηνας 190 09 και ανήκει στη συλλογή Greek Restaurants. Συνδέεται με 1 κοντινές προτάσεις του Googlementor για πιο ολοκληρωμένη εμπειρία.","vibe_tags":["curated"],"best_for":["first-time visitors","food lovers"],"visit_moments":["lunch stop","dinner stop"],"practical_note":"Address and direct map link are available for easy turn-by-turn access.","nearby_walkable_count":1,"nearby_count_2km":1,"confidence":0.9},"areaContext":{"slug":"pikermi","name":"Pikermi","nameEl":"Πικέρμι"},"intentContexts":[]},"__N_SSG":true}