{"pageProps":{"entity":{"id":"monasteriesChurches_853ade4b065f","slug":"iera-moni-koimiseos-tis-theotokoy-agnoyntos-853a","kind":"restaurant","name":"Ιερά Μονή Κοιμήσεως της Θεοτόκου Αγνούντος","lat":37.71054987478057,"lng":23.131785879590392,"url":"https://maps.app.goo.gl/hdbTG2TdzToXT6nz8?g_st=ipc","address":"Επίδαυρος 210 54","categoryIds":["monasteries-churches"],"categories":["Monasteries & Spiritual Sites"]},"sameCategory":[{"id":"monasteriesChurches_d020daa580d2","slug":"ieron-isychastirion-agias-triados-agioy-nektarioy-aiginis-d020","kind":"restaurant","name":"Ιερόν Ησυχαστήριον Αγίας Τριάδος - Αγίου Νεκταρίου Αιγίνης","lat":37.747756129707696,"lng":23.48419119090333,"url":"https://maps.app.goo.gl/FKwvJEY7DdQLDdKC7?g_st=ipc","address":"37°44'54.9\"N 23°29, 03 6\"E, Κοντός 180 10","categoryIds":["monasteries-churches"],"categories":["Monasteries & Spiritual Sites"]},{"id":"monasteriesChurches_e06cb099676f","slug":"iera-moni-panagias-chrysoleontissas-e06c","kind":"restaurant","name":"Ιερά Μονή Παναγίας Χρυσολεόντισσας","lat":37.72683515229462,"lng":23.487000558860796,"url":"https://maps.app.goo.gl/4wfUy4FPX2uzBPHt8?g_st=ipc","address":"Κοντός 180 10","categoryIds":["monasteries-churches"],"categories":["Monasteries & Spiritual Sites"]},{"id":"monasteriesChurches_c167cd824b01","slug":"ieros-naos-agioy-nektarioy-aiginis-c167","kind":"restaurant","name":"Ιερός Ναός Αγίου Νεκταρίου Αιγίνης","lat":37.746945069118,"lng":23.484687951163814,"url":"https://maps.app.goo.gl/KjppqYPoe3hM1kHb9?g_st=ipc","address":"Κοντός 180 10","categoryIds":["monasteries-churches"],"categories":["Monasteries & Spiritual Sites"]},{"id":"monasteriesChurches_27ad1b8957bf","slug":"iera-moni-osioy-patapioy-27ad","kind":"restaurant","name":"Ιερά Μονή Οσίου Παταπίου","lat":37.995800173616075,"lng":22.97687851305677,"url":"https://maps.app.goo.gl/pK5oCv6PgGwT3qg66?g_st=ipc","address":"Σχολής Μηχανικού 26, Λουτράκι 203 00","categoryIds":["monasteries-churches"],"categories":["Monasteries & Spiritual Sites"]},{"id":"monasteriesChurches_2cc7b0157c40","slug":"iera-moni-panagias-faneromenis-salaminos-2cc7","kind":"restaurant","name":"Ιερά Μονή Παναγίας Φανερωμένης Σαλαμίνος","lat":37.98425555632926,"lng":23.435533982516695,"url":"https://maps.app.goo.gl/bR5hBfrRFLjpCPf3A?g_st=ipc","address":"Σαλαμίνα 189 00","categoryIds":["monasteries-churches"],"categories":["Monasteries & Spiritual Sites"]},{"id":"monasteriesChurches_a960e0dee86b","slug":"iera-moni-panagias-gorgoepikooy-a960","kind":"restaurant","name":"Ιερά Μονή Παναγίας Γοργοεπηκόου","lat":38.06149256664941,"lng":23.467831046678143,"url":"https://maps.app.goo.gl/vNnKum91S5s8eiVu8?g_st=ipc","address":"Μακεδονομάχων, Μάνδρα-Ειδύλλια 196 00","categoryIds":["monasteries-churches"],"categories":["Monasteries & Spiritual Sites"]},{"id":"monasteriesChurches_616a7205bceb","slug":"ieros-naos-agioy-nikolaoy-616a","kind":"restaurant","name":"Ιερός Ναός Αγίου Νικολάου","lat":37.93852657714825,"lng":23.640083861716022,"url":"https://maps.app.goo.gl/yhWmXb3651phCnDF8?g_st=ipc","address":"Αγίου Νικολάου 2, Πειραιάς 185 37","categoryIds":["monasteries-churches"],"categories":["Monasteries & Spiritual Sites"]},{"id":"monasteriesChurches_350fade94be9","slug":"ieros-naos-agioy-alexandroy-350f","kind":"restaurant","name":"Ιερός Ναός Αγίου Αλεξάνδρου","lat":37.92675404012077,"lng":23.69297935050041,"url":"https://maps.app.goo.gl/oTPMMN55BBN9bVMA8?g_st=ipc","address":"Αγίου Αλεξάνδρου 14, Παλαιό Φάληρο 175 61","categoryIds":["monasteries-churches"],"categories":["Monasteries & Spiritual Sites"]},{"id":"monasteriesChurches_9012455a363d","slug":"iera-moni-dafnioy-9012","kind":"restaurant","name":"Ιερά Μονή Δαφνίου","lat":38.012995167161115,"lng":23.63601896606369,"url":"https://maps.app.goo.gl/idE6eKcfBqTpZbE78?g_st=ipc","address":"Ιερά Οδός, Χαϊδάρι 124 61","categoryIds":["monasteries-churches","attractions"],"categories":["Monasteries & Spiritual Sites","Must-See Attractions"],"legacySlugs":["iera-moni-dafnioy-2115"]},{"id":"monasteriesChurches_1a2f185631bd","slug":"ieros-naos-metamorfoseos-toy-sotiros-alimoy-1a2f","kind":"restaurant","name":"Ιερός Ναός Μεταμορφώσεως του Σωτήρος Αλίμου","lat":37.91489271664002,"lng":23.713901119345575,"url":"https://maps.app.goo.gl/iaAnNdKjb6eDxhaq5?g_st=ipc","address":"Νίκης 51, Άλιμος 174 55","categoryIds":["monasteries-churches"],"categories":["Monasteries & Spiritual Sites"]},{"id":"monasteriesChurches_7e1015acfe83","slug":"ieros-mitropolitikos-naos-agion-konstantinoy-kai-elenis-glyfados-7e10","kind":"restaurant","name":"Ιερός Μητροπολιτικός Ναός Αγίων Κωνσταντίνου και Ελένης Γλυφάδος","lat":37.86486928057967,"lng":23.745526823345948,"url":"https://maps.app.goo.gl/qTQwxJXWuuhNBZ4H6?g_st=ipc","address":"Λεωφ. Ποσειδώνος 55, Γλυφάδα 166 75","categoryIds":["monasteries-churches"],"categories":["Monasteries & Spiritual Sites"]},{"id":"monasteriesChurches_adc6b19412ee","slug":"parekklisi-agioy-georgioy-adc6","kind":"restaurant","name":"Παρεκκλήσι Αγίου Γεωργίου","lat":37.81919273575849,"lng":23.773228906832582,"url":"https://maps.app.goo.gl/WhtDbBx2hvZfm5mb9?g_st=ipc","address":"Βουλιαγμένη 166 71","categoryIds":["monasteries-churches"],"categories":["Monasteries & Spiritual Sites"]}],"nearby":[{"id":"mustSeeAttractions_81109b384881","slug":"archaia-epidayros-vythismeni-politeia-sunken-city-8110","kind":"restaurant","name":"Αρχαία Επίδαυρος,  Βυθισμένη πολιτεία sunken city","lat":37.62558699316192,"lng":23.15824375963821,"url":"https://maps.app.goo.gl/4DoJ6SnBtgDpmScf7?g_st=ipc","address":"Παραλία Γκλιατη 1, Αρχαία Επίδαυρος 210 59","categoryIds":["attractions"],"categories":["Must-See Attractions"],"distanceKm":9.730226362208173},{"id":"mustSeeAttractions_1762cb7f3f45","slug":"archaio-theatro-asklipieioy-epidayroy-1762","kind":"restaurant","name":"Αρχαίο Θέατρο Ασκληπιείου Επιδαύρου","lat":37.59612250456949,"lng":23.079285116251615,"url":"https://maps.app.goo.gl/4dZguixUu49kmP199?g_st=ipc","address":"Επίδαυρος 210 52","categoryIds":["attractions"],"categories":["Must-See Attractions"],"distanceKm":13.537200999142994},{"id":"mustSeeAttractions_def8cbb6aa41","slug":"archaiologikos-choros-asklipieioy-epidayroy-def8","kind":"restaurant","name":"Αρχαιολογικός Χώρος Ασκληπιείου Επιδαύρου","lat":37.596069935653894,"lng":23.077204053695286,"url":"https://maps.app.goo.gl/b4Z6adjUcQFQhcNL7?g_st=ipc","address":"Επίδαυρος 210 52","categoryIds":["attractions"],"categories":["Must-See Attractions"],"distanceKm":13.606311582592046},{"id":"fishTavernasRestaurants_08b5ab011888","slug":"almyriki-08b5","kind":"restaurant","name":"ΑΛΜΥΡΙΚΙ","lat":37.852743518617515,"lng":23.00215185401227,"url":"https://maps.app.goo.gl/hdAPtt1dSNxNigaPA?g_st=ipc","address":"R2X3+G5, Epar.Od. Moni Taxiarchon - Kato Almiri, Kato Almiri 201 00","categoryIds":["fish-tavernas"],"categories":["Fish Tavernas"],"distanceKm":19.488107270877627},{"id":"greekRestaurants_194196a775f8","slug":"taverna-mpatzavalis-1941","kind":"restaurant","name":"Ταβέρνα Μπατζάβαλης","lat":37.538801302509206,"lng":23.20804103233561,"url":"https://maps.app.goo.gl/PctHkeeHVJEeQDux6?g_st=ipc","address":"Καρατζάς 180 20","categoryIds":["greek-restaurants"],"categories":["Greek Restaurants"],"distanceKm":20.24396894302321},{"id":"greekRestaurants_fe33131c983d","slug":"toxotis-fe33","kind":"restaurant","name":"ΤΟΞΟΤΗΣ","lat":37.70895258892911,"lng":23.363446090303647,"url":"https://maps.app.goo.gl/y4Wvco9rEc1QfYUM6?g_st=ipc","address":"Σκάλα 180 10","categoryIds":["greek-restaurants"],"categories":["Greek Restaurants"],"distanceKm":20.37956275071398},{"id":"italianRestaurants_cea069598e2c","slug":"avli-pizzeria-italian-restaurant-cea0","kind":"restaurant","name":"Avli Pizzeria Italian Restaurant","lat":37.70852668969966,"lng":23.364217806517935,"url":"https://maps.app.goo.gl/CQiwfGN8vkcQtv7x8?g_st=ipc","address":"Σκάλα 180 10","categoryIds":["italian"],"categories":["Italian Restaurants"],"distanceKm":20.447971768303788},{"id":"fishTavernasRestaurants_280f68f1857d","slug":"kavos-280f","kind":"restaurant","name":"Κάβος","lat":37.9019948722367,"lng":23.01292994879006,"url":"https://maps.app.goo.gl/PptKq3WRsYvpTsqu5?g_st=ipc","address":"Ίσθμια 201 00","categoryIds":["fish-tavernas","luxury-dining"],"categories":["Fish Tavernas","Luxury Dining"],"legacySlugs":["kavos-1d0d"],"distanceKm":23.71076843304467},{"id":"burgersRestaurants_fc37c5f5cc99","slug":"diner-72-fc37","kind":"restaurant","name":"Diner 72","lat":37.92372598231459,"lng":23.045537436860897,"url":"https://maps.app.goo.gl/JBWKzEThZyPeN81d8?g_st=ipc","address":"Παλαιά ΕΟ Αθηνών Κορίνθου, Δήμος Λουτρακίου - Αγίων Θεοδώρων 200 03","categoryIds":["burgers"],"categories":["Burger Spots"],"distanceKm":24.88537874809198},{"id":"cheapEatsRestaurants_0b1305dba65e","slug":"fytampanis-g-psitopoleio-soyvlatzidiko-0b13","kind":"restaurant","name":"Φυταμπανης Γ. Ψητοπωλειο - Σουβλατζιδικο","lat":37.92024228635265,"lng":22.99364053559187,"url":"https://maps.app.goo.gl/xoTkQyq8YGQpxjaU8?g_st=ipc","address":"ΕΟ Ισθμού Αρχαίας Επιδαύρου 21, Ίσθμια 200 10","categoryIds":["cheap-eats"],"categories":["Gyros & Cheap Eats"],"distanceKm":26.28554566112935},{"id":"greekRestaurants_730d57299d9e","slug":"t-alonia-paradosiaki-elliniki-taverna-730d","kind":"restaurant","name":"«Τ' ΑΛΩΝΙΑ» Παραδοσιακή Ελληνική Ταβέρνα","lat":37.5821792332292,"lng":22.878688681857938,"url":"https://maps.app.goo.gl/NA8tRJoQnezLcqzT6?g_st=ipc","address":"Γεωρ. Γεννηματά 8, Πυργιώτικα 211 00","categoryIds":["greek-restaurants"],"categories":["Greek Restaurants"],"distanceKm":26.463368204151706},{"id":"familyFriendly_8b9ba7b9f729","slug":"splash-waterpark-isthmos-8b9b","kind":"restaurant","name":"Splash Waterpark Isthmos","lat":37.92495583561113,"lng":22.991604427588854,"url":"https://maps.app.goo.gl/eqCZacM2mh9hh5mi8?g_st=ipc","address":"Ισθμού, Λουτράκι 203 00","categoryIds":["family-friendly"],"categories":["Kid Friendly Locations"],"distanceKm":26.83299190433821},{"id":"mustSeeAttractions_548e87d4f0b8","slug":"dioryga-tis-korinthoy-548e","kind":"restaurant","name":"Διώρυγα της Κορίνθου","lat":37.934260646159885,"lng":22.98428860726812,"url":"https://maps.app.goo.gl/cmoYHbzQvg5Nv9KN7?g_st=ipc","address":"Λουτράκι 203 00","categoryIds":["attractions"],"categories":["Must-See Attractions"],"distanceKm":28.04694905339084},{"id":"greekRestaurants_cb449644830d","slug":"taverna-mpekos-cb44","kind":"restaurant","name":"ΤΑΒΕΡΝΑ ΜΠΕΚΟΣ","lat":37.882103671834614,"lng":22.89083633129398,"url":"https://maps.app.goo.gl/WFqWdQskbVXwmo339?g_st=ipc","address":"ΕΟ Κορίνθου Άργους 36, Σολομός 201 00","categoryIds":["greek-restaurants"],"categories":["Greek Restaurants"],"distanceKm":28.497507313826652},{"id":"familyFriendly_382b225783e0","slug":"athloypoli-382b","kind":"restaurant","name":"Αθλούπολη","lat":37.92596676764985,"lng":22.950761882031436,"url":"https://maps.app.goo.gl/1hz4bXK4e1zKMcW19?g_st=ipc","address":"Θέση Μπαθαρίστρα, Δήμος Κορινθίων 201 00","categoryIds":["family-friendly"],"categories":["Kid Friendly Locations"],"distanceKm":28.750681406691694},{"id":"mustSeeAttractions_10ed76689ca7","slug":"archaia-korinthos-10ed","kind":"restaurant","name":"Αρχαία Κόρινθος","lat":37.90716292407013,"lng":22.881429703730713,"url":"https://maps.app.goo.gl/Wa4GWgjzXVLMVAyZ7?g_st=ipc","address":"Αρχαία Κόρινθος 200 07","categoryIds":["attractions"],"categories":["Must-See Attractions"],"distanceKm":31.011226857686324},{"id":"mustSeeAttractions_6f7525d9828a","slug":"naos-toy-apollona-6f75","kind":"restaurant","name":"Ναός του Απόλλωνα","lat":37.905934819191934,"lng":22.879090197503242,"url":"https://maps.app.goo.gl/8vWipRURHj9oGwSj8?g_st=ipc","address":"Άργους 105, Αρχαία Κόρινθος 200 07","categoryIds":["attractions"],"categories":["Must-See Attractions"],"distanceKm":31.061792713302278},{"id":"fishTavernasRestaurants_f33d801592a8","slug":"fanis-f33d","kind":"restaurant","name":"Φάνης","lat":37.93929883889628,"lng":22.920388237170222,"url":"https://maps.app.goo.gl/fTiUsZtuT7FzXx5m8?g_st=ipc","address":"Γεωρ. Παπανδρέου 87, Κόρινθος 201 00","categoryIds":["fish-tavernas"],"categories":["Fish Tavernas"],"distanceKm":31.491626132736588},{"id":"greekRestaurants_87ece57093df","slug":"maistrali-87ec","kind":"restaurant","name":"Μαϊστράλι","lat":37.967119636762334,"lng":22.972511635572165,"url":"https://maps.app.goo.gl/TngD3F1b3PDVc4187?g_st=ipc","address":"Ποσειδώνος 81, Λουτράκι 203 00","categoryIds":["greek-restaurants"],"categories":["Greek Restaurants"],"distanceKm":31.773328700655526},{"id":"greekRestaurants_3deccfb243c6","slug":"maria-s-restaurant-3dec","kind":"restaurant","name":"Maria's Restaurant","lat":37.52164513322119,"lng":22.86050581823376,"url":"https://maps.app.goo.gl/QbgkBU617RxRPjsA9?g_st=ipc","address":"Μπουμπουλίνας 48, Τολό 210 56","categoryIds":["greek-restaurants"],"categories":["Greek Restaurants"],"distanceKm":31.81434157636009},{"id":"greekRestaurants_456e04c6f039","slug":"taverna-akrogiali-456e","kind":"restaurant","name":"Ταβέρνα Ακρογιάλι","lat":37.52046536124531,"lng":22.859758080550037,"url":"https://maps.app.goo.gl/ozgqdAjUGP2zDfVP7?g_st=ipc","address":"Ακτης 10, Τολό 210 56","categoryIds":["greek-restaurants"],"categories":["Greek Restaurants"],"distanceKm":31.950609579677582},{"id":"greekRestaurants_2ba865e52e42","slug":"romvi-restaurant-2ba8","kind":"restaurant","name":"Romvi Restaurant","lat":37.51773326708392,"lng":22.85851725425822,"url":"https://maps.app.goo.gl/e71iANV4U9yZU48u9?g_st=ipc","address":"Τολό 210 56","categoryIds":["greek-restaurants"],"categories":["Greek Restaurants"],"distanceKm":32.23424485322856},{"id":"fishTavernasRestaurants_772314841aeb","slug":"tripia-sayionara-tavern-7723","kind":"restaurant","name":"Tripia Sayionara Tavern","lat":37.51747745166334,"lng":22.85839744503769,"url":"https://maps.app.goo.gl/EEU9XawrL4yhTEhm7?g_st=ipc","address":"εισοδος απο παραλια, Elevtheriou Veniavelou 4, Tolo 210 56","categoryIds":["fish-tavernas"],"categories":["Fish Tavernas"],"distanceKm":32.26107908265611},{"id":"fishTavernasRestaurants_f1a82ca58a60","slug":"paolo-nikos-restaurant-f1a8","kind":"restaurant","name":"Paolo Nikos Restaurant","lat":37.97387325898538,"lng":22.97577321461108,"url":"https://maps.app.goo.gl/55rvgJM2cg2quvQr9?g_st=ipc","address":"Ποσειδώνος, Λουτράκι 203 00","categoryIds":["fish-tavernas"],"categories":["Fish Tavernas"],"distanceKm":32.32661995416211}],"mentionedGuides":[],"canonicalSlug":"iera-moni-koimiseos-tis-theotokoy-agnoyntos-853a","enrichment":{"summary_en":"Ιερά Μονή Κοιμήσεως της Θεοτόκου Αγνούντος is a curated restaurant in Greece in the Monasteries & Spiritual Sites collection. It is connected to 0 nearby Googlementor picks to help travelers build a stronger local route.","summary_el":"Ιερά Μονή Κοιμήσεως της Θεοτόκου Αγνούντος είναι ένα επιλεγμένο σημείο φαγητού στην περιοχή Greece και ανήκει στη συλλογή Monasteries & Spiritual Sites. Συνδέεται με 0 κοντινές προτάσεις του Googlementor για πιο ολοκληρωμένη εμπειρία.","vibe_tags":["curated"],"best_for":["first-time visitors","food lovers"],"visit_moments":["lunch stop","dinner stop"],"practical_note":"Address and direct map link are available for easy turn-by-turn access.","nearby_walkable_count":0,"nearby_count_2km":0,"confidence":0.9},"areaContext":null,"intentContexts":[]},"__N_SSG":true}