{"pageProps":{"entity":{"id":"cheapEatsRestaurants_104db32dd905","slug":"jackaroo-104d","kind":"restaurant","name":"Jackaroo","lat":37.96222285381352,"lng":23.7252636942005,"url":"https://maps.app.goo.gl/obvLVFRy5Vbt8DPS6?g_st=ipc","address":"Καλλιρρόης 73, Αθήνα 117 45","categoryIds":["cheap-eats"],"categories":["Gyros & Cheap Eats"]},"sameCategory":[{"id":"cheapEatsRestaurants_f167ae0efa67","slug":"kalyvas-oikogeneiako-psitopoleio-f167","kind":"restaurant","name":"Καλύβας οικογενειακό ψητοπωλείο","lat":37.962881286635515,"lng":23.721970322127277,"url":"https://maps.app.goo.gl/tfkKpGgKP9PAqPWX9?g_st=ipc","address":"Dimitrakopoulou 91-93, G Olymbiou 10, Athina 117 41","categoryIds":["cheap-eats"],"categories":["Gyros & Cheap Eats"]},{"id":"cheapEatsRestaurants_15b8f9de5a02","slug":"robin-belgian-streetfood-15b8","kind":"restaurant","name":"Robin Belgian streetfood","lat":37.96249493210435,"lng":23.729203293671816,"url":"https://maps.app.goo.gl/4RTN9WGd3FCHQamG6?g_st=ipc","address":"Θεοδώρητου Βρεσθένης 31, Αθήνα 117 43","categoryIds":["cheap-eats"],"categories":["Gyros & Cheap Eats"]},{"id":"cheapEatsRestaurants_258b939a478f","slug":"psitopoleio-to-empeiro-258b","kind":"restaurant","name":"Ψητοπωλείο Το Έμπειρο","lat":37.96275771902048,"lng":23.72923609945131,"url":"https://maps.app.goo.gl/kpwhPwcxrACr1psm9?g_st=ipc","address":"Ηρακλέους 28, Αθήνα 117 43","categoryIds":["cheap-eats"],"categories":["Gyros & Cheap Eats"]},{"id":"cheapEatsRestaurants_d094097525b6","slug":"senor-picante-d094","kind":"restaurant","name":"Señor Picante","lat":37.965308606012925,"lng":23.726477821309263,"url":"https://maps.app.goo.gl/bZNApSKDTgmvuiXB7?g_st=ipc","address":"Φαλήρου 40, Αθήνα 117 42","categoryIds":["cheap-eats","mexican"],"categories":["Gyros & Cheap Eats","Mexican Restaurants"],"legacySlugs":["senor-picante-fbd3"]},{"id":"cheapEatsRestaurants_5e8824ccc538","slug":"kalamaki-bar-5e88","kind":"restaurant","name":"Kalamaki Bar","lat":37.9654765831714,"lng":23.725752010856876,"url":"https://maps.app.goo.gl/vMhM3YojNKaURqwX8?g_st=ipc","address":"Δημητρακοπούλου και, Δράκου 15, Αθήνα 117 42","categoryIds":["cheap-eats"],"categories":["Gyros & Cheap Eats"]},{"id":"cheapEatsRestaurants_abe36348d52a","slug":"guarantee-abe3","kind":"restaurant","name":"Guarantee","lat":37.96613348579953,"lng":23.726193428667294,"url":"https://maps.app.goo.gl/k43yGuJ8dK72yJAh8?g_st=ipc","address":"Βεΐκου 41, Αθήνα 117 42","categoryIds":["cheap-eats"],"categories":["Gyros & Cheap Eats"]},{"id":"cheapEatsRestaurants_ccda7a47a1b9","slug":"falafel-bar-to-revithi-ccda","kind":"restaurant","name":"falafel bar ΤΟ ΡΕΒΙΘΙ","lat":37.96631483519238,"lng":23.7261110398094,"url":"https://maps.app.goo.gl/4FqJYg2raYZvXHja7?g_st=ipc","address":"Παρθενώνος 1, Αθήνα 117 42","categoryIds":["cheap-eats","vegetarian"],"categories":["Gyros & Cheap Eats","Vegetarian Friendly Restaurants"],"legacySlugs":["falafel-bar-to-revithi-dec0"]},{"id":"cheapEatsRestaurants_ea477a96a248","slug":"ta-soyvlakia-tis-petmeza-souvlakia-petmeza-ea47","kind":"restaurant","name":"Τα ΣΟΥΒΛΑΚΙΑ της Πετμεζά souvlakia petmeza","lat":37.96653318144558,"lng":23.72792783847805,"url":"https://maps.app.goo.gl/wJbToSNnsHXBEELJ7?g_st=ipc","address":"Πετμεζά 2, Αθήνα 117 42","categoryIds":["cheap-eats"],"categories":["Gyros & Cheap Eats"]},{"id":"cheapEatsRestaurants_d758a1864776","slug":"tomas-marios-ovelistirio-d758","kind":"restaurant","name":"ΤΟΜΑΣ ΜΑΡΙΟΣ ΟΒΕΛΙΣΤΗΡΙΟ","lat":37.95740701533671,"lng":23.72476747255489,"url":"https://maps.app.goo.gl/B8R43v1kbWhoCBdJ9?g_st=ipc","address":"Μήτρου Σαρκουδίνου 49, Αθήνα 117 44","categoryIds":["cheap-eats"],"categories":["Gyros & Cheap Eats"]},{"id":"cheapEatsRestaurants_7c127d112eef","slug":"dirty-manh-7c12","kind":"restaurant","name":"Dirty Manh","lat":37.96689597541608,"lng":23.728371721835774,"url":"https://maps.app.goo.gl/LaZcss8aznDJpxm89?g_st=ipc","address":"Νικ. Δημητρακοπούλου 5, Αθήνα 117 42","categoryIds":["cheap-eats"],"categories":["Gyros & Cheap Eats"]},{"id":"cheapEatsRestaurants_4de598be41da","slug":"johnie-hot-dog-syggroy-4de5","kind":"restaurant","name":"Johnie Hot Dog Συγγρού","lat":37.959239923680194,"lng":23.71954717101243,"url":"https://maps.app.goo.gl/WUCUWAGV3GyPBumi7?g_st=ipc","address":"Λεωφ. Ανδρέα Συγγρού 136, Καλλιθέα 176 71","categoryIds":["cheap-eats"],"categories":["Gyros & Cheap Eats"]},{"id":"cheapEatsRestaurants_17e24777d3f9","slug":"o-giatros-tis-peinas-17e2","kind":"restaurant","name":"Ο Γιατρός της Πείνας","lat":37.9576250215062,"lng":23.729472460111847,"url":"https://maps.app.goo.gl/Rbxz8a7b6mXRVXtX9?g_st=ipc","address":"Ηλία Ηλιού 59, Αθήνα 117 44","categoryIds":["cheap-eats"],"categories":["Gyros & Cheap Eats"]}],"nearby":[{"id":"coffeeBrunchRestaurants_946f8ff0112c","slug":"hippy-hippo-946f","kind":"restaurant","name":"Hippy Hippo","lat":37.96338312245576,"lng":23.724161260955565,"url":"https://maps.app.goo.gl/dGXFqUaPgJg6izKF7?g_st=ipc","address":"Αναστασίου Ζίννη 37, Αθήνα 117 41","categoryIds":["coffee-brunch"],"categories":["Coffee & Brunch Spots"],"distanceKm":0.1612011723125567},{"id":"italianRestaurants_5abecb9e2aaa","slug":"voylkanizater-5abe","kind":"restaurant","name":"Βουλκανιζατέρ","lat":37.96367095489114,"lng":23.724556596700353,"url":"https://maps.app.goo.gl/HebUjJkB8SUt6Xp36?g_st=ipc","address":"Οδυσσέα Ανδρούτσου 17, Αθήνα 117 41","categoryIds":["italian"],"categories":["Italian Restaurants"],"distanceKm":0.17254152060204042},{"id":"vegetarianRestaurants_663d79e21a0f","slug":"noa-poke-koukaki-663d","kind":"restaurant","name":"Noa Poke Koukaki","lat":37.962721066064105,"lng":23.72328239582356,"url":"https://maps.app.goo.gl/2BHN8JbCEv2oz4LT8?g_st=ipc","address":"Φαλήρου 84, Αθήνα 117 41","categoryIds":["vegetarian"],"categories":["Vegetarian Friendly Restaurants"],"distanceKm":0.18231624439023167},{"id":"asianRestaurants_a89412856273","slug":"koyasan-in-koukaki-a894","kind":"restaurant","name":"Koyasan in koukaki","lat":37.96291366771106,"lng":23.723242897494586,"url":"https://maps.app.goo.gl/4sTjgzzfABYKexbx6?g_st=ipc","address":"17 & Ο, Ζαν Μωρεάς, Γεωρ. Ανδρούτσου, Αθήνα 117 41","categoryIds":["asian"],"categories":["Asian Restaurants"],"distanceKm":0.19309472558345536},{"id":"coffeeBrunchRestaurants_6154e62b6cd6","slug":"mpel-rey-6154","kind":"restaurant","name":"Μπελ Ρεϋ","lat":37.96239606904346,"lng":23.722769926662476,"url":"https://maps.app.goo.gl/zGZShvHird8bq92Q9?g_st=ipc","address":"Φαλήρου 88, Αθήνα 117 41","categoryIds":["coffee-brunch"],"categories":["Coffee & Brunch Spots"],"distanceKm":0.21946993509730112},{"id":"coffeeBrunchRestaurants_c191ebb5fd6a","slug":"teras-athens-c191","kind":"restaurant","name":"Teras Athens","lat":37.96132522695651,"lng":23.727704519576132,"url":"https://maps.app.goo.gl/Q7ocWz9NPgB5Zoaa6?g_st=ipc","address":"Θεοδώρητου Βρεσθένης 45, Αθήνα 117 43","categoryIds":["coffee-brunch"],"categories":["Coffee & Brunch Spots"],"distanceKm":0.2361169914823613},{"id":"burgersRestaurants_ad6cf86d44bd","slug":"sam-burgers-ad6c","kind":"restaurant","name":"Sam burgers","lat":37.96388468249238,"lng":23.72312062221316,"url":"https://maps.app.goo.gl/pYEUc4KHraPYUmvN8?g_st=ipc","address":"Δημητρακοπούλου 82, Αθήνα 117 41","categoryIds":["burgers"],"categories":["Burger Spots"],"distanceKm":0.2635219065644731},{"id":"luxuryDiningRestaurants_449388b6e901","slug":"gallina-athens-4493","kind":"restaurant","name":"Gallina Athens","lat":37.964508186769734,"lng":23.726121733406966,"url":"https://maps.app.goo.gl/zkqCQmDUHjdt7RX4A?g_st=ipc","address":"Μαρκ. Μπότσαρη 49, Αθήνα 117 42","categoryIds":["luxury-dining"],"categories":["Luxury Dining"],"distanceKm":0.2650168262922508},{"id":"cheapEatsRestaurants_f167ae0efa67","slug":"kalyvas-oikogeneiako-psitopoleio-f167","kind":"restaurant","name":"Καλύβας οικογενειακό ψητοπωλείο","lat":37.962881286635515,"lng":23.721970322127277,"url":"https://maps.app.goo.gl/tfkKpGgKP9PAqPWX9?g_st=ipc","address":"Dimitrakopoulou 91-93, G Olymbiou 10, Athina 117 41","categoryIds":["cheap-eats"],"categories":["Gyros & Cheap Eats"],"distanceKm":0.2978600481951956},{"id":"dessertsRestaurants_f792b1129076","slug":"flour-of-youth-f792","kind":"restaurant","name":"Flour Of Youth","lat":37.96404409092071,"lng":23.722471600259,"url":"https://maps.app.goo.gl/FibffjzNDReT3bDx7?g_st=ipc","address":"Βεΐκου 91, Αθήνα 117 41","categoryIds":["desserts"],"categories":["Dessert Shops"],"distanceKm":0.31768784062766997},{"id":"greekRestaurants_e9888507556f","slug":"fita-e988","kind":"restaurant","name":"Φιτα","lat":37.959800125380376,"lng":23.723270363621033,"url":"https://maps.app.goo.gl/dz2YxasHy4LnBQ668","address":"Ντουρμ 1, Αθήνα 117 45","categoryIds":["greek-restaurants"],"categories":["Greek Restaurants"],"distanceKm":0.3211116521187879},{"id":"vegetarianRestaurants_06ce84bd30cd","slug":"mother-vegan-bistro-06ce","kind":"restaurant","name":"Mother Vegan Bistro","lat":37.962693218314804,"lng":23.721538252984118,"url":"https://maps.app.goo.gl/TZgz9fcY4M4aZZQD6?g_st=ipc","address":"Δημητρακοπούλου, Αγίου Νικολάου 95, Αθήνα 117 41","categoryIds":["vegetarian"],"categories":["Vegetarian Friendly Restaurants"],"distanceKm":0.33076196951770165},{"id":"mexicanRestaurants_b734434ef46c","slug":"el-burro-tacos-y-tequila-b734","kind":"restaurant","name":"El burro tacos y tequila","lat":37.962922862445566,"lng":23.7215865155236,"url":"https://maps.app.goo.gl/5kJKHTBcWjkVftX99?g_st=ipc","address":"Δημητρακοπούλου 102, Αθήνα 117 41","categoryIds":["mexican"],"categories":["Mexican Restaurants"],"distanceKm":0.331633034583009},{"id":"dessertsRestaurants_565a86e193ac","slug":"loukoumania-koukaki-565a","kind":"restaurant","name":"Loukoumania Koukaki","lat":37.96292938267619,"lng":23.721586647006472,"url":"https://maps.app.goo.gl/ZLLgE9gFjGjPVqBp7?g_st=ipc","address":"Δημητρακοπούλου 102, Αθήνα 117 41","categoryIds":["desserts"],"categories":["Dessert Shops"],"distanceKm":0.33179273839616724},{"id":"cheapEatsRestaurants_15b8f9de5a02","slug":"robin-belgian-streetfood-15b8","kind":"restaurant","name":"Robin Belgian streetfood","lat":37.96249493210435,"lng":23.729203293671816,"url":"https://maps.app.goo.gl/4RTN9WGd3FCHQamG6?g_st=ipc","address":"Θεοδώρητου Βρεσθένης 31, Αθήνα 117 43","categoryIds":["cheap-eats"],"categories":["Gyros & Cheap Eats"],"distanceKm":0.3466983641656772},{"id":"cheapEatsRestaurants_258b939a478f","slug":"psitopoleio-to-empeiro-258b","kind":"restaurant","name":"Ψητοπωλείο Το Έμπειρο","lat":37.96275771902048,"lng":23.72923609945131,"url":"https://maps.app.goo.gl/kpwhPwcxrACr1psm9?g_st=ipc","address":"Ηρακλέους 28, Αθήνα 117 43","categoryIds":["cheap-eats"],"categories":["Gyros & Cheap Eats"],"distanceKm":0.3532932284994021},{"id":"cheapEatsRestaurants_d094097525b6","slug":"senor-picante-d094","kind":"restaurant","name":"Señor Picante","lat":37.965308606012925,"lng":23.726477821309263,"url":"https://maps.app.goo.gl/bZNApSKDTgmvuiXB7?g_st=ipc","address":"Φαλήρου 40, Αθήνα 117 42","categoryIds":["cheap-eats","mexican"],"categories":["Gyros & Cheap Eats","Mexican Restaurants"],"legacySlugs":["senor-picante-fbd3"],"distanceKm":0.35924966704450995},{"id":"vegetarianRestaurants_4db58e18de0e","slug":"peas-vegan-4db5","kind":"restaurant","name":"Peas Vegan","lat":37.965309081383936,"lng":23.72648212033699,"url":"https://maps.app.goo.gl/8AeCWeh7LczgaD87A?g_st=ipc","address":"Φαλήρου 40, Αθήνα 117 42","categoryIds":["vegetarian"],"categories":["Vegetarian Friendly Restaurants"],"distanceKm":0.3594119783308985},{"id":"coffeeBrunchRestaurants_93d5a5bf934a","slug":"bite-box-93d5","kind":"restaurant","name":"Bite Box","lat":37.963687328724134,"lng":23.72159915102945,"url":"https://maps.app.goo.gl/szSB6mZP4tWEA46h7?g_st=ipc","address":"Βεΐκου 84, Αθήνα 117 41","categoryIds":["coffee-brunch"],"categories":["Coffee & Brunch Spots"],"distanceKm":0.36017404736187303},{"id":"cheapEatsRestaurants_5e8824ccc538","slug":"kalamaki-bar-5e88","kind":"restaurant","name":"Kalamaki Bar","lat":37.9654765831714,"lng":23.725752010856876,"url":"https://maps.app.goo.gl/vMhM3YojNKaURqwX8?g_st=ipc","address":"Δημητρακοπούλου και, Δράκου 15, Αθήνα 117 42","categoryIds":["cheap-eats"],"categories":["Gyros & Cheap Eats"],"distanceKm":0.36432200738824533},{"id":"coffeeBrunchRestaurants_a5c0f29b5820","slug":"tempo-social-club-a5c0","kind":"restaurant","name":"Tempo Social Club","lat":37.96527397578301,"lng":23.726786075207272,"url":"https://maps.app.goo.gl/uU1H3HFYf7VVqpjy9?g_st=ipc","address":"Φαλήρου 49, Αθήνα 117 42","categoryIds":["coffee-brunch"],"categories":["Coffee & Brunch Spots"],"distanceKm":0.3645758330048921},{"id":"coffeeBrunchRestaurants_85c9b3242244","slug":"this-is-loco-85c9","kind":"restaurant","name":"This is Loco","lat":37.96542578565319,"lng":23.726906270555997,"url":"https://maps.app.goo.gl/DKCmfLqp6KdRCVPg6?g_st=ipc","address":"Φαλήρου 47, Αθήνα 117 42","categoryIds":["coffee-brunch","vegetarian"],"categories":["Coffee & Brunch Spots","Vegetarian Friendly Restaurants"],"legacySlugs":["this-is-loco-0b77"],"distanceKm":0.3841589693377969},{"id":"asianRestaurants_be2d9e8cfa29","slug":"kuchisabishii-sakaba-be2d","kind":"restaurant","name":"Kuchisabishii Sakaba","lat":37.965507796335324,"lng":23.72667501899547,"url":"https://maps.app.goo.gl/mwPcNGYBVTJSy6C59?g_st=ic","address":"Falirou 36, Athina 117 42","categoryIds":["asian"],"categories":["Asian Restaurants"],"distanceKm":0.3856543916973383},{"id":"coffeeBrunchRestaurants_10b5704edcd7","slug":"karminio-all-day-eatery-10b5","kind":"restaurant","name":"KARMINIO - All Day Eatery","lat":37.963365261808825,"lng":23.721069408577183,"url":"https://maps.app.goo.gl/B47HWPSnhF6mtY1M8?g_st=ipc","address":"Βεΐκου 86, Αθήνα 117 41","categoryIds":["coffee-brunch","vegetarian"],"categories":["Coffee & Brunch Spots","Vegetarian Friendly Restaurants"],"legacySlugs":["karminio-all-day-eatery-44c1"],"distanceKm":0.38902563915919613}],"mentionedGuides":[{"slug":"american-college-of-greece-agia-paraskevi-guide-el","title":"American College of Greece: Οδηγός Αγίας Παρασκευής"},{"slug":"american-college-of-greece-agia-paraskevi-guide","title":"American College of Greece: Welcome to Agia Paraskevi"}],"canonicalSlug":"jackaroo-104d","enrichment":{"summary_en":"Jackaroo is a curated restaurant in Αθήνα 117 45 in the Gyros & Cheap Eats collection. It is connected to 78 nearby Googlementor picks to help travelers build a stronger local route.","summary_el":"Jackaroo είναι ένα επιλεγμένο σημείο φαγητού στην περιοχή Αθήνα 117 45 και ανήκει στη συλλογή Gyros & Cheap Eats. Συνδέεται με 78 κοντινές προτάσεις του Googlementor για πιο ολοκληρωμένη εμπειρία.","vibe_tags":["curated","budget-friendly"],"best_for":["first-time visitors","food lovers","budget travelers"],"visit_moments":["lunch stop","dinner stop"],"practical_note":"Address and direct map link are available for easy turn-by-turn access.","nearby_walkable_count":78,"nearby_count_2km":486,"confidence":0.98},"areaContext":{"slug":"koykaki","name":"Koukaki","nameEl":"Κουκάκι"},"intentContexts":[{"href":"/cheap-eats/koykaki","label":"Gyros & Cheap Eats in Koukaki","categorySlug":"cheap-eats","categoryName":"Gyros & Cheap Eats","areaSlug":"koykaki","areaName":"Koukaki","areaNameEl":"Κουκάκι"}]},"__N_SSG":true}