{"pageProps":{"entity":{"id":"fishTavernasRestaurants_8969975257d9","slug":"kalis-seafood-restaurant-8969","kind":"restaurant","name":"Kalis Seafood Restaurant","lat":37.142642900528166,"lng":24.514223256740497,"url":"https://maps.app.goo.gl/tQ8KG4SFF8YgjTwr9?g_st=ipc","address":"Λιβάδι 840 05","categoryIds":["fish-tavernas"],"categories":["Fish Tavernas"]},"sameCategory":[{"id":"fishTavernasRestaurants_ce3871da46c4","slug":"captain-george-ce38","kind":"restaurant","name":"Captain George","lat":36.972680765040145,"lng":24.746232108057637,"url":"https://maps.app.goo.gl/XvLMJtYJDb2Y3mQR7?g_st=ipc","address":"Κάστρο 840 03","categoryIds":["fish-tavernas"],"categories":["Fish Tavernas"]},{"id":"fishTavernasRestaurants_3dad4b7d5b53","slug":"arodou-seafood-taverna-3dad","kind":"restaurant","name":"Arodou Seafood Taverna","lat":37.39685622322288,"lng":24.459369243856617,"url":"https://maps.app.goo.gl/LBNaRdz7e7zbNDVz5?g_st=ipc","address":"Unnamed Road, Kithnos 840 06","categoryIds":["fish-tavernas"],"categories":["Fish Tavernas"]},{"id":"fishTavernasRestaurants_4051f6c5c5f1","slug":"yalos-sifnos-4051","kind":"restaurant","name":"Yalos Sifnos","lat":36.93198313076824,"lng":24.73092559432301,"url":"https://maps.app.goo.gl/hct1BV2oGe6F3cM97?g_st=ipc","address":"Πλατύς Γιαλός 840 03","categoryIds":["fish-tavernas"],"categories":["Fish Tavernas"]},{"id":"fishTavernasRestaurants_c2965cc0335d","slug":"maiolica-sifnos-c296","kind":"restaurant","name":"Maiòlica Sifnos","lat":36.93201088219794,"lng":24.731152746803176,"url":"https://maps.app.goo.gl/RsiuxKtR7W21BNnb8?g_st=ipc","address":"Πλατύς Γιαλός 840 03","categoryIds":["fish-tavernas","luxury-dining"],"categories":["Fish Tavernas","Luxury Dining"],"legacySlugs":["maiolica-sifnos-5a94"]},{"id":"fishTavernasRestaurants_4baa7d7d1366","slug":"omega3-4baa","kind":"restaurant","name":"Omega3","lat":36.932052168795934,"lng":24.731352405475214,"url":"https://maps.app.goo.gl/jioScJGAm2izK6a49?g_st=ipc","address":"Πλατύς Γιαλός 840 03","categoryIds":["fish-tavernas"],"categories":["Fish Tavernas"]},{"id":"fishTavernasRestaurants_4864e8e3be1a","slug":"angie-seaside-restaurant-4864","kind":"restaurant","name":"ANGIE seaside restaurant","lat":36.944136259291675,"lng":24.751012764820505,"url":"https://maps.app.goo.gl/bGogp723rTJwR3cx7?g_st=ipc","address":"Φαρος, Faros 840 03","categoryIds":["fish-tavernas"],"categories":["Fish Tavernas"]},{"id":"fishTavernasRestaurants_d069945d0fb2","slug":"pelicanos-d069","kind":"restaurant","name":"Pelicanos","lat":36.94422039775623,"lng":24.751254852785607,"url":"https://maps.app.goo.gl/xbF6ZRisum4Kfmgz5?g_st=ipc","address":"beach, Faros 840 03","categoryIds":["fish-tavernas"],"categories":["Fish Tavernas"]},{"id":"fishTavernasRestaurants_0067c5728086","slug":"alyelo-bar-restaurant-0067","kind":"restaurant","name":"Alyelo Bar Restaurant","lat":36.944070932851574,"lng":24.75112565793777,"url":"https://maps.app.goo.gl/R8Jg72P8QchmsSubA?g_st=ipc","address":"Φάρος 840 03","categoryIds":["fish-tavernas"],"categories":["Fish Tavernas"]},{"id":"fishTavernasRestaurants_b7db512b75ba","slug":"arias-restaurant-kythnos-b7db","kind":"restaurant","name":"Arias restaurant Kythnos","lat":37.43805920967631,"lng":24.433681333413276,"url":"https://maps.app.goo.gl/GWWwUXx8q4vncoUU7?g_st=ipc","address":"Unnamed Road, Ag. Irini, Kithnos 840 06","categoryIds":["fish-tavernas"],"categories":["Fish Tavernas"]},{"id":"fishTavernasRestaurants_721ec670613c","slug":"ora-baresto-721e","kind":"restaurant","name":"ORA baresto","lat":37.398407848807196,"lng":24.87840275006321,"url":"https://maps.app.goo.gl/gop1o8sLeZBAttGy7?g_st=ipc","address":"Επαρχιακή Οδός Ερμούπολης-Φοίνικων,Φοίνικας 841 00 ΣΥΡΟΣ, 841 00","categoryIds":["fish-tavernas","greek-restaurants"],"categories":["Fish Tavernas","Greek Restaurants"],"legacySlugs":["ora-baresto-aeef"]},{"id":"fishTavernasRestaurants_bceb21ce5afb","slug":"bolas-restaurant-syros-bceb","kind":"restaurant","name":"Bolas Restaurant Syros","lat":37.390186602163425,"lng":24.945820061380417,"url":"https://maps.app.goo.gl/CV5VQnagTSebUic97?g_st=ipc","address":"Βάρη 841 00","categoryIds":["fish-tavernas"],"categories":["Fish Tavernas"]},{"id":"fishTavernasRestaurants_980522cd3e49","slug":"allou-yialou-9805","kind":"restaurant","name":"Allou Yialou","lat":37.446952094396515,"lng":24.900261999085988,"url":"https://maps.app.goo.gl/fZarxkpuFnFbzYFR6?g_st=ipc","address":"Κίνι 841 00","categoryIds":["fish-tavernas"],"categories":["Fish Tavernas"]}],"nearby":[{"id":"wineriesVineyards_659a4688a423","slug":"oinopoieio-chrysolora-659a","kind":"restaurant","name":"Οινοποιείο Χρυσολωρά","lat":37.186843478967006,"lng":24.50813577853972,"url":"https://maps.app.goo.gl/Mb44SR4hNKDDndUD6?g_st=ipc","address":"Φλάσκος - Προφήτης Ηλίας, Σέριφος 840 05","categoryIds":["wineries-vineyards"],"categories":["Wineries & Vineyards"],"distanceKm":4.944392812204068},{"id":"greekRestaurants_259ad1a4a416","slug":"i-meropi-259a","kind":"restaurant","name":"Η ΜΕΡΟΠΗ","lat":36.98892038412835,"lng":24.67563104680434,"url":"https://maps.app.goo.gl/6mzPsRRf26rUzcpT7?g_st=ipc","address":"Καμάρες 840 03","categoryIds":["greek-restaurants"],"categories":["Greek Restaurants"],"distanceKm":22.299663432720436},{"id":"greekRestaurants_9e0c5c2d6f56","slug":"o-simos-9e0c","kind":"restaurant","name":"Ο ΣΙΜΟΣ","lat":36.98874960651575,"lng":24.675797411728432,"url":"https://maps.app.goo.gl/LmWkmfGPjhMBpKoQ6?g_st=ipc","address":"Καμάρες 840 03","categoryIds":["greek-restaurants"],"categories":["Greek Restaurants"],"distanceKm":22.32370958904408},{"id":"greekRestaurants_792b73e9842d","slug":"o-milas-estiatorio-792b","kind":"restaurant","name":"Ο ΜΗΛΑΣ ΕΣΤΙΑΤΟΡΙΟ","lat":37.31063309409623,"lng":24.373887108876595,"url":"https://maps.app.goo.gl/ZFv4HFHAU9qj4ohD7?g_st=ipc","address":"ΑΓΙΟΣ ΔΗΜΗΤΡΙΟΣ, Αγ. Δημήτριος 840 06","categoryIds":["greek-restaurants"],"categories":["Greek Restaurants"],"distanceKm":22.43467817513182},{"id":"greekRestaurants_ec533605b182","slug":"to-akrogiali-ec53","kind":"restaurant","name":"Το Ακρογιάλι","lat":37.311210551504175,"lng":24.374424292363123,"url":"https://maps.app.goo.gl/iE2gh5mtyHCHtnZs7","address":"Αγ. Δημήτριος 840 06","categoryIds":["greek-restaurants"],"categories":["Greek Restaurants"],"distanceKm":22.46189945586904},{"id":"greekRestaurants_463de52b148c","slug":"restaurant-cafe-manjavinos-463d","kind":"restaurant","name":"Restaurant-cafe 'MANJAVINOS'","lat":37.34603270151496,"lng":24.430502124554476,"url":"https://maps.app.goo.gl/nHY3UgamjzyyjZF98?g_st=ipc","address":"Unnamed Road, Κανάλα 840 06","categoryIds":["greek-restaurants"],"categories":["Greek Restaurants"],"distanceKm":23.799155616821498},{"id":"greekRestaurants_a37bbb119452","slug":"archipelagos-restaurant-rooms-a37b","kind":"restaurant","name":"Archipelagos Restaurant & Rooms","lat":37.34777052448201,"lng":24.434798293695515,"url":"https://maps.app.goo.gl/KodGYY1d4Cqjk63n9?g_st=ipc","address":"Κανάλα 840 06","categoryIds":["greek-restaurants"],"categories":["Greek Restaurants"],"distanceKm":23.86806659732669},{"id":"luxuryDiningRestaurants_bfd21fa32b8e","slug":"perivoli-restaurant-bfd2","kind":"restaurant","name":"Perivoli Restaurant","lat":36.98184971359456,"lng":24.72167247742077,"url":"https://maps.app.goo.gl/iAutDnpTgMPkufBt7?g_st=ipc","address":"Αρτεμώνας 840 03","categoryIds":["luxury-dining"],"categories":["Luxury Dining"],"distanceKm":25.66124370779062},{"id":"dessertsRestaurants_3a9ca127474c","slug":"yellow-bicycle-3a9c","kind":"restaurant","name":"Yellow Bicycle","lat":36.981512610738626,"lng":24.723907398959476,"url":"https://maps.app.goo.gl/jrFAxiopPa2HXAPw6?g_st=ipc","address":"Αρτεμώνας 840 03","categoryIds":["desserts"],"categories":["Dessert Shops"],"distanceKm":25.829879531913395},{"id":"dessertsRestaurants_1e21715c1ba4","slug":"theodorou-1e21","kind":"restaurant","name":"Theodorou","lat":36.98032236422911,"lng":24.725175617740387,"url":"https://maps.app.goo.gl/3Jy7ZAZANHv7j8Zv5?g_st=ipc","address":"Αρτεμώνας 840 03","categoryIds":["desserts"],"categories":["Dessert Shops"],"distanceKm":26.002852359251904},{"id":"greekRestaurants_abbc05eb93be","slug":"estiatorio-lempesis-abbc","kind":"restaurant","name":"Εστιατόριο Λεμπέσης","lat":36.97977476107011,"lng":24.72663670780289,"url":"https://maps.app.goo.gl/uu2dJGd3dS7HNDiS6?g_st=ipc","address":"Αρτεμώνας 840 03","categoryIds":["greek-restaurants"],"categories":["Greek Restaurants"],"distanceKm":26.138533945434006},{"id":"coffeeBrunchRestaurants_afaf99ec8235","slug":"cafe-prago-afaf","kind":"restaurant","name":"Cafe Prago","lat":36.975461059633815,"lng":24.7240519346836,"url":"https://maps.app.goo.gl/isrdd8GJ3jpsZQ7W7?g_st=ipc","address":"Apollonias, Artemona 840 03","categoryIds":["coffee-brunch"],"categories":["Coffee & Brunch Spots"],"distanceKm":26.31070237636954},{"id":"italianRestaurants_25eccdd64c34","slug":"mamma-mia-sifnos-apollonia-25ec","kind":"restaurant","name":"Mamma Mia - Sifnos - Apollonia","lat":36.97495083578174,"lng":24.7241131412881,"url":"https://maps.app.goo.gl/88fvareZPz1tuDRy7?g_st=ipc","address":"Απολλωνία 840 03","categoryIds":["italian"],"categories":["Italian Restaurants"],"distanceKm":26.354700526483523},{"id":"luxuryDiningRestaurants_bc521e15ad20","slug":"bostani-bar-restaurant-bc52","kind":"restaurant","name":"Bostani Bar & Restaurant","lat":36.983114036475556,"lng":24.733935585542696,"url":"https://maps.app.goo.gl/s5s1BcxwRoxjRnrv7?g_st=ipc","address":"Poulati, Sifnos 840 03","categoryIds":["luxury-dining"],"categories":["Luxury Dining"],"distanceKm":26.357700105330718},{"id":"coffeeBrunchRestaurants_efd5bd610439","slug":"threefolds-sifnos-efd5","kind":"restaurant","name":"Threefolds sifnos","lat":36.974665514362115,"lng":24.72381923558153,"url":"https://maps.app.goo.gl/PqpVut6E24nuqAUq6?g_st=ipc","address":"Απολλωνία 840 03","categoryIds":["coffee-brunch"],"categories":["Coffee & Brunch Spots"],"distanceKm":26.35877345897646},{"id":"coffeeBrunchRestaurants_c3458e08944b","slug":"to-stavri-bakery-to-stayri-c345","kind":"restaurant","name":"To Stavri bakery (Το Σταυρί)","lat":36.97380305039157,"lng":24.72319061672324,"url":"https://maps.app.goo.gl/uYWL7LrV5mmCq24M8?g_st=ipc","address":"Epar.Od. Limani Kamaron-Artemonas, Apollonia 840 03","categoryIds":["coffee-brunch"],"categories":["Coffee & Brunch Spots"],"distanceKm":26.38766381689311},{"id":"greekRestaurants_e46c14fa463c","slug":"cayenne-restaurant-art-gallery-e46c","kind":"restaurant","name":"Cayenne Restaurant Art Gallery","lat":36.97306144321347,"lng":24.723650051381746,"url":"https://maps.app.goo.gl/mz6pX32TuR9ieYY67?g_st=ipc","address":"Επαρ.Οδ. Απολλωνίας-Όρμος Φάρου, Απολλωνία 840 03","categoryIds":["greek-restaurants"],"categories":["Greek Restaurants"],"distanceKm":26.47506198614793},{"id":"greekRestaurants_7921aa5472db","slug":"kafeneio-drakakis-7921","kind":"restaurant","name":"KAFENEIO DRAKAKIS","lat":36.972959258998515,"lng":24.723737653225438,"url":"https://maps.app.goo.gl/HT6hzXp5huwaTTHm7?g_st=ipc","address":"Απολλωνία 840 03","categoryIds":["greek-restaurants"],"categories":["Greek Restaurants"],"distanceKm":26.488620085398612},{"id":"dessertsRestaurants_816e027b7bd3","slug":"yfes-816e","kind":"restaurant","name":"Yfes","lat":36.971257014168174,"lng":24.72665696440793,"url":"https://maps.app.goo.gl/9np4LKVixhfHWSEt6?g_st=ipc","address":"Απολλωνία 840 03","categoryIds":["desserts"],"categories":["Dessert Shops"],"distanceKm":26.805463268702432},{"id":"greekRestaurants_21f1a58b70a1","slug":"drimoni-21f1","kind":"restaurant","name":"Δριμόνι","lat":36.97111592359732,"lng":24.726882746663012,"url":"https://maps.app.goo.gl/FjBr963bhTreLrq66?g_st=ipc","address":"Απολλωνία 840 03","categoryIds":["greek-restaurants"],"categories":["Greek Restaurants"],"distanceKm":26.83071928978589},{"id":"greekRestaurants_ff320530ac97","slug":"stiadi-restaurant-ff32","kind":"restaurant","name":"STIADI RESTAURANT","lat":36.97561287483543,"lng":24.743588724806322,"url":"https://maps.app.goo.gl/GtrgABFRG3Uq2rKP9?g_st=ipc","address":"Κάστρο 840 03","categoryIds":["greek-restaurants"],"categories":["Greek Restaurants"],"distanceKm":27.553340254951042},{"id":"mustSeeAttractions_e7d3f595ce74","slug":"spilaio-katafyki-e7d3","kind":"restaurant","name":"Σπήλαιο Καταφύκι","lat":37.381809266398925,"lng":24.430137129464182,"url":"https://maps.app.goo.gl/ihjdRvavpYz6Jjd5A?g_st=ipc","address":"Δρυοπίδα 840 06","categoryIds":["attractions"],"categories":["Must-See Attractions"],"distanceKm":27.615561309967052},{"id":"coffeeBrunchRestaurants_0b65408056cb","slug":"jagger-0b65","kind":"restaurant","name":"Jagger","lat":37.382500546041285,"lng":24.430664724576324,"url":"https://maps.app.goo.gl/1vCbzZRojT45SSX8A?g_st=ipc","address":"Dryopida 840 06","categoryIds":["coffee-brunch"],"categories":["Coffee & Brunch Spots"],"distanceKm":27.67707236314303},{"id":"greekRestaurants_432f5403f78b","slug":"chartino-karavi-432f","kind":"restaurant","name":"ΧΑΡΤΙΝΟ ΚΑΡΑΒΙ","lat":37.382790599679765,"lng":24.431004817048752,"url":"https://maps.app.goo.gl/6a5xfQQ1xwApv9Eb7?g_st=ipc","address":"Δρυοπίδα 840 06","categoryIds":["greek-restaurants"],"categories":["Greek Restaurants"],"distanceKm":27.700133008317643}],"mentionedGuides":[],"canonicalSlug":"kalis-seafood-restaurant-8969","enrichment":{"summary_en":"Kalis Seafood Restaurant is a curated restaurant in Greece in the Fish Tavernas collection. It is connected to 0 nearby Googlementor picks to help travelers build a stronger local route.","summary_el":"Kalis Seafood Restaurant είναι ένα επιλεγμένο σημείο φαγητού στην περιοχή Greece και ανήκει στη συλλογή Fish Tavernas. Συνδέεται με 0 κοντινές προτάσεις του Googlementor για πιο ολοκληρωμένη εμπειρία.","vibe_tags":["curated","seafood-local"],"best_for":["first-time visitors","food lovers"],"visit_moments":["lunch stop","dinner stop"],"practical_note":"Address and direct map link are available for easy turn-by-turn access.","nearby_walkable_count":0,"nearby_count_2km":1,"confidence":0.9},"areaContext":null,"intentContexts":[]},"__N_SSG":true}