{"pageProps":{"entity":{"id":"italianRestaurants_297de75e2491","slug":"la-bella-napoli-297d","kind":"restaurant","name":"La Bella Napoli","lat":37.95333874485214,"lng":23.726510881566565,"url":"https://maps.app.goo.gl/viysAA695txjhPLE6?g_st=ipc","address":"Ρουμπέση 64, Αθήνα 172 30","categoryIds":["italian"],"categories":["Italian Restaurants"]},"sameCategory":[{"id":"italianRestaurants_7df507160f43","slug":"de-michelle-7df5","kind":"restaurant","name":"DE MICHELLE","lat":37.94606996265572,"lng":23.727087729280314,"url":"https://maps.app.goo.gl/iqvRwdhG4FanUzaEA?g_st=ipc","address":"Μητροπολίτου Ευθυβούλη 17, Νέα Σμύρνη 171 24","categoryIds":["italian"],"categories":["Italian Restaurants"]},{"id":"italianRestaurants_bdaaf75d6c5e","slug":"canarino-bdaa","kind":"restaurant","name":"Canarino","lat":37.95905367625766,"lng":23.73382645635927,"url":"https://maps.app.goo.gl/kPu5BDkNuumunei99?g_st=ipc","address":"Ηλία Ηλιού 28, Αθήνα 117 43","categoryIds":["italian"],"categories":["Italian Restaurants"]},{"id":"italianRestaurants_20d0a7e98724","slug":"dei-fratelli-ristorante-italiano-20d0","kind":"restaurant","name":"Dei Fratelli - Ristorante Italiano","lat":37.954535351071335,"lng":23.71576098163187,"url":"https://maps.app.goo.gl/hbqzvikXoNEXvdgj7?g_st=ipc","address":"ΚΡΑΤΗΤΟΣ 10 &, Σπαθαρη, Νέα Σμύρνη 171 21","categoryIds":["italian"],"categories":["Italian Restaurants"]},{"id":"italianRestaurants_5abecb9e2aaa","slug":"voylkanizater-5abe","kind":"restaurant","name":"Βουλκανιζατέρ","lat":37.96367095489114,"lng":23.724556596700353,"url":"https://maps.app.goo.gl/HebUjJkB8SUt6Xp36?g_st=ipc","address":"Οδυσσέα Ανδρούτσου 17, Αθήνα 117 41","categoryIds":["italian"],"categories":["Italian Restaurants"]},{"id":"italianRestaurants_22324beef805","slug":"pizza-days-agioy-dimitrioy-2232","kind":"restaurant","name":"Pizza Days - Αγίου Δημητρίου","lat":37.9436201391912,"lng":23.733022003629234,"url":"https://maps.app.goo.gl/mj45NkH8L5jqeHD58?g_st=ipc","address":"Ανδρέα Παπανδρέου 2, Αγ. Δημήτριος Αττικής 173 41","categoryIds":["italian"],"categories":["Italian Restaurants"]},{"id":"italianRestaurants_3441b54b92cd","slug":"vissente-italian-comfort-food-3441","kind":"restaurant","name":"Vissente - Italian comfort food","lat":37.94750349815223,"lng":23.714501612675416,"url":"https://maps.app.goo.gl/UadeCSeXLWu8p8wK6?g_st=ipc","address":"Πλ. Αθανασίου Καρύλλου 9, Νέα Σμύρνη 171 21","categoryIds":["italian"],"categories":["Italian Restaurants"]},{"id":"italianRestaurants_13c8863a9591","slug":"pizza-dough-13c8","kind":"restaurant","name":"Pizza Dough!","lat":37.96630825345609,"lng":23.72750504939054,"url":"https://maps.app.goo.gl/nNiwhy5xKwpgF7Lo6?g_st=ipc","address":"Δημητρακοπούλου 17, Αθήνα 117 42","categoryIds":["italian"],"categories":["Italian Restaurants"]},{"id":"italianRestaurants_da11e2c73563","slug":"cavaliere-ristorante-concettuale-da11","kind":"restaurant","name":"Cavaliere Ristorante Concettuale","lat":37.944619471140975,"lng":23.71414682617668,"url":"https://maps.app.goo.gl/WcUWRBUhr7SBrvaw8?g_st=ipc","address":"Λεωφ. Ελ. Βενιζέλου 42, Νέα Σμύρνη 171 22","categoryIds":["italian"],"categories":["Italian Restaurants"]},{"id":"italianRestaurants_d5b2689c4a11","slug":"romatella-pinsa-romana-d5b2","kind":"restaurant","name":"Romatella - Pinsa Romana","lat":37.96690380968513,"lng":23.72869589039828,"url":"https://maps.app.goo.gl/qy2UDY83bx3RhcUU9?g_st=ipc","address":"Φαλήρου 4, Αθήνα 117 42","categoryIds":["italian"],"categories":["Italian Restaurants"]},{"id":"italianRestaurants_f25cb6c501bb","slug":"la-nonna-f25c","kind":"restaurant","name":"la nonna","lat":37.966397023107625,"lng":23.734629464112153,"url":"https://maps.app.goo.gl/JWJwotwbGCaC9dvV6?g_st=ipc","address":"Αναπαύσεως 11, Αθήνα 116 36","categoryIds":["italian"],"categories":["Italian Restaurants"]},{"id":"italianRestaurants_354541199b79","slug":"aglio-olio-peperoncino-3545","kind":"restaurant","name":"AGLIO, OLIO & PEPERONCINO","lat":37.96798831953671,"lng":23.7299912754838,"url":"https://maps.app.goo.gl/EgPatpb6TGQzX94s6?g_st=ipc","address":"Πορίνου 13, Αθήνα 117 42","categoryIds":["italian"],"categories":["Italian Restaurants"]},{"id":"italianRestaurants_a131f0639f33","slug":"trattoria-italia-d-onofrio-a131","kind":"restaurant","name":"Trattoria Italia D'onofrio","lat":37.96439892270411,"lng":23.71376404461326,"url":"https://maps.app.goo.gl/QybTqvRE6JzNcqyYA?g_st=ipc","address":"Βαρνουντος 6, Αθήνα 117 41","categoryIds":["italian"],"categories":["Italian Restaurants"]}],"nearby":[{"id":"cheapEatsRestaurants_d758a1864776","slug":"tomas-marios-ovelistirio-d758","kind":"restaurant","name":"ΤΟΜΑΣ ΜΑΡΙΟΣ ΟΒΕΛΙΣΤΗΡΙΟ","lat":37.95740701533671,"lng":23.72476747255489,"url":"https://maps.app.goo.gl/B8R43v1kbWhoCBdJ9?g_st=ipc","address":"Μήτρου Σαρκουδίνου 49, Αθήνα 117 44","categoryIds":["cheap-eats"],"categories":["Gyros & Cheap Eats"],"distanceKm":0.4774979538609955},{"id":"coffeeBrunchRestaurants_191c759a08b3","slug":"roasting-warehouse-athens-191c","kind":"restaurant","name":"Roasting Warehouse Athens","lat":37.95668706209458,"lng":23.722828304668056,"url":"https://maps.app.goo.gl/fwCy3n7FRVzPEXwR8?g_st=ipc","address":"Ντελακρουά 2, Αθήνα 117 45","categoryIds":["coffee-brunch"],"categories":["Coffee & Brunch Spots"],"distanceKm":0.4928161261895259},{"id":"cheapEatsRestaurants_17e24777d3f9","slug":"o-giatros-tis-peinas-17e2","kind":"restaurant","name":"Ο Γιατρός της Πείνας","lat":37.9576250215062,"lng":23.729472460111847,"url":"https://maps.app.goo.gl/Rbxz8a7b6mXRVXtX9?g_st=ipc","address":"Ηλία Ηλιού 59, Αθήνα 117 44","categoryIds":["cheap-eats"],"categories":["Gyros & Cheap Eats"],"distanceKm":0.5427542102542743},{"id":"greekRestaurants_191784dd5c83","slug":"ta-filetakia-1917","kind":"restaurant","name":"Τα φιλετάκια","lat":37.94824819005281,"lng":23.729579675166935,"url":"https://maps.app.goo.gl/tBGQqYJbzo48VPWv9","address":"Εθνάρχου Μακαρίου 126, Δάφνη Αττικής 172 34","categoryIds":["greek-restaurants"],"categories":["Greek Restaurants"],"distanceKm":0.6267438711224912},{"id":"coffeeBrunchRestaurants_fb20c8dc39dd","slug":"louiza-athens-fb20","kind":"restaurant","name":"Louiza Athens","lat":37.95836602961577,"lng":23.722700242324212,"url":"https://maps.app.goo.gl/wDYFkKSw6y1KG4Ye8?g_st=ic","address":"Sfiggos 13, Athina 117 45","categoryIds":["coffee-brunch"],"categories":["Coffee & Brunch Spots"],"distanceKm":0.6512397662138579},{"id":"greekRestaurants_c2d712c3a636","slug":"louiza-athens-c2d7","kind":"restaurant","name":"Louiza Athens","lat":37.958439423665176,"lng":23.722755568163475,"url":"https://maps.app.goo.gl/QPXwcnn7KEEcjqBb9","address":"Σφιγγός 13, Αθήνα 117 45","categoryIds":["greek-restaurants"],"categories":["Greek Restaurants"],"distanceKm":0.6558095728934826},{"id":"coffeeBrunchRestaurants_0f49d35a64cc","slug":"naif-0f49","kind":"restaurant","name":"Naif","lat":37.95731969922388,"lng":23.71935175462416,"url":"https://maps.app.goo.gl/5eapXgYffcfJThv49?g_st=ipc","address":"Ευρυδάμαντος 15, Αθήνα 117 45","categoryIds":["coffee-brunch"],"categories":["Coffee & Brunch Spots"],"distanceKm":0.7680739585999432},{"id":"greekRestaurants_e9888507556f","slug":"fita-e988","kind":"restaurant","name":"Φιτα","lat":37.959800125380376,"lng":23.723270363621033,"url":"https://maps.app.goo.gl/dz2YxasHy4LnBQ668","address":"Ντουρμ 1, Αθήνα 117 45","categoryIds":["greek-restaurants"],"categories":["Greek Restaurants"],"distanceKm":0.7726074770840708},{"id":"rooftopLoungesRestaurants_eff063b05a76","slug":"premiere-restaurant-eff0","kind":"restaurant","name":"Premiere Restaurant","lat":37.95933669311001,"lng":23.721893436588108,"url":"https://maps.app.goo.gl/xdoJybpRxJKYAgbKA?g_st=ipc","address":"Λεωφ. Ανδρέα Συγγρού 89-93, Αθήνα 117 45","categoryIds":["rooftop-lounges"],"categories":["Rooftop Lounges"],"distanceKm":0.780193306944773},{"id":"luxuryDiningRestaurants_bb06ffef1662","slug":"jerar-bb06","kind":"restaurant","name":"Jerár","lat":37.951578580834756,"lng":23.735160182054084,"url":"https://maps.app.goo.gl/FdaHgzGN8Q8h9ubz8?g_st=ipc","address":"Αγίας Βαρβάρας 55, Δάφνη Αττικής 172 35","categoryIds":["luxury-dining"],"categories":["Luxury Dining"],"distanceKm":0.7832159823781716},{"id":"cheapEatsRestaurants_59f1048e980a","slug":"to-steki-toy-kosta-59f1","kind":"restaurant","name":"Το Στέκι του Κώστα","lat":37.95121107984788,"lng":23.735124045238276,"url":"https://maps.app.goo.gl/gtmBLN9nUzctuFYM8?g_st=ipc","address":"Αγίας Βαρβάρας 59, Δάφνη Αττικής 172 35","categoryIds":["cheap-eats"],"categories":["Gyros & Cheap Eats"],"distanceKm":0.7913914009096134},{"id":"coffeeBrunchRestaurants_3ad613746740","slug":"lalos-3ad6","kind":"restaurant","name":"Lalos","lat":37.95653694094431,"lng":23.71832970107999,"url":"https://maps.app.goo.gl/EWRQ18pu1HkgSHMM9?g_st=ipc","address":"Ευρυδάμαντος 19, Αθήνα 117 45","categoryIds":["coffee-brunch"],"categories":["Coffee & Brunch Spots"],"distanceKm":0.8006150994425725},{"id":"italianRestaurants_7df507160f43","slug":"de-michelle-7df5","kind":"restaurant","name":"DE MICHELLE","lat":37.94606996265572,"lng":23.727087729280314,"url":"https://maps.app.goo.gl/iqvRwdhG4FanUzaEA?g_st=ipc","address":"Μητροπολίτου Ευθυβούλη 17, Νέα Σμύρνη 171 24","categoryIds":["italian"],"categories":["Italian Restaurants"],"distanceKm":0.8098327711659727},{"id":"coffeeBrunchRestaurants_eb390a2ff655","slug":"ohayo-teahouse-eb39","kind":"restaurant","name":"Ohayo Teahouse","lat":37.949425041480666,"lng":23.734793004377693,"url":"https://maps.app.goo.gl/vkq5bgJaaWXHr76X8?g_st=ipc","address":"Αγίας Βαρβάρας 79, Αθήνα 172 35","categoryIds":["coffee-brunch"],"categories":["Coffee & Brunch Spots"],"distanceKm":0.8465977381371034},{"id":"cheapEatsRestaurants_7f509ca8a241","slug":"doner-tzortz-7f50","kind":"restaurant","name":"DONER.TZORTZ","lat":37.95300238294556,"lng":23.716665931248773,"url":"https://maps.app.goo.gl/otFTTi2nsTTPYaYKA?g_st=ipc","address":"Βιζυηνού 2, Νέα Σμύρνη 171 21","categoryIds":["cheap-eats"],"categories":["Gyros & Cheap Eats"],"distanceKm":0.8640025781926338},{"id":"burgersRestaurants_82d2f41d9265","slug":"big-nick-82d2","kind":"restaurant","name":"Big Nick","lat":37.956445331565305,"lng":23.73566615673783,"url":"https://maps.app.goo.gl/j5eRwkA5Uf2bwVHs7?g_st=ipc","address":"Λεωφόρος Βουλιαγμένης 145, Αθήνα 116 31","categoryIds":["burgers","vegetarian"],"categories":["Burger Spots","Vegetarian Friendly Restaurants"],"legacySlugs":["big-nick-ce09"],"distanceKm":0.8738765532649768},{"id":"coffeeBrunchRestaurants_c191ebb5fd6a","slug":"teras-athens-c191","kind":"restaurant","name":"Teras Athens","lat":37.96132522695651,"lng":23.727704519576132,"url":"https://maps.app.goo.gl/Q7ocWz9NPgB5Zoaa6?g_st=ipc","address":"Θεοδώρητου Βρεσθένης 45, Αθήνα 117 43","categoryIds":["coffee-brunch"],"categories":["Coffee & Brunch Spots"],"distanceKm":0.8942011807510895},{"id":"cheapEatsRestaurants_4de598be41da","slug":"johnie-hot-dog-syggroy-4de5","kind":"restaurant","name":"Johnie Hot Dog Συγγρού","lat":37.959239923680194,"lng":23.71954717101243,"url":"https://maps.app.goo.gl/WUCUWAGV3GyPBumi7?g_st=ipc","address":"Λεωφ. Ανδρέα Συγγρού 136, Καλλιθέα 176 71","categoryIds":["cheap-eats"],"categories":["Gyros & Cheap Eats"],"distanceKm":0.8962905986976852},{"id":"italianRestaurants_bdaaf75d6c5e","slug":"canarino-bdaa","kind":"restaurant","name":"Canarino","lat":37.95905367625766,"lng":23.73382645635927,"url":"https://maps.app.goo.gl/kPu5BDkNuumunei99?g_st=ipc","address":"Ηλία Ηλιού 28, Αθήνα 117 43","categoryIds":["italian"],"categories":["Italian Restaurants"],"distanceKm":0.9028897561471173},{"id":"cheapEatsRestaurants_cf76698c40fb","slug":"o-achilleas-cheiropoiitos-gyros-cf76","kind":"restaurant","name":"Ο Αχιλλέας (χειροποίητος γύρος)","lat":37.95973976836696,"lng":23.733064950731986,"url":"https://maps.app.goo.gl/SrhYjUikLgP2R2HT7?g_st=ipc","address":"Σπινθάρου 18, Αθήνα 117 43","categoryIds":["cheap-eats"],"categories":["Gyros & Cheap Eats"],"distanceKm":0.9147673499456402},{"id":"italianRestaurants_20d0a7e98724","slug":"dei-fratelli-ristorante-italiano-20d0","kind":"restaurant","name":"Dei Fratelli - Ristorante Italiano","lat":37.954535351071335,"lng":23.71576098163187,"url":"https://maps.app.goo.gl/hbqzvikXoNEXvdgj7?g_st=ipc","address":"ΚΡΑΤΗΤΟΣ 10 &, Σπαθαρη, Νέα Σμύρνη 171 21","categoryIds":["italian"],"categories":["Italian Restaurants"],"distanceKm":0.9518731070788888},{"id":"vegetarianRestaurants_74f8ca9bcb55","slug":"dinette-dafni-74f8","kind":"restaurant","name":"Dinette Dafni","lat":37.949260684351316,"lng":23.73612865746863,"url":"https://maps.app.goo.gl/kkxVViHsfrAhDtz38?g_st=ipc","address":"Μιχαήλ Καραολή 1-3, Αθήνα 172 35","categoryIds":["vegetarian"],"categories":["Vegetarian Friendly Restaurants"],"distanceKm":0.9574828466073411},{"id":"greekRestaurants_5c7530a68c50","slug":"ladokolla-dafnis-5c75","kind":"restaurant","name":"Λαδόκολλα Δάφνης","lat":37.948710278848054,"lng":23.736099857630663,"url":"https://maps.app.goo.gl/DJkwhBF35mfEBRKG7","address":"Λεωφ. Αλ. Παπαναστασίου 8, Δάφνη Αττικής 172 35","categoryIds":["greek-restaurants"],"categories":["Greek Restaurants"],"distanceKm":0.9857876873060021},{"id":"cheapEatsRestaurants_104db32dd905","slug":"jackaroo-104d","kind":"restaurant","name":"Jackaroo","lat":37.96222285381352,"lng":23.7252636942005,"url":"https://maps.app.goo.gl/obvLVFRy5Vbt8DPS6?g_st=ipc","address":"Καλλιρρόης 73, Αθήνα 117 45","categoryIds":["cheap-eats"],"categories":["Gyros & Cheap Eats"],"distanceKm":0.9939009968474601}],"mentionedGuides":[],"canonicalSlug":"la-bella-napoli-297d","enrichment":{"summary_en":"La Bella Napoli is a curated restaurant in Αθήνα 172 30 in the Italian Restaurants collection. It is connected to 13 nearby Googlementor picks to help travelers build a stronger local route.","summary_el":"La Bella Napoli είναι ένα επιλεγμένο σημείο φαγητού στην περιοχή Αθήνα 172 30 και ανήκει στη συλλογή Italian Restaurants. Συνδέεται με 13 κοντινές προτάσεις του Googlementor για πιο ολοκληρωμένη εμπειρία.","vibe_tags":["curated"],"best_for":["first-time visitors","food lovers"],"visit_moments":["lunch stop","dinner stop"],"practical_note":"Address and direct map link are available for easy turn-by-turn access.","nearby_walkable_count":13,"nearby_count_2km":177,"confidence":0.98},"areaContext":{"slug":"neos-kosmos","name":"Neos Kosmos","nameEl":"Νέος Κόσμος"},"intentContexts":[{"href":"/italian/neos-kosmos","label":"Italian Restaurants in Neos Kosmos","categorySlug":"italian","categoryName":"Italian Restaurants","areaSlug":"neos-kosmos","areaName":"Neos Kosmos","areaNameEl":"Νέος Κόσμος"}]},"__N_SSG":true}