{"pageProps":{"entity":{"id":"dessertsRestaurants_6903e2ef4276","slug":"la-maison-fine-pastry-6903","kind":"restaurant","name":"La Maison - Fine Pastry","lat":37.951479018771344,"lng":23.703684961330683,"url":"https://maps.app.goo.gl/Hwbaz4KzQVAzGaRA8?g_st=ipc","address":"Δημοσθένους 149, Καλλιθέα 176 73","categoryIds":["desserts"],"categories":["Dessert Shops"]},"sameCategory":[{"id":"dessertsRestaurants_aa7ff0f772d7","slug":"galaktopoleio-stamoy-aa7f","kind":"restaurant","name":"Γαλακτοπωλείο ΣΤΑΜΟΥ","lat":37.952436676546995,"lng":23.695715045897042,"url":"https://maps.app.goo.gl/rD5jojpe8yMT5k159?g_st=ipc","address":"Λεωφ. Ελ. Βενιζέλου 210, Καλλιθέα 176 75","categoryIds":["desserts"],"categories":["Dessert Shops"]},{"id":"dessertsRestaurants_0bd680afbb5e","slug":"zacharoplasteio-profiterol-dimopoylos-kallithea-0bd6","kind":"restaurant","name":"Ζαχαροπλαστείο Προφιτερόλ Δημόπουλος Καλλιθέα","lat":37.95693778495156,"lng":23.709710879410338,"url":"https://maps.app.goo.gl/t1RvynY9vJegnu6i6?g_st=ipc","address":"Αγ. Πάντων 46, Καλλιθέα 176 71","categoryIds":["desserts"],"categories":["Dessert Shops"]},{"id":"dessertsRestaurants_8de488078304","slug":"crepa-crepa-8de4","kind":"restaurant","name":"Crepa crepa","lat":37.94728978565515,"lng":23.712096506964457,"url":"https://maps.app.goo.gl/vmeSVgQbRFAe8fe19?g_st=ipc","address":"Ειρήνης 2, Νέα Σμύρνη 171 21","categoryIds":["desserts"],"categories":["Dessert Shops"]},{"id":"dessertsRestaurants_90551d221579","slug":"zuccherino-9055","kind":"restaurant","name":"Zuccherino","lat":37.94670677191045,"lng":23.712370393556583,"url":"https://maps.app.goo.gl/AvtpV9edEhsRgr9r5?g_st=ipc","address":"2ας Μαΐου 12, Νέα Σμύρνη 171 21","categoryIds":["desserts"],"categories":["Dessert Shops"]},{"id":"dessertsRestaurants_10984675e64e","slug":"loukou-mio-1098","kind":"restaurant","name":"Loukou Mio","lat":37.934456122337956,"lng":23.71152313800977,"url":"https://maps.app.goo.gl/uQM5VBZoTd8kzvPT9?g_st=ipc","address":"Λεωφ. Ελ. Βενιζέλου 195, Νέα Σμύρνη 171 23","categoryIds":["desserts"],"categories":["Dessert Shops"]},{"id":"dessertsRestaurants_565a86e193ac","slug":"loukoumania-koukaki-565a","kind":"restaurant","name":"Loukoumania Koukaki","lat":37.96292938267619,"lng":23.721586647006472,"url":"https://maps.app.goo.gl/ZLLgE9gFjGjPVqBp7?g_st=ipc","address":"Δημητρακοπούλου 102, Αθήνα 117 41","categoryIds":["desserts"],"categories":["Dessert Shops"]},{"id":"dessertsRestaurants_39196d9bee61","slug":"fatto-a-mano-3919","kind":"restaurant","name":"Fatto a Mano","lat":37.93356989313718,"lng":23.69912680674615,"url":"https://maps.app.goo.gl/6dQNxoEQLFVCyt9ZA?g_st=ipc","address":"Ζησιμοπούλου 86, Παλαιό Φάληρο 175 64","categoryIds":["desserts"],"categories":["Dessert Shops"]},{"id":"dessertsRestaurants_fd20de94e53a","slug":"special-patisserie-fd20","kind":"restaurant","name":"Special patisserie","lat":37.969012654644324,"lng":23.710612606423226,"url":"https://maps.app.goo.gl/PFQQ6yh6H3RcJ4dD6?g_st=ipc","address":"Τριών Ιεραρχών 124, Αθήνα 118 52","categoryIds":["desserts"],"categories":["Dessert Shops"]},{"id":"dessertsRestaurants_f792b1129076","slug":"flour-of-youth-f792","kind":"restaurant","name":"Flour Of Youth","lat":37.96404409092071,"lng":23.722471600259,"url":"https://maps.app.goo.gl/FibffjzNDReT3bDx7?g_st=ipc","address":"Βεΐκου 91, Αθήνα 117 41","categoryIds":["desserts"],"categories":["Dessert Shops"]},{"id":"dessertsRestaurants_4a419c4649f4","slug":"zacharoplasteia-kosmikon-p-faliro-4a41","kind":"restaurant","name":"ΖΑΧΑΡΟΠΛΑΣΤΕΙΑ ΚΟΣΜΙΚΟΝ Π.ΦΑΛΗΡΟ","lat":37.93261968622875,"lng":23.696837541827062,"url":"https://maps.app.goo.gl/JkkxEzmScmoGgm2v7?g_st=ipc","address":"Αγίου Αλεξάνδρου, Ζησιμοπούλου &, Παλαιό Φάληρο 175 61","categoryIds":["desserts"],"categories":["Dessert Shops"]},{"id":"dessertsRestaurants_84508f8235f2","slug":"zuccherino-8450","kind":"restaurant","name":"Zuccherino","lat":37.93016519402215,"lng":23.696227697191645,"url":"https://maps.app.goo.gl/tbe5oMETgxZAQkFK9?g_st=ipc","address":"Πρωτέως & Σειρήνων 48, Παλαιό Φάληρο 175 61","categoryIds":["desserts"],"categories":["Dessert Shops"]},{"id":"dessertsRestaurants_b3f00cec9209","slug":"dolce-far-niente-ice-cream-b3f0","kind":"restaurant","name":"Dolce Far Niente ice cream","lat":37.967030991920694,"lng":23.725035602938313,"url":"https://maps.app.goo.gl/YaopPeigqjaCn38A6?g_st=ipc","address":"Τσάμη Καρατάσου 26, Αθήνα 117 42","categoryIds":["desserts"],"categories":["Dessert Shops"]}],"nearby":[{"id":"coffeeBrunchRestaurants_bcfaf36dacbe","slug":"tyropites-o-mitsos-bcfa","kind":"restaurant","name":"Τυρόπιτες ο Μήτσος","lat":37.95255129753746,"lng":23.705922909041465,"url":"https://maps.app.goo.gl/SR156bdeLaJYk1WY6?g_st=ipc","address":"Συνταγματάρχου Δαβάκη 32A, Καλλιθέα 176 72","categoryIds":["coffee-brunch"],"categories":["Coffee & Brunch Spots"],"distanceKm":0.22960817566805883},{"id":"coffeeBrunchRestaurants_897460bbed61","slug":"sovolos-zacharoplasteio-foyrnos-8974","kind":"restaurant","name":"Sovolos - Ζαχαροπλαστείο - Φούρνος","lat":37.95381653096959,"lng":23.704528203629867,"url":"https://maps.app.goo.gl/wLU7EVqzFWR8dPoq6?g_st=ipc","address":"Συνταγματάρχου Δαβάκη 52, Καλλιθέα 176 72","categoryIds":["coffee-brunch"],"categories":["Coffee & Brunch Spots"],"distanceKm":0.27023049319538744},{"id":"cheapEatsRestaurants_a367fef323c7","slug":"oi-rosides-soyvlaki-piroski-a367","kind":"restaurant","name":"Οι ρωσίδες Σουβλάκι-Πιροσκί","lat":37.95374548604023,"lng":23.701395628014694,"url":"https://maps.app.goo.gl/Ebo7K4NsszKopesC7?g_st=ipc","address":"Αναγνωσταρά 16, Καλλιθέα 176 73","categoryIds":["cheap-eats"],"categories":["Gyros & Cheap Eats"],"distanceKm":0.3221884177940342},{"id":"cheapEatsRestaurants_d3888472f0b3","slug":"crepa-holic-kallithea-d388","kind":"restaurant","name":"Crepa Holic Kallithea","lat":37.95367992559356,"lng":23.699030666898533,"url":"https://maps.app.goo.gl/bLUgt75SSMUYsoXCA?g_st=ipc","address":"Λεωφ. Ελ. Βενιζέλου 185, Καλλιθέα 176 73","categoryIds":["cheap-eats"],"categories":["Gyros & Cheap Eats"],"distanceKm":0.47584313548182755},{"id":"cheapEatsRestaurants_59ab2f655733","slug":"rosiko-pantopoleio-astana-59ab","kind":"restaurant","name":"Ρώσικο παντοπωλείο «Αστάνα»","lat":37.94852960059528,"lng":23.699447152301282,"url":"https://maps.app.goo.gl/Wayix2624vmNqYTT7?g_st=ipc","address":"Δημοσθένους 207, Καλλιθέα 176 73","categoryIds":["cheap-eats"],"categories":["Gyros & Cheap Eats"],"distanceKm":0.49561168031249925},{"id":"coffeeBrunchRestaurants_2d5ab042fd9b","slug":"acera-the-brunch-project-2d5a","kind":"restaurant","name":"Acera The Brunch Project","lat":37.95687155697196,"lng":23.702731169430688,"url":"https://maps.app.goo.gl/evNfcdJQ34R2FXQR8?g_st=ipc","address":"Μαντζαγριωτάκη 105, Καλλιθέα 176 76","categoryIds":["coffee-brunch"],"categories":["Coffee & Brunch Spots"],"distanceKm":0.6054262433718272},{"id":"greekRestaurants_d2cc3fcfc069","slug":"ramona-taverna-kallithea-d2cc","kind":"restaurant","name":"Ραμόνα Ταβέρνα Καλλιθέα","lat":37.9556758154796,"lng":23.70860659191753,"url":"https://maps.app.goo.gl/RDXvdLT2Zy9wH87X9","address":"Μίνωος 11-13, Καλλιθέα 176 72","categoryIds":["greek-restaurants"],"categories":["Greek Restaurants"],"distanceKm":0.6355968097777341},{"id":"dessertsRestaurants_aa7ff0f772d7","slug":"galaktopoleio-stamoy-aa7f","kind":"restaurant","name":"Γαλακτοπωλείο ΣΤΑΜΟΥ","lat":37.952436676546995,"lng":23.695715045897042,"url":"https://maps.app.goo.gl/rD5jojpe8yMT5k159?g_st=ipc","address":"Λεωφ. Ελ. Βενιζέλου 210, Καλλιθέα 176 75","categoryIds":["desserts"],"categories":["Dessert Shops"],"distanceKm":0.7068704206806269},{"id":"greekRestaurants_9776b2d601ec","slug":"ladokolla-9776","kind":"restaurant","name":"Λαδόκολλα","lat":37.9520147160471,"lng":23.6947618008044,"url":"https://maps.app.goo.gl/R6yszu5SCxsZfVoCA","address":"Λεωφ. Ελ. Βενιζέλου 243, Καλλιθέα 176 73","categoryIds":["greek-restaurants"],"categories":["Greek Restaurants"],"distanceKm":0.7846507472788626},{"id":"cheapEatsRestaurants_4c857b269660","slug":"soyvlakia-kalamakia-panostimo-4c85","kind":"restaurant","name":"Σουβλακια καλαμάκια πανοστιμο","lat":37.95437724216138,"lng":23.71201791711626,"url":"https://maps.app.goo.gl/wSd2i93DKt8GM9aEA?g_st=ipc","address":"Δοϊράνης 35, Καλλιθέα 176 72","categoryIds":["cheap-eats"],"categories":["Gyros & Cheap Eats"],"distanceKm":0.7985423314362017},{"id":"dessertsRestaurants_0bd680afbb5e","slug":"zacharoplasteio-profiterol-dimopoylos-kallithea-0bd6","kind":"restaurant","name":"Ζαχαροπλαστείο Προφιτερόλ Δημόπουλος Καλλιθέα","lat":37.95693778495156,"lng":23.709710879410338,"url":"https://maps.app.goo.gl/t1RvynY9vJegnu6i6?g_st=ipc","address":"Αγ. Πάντων 46, Καλλιθέα 176 71","categoryIds":["desserts"],"categories":["Dessert Shops"],"distanceKm":0.8047196272896223},{"id":"vegetarianRestaurants_de7324c496a6","slug":"fakafel-de73","kind":"restaurant","name":"Φakafel","lat":37.945977379116876,"lng":23.71063148252821,"url":"https://maps.app.goo.gl/r5AXr2ToKxBqZpAv9?g_st=ipc","address":"Φakafel","categoryIds":["vegetarian"],"categories":["Vegetarian Friendly Restaurants"],"distanceKm":0.8632757220483984},{"id":"dessertsRestaurants_8de488078304","slug":"crepa-crepa-8de4","kind":"restaurant","name":"Crepa crepa","lat":37.94728978565515,"lng":23.712096506964457,"url":"https://maps.app.goo.gl/vmeSVgQbRFAe8fe19?g_st=ipc","address":"Ειρήνης 2, Νέα Σμύρνη 171 21","categoryIds":["desserts"],"categories":["Dessert Shops"],"distanceKm":0.8723370745793304},{"id":"cheapEatsRestaurants_fb98feb8ab24","slug":"soyvlakia-o-leyteris-fb98","kind":"restaurant","name":"Σουβλάκια ο Λευτέρης","lat":37.947152588163014,"lng":23.712051232496496,"url":"https://maps.app.goo.gl/MTQDk9is4pkL1vPt9?g_st=ipc","address":"Ειρήνης 2, Νέα Σμύρνη 171 21","categoryIds":["cheap-eats"],"categories":["Gyros & Cheap Eats"],"distanceKm":0.8772561892847461},{"id":"coffeeBrunchRestaurants_2673b2efe834","slug":"fred-2673","kind":"restaurant","name":"Fred","lat":37.94562369764514,"lng":23.71066649818301,"url":"https://maps.app.goo.gl/HMmCPXK9BhvDtR538?g_st=ipc","address":"Κων/νου Παλαιολόγου 24, Νέα Σμύρνη 171 21","categoryIds":["coffee-brunch"],"categories":["Coffee & Brunch Spots"],"distanceKm":0.8936782191639214},{"id":"cheapEatsRestaurants_94dff4f67b62","slug":"to-soyvlaki-tis-charokopoy-94df","kind":"restaurant","name":"Το Σουβλάκι Της Χαροκόπου","lat":37.95770921844376,"lng":23.710571236714188,"url":"https://maps.app.goo.gl/Rh99dawd3iLza1Vz7?g_st=ipc","address":"Χαροκόπου 46, Καλλιθέα 176 71","categoryIds":["cheap-eats"],"categories":["Gyros & Cheap Eats"],"distanceKm":0.9189458632695738},{"id":"coffeeBrunchRestaurants_01d039eed44f","slug":"flaked-croissanterie-nea-smyrni-01d0","kind":"restaurant","name":"Flaked Croissanterie Nea Smyrni","lat":37.94664941791958,"lng":23.71226377005945,"url":"https://maps.app.goo.gl/XhDMxWuwRuMVcghH9?g_st=ipc","address":"2ας Μαΐου 10, Νέα Σμύρνη 171 21","categoryIds":["coffee-brunch"],"categories":["Coffee & Brunch Spots"],"distanceKm":0.9242481226603604},{"id":"dessertsRestaurants_90551d221579","slug":"zuccherino-9055","kind":"restaurant","name":"Zuccherino","lat":37.94670677191045,"lng":23.712370393556583,"url":"https://maps.app.goo.gl/AvtpV9edEhsRgr9r5?g_st=ipc","address":"2ας Μαΐου 12, Νέα Σμύρνη 171 21","categoryIds":["desserts"],"categories":["Dessert Shops"],"distanceKm":0.9282120972154322},{"id":"mexicanRestaurants_ec31cb806a86","slug":"dos-banditos-ec31","kind":"restaurant","name":"Dos Banditos","lat":37.957023186399105,"lng":23.71172894880883,"url":"https://maps.app.goo.gl/A9S8uhRtFHyQhuDh6?g_st=ipc","address":"Δημοσθένους 31, Καλλιθέα 176 71","categoryIds":["mexican"],"categories":["Mexican Restaurants"],"distanceKm":0.936731627379795},{"id":"greekRestaurants_e3992a60261a","slug":"kritikos-e399","kind":"restaurant","name":"Κρητικός","lat":37.94303304147985,"lng":23.704084169584778,"url":"https://maps.app.goo.gl/QgBcqGt9addfXPwL6","address":"Ραιδεστού 36, Νέα Σμύρνη 171 22","categoryIds":["greek-restaurants"],"categories":["Greek Restaurants"],"distanceKm":0.9398019667069103},{"id":"coffeeBrunchRestaurants_bcef1a0d2ebe","slug":"aroma-plateias-bcef","kind":"restaurant","name":"Άρωμα πλατείας","lat":37.947245777072794,"lng":23.713361220767048,"url":"https://maps.app.goo.gl/6mPMQRmSeP8pK4Cu6?g_st=ipc","address":"25ης Μαρτίου 19, Νέα Σμύρνη 171 21","categoryIds":["coffee-brunch"],"categories":["Coffee & Brunch Spots"],"distanceKm":0.9702748521120467},{"id":"coffeeBrunchRestaurants_e8ba4bec6d9a","slug":"zatopek-book-cafe-e8ba","kind":"restaurant","name":"Zatopek book cafe","lat":37.95902409225205,"lng":23.698098106664805,"url":"https://maps.app.goo.gl/2WQxsGPEDfG7d62UA?g_st=ipc","address":"Π. Τσαλδάρη 209, Καλλιθέα 176 76","categoryIds":["coffee-brunch"],"categories":["Coffee & Brunch Spots"],"distanceKm":0.9715013784509122},{"id":"coffeeBrunchRestaurants_0aaa1d7425c8","slug":"o-nikos-0aaa","kind":"restaurant","name":"\"ο Νίκος\"","lat":37.94446727754758,"lng":23.71036042368455,"url":"https://maps.app.goo.gl/Hjscsj6jJP8Ehtjz8?g_st=ipc","address":"Κων/νου Παλαιολόγου 36, Νέα Σμύρνη 171 22","categoryIds":["coffee-brunch"],"categories":["Coffee & Brunch Spots"],"distanceKm":0.9749386010913652},{"id":"greekRestaurants_6497d4b8be55","slug":"o-mitos-kritiko-rakadiko-mezedopoleio-6497","kind":"restaurant","name":"Ο Μίτος (Κρητικό Ρακάδικο-Μεζεδοπωλείο)","lat":37.95902391394004,"lng":23.710171017106486,"url":"https://maps.app.goo.gl/fWEdbaEvd9cA8Enr9","address":"Αριστείδου 62, Καλλιθέα 176 71","categoryIds":["greek-restaurants"],"categories":["Greek Restaurants"],"distanceKm":1.01352497119491}],"mentionedGuides":[],"canonicalSlug":"la-maison-fine-pastry-6903","enrichment":{"summary_en":"La Maison - Fine Pastry is a curated restaurant in Καλλιθέα 176 73 in the Dessert Shops collection. It is connected to 11 nearby Googlementor picks to help travelers build a stronger local route.","summary_el":"La Maison - Fine Pastry είναι ένα επιλεγμένο σημείο φαγητού στην περιοχή Καλλιθέα 176 73 και ανήκει στη συλλογή Dessert Shops. Συνδέεται με 11 κοντινές προτάσεις του Googlementor για πιο ολοκληρωμένη εμπειρία.","vibe_tags":["curated","sweet-stop"],"best_for":["first-time visitors","food lovers"],"visit_moments":["afternoon break","after dinner"],"practical_note":"Address and direct map link are available for easy turn-by-turn access.","nearby_walkable_count":11,"nearby_count_2km":89,"confidence":0.98},"areaContext":{"slug":"kallithea","name":"Kallithea","nameEl":"Καλλιθέα"},"intentContexts":[{"href":"/desserts/kallithea","label":"Dessert Shops in Kallithea","categorySlug":"desserts","categoryName":"Dessert Shops","areaSlug":"kallithea","areaName":"Kallithea","areaNameEl":"Καλλιθέα"}]},"__N_SSG":true}