{"pageProps":{"entity":{"id":"dessertsRestaurants_78c1b48a02f1","slug":"le-greche-agia-paraskevi-78c1","kind":"restaurant","name":"Le Greche Agia Paraskevi","lat":38.013608144326774,"lng":23.83072625387381,"url":"https://maps.app.goo.gl/bgontMhqzf4bbQEm7?g_st=ipc","address":"Λεωφ. Μεσογείων 456, Αγ. Παρασκευή 153 41","categoryIds":["desserts"],"categories":["Dessert Shops"]},"sameCategory":[{"id":"dessertsRestaurants_f98eb7c31fa7","slug":"solo-gelato-agia-paraskevi-f98e","kind":"restaurant","name":"Solo Gelato Agia Paraskevi","lat":38.010730173792794,"lng":23.824059390812284,"url":"https://maps.app.goo.gl/q2uK9vCzk28wfiSB6?g_st=ipc","address":"Αγίου Ιωάννου 23B, Αγ. Παρασκευή 153 42","categoryIds":["desserts"],"categories":["Dessert Shops"]},{"id":"dessertsRestaurants_456ff03615cf","slug":"poulette-456f","kind":"restaurant","name":"Poulette","lat":38.01540164071511,"lng":23.819922887018567,"url":"https://maps.app.goo.gl/HvM2PHcBBq1Dcqka8?g_st=ipc","address":"Ellinoservikis Filias 64, Ag. Paraskevi 153 43","categoryIds":["desserts"],"categories":["Dessert Shops"]},{"id":"dessertsRestaurants_4de4990e8c52","slug":"galaktopoleio-stamoy-4de4","kind":"restaurant","name":"Γαλακτοπωλείο ΣΤΑΜΟΥ","lat":38.01272894935628,"lng":23.81812735076741,"url":"https://maps.app.goo.gl/45pSKohNfJSTdCAA6?g_st=ipc","address":"Λεωφ. Μεσογείων 400b, Αγ. Παρασκευή 153 42","categoryIds":["desserts"],"categories":["Dessert Shops"]},{"id":"dessertsRestaurants_0abf80a62983","slug":"zacharoplasteia-kosmikon-ag-paraskeyi-0abf","kind":"restaurant","name":"ΖΑΧΑΡΟΠΛΑΣΤΕΙΑ ΚΟΣΜΙΚΟΝ ΑΓ.ΠΑΡΑΣΚΕΥΗ","lat":38.015552019857395,"lng":23.816005253846708,"url":"https://maps.app.goo.gl/KMvANWbGzpUHc27L8?g_st=ipc","address":"Χαλανδρίου 34, Αγ. Παρασκευή 153 43","categoryIds":["desserts"],"categories":["Dessert Shops"]},{"id":"dessertsRestaurants_26e3d9025bbd","slug":"andrias-26e3","kind":"restaurant","name":"Ανδριάς","lat":38.01747699050525,"lng":23.845245187937905,"url":"https://maps.app.goo.gl/UStQ38USzcHtSQQz8?g_st=ipc","address":"Κλεισθένους 80, Γέρακας 153 44","categoryIds":["desserts"],"categories":["Dessert Shops"]},{"id":"dessertsRestaurants_7fcc53b965fc","slug":"koletsas-7fcc","kind":"restaurant","name":"Κολέτσας","lat":38.02545147763619,"lng":23.823091396273647,"url":"https://maps.app.goo.gl/LLAgTzMRsxERgimg9?g_st=ipc","address":"Μεταμορφώσεως 50, Χαλάνδρι 152 34","categoryIds":["desserts"],"categories":["Dessert Shops"]},{"id":"dessertsRestaurants_7da559b75445","slug":"zacharoplasteia-konstantinidis-7da5","kind":"restaurant","name":"Ζαχαροπλαστεία Κωνσταντινίδης","lat":38.01171233220572,"lng":23.81400562383525,"url":"https://maps.app.goo.gl/qEsfTTzyhzLukvSx9?g_st=ipc","address":"Λεωφ. Μεσογείων 368, Αγ. Παρασκευή 153 41","categoryIds":["desserts"],"categories":["Dessert Shops"]},{"id":"dessertsRestaurants_40ab106f41d5","slug":"la-fete-du-chocolat-40ab","kind":"restaurant","name":"La fete du chocolat","lat":38.03120511173637,"lng":23.818970445559835,"url":"https://maps.app.goo.gl/4agqQggB3EisbRqZ6?g_st=ipc","address":"Λεωφ. Πεντέλης 118, Χαλάνδρι 152 34","categoryIds":["desserts"],"categories":["Dessert Shops"]},{"id":"dessertsRestaurants_4f529b02c261","slug":"zacharoplasteia-konstantinidis-4f52","kind":"restaurant","name":"ΖΑΧΑΡΟΠΛΑΣΤΕΙΑ ΚΩΝΣΤΑΝΤΙΝΙΔΗΣ","lat":38.02641289961005,"lng":23.811254354041353,"url":"https://maps.app.goo.gl/eFBXtmFxkCpQxQLK7?g_st=ipc","address":"Λεωφ. Πεντέλης 72, Αθήνα 115 24","categoryIds":["desserts"],"categories":["Dessert Shops"]},{"id":"dessertsRestaurants_86ff71ff4014","slug":"galaktopoleio-stamoy-chalandri-attikis-86ff","kind":"restaurant","name":"Γαλακτοπωλείο ΣΤΑΜΟΥ, Χαλάνδρι Αττικής","lat":38.03271950189133,"lng":23.82056453380515,"url":"https://maps.app.goo.gl/rfjXhvBFEFZmw45z9?g_st=ipc","address":"Λεωφ. Πεντέλης 139, Χαλάνδρι 152 43","categoryIds":["desserts"],"categories":["Dessert Shops"]},{"id":"dessertsRestaurants_c8d21c4fe9cf","slug":"katamaya-bakery-c8d2","kind":"restaurant","name":"katamaya Bakery","lat":38.007980001797705,"lng":23.85734830290807,"url":"https://maps.app.goo.gl/ZpojSaEBYd5LNBoG9?g_st=ipc","address":"Λεωφόρος Μαραθώνος 113, Ηρώων Πολυτεχνείου 1, Γέρακας 153 44","categoryIds":["desserts"],"categories":["Dessert Shops"]},{"id":"dessertsRestaurants_2866616f6c72","slug":"passarella-chalandri-2866","kind":"restaurant","name":"Passarella - Χαλάνδρι","lat":38.02448370470044,"lng":23.80670910273873,"url":"https://maps.app.goo.gl/dryCvKG6qyofyvsP9?g_st=ipc","address":"Λεωφ. Πεντέλης 42 &, Ευριπίδου, Χαλάνδρι 152 34","categoryIds":["desserts"],"categories":["Dessert Shops"]}],"nearby":[{"id":"greekRestaurants_e6bbe405c9d9","slug":"tala-s-local-meze-aperitivo-e6bb","kind":"restaurant","name":"Tala's local meze & aperitivo","lat":38.01588032621049,"lng":23.833680348991113,"url":"https://maps.app.goo.gl/1ZTu39mrajPM1MYFA?g_st=ipc","address":"Θρασύβουλου 3, Αγ. Παρασκευή 153 43","categoryIds":["greek-restaurants"],"categories":["Greek Restaurants"],"distanceKm":0.36167519694027717},{"id":"dessertsRestaurants_f98eb7c31fa7","slug":"solo-gelato-agia-paraskevi-f98e","kind":"restaurant","name":"Solo Gelato Agia Paraskevi","lat":38.010730173792794,"lng":23.824059390812284,"url":"https://maps.app.goo.gl/q2uK9vCzk28wfiSB6?g_st=ipc","address":"Αγίου Ιωάννου 23B, Αγ. Παρασκευή 153 42","categoryIds":["desserts"],"categories":["Dessert Shops"],"distanceKm":0.6659958334549869},{"id":"coffeeBrunchRestaurants_f0c9993cb8f3","slug":"piccadilly-cafe-bar-f0c9","kind":"restaurant","name":"Piccadilly Cafe - Bar","lat":38.00719392579973,"lng":23.82715472856948,"url":"https://maps.app.goo.gl/sjLV2JRan1wDF2hM6?g_st=ipc","address":"Eleftherias, Αγίου Ιωάννου 63, Αγ. Παρασκευή 153 42","categoryIds":["coffee-brunch"],"categories":["Coffee & Brunch Spots"],"distanceKm":0.7788472539165239},{"id":"coffeeBrunchRestaurants_047701412132","slug":"big-spoon-0477","kind":"restaurant","name":"Big Spoon","lat":38.00695313454604,"lng":23.827222163103215,"url":"https://maps.app.goo.gl/xKV3uQ5sHdPxcNpR6?g_st=ipc","address":"Αγίου Ιωάννου 65, Αγ. Παρασκευή 153 42","categoryIds":["coffee-brunch"],"categories":["Coffee & Brunch Spots"],"distanceKm":0.8011560187697576},{"id":"coffeeBrunchRestaurants_a15eff32047d","slug":"wallstreet-athens-a15e","kind":"restaurant","name":"WallStreet Athens","lat":38.01470612030241,"lng":23.8212081874615,"url":"https://maps.app.goo.gl/mBES32gA39m1YfEdA?g_st=ipc","address":"Ελπίδος, Δημ. Γούναρη 2-4, Αγ. Παρασκευή 153 43","categoryIds":["coffee-brunch"],"categories":["Coffee & Brunch Spots"],"distanceKm":0.8427292532690942},{"id":"cheapEatsRestaurants_2194bc1389f8","slug":"pita-pan-2194","kind":"restaurant","name":"Πίτα Παν","lat":38.012724500083856,"lng":23.82116799472927,"url":"https://maps.app.goo.gl/dizAr5MBZxwBUbmGA?g_st=ipc","address":"Ευεργέτου Γιαβάση 1, Αγ. Παρασκευή 153 42","categoryIds":["cheap-eats"],"categories":["Gyros & Cheap Eats"],"distanceKm":0.8431160172740275},{"id":"greekRestaurants_077f474cb97d","slug":"stis-ellis-077f","kind":"restaurant","name":"Στης Έλλης","lat":38.01628513050535,"lng":23.840166535568635,"url":"https://maps.app.goo.gl/o1oe4gt1mipnzHE77?g_st=ipc","address":"Ἁγ. Τριάδος 57, Αγ. Παρασκευή 153 43","categoryIds":["greek-restaurants"],"categories":["Greek Restaurants"],"distanceKm":0.878953968074535},{"id":"italianRestaurants_e3c2b10afd7e","slug":"bellagio-pizza-pasta-bar-e3c2","kind":"restaurant","name":"Bellagio Pizza & Pasta Bar","lat":38.005496461487304,"lng":23.82824148801167,"url":"https://maps.app.goo.gl/fzHTDB9dRXhv8Puh9?g_st=ipc","address":"Αγίου Ιωάννου 82, Αγ. Παρασκευή 153 42","categoryIds":["italian"],"categories":["Italian Restaurants"],"distanceKm":0.9278765287499393},{"id":"dessertsRestaurants_456ff03615cf","slug":"poulette-456f","kind":"restaurant","name":"Poulette","lat":38.01540164071511,"lng":23.819922887018567,"url":"https://maps.app.goo.gl/HvM2PHcBBq1Dcqka8?g_st=ipc","address":"Ellinoservikis Filias 64, Ag. Paraskevi 153 43","categoryIds":["desserts"],"categories":["Dessert Shops"],"distanceKm":0.9672169689013561},{"id":"cheapEatsRestaurants_ba28713d01c5","slug":"jackaroo-ba28","kind":"restaurant","name":"Jackaroo","lat":38.012488048135104,"lng":23.81953806352836,"url":"https://maps.app.goo.gl/ixb3zjYZ1Wg65gYq8?g_st=ipc","address":"Ηρ. Πολυτεχνείου 8, Αγ. Παρασκευή 153 43","categoryIds":["cheap-eats"],"categories":["Gyros & Cheap Eats"],"distanceKm":0.9880475801407314},{"id":"mexicanRestaurants_8063d3de98b0","slug":"juan-s-cantina-8063","kind":"restaurant","name":"Juan's Cantina","lat":38.01206107178295,"lng":23.81957316690922,"url":"https://maps.app.goo.gl/BrMEKeu7hk8gqjtQ6?g_st=ipc","address":"Ευεργέτου Γιαβάση 13Α, Αγ. Παρασκευή 153 42","categoryIds":["mexican"],"categories":["Mexican Restaurants"],"distanceKm":0.9921215209282608},{"id":"dessertsRestaurants_4de4990e8c52","slug":"galaktopoleio-stamoy-4de4","kind":"restaurant","name":"Γαλακτοπωλείο ΣΤΑΜΟΥ","lat":38.01272894935628,"lng":23.81812735076741,"url":"https://maps.app.goo.gl/45pSKohNfJSTdCAA6?g_st=ipc","address":"Λεωφ. Μεσογείων 400b, Αγ. Παρασκευή 153 42","categoryIds":["desserts"],"categories":["Dessert Shops"],"distanceKm":1.1080739279038652},{"id":"coffeeBrunchRestaurants_9ce003d4ec0a","slug":"alto-corto-cafe-9ce0","kind":"restaurant","name":"Alto Corto Cafe","lat":38.012694707387,"lng":23.81807168304755,"url":"https://maps.app.goo.gl/1oTiFbFAjGwZTcXq9?g_st=ipc","address":"Λεωφόρος Μεσογείων 400 και, Αἰγαίου Πελάγους, Αγ. Παρασκευή 153 42","categoryIds":["coffee-brunch"],"categories":["Coffee & Brunch Spots"],"distanceKm":1.113273058118731},{"id":"greekRestaurants_f89c37a413b6","slug":"taverna-o-morias-f89c","kind":"restaurant","name":"Ταβέρνα Ο ΜΩΡΙΑΣ","lat":38.00860400302697,"lng":23.81934480669425,"url":"https://maps.app.goo.gl/bRVKBMdQ27pSumbD9?g_st=ipc","address":"Ειρήνης 56, Αγ. Παρασκευή 153 41","categoryIds":["greek-restaurants"],"categories":["Greek Restaurants"],"distanceKm":1.141873336742419},{"id":"asianRestaurants_a4e89dbc83d0","slug":"salamat-asian-food-store-a4e8","kind":"restaurant","name":"Salamat | Asian Food Store","lat":38.02126807453902,"lng":23.819767317882288,"url":"https://maps.app.goo.gl/62Tadxw4r6L1Cia48?g_st=ipc","address":"Δουκίσσης Πλακεντίας 68, Χαλάνδρι 152 34","categoryIds":["asian"],"categories":["Asian Restaurants"],"distanceKm":1.2834004651085051},{"id":"dessertsRestaurants_0abf80a62983","slug":"zacharoplasteia-kosmikon-ag-paraskeyi-0abf","kind":"restaurant","name":"ΖΑΧΑΡΟΠΛΑΣΤΕΙΑ ΚΟΣΜΙΚΟΝ ΑΓ.ΠΑΡΑΣΚΕΥΗ","lat":38.015552019857395,"lng":23.816005253846708,"url":"https://maps.app.goo.gl/KMvANWbGzpUHc27L8?g_st=ipc","address":"Χαλανδρίου 34, Αγ. Παρασκευή 153 43","categoryIds":["desserts"],"categories":["Dessert Shops"],"distanceKm":1.307627032363764},{"id":"monasteriesChurches_20d9168100a7","slug":"iera-moni-agioy-ioannoy-toy-kynigoy-20d9","kind":"restaurant","name":"Ιερά Μονή Αγίου Ιωάννου του Κυνηγού","lat":38.00278956163498,"lng":23.836715813242602,"url":"https://maps.app.goo.gl/TkGr97r8sSTcdTYu9?g_st=ipc","address":"Ανατολικής Μεσογείου, Αγ. Παρασκευή 153 42","categoryIds":["monasteries-churches"],"categories":["Monasteries & Spiritual Sites"],"distanceKm":1.3124469277721704},{"id":"dessertsRestaurants_26e3d9025bbd","slug":"andrias-26e3","kind":"restaurant","name":"Ανδριάς","lat":38.01747699050525,"lng":23.845245187937905,"url":"https://maps.app.goo.gl/UStQ38USzcHtSQQz8?g_st=ipc","address":"Κλεισθένους 80, Γέρακας 153 44","categoryIds":["desserts"],"categories":["Dessert Shops"],"distanceKm":1.3427021329784865},{"id":"asianRestaurants_4641bf909241","slug":"wasabe-asian-fusion-4641","kind":"restaurant","name":"Wasabe Asian Fusion","lat":38.01234432312043,"lng":23.815000066422606,"url":"https://maps.app.goo.gl/E1rgPWQWHHSpVx7UA?g_st=ipc","address":"Λεωφ. Μεσογείων 401, Αγ. Παρασκευή 153 43","categoryIds":["asian"],"categories":["Asian Restaurants"],"distanceKm":1.384877305404764},{"id":"coffeeBrunchRestaurants_9c4fad0bdb87","slug":"opus-coffee-and-more-9c4f","kind":"restaurant","name":"Opus coffee and more","lat":38.001260916187285,"lng":23.825716095768566,"url":"https://maps.app.goo.gl/ZsSXep3FZfHkFyPYA?g_st=ipc","address":"Αιγαίου Πελάγους, Γραβιάς και, Αγ. Παρασκευή 153 42","categoryIds":["coffee-brunch"],"categories":["Coffee & Brunch Spots"],"distanceKm":1.4414141671937541},{"id":"dessertsRestaurants_7fcc53b965fc","slug":"koletsas-7fcc","kind":"restaurant","name":"Κολέτσας","lat":38.02545147763619,"lng":23.823091396273647,"url":"https://maps.app.goo.gl/LLAgTzMRsxERgimg9?g_st=ipc","address":"Μεταμορφώσεως 50, Χαλάνδρι 152 34","categoryIds":["desserts"],"categories":["Dessert Shops"],"distanceKm":1.4770174461887668},{"id":"dessertsRestaurants_7da559b75445","slug":"zacharoplasteia-konstantinidis-7da5","kind":"restaurant","name":"Ζαχαροπλαστεία Κωνσταντινίδης","lat":38.01171233220572,"lng":23.81400562383525,"url":"https://maps.app.goo.gl/qEsfTTzyhzLukvSx9?g_st=ipc","address":"Λεωφ. Μεσογείων 368, Αγ. Παρασκευή 153 41","categoryIds":["desserts"],"categories":["Dessert Shops"],"distanceKm":1.4799459515709648},{"id":"familyFriendly_006b710ec86a","slug":"ktima-aristi-006b","kind":"restaurant","name":"ΚΤΗΜΑ ΑΡΙΣΤΗ","lat":38.01987728596246,"lng":23.81566062458868,"url":"https://maps.app.goo.gl/82avq8dPqN3VZq7W7?g_st=ipc","address":"Πλουτάρχου 10, Χαλάνδρι 152 34","categoryIds":["family-friendly"],"categories":["Kid Friendly Locations"],"distanceKm":1.492579159623821},{"id":"greekRestaurants_c4e480192004","slug":"ta-romanakia-c4e4","kind":"restaurant","name":"Τα Ρωμανάκια","lat":38.01166841393731,"lng":23.8131702489518,"url":"https://maps.app.goo.gl/huAdXz8UP2bA8sPj6?g_st=ipc","address":"Λεωφ. Μεσογείων 366, Αγ. Παρασκευή 153 41","categoryIds":["greek-restaurants"],"categories":["Greek Restaurants"],"distanceKm":1.553091078688952}],"mentionedGuides":[],"canonicalSlug":"le-greche-agia-paraskevi-78c1","enrichment":{"summary_en":"Le Greche Agia Paraskevi is a curated restaurant in Αγ. Παρασκευή 153 41 in the Dessert Shops collection. It is connected to 3 nearby Googlementor picks to help travelers build a stronger local route.","summary_el":"Le Greche Agia Paraskevi είναι ένα επιλεγμένο σημείο φαγητού στην περιοχή Αγ. Παρασκευή 153 41 και ανήκει στη συλλογή Dessert Shops. Συνδέεται με 3 κοντινές προτάσεις του Googlementor για πιο ολοκληρωμένη εμπειρία.","vibe_tags":["curated","sweet-stop"],"best_for":["first-time visitors","food lovers"],"visit_moments":["afternoon break","after dinner"],"practical_note":"Address and direct map link are available for easy turn-by-turn access.","nearby_walkable_count":3,"nearby_count_2km":36,"confidence":0.9},"areaContext":{"slug":"agia-paraskeyi","name":"Agia Paraskevi","nameEl":"Αγία Παρασκευή"},"intentContexts":[{"href":"/desserts/agia-paraskeyi","label":"Dessert Shops in Agia Paraskevi","categorySlug":"desserts","categoryName":"Dessert Shops","areaSlug":"agia-paraskeyi","areaName":"Agia Paraskevi","areaNameEl":"Αγία Παρασκευή"}]},"__N_SSG":true}