{"pageProps":{"entity":{"id":"coffeeBrunchRestaurants_c7392dd258a0","slug":"lemonis-bakery-c739","kind":"restaurant","name":"Lemonis Bakery","lat":39.94203436230197,"lng":23.66329350381582,"url":"https://maps.app.goo.gl/Q7a2SEfBJaFYitVS7?g_st=ipc","address":"Epar.Od. Paliouriou-Afitou, Paliouri 630 85","categoryIds":["coffee-brunch"],"categories":["Coffee & Brunch Spots"]},"sameCategory":[{"id":"coffeeBrunchRestaurants_fc07764e5b52","slug":"season-beach-house-koursaros-fc07","kind":"restaurant","name":"Season beach house (KOURSAROS)","lat":39.95767524817121,"lng":23.67935820697653,"url":"https://maps.app.goo.gl/kxSvMZBHgQaQt2dS8?g_st=ipc","address":"Koursaros, Paliouri 630 85","categoryIds":["coffee-brunch"],"categories":["Coffee & Brunch Spots"]},{"id":"coffeeBrunchRestaurants_25a3d49e80e1","slug":"navagos-beach-bar-paliouri-25a3","kind":"restaurant","name":"Navagos beach bar Paliouri","lat":39.93652533814293,"lng":23.688978937103037,"url":"https://maps.app.goo.gl/k1GdJrNWZuw6bw1y7?g_st=ipc","address":"Navagos Beach-Restaurant, Paliouri 630 85","categoryIds":["coffee-brunch"],"categories":["Coffee & Brunch Spots"]},{"id":"coffeeBrunchRestaurants_2db4944d88a6","slug":"leuki-ammos-beach-bar-2db4","kind":"restaurant","name":"Leuki Ammos Beach bar","lat":39.96367051219052,"lng":23.675446495469675,"url":"https://maps.app.goo.gl/xySqYYNGHWHqAXNeA?g_st=ipc","address":"Akti xenia, Paliouri 630 85","categoryIds":["coffee-brunch"],"categories":["Coffee & Brunch Spots"]},{"id":"coffeeBrunchRestaurants_ec562584f606","slug":"lago-seaside-experience-ec56","kind":"restaurant","name":"Lago Seaside Experience","lat":39.97322433297595,"lng":23.675843364420007,"url":"https://maps.app.goo.gl/5BvhEbLtGovxPUe36?g_st=ipc","address":"Unnamed Road, Kassandra 630 85","categoryIds":["coffee-brunch"],"categories":["Coffee & Brunch Spots"]},{"id":"coffeeBrunchRestaurants_d3218a9e0fff","slug":"glarokavos-beachbar-d321","kind":"restaurant","name":"Glarokavos BeachBar","lat":39.982564469579565,"lng":23.643613894999742,"url":"https://maps.app.goo.gl/5ksxtuxSYejYXXSq9?g_st=ipc","address":"Παραλία Γλαρόκαβος, Pefkochori 630 85","categoryIds":["coffee-brunch"],"categories":["Coffee & Brunch Spots"]},{"id":"coffeeBrunchRestaurants_c3bee7217dfe","slug":"elephant-beach-bar-c3be","kind":"restaurant","name":"Elephant Beach Bar","lat":39.985586279749114,"lng":23.627614034601162,"url":"https://maps.app.goo.gl/Zgv1m6A2CegCXBdv5?g_st=ipc","address":"Peufkohori","categoryIds":["coffee-brunch"],"categories":["Coffee & Brunch Spots"]},{"id":"coffeeBrunchRestaurants_77abfb08a4c5","slug":"pink-banana-opa-greek-cuisine-77ab","kind":"restaurant","name":"Pink Banana & OPA Greek cuisine","lat":39.928119861265856,"lng":23.5848530921533,"url":"https://maps.app.goo.gl/4qjSp1aZXXsPHmu16?g_st=ipc","address":"Λουτρά, Ag. Paraskevi 630 85","categoryIds":["coffee-brunch"],"categories":["Coffee & Brunch Spots"]},{"id":"coffeeBrunchRestaurants_b9814a0d3d11","slug":"fiki-beach-bar-restaurant-b981","kind":"restaurant","name":"Fiki Beach Bar & Restaurant","lat":39.99215878950949,"lng":23.607017748480928,"url":"https://maps.app.goo.gl/nQhhBcx28bHKgifj6?g_st=ipc","address":"Pefkochori 630 85","categoryIds":["coffee-brunch"],"categories":["Coffee & Brunch Spots"]},{"id":"coffeeBrunchRestaurants_0fe0a5c9639e","slug":"canela-restaurant-by-blue-carpet-0fe0","kind":"restaurant","name":"Canela Restaurant by Blue Carpet","lat":39.99355871861254,"lng":23.60104135467034,"url":"https://maps.app.goo.gl/aPnsSZ9vtDLsCtCKA?g_st=ipc","address":"Παραλία, Pefkochori 630 85","categoryIds":["coffee-brunch"],"categories":["Coffee & Brunch Spots"]},{"id":"coffeeBrunchRestaurants_03429eb3012a","slug":"mamalouka-beach-bar-0342","kind":"restaurant","name":"Mamalouka Beach Bar","lat":39.99397355305258,"lng":23.600497598852627,"url":"https://maps.app.goo.gl/PoTnpjRujbpdssuq7?g_st=ipc","address":"Unnamed Road, Kassandra 630 85","categoryIds":["coffee-brunch","fish-tavernas"],"categories":["Coffee & Brunch Spots","Fish Tavernas"],"legacySlugs":["mamalouka-beach-bar-b8de"]},{"id":"coffeeBrunchRestaurants_1ac37112f669","slug":"achinos-tuti-beach-halkidiki-1ac3","kind":"restaurant","name":"Achinos Tuti Beach Halkidiki","lat":39.999483989821414,"lng":23.582157727223603,"url":"https://maps.app.goo.gl/diBbGVkfHMvFE7VE7?g_st=ipc","address":"Nisos Beach, Chaniotis 630 85","categoryIds":["coffee-brunch"],"categories":["Coffee & Brunch Spots"]},{"id":"coffeeBrunchRestaurants_65ba92d0cd82","slug":"golden-beach-near-paliouri-65ba","kind":"restaurant","name":"Golden Beach Near Paliouri","lat":40.00000157623716,"lng":23.566669631082956,"url":"https://maps.app.goo.gl/BuoQtJYMzAyirA8L6?g_st=ipc","address":"Pallini 630 85","categoryIds":["coffee-brunch"],"categories":["Coffee & Brunch Spots"]}],"nearby":[{"id":"greekRestaurants_3369a941ef57","slug":"taverna-giannikos-3369","kind":"restaurant","name":"Ταβέρνα Γιαννίκος","lat":39.94177003077369,"lng":23.66270542049451,"url":"https://maps.app.goo.gl/o6uWLuYRQYRTiAPA9?g_st=ipc","address":"Παλιούρι 630 85","categoryIds":["greek-restaurants"],"categories":["Greek Restaurants"],"distanceKm":0.058116224150071685},{"id":"coffeeBrunchRestaurants_fc07764e5b52","slug":"season-beach-house-koursaros-fc07","kind":"restaurant","name":"Season beach house (KOURSAROS)","lat":39.95767524817121,"lng":23.67935820697653,"url":"https://maps.app.goo.gl/kxSvMZBHgQaQt2dS8?g_st=ipc","address":"Koursaros, Paliouri 630 85","categoryIds":["coffee-brunch"],"categories":["Coffee & Brunch Spots"],"distanceKm":2.2136007010204626},{"id":"coffeeBrunchRestaurants_25a3d49e80e1","slug":"navagos-beach-bar-paliouri-25a3","kind":"restaurant","name":"Navagos beach bar Paliouri","lat":39.93652533814293,"lng":23.688978937103037,"url":"https://maps.app.goo.gl/k1GdJrNWZuw6bw1y7?g_st=ipc","address":"Navagos Beach-Restaurant, Paliouri 630 85","categoryIds":["coffee-brunch"],"categories":["Coffee & Brunch Spots"],"distanceKm":2.2739021545662186},{"id":"coffeeBrunchRestaurants_2db4944d88a6","slug":"leuki-ammos-beach-bar-2db4","kind":"restaurant","name":"Leuki Ammos Beach bar","lat":39.96367051219052,"lng":23.675446495469675,"url":"https://maps.app.goo.gl/xySqYYNGHWHqAXNeA?g_st=ipc","address":"Akti xenia, Paliouri 630 85","categoryIds":["coffee-brunch"],"categories":["Coffee & Brunch Spots"],"distanceKm":2.619375238627813},{"id":"coffeeBrunchRestaurants_ec562584f606","slug":"lago-seaside-experience-ec56","kind":"restaurant","name":"Lago Seaside Experience","lat":39.97322433297595,"lng":23.675843364420007,"url":"https://maps.app.goo.gl/5BvhEbLtGovxPUe36?g_st=ipc","address":"Unnamed Road, Kassandra 630 85","categoryIds":["coffee-brunch"],"categories":["Coffee & Brunch Spots"],"distanceKm":3.6293743998240573},{"id":"coffeeBrunchRestaurants_d3218a9e0fff","slug":"glarokavos-beachbar-d321","kind":"restaurant","name":"Glarokavos BeachBar","lat":39.982564469579565,"lng":23.643613894999742,"url":"https://maps.app.goo.gl/5ksxtuxSYejYXXSq9?g_st=ipc","address":"Παραλία Γλαρόκαβος, Pefkochori 630 85","categoryIds":["coffee-brunch"],"categories":["Coffee & Brunch Spots"],"distanceKm":4.8087272177182045},{"id":"greekRestaurants_2beb8ff39579","slug":"archontiko-agia-paraskeyi-2beb","kind":"restaurant","name":"Αρχοντικό Αγία Παρασκευή","lat":39.95369257965996,"lng":23.606491610468332,"url":"https://maps.app.goo.gl/Sg6pdLqPaLdxMQsT7?g_st=ipc","address":"Unnamed Road, Αγ. Παρασκευή 630 85","categoryIds":["greek-restaurants"],"categories":["Greek Restaurants"],"distanceKm":5.012617925983991},{"id":"coffeeBrunchRestaurants_c3bee7217dfe","slug":"elephant-beach-bar-c3be","kind":"restaurant","name":"Elephant Beach Bar","lat":39.985586279749114,"lng":23.627614034601162,"url":"https://maps.app.goo.gl/Zgv1m6A2CegCXBdv5?g_st=ipc","address":"Peufkohori","categoryIds":["coffee-brunch"],"categories":["Coffee & Brunch Spots"],"distanceKm":5.718276941441294},{"id":"fishTavernasRestaurants_30c8fe6bb67b","slug":"bakalis-30c8","kind":"restaurant","name":"Bakalis","lat":39.98870698412509,"lng":23.62008792284829,"url":"https://maps.app.goo.gl/TYraAejWnPa3R12Q9?g_st=ipc","address":"Pefkochori 630 85","categoryIds":["fish-tavernas"],"categories":["Fish Tavernas"],"distanceKm":6.363305859897354},{"id":"fishTavernasRestaurants_d7ed2778e57d","slug":"fish-tavern-tsaparis-d7ed","kind":"restaurant","name":"Fish Tavern Tsaparis","lat":39.98759758204977,"lng":23.614455119611083,"url":"https://maps.app.goo.gl/Mv522SonrUt6TBiLA?g_st=ipc","address":"Unnamed Rd, Greece, Pefkochori 630 85","categoryIds":["fish-tavernas"],"categories":["Fish Tavernas"],"distanceKm":6.5568572264348015},{"id":"fishTavernasRestaurants_8b035bb05924","slug":"villa-stasa-sea-restaurant-8b03","kind":"restaurant","name":"Villa Stasa Sea Restaurant","lat":39.925439038727305,"lng":23.588406494329757,"url":"https://maps.app.goo.gl/DN12c6YKymvAuHE9A?g_st=ipc","address":"Loutra, Agia Paraskeui, Kassandra Chalkidiki 630 85","categoryIds":["fish-tavernas"],"categories":["Fish Tavernas"],"distanceKm":6.646385598024579},{"id":"coffeeBrunchRestaurants_77abfb08a4c5","slug":"pink-banana-opa-greek-cuisine-77ab","kind":"restaurant","name":"Pink Banana & OPA Greek cuisine","lat":39.928119861265856,"lng":23.5848530921533,"url":"https://maps.app.goo.gl/4qjSp1aZXXsPHmu16?g_st=ipc","address":"Λουτρά, Ag. Paraskevi 630 85","categoryIds":["coffee-brunch"],"categories":["Coffee & Brunch Spots"],"distanceKm":6.864561481753574},{"id":"coffeeBrunchRestaurants_b9814a0d3d11","slug":"fiki-beach-bar-restaurant-b981","kind":"restaurant","name":"Fiki Beach Bar & Restaurant","lat":39.99215878950949,"lng":23.607017748480928,"url":"https://maps.app.goo.gl/nQhhBcx28bHKgifj6?g_st=ipc","address":"Pefkochori 630 85","categoryIds":["coffee-brunch"],"categories":["Coffee & Brunch Spots"],"distanceKm":7.352917401669496},{"id":"coffeeBrunchRestaurants_0fe0a5c9639e","slug":"canela-restaurant-by-blue-carpet-0fe0","kind":"restaurant","name":"Canela Restaurant by Blue Carpet","lat":39.99355871861254,"lng":23.60104135467034,"url":"https://maps.app.goo.gl/aPnsSZ9vtDLsCtCKA?g_st=ipc","address":"Παραλία, Pefkochori 630 85","categoryIds":["coffee-brunch"],"categories":["Coffee & Brunch Spots"],"distanceKm":7.8082599344815655},{"id":"greekRestaurants_1d153d1c9158","slug":"canela-restaurant-by-blue-carpet-1d15","kind":"restaurant","name":"Canela Restaurant by Blue Carpet","lat":39.993683609742966,"lng":23.60103609139866,"url":"https://maps.app.goo.gl/iBL9Hhx7josAfHZq6?g_st=ipc","address":"Παραλία, Πευκοχώρι 630 85","categoryIds":["greek-restaurants"],"categories":["Greek Restaurants"],"distanceKm":7.818756360148109},{"id":"coffeeBrunchRestaurants_03429eb3012a","slug":"mamalouka-beach-bar-0342","kind":"restaurant","name":"Mamalouka Beach Bar","lat":39.99397355305258,"lng":23.600497598852627,"url":"https://maps.app.goo.gl/PoTnpjRujbpdssuq7?g_st=ipc","address":"Unnamed Road, Kassandra 630 85","categoryIds":["coffee-brunch","fish-tavernas"],"categories":["Coffee & Brunch Spots","Fish Tavernas"],"legacySlugs":["mamalouka-beach-bar-b8de"],"distanceKm":7.8735790991314385},{"id":"greekRestaurants_51d0de5678c5","slug":"mnemes-farm-51d0","kind":"restaurant","name":"Mnēmes Farm","lat":39.995744895148555,"lng":23.586019155143934,"url":"https://maps.app.goo.gl/Yr8SQnhBoShFTSkP6?g_st=ipc","address":"Εκτός Οικισμού Πευκοχωρίου, Πευκοχώρι 630 85","categoryIds":["greek-restaurants"],"categories":["Greek Restaurants"],"distanceKm":8.890123318361338},{"id":"coffeeBrunchRestaurants_1ac37112f669","slug":"achinos-tuti-beach-halkidiki-1ac3","kind":"restaurant","name":"Achinos Tuti Beach Halkidiki","lat":39.999483989821414,"lng":23.582157727223603,"url":"https://maps.app.goo.gl/diBbGVkfHMvFE7VE7?g_st=ipc","address":"Nisos Beach, Chaniotis 630 85","categoryIds":["coffee-brunch"],"categories":["Coffee & Brunch Spots"],"distanceKm":9.413448875401249},{"id":"dessertsRestaurants_4d9f43af452c","slug":"patisserie-achlatis-4d9f","kind":"restaurant","name":"patisserie Achlatis","lat":40.0008948533071,"lng":23.574509488353804,"url":"https://maps.app.goo.gl/LLNEhXXp3PJCCKgu7?g_st=ipc","address":"Chaniotis 630 85","categoryIds":["desserts"],"categories":["Dessert Shops"],"distanceKm":10.003911594597138},{"id":"cheapEatsRestaurants_e78668bce22c","slug":"garry-s-e786","kind":"restaurant","name":"Garry's","lat":40.000628811076744,"lng":23.573772244228277,"url":"https://maps.app.goo.gl/AswmP29i78TmQa9F9?g_st=ipc","address":"plateia, Chaniotis 630 85","categoryIds":["cheap-eats"],"categories":["Gyros & Cheap Eats"],"distanceKm":10.032283001666034},{"id":"coffeeBrunchRestaurants_65ba92d0cd82","slug":"golden-beach-near-paliouri-65ba","kind":"restaurant","name":"Golden Beach Near Paliouri","lat":40.00000157623716,"lng":23.566669631082956,"url":"https://maps.app.goo.gl/BuoQtJYMzAyirA8L6?g_st=ipc","address":"Pallini 630 85","categoryIds":["coffee-brunch"],"categories":["Coffee & Brunch Spots"],"distanceKm":10.456780218870325},{"id":"coffeeBrunchRestaurants_aaacdfd97bc2","slug":"lemonis-bakery-aaac","kind":"restaurant","name":"Lemonis Bakery","lat":40.01696151934303,"lng":23.52512566073754,"url":"https://maps.app.goo.gl/xaGsvgZfv5mMRi2e6?g_st=ipc","address":"Polychrono 630 85","categoryIds":["coffee-brunch"],"categories":["Coffee & Brunch Spots"],"distanceKm":14.422576717537321},{"id":"coffeeBrunchRestaurants_b84b53e707eb","slug":"crystal-beach-bar-b84b","kind":"restaurant","name":"Crystal Beach Bar","lat":40.02336409343884,"lng":23.51395324156485,"url":"https://maps.app.goo.gl/Q863Q6e1e1985SvJ9?g_st=ipc","address":"Unnamed Road, Kassandra 630 85","categoryIds":["coffee-brunch"],"categories":["Coffee & Brunch Spots"],"distanceKm":15.610436863384283},{"id":"fishTavernasRestaurants_c1e639fcf77c","slug":"panos-fish-tavern-c1e6","kind":"restaurant","name":"Panos Fish Tavern","lat":40.02825871317535,"lng":23.814126287287745,"url":"https://maps.app.goo.gl/77jkhaQtjejhyNVk9?g_st=ipc","address":"63081, Neos Marmaras 630 81","categoryIds":["fish-tavernas"],"categories":["Fish Tavernas"],"distanceKm":16.033288156184874}],"mentionedGuides":[],"canonicalSlug":"lemonis-bakery-c739","enrichment":{"summary_en":"Lemonis Bakery is a curated restaurant in Paliouri 630 85 in the Coffee & Brunch Spots collection. It is connected to 1 nearby Googlementor picks to help travelers build a stronger local route.","summary_el":"Lemonis Bakery είναι ένα επιλεγμένο σημείο φαγητού στην περιοχή Paliouri 630 85 και ανήκει στη συλλογή Coffee & Brunch Spots. Συνδέεται με 1 κοντινές προτάσεις του Googlementor για πιο ολοκληρωμένη εμπειρία.","vibe_tags":["curated","daytime-favorite"],"best_for":["first-time visitors","food lovers"],"visit_moments":["early morning","late brunch"],"practical_note":"Address and direct map link are available for easy turn-by-turn access.","nearby_walkable_count":1,"nearby_count_2km":1,"confidence":0.9},"areaContext":{"slug":"peykochori","name":"Pefkochori","nameEl":"Πευκοχώρι"},"intentContexts":[]},"__N_SSG":true}