{"pageProps":{"entity":{"id":"greekRestaurants_b3da8ddd3955","slug":"lostre-koyzina-b3da","kind":"restaurant","name":"Λοστρέ κουζίνα","lat":37.96258323945813,"lng":23.732334829769364,"url":"https://maps.app.goo.gl/T4yBbxnNyvkykNoS9","address":"Πυθέου 32, Αθήνα 117 43","categoryIds":["greek-restaurants"],"categories":["Greek Restaurants"]},"sameCategory":[{"id":"greekRestaurants_33a0b55abdc4","slug":"to-trikyklo-33a0","kind":"restaurant","name":"Το Τρικυκλο","lat":37.96243041130632,"lng":23.732361770965667,"url":"https://maps.app.goo.gl/iQ4V71S2t14KAPNM9","address":"Πυθέου 34-Θ.Γεωμετρου 1, Πυθέου 34, Αθήνα 117 43","categoryIds":["greek-restaurants"],"categories":["Greek Restaurants"]},{"id":"greekRestaurants_32eb2400b721","slug":"olympion-32eb","kind":"restaurant","name":"Ολύμπιον","lat":37.96661871653892,"lng":23.73449829017252,"url":"https://maps.app.goo.gl/ibRHUhwHzNffs1sC8","address":"Αναπαύσεως 9, Αθήνα 116 36","categoryIds":["greek-restaurants"],"categories":["Greek Restaurants"]},{"id":"greekRestaurants_c15edd7fcde2","slug":"estiatorio-smile-c15e","kind":"restaurant","name":"Εστιατόριο Smile","lat":37.967615812266935,"lng":23.729979287152204,"url":"https://maps.app.goo.gl/dzqWtwgMFs9Vcqew6","address":"Πλ. Τσώκρη 1, Αθήνα 117 42","categoryIds":["greek-restaurants"],"categories":["Greek Restaurants"]},{"id":"greekRestaurants_104d52bd2241","slug":"mpalkoni-estiatorio-kai-mpar-104d","kind":"restaurant","name":"Μπαλκόνι Εστιατόριο και Μπαρ","lat":37.96744106512062,"lng":23.72879886025239,"url":"https://maps.app.goo.gl/7XXsfB27aRZAsikR7","address":"Βεΐκου 1, Αθήνα 117 42","categoryIds":["greek-restaurants"],"categories":["Greek Restaurants"]},{"id":"greekRestaurants_2cc5d772f006","slug":"onos-taverna-2cc5","kind":"restaurant","name":"Onos Taverna","lat":37.96571079116367,"lng":23.725945276440267,"url":"https://maps.app.goo.gl/ur5XrAoMuE8FsR5c6","address":"Δράκου 14, Αθήνα 117 42","categoryIds":["greek-restaurants"],"categories":["Greek Restaurants"]},{"id":"greekRestaurants_fdc308cbed46","slug":"sfika-fdc3","kind":"restaurant","name":"Σφήκα","lat":37.966122619632145,"lng":23.726245016024656,"url":"https://maps.app.goo.gl/WDLKPoT2bayYqor96","address":"Στρ. Κοντούλη 15, Αθήνα 117 42","categoryIds":["greek-restaurants"],"categories":["Greek Restaurants"]},{"id":"greekRestaurants_dcfbb404a98b","slug":"to-ypogeio-toy-marathoniti-dcfb","kind":"restaurant","name":"Το Υπόγειο του Μαραθωνίτη","lat":37.96187332155002,"lng":23.74031744806371,"url":"https://maps.app.goo.gl/pp5rzZKvkv6W1fXL7","address":"Βίνκελμαν 3, Αθήνα 116 32","categoryIds":["greek-restaurants"],"categories":["Greek Restaurants"]},{"id":"greekRestaurants_e9888507556f","slug":"fita-e988","kind":"restaurant","name":"Φιτα","lat":37.959800125380376,"lng":23.723270363621033,"url":"https://maps.app.goo.gl/dz2YxasHy4LnBQ668","address":"Ντουρμ 1, Αθήνα 117 45","categoryIds":["greek-restaurants"],"categories":["Greek Restaurants"]},{"id":"greekRestaurants_e8a12eb29aae","slug":"eylalia-e8a1","kind":"restaurant","name":"Ευλαλία","lat":37.96221703725563,"lng":23.742138763953527,"url":"https://maps.app.goo.gl/HVpdCimDL2uUQGMfA","address":"Φρύνωνος 10, Αθήνα 116 32","categoryIds":["greek-restaurants"],"categories":["Greek Restaurants"]},{"id":"greekRestaurants_c2d712c3a636","slug":"louiza-athens-c2d7","kind":"restaurant","name":"Louiza Athens","lat":37.958439423665176,"lng":23.722755568163475,"url":"https://maps.app.goo.gl/QPXwcnn7KEEcjqBb9","address":"Σφιγγός 13, Αθήνα 117 45","categoryIds":["greek-restaurants"],"categories":["Greek Restaurants"]},{"id":"greekRestaurants_1ce7ef86a93e","slug":"vyrinis-1ce7","kind":"restaurant","name":"ΒΥΡΙΝΗΣ","lat":37.96743484356373,"lng":23.742810422529566,"url":"https://maps.app.goo.gl/1Xuvp6z7zeGEESxk7","address":"Αρχιμήδους 11, Αθήνα 116 35","categoryIds":["greek-restaurants"],"categories":["Greek Restaurants"]},{"id":"greekRestaurants_4d35ec674015","slug":"taverna-saita-4d35","kind":"restaurant","name":"Taverna Saita","lat":37.97248143588815,"lng":23.732031545694568,"url":"https://maps.app.goo.gl/SCwWcqyGvhz7WVrE8","address":"Κυδαθηναίων 21, Αθήνα 105 58","categoryIds":["greek-restaurants"],"categories":["Greek Restaurants"]}],"nearby":[{"id":"greekRestaurants_33a0b55abdc4","slug":"to-trikyklo-33a0","kind":"restaurant","name":"Το Τρικυκλο","lat":37.96243041130632,"lng":23.732361770965667,"url":"https://maps.app.goo.gl/iQ4V71S2t14KAPNM9","address":"Πυθέου 34-Θ.Γεωμετρου 1, Πυθέου 34, Αθήνα 117 43","categoryIds":["greek-restaurants"],"categories":["Greek Restaurants"],"distanceKm":0.017157062130667516},{"id":"asianRestaurants_38b8b7a5de82","slug":"garum-athens-38b8","kind":"restaurant","name":"Garum Athens","lat":37.96322815000365,"lng":23.734456659008355,"url":"https://maps.app.goo.gl/MU1e8JQujzPUM5ZN6","address":"Kelsou 10, Athina 116 36","categoryIds":["asian","luxury-dining"],"categories":["Asian Restaurants","Luxury Dining"],"legacySlugs":["garum-athens-dc2b"],"distanceKm":0.19935865692668545},{"id":"coffeeBrunchRestaurants_95dcd35af657","slug":"artopoieio-zacharoplasteio-arto-zymia-95dc","kind":"restaurant","name":"Αρτοποιείο Ζαχαροπλαστείο \"Αρτο..ζυμιά\"","lat":37.96420038301339,"lng":23.731208987347678,"url":"https://maps.app.goo.gl/FBqvEkq9TKnNFmzu9?g_st=ipc","address":"Αγλαονίκης 22, Αθήνα 117 43","categoryIds":["coffee-brunch","desserts"],"categories":["Coffee & Brunch Spots","Dessert Shops"],"legacySlugs":["artopoieio-zacharoplasteio-arto-zymia-afb8"],"distanceKm":0.20512435557965483},{"id":"cheapEatsRestaurants_258b939a478f","slug":"psitopoleio-to-empeiro-258b","kind":"restaurant","name":"Ψητοπωλείο Το Έμπειρο","lat":37.96275771902048,"lng":23.72923609945131,"url":"https://maps.app.goo.gl/kpwhPwcxrACr1psm9?g_st=ipc","address":"Ηρακλέους 28, Αθήνα 117 43","categoryIds":["cheap-eats"],"categories":["Gyros & Cheap Eats"],"distanceKm":0.2723494910667968},{"id":"cheapEatsRestaurants_15b8f9de5a02","slug":"robin-belgian-streetfood-15b8","kind":"restaurant","name":"Robin Belgian streetfood","lat":37.96249493210435,"lng":23.729203293671816,"url":"https://maps.app.goo.gl/4RTN9WGd3FCHQamG6?g_st=ipc","address":"Θεοδώρητου Βρεσθένης 31, Αθήνα 117 43","categoryIds":["cheap-eats"],"categories":["Gyros & Cheap Eats"],"distanceKm":0.2747096103324889},{"id":"fishTavernasRestaurants_2d289dd504e5","slug":"annie-fine-cooking-2d28","kind":"restaurant","name":"Annie - Fine Cooking","lat":37.96499642405186,"lng":23.73068347975073,"url":"https://maps.app.goo.gl/YqFQJr3r4XRFXyq17?g_st=ipc","address":"Μεναίχμου 4, Αθήνα 117 43","categoryIds":["fish-tavernas"],"categories":["Fish Tavernas"],"distanceKm":0.30489449282045455},{"id":"cheapEatsRestaurants_cf76698c40fb","slug":"o-achilleas-cheiropoiitos-gyros-cf76","kind":"restaurant","name":"Ο Αχιλλέας (χειροποίητος γύρος)","lat":37.95973976836696,"lng":23.733064950731986,"url":"https://maps.app.goo.gl/SrhYjUikLgP2R2HT7?g_st=ipc","address":"Σπινθάρου 18, Αθήνα 117 43","categoryIds":["cheap-eats"],"categories":["Gyros & Cheap Eats"],"distanceKm":0.32259367588930704},{"id":"rooftopLoungesRestaurants_7028a5f2c855","slug":"bg-s-roof-garden-terrace-7028","kind":"restaurant","name":"BG's Roof Garden Terrace","lat":37.96555476887021,"lng":23.73099014305094,"url":"https://maps.app.goo.gl/DYB3podcUfK36W3e8?g_st=ipc","address":"Menaimahou 1 & Theofilopoulou, Καλλιρρόης Avenue, 18, 117 43","categoryIds":["rooftop-lounges"],"categories":["Rooftop Lounges"],"distanceKm":0.3508177514471029},{"id":"italianRestaurants_bdaaf75d6c5e","slug":"canarino-bdaa","kind":"restaurant","name":"Canarino","lat":37.95905367625766,"lng":23.73382645635927,"url":"https://maps.app.goo.gl/kPu5BDkNuumunei99?g_st=ipc","address":"Ηλία Ηλιού 28, Αθήνα 117 43","categoryIds":["italian"],"categories":["Italian Restaurants"],"distanceKm":0.41368248110610134},{"id":"coffeeBrunchRestaurants_c191ebb5fd6a","slug":"teras-athens-c191","kind":"restaurant","name":"Teras Athens","lat":37.96132522695651,"lng":23.727704519576132,"url":"https://maps.app.goo.gl/Q7ocWz9NPgB5Zoaa6?g_st=ipc","address":"Θεοδώρητου Βρεσθένης 45, Αθήνα 117 43","categoryIds":["coffee-brunch"],"categories":["Coffee & Brunch Spots"],"distanceKm":0.4293574101007214},{"id":"coffeeBrunchRestaurants_88ec9d6dfbbc","slug":"joshua-tree-cafe-88ec","kind":"restaurant","name":"Joshua Tree Cafe","lat":37.96618895456632,"lng":23.73475215870415,"url":"https://maps.app.goo.gl/hxko2CRaz8QbMJPc8?g_st=ipc","address":"Αναπαύσεως 13, Αθήνα 116 36","categoryIds":["coffee-brunch","vegetarian"],"categories":["Coffee & Brunch Spots","Vegetarian Friendly Restaurants"],"legacySlugs":["joshua-tree-cafe-e75c"],"distanceKm":0.4534964481741154},{"id":"asianRestaurants_245947f00892","slug":"one-piece-sushi-noodlebar-2459","kind":"restaurant","name":"One Piece Sushi & NoodleBar","lat":37.95987156768248,"lng":23.736223837796196,"url":"https://maps.app.goo.gl/haanYsUxepJjZsmTA?g_st=ipc","address":"Ilia Iliou 6, Μενεκράτους 39, Αθήνα 116 36","categoryIds":["asian"],"categories":["Asian Restaurants"],"distanceKm":0.4551492968469627},{"id":"italianRestaurants_f25cb6c501bb","slug":"la-nonna-f25c","kind":"restaurant","name":"la nonna","lat":37.966397023107625,"lng":23.734629464112153,"url":"https://maps.app.goo.gl/JWJwotwbGCaC9dvV6?g_st=ipc","address":"Αναπαύσεως 11, Αθήνα 116 36","categoryIds":["italian"],"categories":["Italian Restaurants"],"distanceKm":0.4693649190895162},{"id":"dessertsRestaurants_e6bd44c1950f","slug":"asterisque-the-bakery-e6bd","kind":"restaurant","name":"Asterisque The Bakery","lat":37.966001002034226,"lng":23.735518320337178,"url":"https://maps.app.goo.gl/rDURttsufbmP6fEE6?g_st=ipc","address":"Χαρβούρη 2, Αθήνα 116 36","categoryIds":["desserts"],"categories":["Dessert Shops"],"distanceKm":0.47150355607417227},{"id":"coffeeBrunchRestaurants_b61f62d1d8af","slug":"coffee-joint-b61f","kind":"restaurant","name":"Coffee Joint","lat":37.9668407337925,"lng":23.731062695575126,"url":"https://maps.app.goo.gl/LK48eZA7q9nxiZiR6?g_st=ipc","address":"Βούρβαχη 5-9, Αθήνα 117 43","categoryIds":["coffee-brunch"],"categories":["Coffee & Brunch Spots"],"distanceKm":0.48636998824091293},{"id":"greekRestaurants_32eb2400b721","slug":"olympion-32eb","kind":"restaurant","name":"Ολύμπιον","lat":37.96661871653892,"lng":23.73449829017252,"url":"https://maps.app.goo.gl/ibRHUhwHzNffs1sC8","address":"Αναπαύσεως 9, Αθήνα 116 36","categoryIds":["greek-restaurants"],"categories":["Greek Restaurants"],"distanceKm":0.4871597613132845},{"id":"coffeeBrunchRestaurants_ce537fc177ce","slug":"fika-coffee-croissant-ce53","kind":"restaurant","name":"Fika coffee & croissant","lat":37.96693585116076,"lng":23.730676001624726,"url":"https://maps.app.goo.gl/aGhcjD61LQ7BLCn98?g_st=ipc","address":"Βούρβαχη 6, Αθήνα 117 43","categoryIds":["coffee-brunch"],"categories":["Coffee & Brunch Spots"],"distanceKm":0.5053632104449102},{"id":"rooftopLoungesRestaurants_208f904925e8","slug":"stork-rooftop-bar-restaurant-208f","kind":"restaurant","name":"stork rooftop bar restaurant","lat":37.967099364958976,"lng":23.7303307646006,"url":"https://maps.app.goo.gl/AF5AEBzt63j5tves7?g_st=ipc","address":"Λεωφόρος Συγγρού 21, Βούρβαχη 2, Αθήνα 117 43","categoryIds":["rooftop-lounges"],"categories":["Rooftop Lounges"],"distanceKm":0.5320155142845266},{"id":"rooftopLoungesRestaurants_0166d74152d9","slug":"180-west-rooftop-lounge-restaurant-0166","kind":"restaurant","name":"180º West Rooftop Lounge Restaurant","lat":37.965774750504295,"lng":23.727676619784248,"url":"https://maps.app.goo.gl/B2UsgvhxQkuJx2dU7?g_st=ipc","address":"Φαλήρου 37-39, Αθήνα 117 42","categoryIds":["rooftop-lounges"],"categories":["Rooftop Lounges"],"distanceKm":0.5410188654224376},{"id":"vegetarianRestaurants_0ae45380f9c5","slug":"veganaki-0ae4","kind":"restaurant","name":"Veganaki","lat":37.96756765452738,"lng":23.732928786701812,"url":"https://maps.app.goo.gl/t4BDCPnwuYDPfBZS9?g_st=ipc","address":"Αθανασίου Διάκου 38 (38, Αθήνα 117 43","categoryIds":["vegetarian"],"categories":["Vegetarian Friendly Restaurants"],"distanceKm":0.5566821367969891},{"id":"coffeeBrunchRestaurants_a5c0f29b5820","slug":"tempo-social-club-a5c0","kind":"restaurant","name":"Tempo Social Club","lat":37.96527397578301,"lng":23.726786075207272,"url":"https://maps.app.goo.gl/uU1H3HFYf7VVqpjy9?g_st=ipc","address":"Φαλήρου 49, Αθήνα 117 42","categoryIds":["coffee-brunch"],"categories":["Coffee & Brunch Spots"],"distanceKm":0.5710856345356077},{"id":"coffeeBrunchRestaurants_85c9b3242244","slug":"this-is-loco-85c9","kind":"restaurant","name":"This is Loco","lat":37.96542578565319,"lng":23.726906270555997,"url":"https://maps.app.goo.gl/DKCmfLqp6KdRCVPg6?g_st=ipc","address":"Φαλήρου 47, Αθήνα 117 42","categoryIds":["coffee-brunch","vegetarian"],"categories":["Coffee & Brunch Spots","Vegetarian Friendly Restaurants"],"legacySlugs":["this-is-loco-0b77"],"distanceKm":0.5713005146792646},{"id":"luxuryDiningRestaurants_08d018b1cd7a","slug":"manimani-08d0","kind":"restaurant","name":"ΜΑΝΗΜΑΝΗ","lat":37.96669521915854,"lng":23.72836820432756,"url":"https://maps.app.goo.gl/XJabCFiZNQjmGZzb7?g_st=ipc","address":"Φαλήρου 10, Αθήνα 117 42","categoryIds":["luxury-dining"],"categories":["Luxury Dining"],"distanceKm":0.5744385238158869},{"id":"coffeeBrunchRestaurants_da9d2fc56763","slug":"acai-verao-athens-da9d","kind":"restaurant","name":"Açaí Verão Athens","lat":37.966845247384065,"lng":23.728622894774116,"url":"https://maps.app.goo.gl/zSWkUCcCMEwv3K5Y7?g_st=ipc","address":"Φαλήρου 6, Αθήνα 117 42","categoryIds":["coffee-brunch"],"categories":["Coffee & Brunch Spots"],"distanceKm":0.5748770199593675}],"mentionedGuides":[],"canonicalSlug":"lostre-koyzina-b3da","enrichment":{"summary_en":"Λοστρέ κουζίνα is a curated restaurant in Αθήνα 117 43 in the Greek Restaurants collection. It is connected to 71 nearby Googlementor picks to help travelers build a stronger local route.","summary_el":"Λοστρέ κουζίνα είναι ένα επιλεγμένο σημείο φαγητού στην περιοχή Αθήνα 117 43 και ανήκει στη συλλογή Greek Restaurants. Συνδέεται με 71 κοντινές προτάσεις του Googlementor για πιο ολοκληρωμένη εμπειρία.","vibe_tags":["curated"],"best_for":["first-time visitors","food lovers"],"visit_moments":["lunch stop","dinner stop"],"practical_note":"Address and direct map link are available for easy turn-by-turn access.","nearby_walkable_count":71,"nearby_count_2km":520,"confidence":0.98},"areaContext":{"slug":"koykaki","name":"Koukaki","nameEl":"Κουκάκι"},"intentContexts":[{"href":"/greek-restaurants/koykaki","label":"Greek Restaurants in Koukaki","categorySlug":"greek-restaurants","categoryName":"Greek Restaurants","areaSlug":"koykaki","areaName":"Koukaki","areaNameEl":"Κουκάκι"}]},"__N_SSG":true}