{"pageProps":{"entity":{"id":"familyFriendly_49ab59220094","slug":"love-sports-club-49ab","kind":"restaurant","name":"Love Sports Club","lat":40.576783631024576,"lng":22.994808120184832,"url":"https://maps.app.goo.gl/BJcVtK4p1mr7qG5B7?g_st=ipc","address":"Unnamed Road, Pilea Chortiatis 555 35","categoryIds":["family-friendly"],"categories":["Kid Friendly Locations"]},"sameCategory":[{"id":"familyFriendly_5fc832b90305","slug":"partyland-pylaia-playground-restaurant-events-5fc8","kind":"restaurant","name":"PARTYLAND ΠΥΛΑΙΑ | PLAYGROUND | RESTAURANT | EVENTS","lat":40.57242727995374,"lng":22.992912588988382,"url":"https://maps.app.goo.gl/hq2iSCHB7jfquAbeA?g_st=ic","address":"St.Kazantzidi 49, Pilea 555 36","categoryIds":["family-friendly"],"categories":["Kid Friendly Locations"]},{"id":"familyFriendly_507eebfc1228","slug":"happy-play-507e","kind":"restaurant","name":"Happy Play","lat":40.58463538696909,"lng":22.98516339267734,"url":"https://maps.app.goo.gl/KdBGSDP4JgtkbeQQ7?g_st=ipc","address":"Ioanninon Rd 9-11, Pilea 555 35","categoryIds":["family-friendly"],"categories":["Kid Friendly Locations"]},{"id":"familyFriendly_b51fd1ec3681","slug":"noesis-science-center-technology-museum-b51f","kind":"restaurant","name":"NOESIS Science Center & Technology Museum","lat":40.562055011158115,"lng":22.995596178260882,"url":"https://maps.app.goo.gl/r83VD4fLTaPtYU7R6?g_st=ipc","address":"Θεσσαλονίκης 6 χλμ, Thermi 570 01","categoryIds":["family-friendly"],"categories":["Kid Friendly Locations"]},{"id":"familyFriendly_27bf58d1aae3","slug":"mediterranean-cosmos-27bf","kind":"restaurant","name":"Mediterranean Cosmos","lat":40.555729354394046,"lng":22.993377329551482,"url":"https://maps.app.goo.gl/hyNCGfBFcBtGJn7q9?g_st=ipc","address":"11ο χλμ εθνικής οδού, A/D Thessalonikis Neon Moudanion, Thessaloniki 570 01","categoryIds":["family-friendly"],"categories":["Kid Friendly Locations"]},{"id":"coffeeBrunchRestaurants_3849ba172973","slug":"ergon-agora-east-3849","kind":"restaurant","name":"ERGON Agora (East)","lat":40.55876847950934,"lng":22.976949760424034,"url":"https://maps.app.goo.gl/um7bZpan68i3iqsx7?g_st=ipc","address":"Leof. Georgikis Scholis 50, Pilea Chortiatis 555 35","categoryIds":["coffee-brunch","family-friendly"],"categories":["Coffee & Brunch Spots","Kid Friendly Locations"],"legacySlugs":["ergon-agora-east-02cb"]},{"id":"familyFriendly_15181c21c13f","slug":"magic-park-1518","kind":"restaurant","name":"Magic Park","lat":40.554442078448254,"lng":22.989769059470625,"url":"https://maps.app.goo.gl/b73PDCUhFyJQjo748?g_st=ipc","address":"Agias Anastasias 15, Thessaloniki 555 35","categoryIds":["family-friendly"],"categories":["Kid Friendly Locations"]},{"id":"familyFriendly_5db5a10042ec","slug":"les-raquettes-tennis-club-5db5","kind":"restaurant","name":"Les Raquettes Tennis Club","lat":40.55611851243244,"lng":23.00759531084474,"url":"https://maps.app.goo.gl/Uz7ZprsZow6RFsYs7?g_st=ipc","address":"Σοφοκλέους, Thermi 570 01","categoryIds":["family-friendly"],"categories":["Kid Friendly Locations"]},{"id":"familyFriendly_e11e3c30b5f9","slug":"trees-trees-e11e","kind":"restaurant","name":"Trees Trees","lat":40.60274841786202,"lng":23.00941473830645,"url":"https://maps.app.goo.gl/NStAQS6bJYjXPSMi8?g_st=ipc","address":"Ανατολής, Elaionon και, Pilea 555 35","categoryIds":["family-friendly"],"categories":["Kid Friendly Locations"]},{"id":"familyFriendly_b986941160fd","slug":"elaiorema-b986","kind":"restaurant","name":"Elaiorema","lat":40.60429462558645,"lng":22.984614393067023,"url":"https://maps.app.goo.gl/2QyvxSuh6SKLNY7X8?g_st=ic","address":"Pylaia 555 35","categoryIds":["family-friendly"],"categories":["Kid Friendly Locations"]},{"id":"familyFriendly_be918ccf9323","slug":"adventure-paintball-be91","kind":"restaurant","name":"Adventure Paintball","lat":40.54700993224624,"lng":22.99671406411148,"url":"https://maps.app.goo.gl/7H5QaUvgacWdSVGR6?g_st=ic","address":"A/D Thessalonikis Neon Moudanion, Thermi 570 01","categoryIds":["family-friendly"],"categories":["Kid Friendly Locations"]},{"id":"familyFriendly_42d11ef19ff8","slug":"cloud-22-family-room-42d1","kind":"restaurant","name":"Cloud 22 Family Room","lat":40.54922868058373,"lng":23.01923766208044,"url":"https://maps.app.goo.gl/Pz6v5LnzAbK4gQGx6?g_st=ic","address":"Tavaki 17, Thermi 570 01","categoryIds":["family-friendly"],"categories":["Kid Friendly Locations"]},{"id":"familyFriendly_9a0302902146","slug":"perivallontiko-parko-thermis-9a03","kind":"restaurant","name":"Περιβαλλοντικό Πάρκο Θέρμης","lat":40.56073866312424,"lng":23.034167329764607,"url":"https://maps.app.goo.gl/RnpfKj2r4pesLq5V8?g_st=ipc","address":"Περιβαλλοντικό Πάρκο, Thermi 570 01","categoryIds":["family-friendly"],"categories":["Kid Friendly Locations"]}],"nearby":[{"id":"burgersRestaurants_54aa085a6ef8","slug":"sinners-smash-burgers-54aa","kind":"restaurant","name":"Sinners Smash Burgers","lat":40.57608642412674,"lng":22.98935981589618,"url":"https://maps.app.goo.gl/Y2NDJtMWMoJrutpZ6?g_st=ipc","address":"Στέλιου Καζαντζίδη 31, Pilea 555 35","categoryIds":["burgers","cheap-eats"],"categories":["Burger Spots","Gyros & Cheap Eats"],"legacySlugs":["sinners-smash-burgers-e79f"],"distanceKm":0.46663184727618773},{"id":"familyFriendly_5fc832b90305","slug":"partyland-pylaia-playground-restaurant-events-5fc8","kind":"restaurant","name":"PARTYLAND ΠΥΛΑΙΑ | PLAYGROUND | RESTAURANT | EVENTS","lat":40.57242727995374,"lng":22.992912588988382,"url":"https://maps.app.goo.gl/hq2iSCHB7jfquAbeA?g_st=ic","address":"St.Kazantzidi 49, Pilea 555 36","categoryIds":["family-friendly"],"categories":["Kid Friendly Locations"],"distanceKm":0.5101742662767225},{"id":"familyFriendly_507eebfc1228","slug":"happy-play-507e","kind":"restaurant","name":"Happy Play","lat":40.58463538696909,"lng":22.98516339267734,"url":"https://maps.app.goo.gl/KdBGSDP4JgtkbeQQ7?g_st=ipc","address":"Ioanninon Rd 9-11, Pilea 555 35","categoryIds":["family-friendly"],"categories":["Kid Friendly Locations"],"distanceKm":1.1940224595709366},{"id":"burgersRestaurants_c2797cbf1cc8","slug":"jacaranda-c279","kind":"restaurant","name":"Jacaranda","lat":40.583007556132294,"lng":22.982557958626895,"url":"https://maps.app.goo.gl/1GxBYUFXBeTUU8iq6?g_st=ipc","address":"Στέλιου Καζαντζίδη 24, Pilea 555 35","categoryIds":["burgers","cheap-eats"],"categories":["Burger Spots","Gyros & Cheap Eats"],"legacySlugs":["jacaranda-05fa"],"distanceKm":1.2446956033385252},{"id":"familyFriendly_b51fd1ec3681","slug":"noesis-science-center-technology-museum-b51f","kind":"restaurant","name":"NOESIS Science Center & Technology Museum","lat":40.562055011158115,"lng":22.995596178260882,"url":"https://maps.app.goo.gl/r83VD4fLTaPtYU7R6?g_st=ipc","address":"Θεσσαλονίκης 6 χλμ, Thermi 570 01","categoryIds":["family-friendly"],"categories":["Kid Friendly Locations"],"distanceKm":1.6390999442966412},{"id":"italianRestaurants_2c8b66244f29","slug":"tonino-esperienza-italiana-2c8b","kind":"restaurant","name":"Tonino Esperienza Italiana","lat":40.56132998598623,"lng":23.004796368106923,"url":"https://maps.app.goo.gl/bZQiMSEwbhVFBxUd8?g_st=ipc","address":"Χαρ. Θέρμης, Thermi 570 01","categoryIds":["italian"],"categories":["Italian Restaurants"],"distanceKm":1.9143047296527012},{"id":"luxuryDiningRestaurants_bbb8974858e3","slug":"duck-bbb8","kind":"restaurant","name":"Duck","lat":40.56052899575869,"lng":22.986792720078764,"url":"https://maps.app.goo.gl/5gpSyYcYprQvjjq88?g_st=ipc","address":"Chalkis 3, Pilea Chortiatis 570 01","categoryIds":["luxury-dining"],"categories":["Luxury Dining"],"distanceKm":1.9300749794437655},{"id":"greekRestaurants_d6840627570a","slug":"lykos-chasapotaverna-d684","kind":"restaurant","name":"Lykos - Χασαποταβέρνα","lat":40.56114058445929,"lng":23.005199497641122,"url":"https://maps.app.goo.gl/H2wjVi3P1kdSmFTX8?g_st=ipc","address":"Χαρ. Θέρμης, Thessaloniki 570 01","categoryIds":["greek-restaurants"],"categories":["Greek Restaurants"],"distanceKm":1.948333215819027},{"id":"burgersRestaurants_8f11f76e2e42","slug":"maverick-handmade-street-food-8f11","kind":"restaurant","name":"MAVERICK Handmade Street Food","lat":40.5733294711661,"lng":22.971759802516267,"url":"https://maps.app.goo.gl/Bc8D8iLK2oBQoFcm8?g_st=ipc","address":"Eth. Antistaseos 179, Kalamaria 551 34","categoryIds":["burgers","cheap-eats"],"categories":["Burger Spots","Gyros & Cheap Eats"],"legacySlugs":["maverick-handmade-street-food-77c2"],"distanceKm":1.9841586282616561},{"id":"dessertsRestaurants_8fbacc0c06a7","slug":"terkenlis-8fba","kind":"restaurant","name":"Terkenlis","lat":40.55633315795377,"lng":22.993299667914595,"url":"https://maps.app.goo.gl/jz8nuACpM2Fnauw9A?g_st=ipc","address":"11ο χλμ, ΘΕΣΣΑΛΟΝΙΚΗΣ-ΜΟΥΔΑΝΙΩΝ, 555 35","categoryIds":["desserts"],"categories":["Dessert Shops"],"distanceKm":2.2775558480045444},{"id":"dessertsRestaurants_f4e918b1bdf0","slug":"cinnabon-f4e9","kind":"restaurant","name":"Cinnabon","lat":40.55623010232396,"lng":22.993413011236047,"url":"https://maps.app.goo.gl/NCWBKtbPRQENGDWW7?g_st=ipc","address":"11ο Χμ, A/D Thessalonikis Neon Moudanion, 570 01","categoryIds":["desserts"],"categories":["Dessert Shops"],"distanceKm":2.2884842810091057},{"id":"familyFriendly_27bf58d1aae3","slug":"mediterranean-cosmos-27bf","kind":"restaurant","name":"Mediterranean Cosmos","lat":40.555729354394046,"lng":22.993377329551482,"url":"https://maps.app.goo.gl/hyNCGfBFcBtGJn7q9?g_st=ipc","address":"11ο χλμ εθνικής οδού, A/D Thessalonikis Neon Moudanion, Thessaloniki 570 01","categoryIds":["family-friendly"],"categories":["Kid Friendly Locations"],"distanceKm":2.34424627023315},{"id":"greekRestaurants_e2775941e27f","slug":"lemargko-lemargo-e277","kind":"restaurant","name":"ΛΕΜΑΡΓΚΟ - LEMARGO","lat":40.55568833913434,"lng":22.99200579097481,"url":"https://maps.app.goo.gl/WVMwFqWKDdGPyWjd6?g_st=ipc","address":"11οχλμ. οδού, Thessaloniki, ΘΕΣΣΑΛΟΝΙΚΗΣ-ΜΟΥΔΑΝΙΩΝ, Θέρμη 570 01","categoryIds":["greek-restaurants"],"categories":["Greek Restaurants"],"distanceKm":2.3576029156213134},{"id":"cheapEatsRestaurants_5fc75ada9dd1","slug":"hot-pot-pasteria-5fc7","kind":"restaurant","name":"Hot Pot Pasteria","lat":40.555245602641975,"lng":22.992913714606928,"url":"https://maps.app.goo.gl/ZucBkKNWduhhUbyv9?g_st=ipc","address":"Mediterranean Cosmos, Thessaloniki","categoryIds":["cheap-eats"],"categories":["Gyros & Cheap Eats"],"distanceKm":2.4002595484403955},{"id":"coffeeBrunchRestaurants_cae5ad9a4492","slug":"join-juice-bars-cae5","kind":"restaurant","name":"JOIN juice bars","lat":40.555069982077164,"lng":22.99254169325442,"url":"https://maps.app.goo.gl/VvKcZzDAukezDVie8?g_st=ipc","address":"11ο χλμ εθνικής οδού, A/D Thessalonikis Neon Moudanion, Thessaloniki 570 01","categoryIds":["coffee-brunch","vegetarian"],"categories":["Coffee & Brunch Spots","Vegetarian Friendly Restaurants"],"legacySlugs":["join-juice-bars-7a1d"],"distanceKm":2.4220257138274257},{"id":"burgersRestaurants_bb792caf2487","slug":"pax-burgers-bb79","kind":"restaurant","name":"Pax Burgers","lat":40.55495597120905,"lng":22.992844598481618,"url":"https://maps.app.goo.gl/TuduB4i2geBy2cb58?g_st=ipc","address":"ΘΕΣΣΑΛΟΝΙΚΗΣ-ΜΟΥΔΑΝΙΩΝ, Thermi 570 01","categoryIds":["burgers"],"categories":["Burger Spots"],"distanceKm":2.432785472745039},{"id":"burgersRestaurants_d5586ce24d0b","slug":"osten-d558","kind":"restaurant","name":"OSTEN","lat":40.55792173583846,"lng":23.01007604885629,"url":"https://maps.app.goo.gl/JrNCtkPthNJns9L16?g_st=ipc","address":"4χλμ, Χαρ. Θέρμης, Thessaloniki 570 01","categoryIds":["burgers","desserts"],"categories":["Burger Spots","Dessert Shops"],"legacySlugs":["osten-07fc"],"distanceKm":2.4621288698855133},{"id":"fishTavernasRestaurants_3eebfb65840d","slug":"glykanisos-3eeb","kind":"restaurant","name":"Glykanisos","lat":40.59789425560311,"lng":22.984970079796003,"url":"https://maps.app.goo.gl/uuxCBL4zdiCK3Cui9?g_st=ipc","address":"Meg. Alexandrou 46, Pilea 555 35","categoryIds":["fish-tavernas"],"categories":["Fish Tavernas"],"distanceKm":2.4900629635559093},{"id":"coffeeBrunchRestaurants_3849ba172973","slug":"ergon-agora-east-3849","kind":"restaurant","name":"ERGON Agora (East)","lat":40.55876847950934,"lng":22.976949760424034,"url":"https://maps.app.goo.gl/um7bZpan68i3iqsx7?g_st=ipc","address":"Leof. Georgikis Scholis 50, Pilea Chortiatis 555 35","categoryIds":["coffee-brunch","family-friendly"],"categories":["Coffee & Brunch Spots","Kid Friendly Locations"],"legacySlugs":["ergon-agora-east-02cb"],"distanceKm":2.5076332715601453},{"id":"familyFriendly_15181c21c13f","slug":"magic-park-1518","kind":"restaurant","name":"Magic Park","lat":40.554442078448254,"lng":22.989769059470625,"url":"https://maps.app.goo.gl/b73PDCUhFyJQjo748?g_st=ipc","address":"Agias Anastasias 15, Thessaloniki 555 35","categoryIds":["family-friendly"],"categories":["Kid Friendly Locations"],"distanceKm":2.520468955067398},{"id":"familyFriendly_5db5a10042ec","slug":"les-raquettes-tennis-club-5db5","kind":"restaurant","name":"Les Raquettes Tennis Club","lat":40.55611851243244,"lng":23.00759531084474,"url":"https://maps.app.goo.gl/Uz7ZprsZow6RFsYs7?g_st=ipc","address":"Σοφοκλέους, Thermi 570 01","categoryIds":["family-friendly"],"categories":["Kid Friendly Locations"],"distanceKm":2.5390586177063748},{"id":"dessertsRestaurants_4314e81fb349","slug":"boutique-baking-pepi-beza-4314","kind":"restaurant","name":"Boutique Baking Pepi Beza","lat":40.59730321322995,"lng":22.979587033632086,"url":"https://maps.app.goo.gl/daRMg1RfmVJcgATKA?g_st=ipc","address":"Meg. Alexandrou 3, Pilea 555 35","categoryIds":["desserts"],"categories":["Dessert Shops"],"distanceKm":2.6187945661272325},{"id":"dessertsRestaurants_cc58df47a36e","slug":"nick-alexoudas-cc58","kind":"restaurant","name":"NICK ALEXOUDAS","lat":40.60097575143556,"lng":22.988160776463623,"url":"https://maps.app.goo.gl/svQRP7nS7UargNrc9?g_st=ipc","address":"Profitou Ilia 77, Pilea 555 35","categoryIds":["desserts"],"categories":["Dessert Shops"],"distanceKm":2.7479790976672893},{"id":"burgersRestaurants_21be773739d0","slug":"brothers-in-law-smash-n-pasta-thermi-21be","kind":"restaurant","name":"Brothers in Law Smash 'n' Pasta Thermi","lat":40.5561230976469,"lng":23.012690012150046,"url":"https://maps.app.goo.gl/tDetHtpfpgzNvuNC7?g_st=ipc","address":"5 χλμ, Χαρ. Θέρμης 1ο χλμ, Thermi 570 01","categoryIds":["burgers","italian"],"categories":["Burger Spots","Italian Restaurants"],"legacySlugs":["brothers-in-law-smash-n-pasta-thermi-6cb6"],"distanceKm":2.7494240129552003}],"mentionedGuides":[],"canonicalSlug":"love-sports-club-49ab","enrichment":{"summary_en":"Love Sports Club is a curated restaurant in Pilea Chortiatis 555 35 in the Kid Friendly Locations collection. It is connected to 2 nearby Googlementor picks to help travelers build a stronger local route.","summary_el":"Love Sports Club είναι ένα επιλεγμένο σημείο φαγητού στην περιοχή Pilea Chortiatis 555 35 και ανήκει στη συλλογή Kid Friendly Locations. Συνδέεται με 2 κοντινές προτάσεις του Googlementor για πιο ολοκληρωμένη εμπειρία.","vibe_tags":["curated","family-ready"],"best_for":["first-time visitors","food lovers","families"],"visit_moments":["lunch stop","dinner stop"],"practical_note":"Address and direct map link are available for easy turn-by-turn access.","nearby_walkable_count":2,"nearby_count_2km":10,"confidence":0.9},"areaContext":{"slug":"aggelochori","name":"Angelochori","nameEl":"Αγγελοχώρι"},"intentContexts":[{"href":"/family-friendly/aggelochori","label":"Kid Friendly Locations in Angelochori","categorySlug":"family-friendly","categoryName":"Kid Friendly Locations","areaSlug":"aggelochori","areaName":"Angelochori","areaNameEl":"Αγγελοχώρι"}]},"__N_SSG":true}