{"pageProps":{"entity":{"id":"italianRestaurants_26670e11b304","slug":"mercato-2667","kind":"restaurant","name":"Mercato","lat":37.804876583131545,"lng":23.768732488679262,"url":"https://maps.app.goo.gl/WygPaRiVJpzqrZBi8","address":"Apollonos 40, Vouliagmeni 166 71","categoryIds":["italian","luxury-dining"],"categories":["Italian Restaurants","Luxury Dining"],"legacySlugs":["mercato-ae1b"]},"sameCategory":[{"id":"italianRestaurants_1195b260712d","slug":"napul-e-italian-comfort-food-wine-1195","kind":"restaurant","name":"Napul'è Italian Comfort Food & Wine","lat":37.8271502092117,"lng":23.80408943661563,"url":"https://maps.app.goo.gl/7yzTG7SodJm8Ubug6?g_st=ipc","address":"Βασ. Κωνσταντίνου 43, Βάρη 166 72","categoryIds":["italian"],"categories":["Italian Restaurants"]},{"id":"italianRestaurants_19fa39b4b310","slug":"cicchetti-prosciutteria-spritzeria-19fa","kind":"restaurant","name":"Cicchetti Prosciutteria & Spritzeria","lat":37.859684523196464,"lng":23.75386502955931,"url":"https://maps.app.goo.gl/3jMcfyGkfYbxGbps9","address":"Fivis 11, Glifada 166 74","categoryIds":["italian"],"categories":["Italian Restaurants"]},{"id":"italianRestaurants_c1362c021208","slug":"itali-co-c136","kind":"restaurant","name":"ITALI.CO","lat":37.86253909414944,"lng":23.747999477664532,"url":"https://maps.app.goo.gl/pCnDdDLDMjkN2CGv6?g_st=ipc","address":"Ανδρέα Παπανδρέου 3, Γλυφάδα 166 75","categoryIds":["italian"],"categories":["Italian Restaurants"]},{"id":"italianRestaurants_dd5b148ca8d7","slug":"peccati-di-gola-dd5b","kind":"restaurant","name":"Peccati Di Gola","lat":37.86427445144013,"lng":23.751331713919253,"url":"https://maps.app.goo.gl/o1MzXXTU18xSPfb69?g_st=ipc","address":"Κύπρου 50, Γλυφάδα 166 75","categoryIds":["italian"],"categories":["Italian Restaurants"]},{"id":"familyFriendly_bba3af84c3c6","slug":"bella-vespa-bba3","kind":"restaurant","name":"Bella Vespa","lat":37.86706675735918,"lng":23.747387332761612,"url":"https://maps.app.goo.gl/dpip4AngfBL8xv2M8?g_st=ipc","address":"Κύπρου 11, Γλυφάδα 166 75","categoryIds":["family-friendly","italian"],"categories":["Kid Friendly Locations","Italian Restaurants"],"legacySlugs":["bella-vespa-976a"]},{"id":"italianRestaurants_18486d8f87b6","slug":"mamy-blue-pizza-napoletana-glyfada-1848","kind":"restaurant","name":"Mamy Blue - Pizza Napoletana Glyfada","lat":37.8796152626329,"lng":23.758507788324675,"url":"https://maps.app.goo.gl/Viv8JcHoZX8wKXaV9?g_st=ipc","address":"Ανδρέα Παπανδρέου 126, Γλυφάδα 165 61","categoryIds":["italian"],"categories":["Italian Restaurants"]},{"id":"italianRestaurants_73a45e6520a2","slug":"caton-l-anziano-73a4","kind":"restaurant","name":"Caton L'anziano","lat":37.90721241896495,"lng":23.748209011580894,"url":"https://maps.app.goo.gl/myFgmXovKb5x7zc9A?g_st=ipc","address":"Δωδεκανήσου 1, Αργυρούπολη 164 52","categoryIds":["italian"],"categories":["Italian Restaurants"]},{"id":"italianRestaurants_e0eab8c43067","slug":"il-tinello-athens-e0ea","kind":"restaurant","name":"Il Tinello Athens","lat":37.9164984895058,"lng":23.723486074483993,"url":"https://maps.app.goo.gl/BQxFwm6nKx3uhqa9A?g_st=ipc","address":"Κνωσού 54, Άλιμος 174 55","categoryIds":["italian"],"categories":["Italian Restaurants"]},{"id":"italianRestaurants_55bf8f0c114f","slug":"the-eatalians-mario-luigi-55bf","kind":"restaurant","name":"The Eatalians - Mario & Luigi","lat":37.92539688479538,"lng":23.751855920363795,"url":"https://maps.app.goo.gl/hmtXEzz7XFvKtEnG6?g_st=ipc","address":"Λεωφ. Ελ. Βενιζέλου 190, Ηλιούπολη 163 41","categoryIds":["italian"],"categories":["Italian Restaurants"]},{"id":"italianRestaurants_e396fe74ff9a","slug":"le-pizze-di-san-gennaro-e396","kind":"restaurant","name":"LE PIZZE DI SAN GENNARO","lat":37.93395718694605,"lng":23.71495698828565,"url":"https://maps.app.goo.gl/BW3pXFd1SVKpBcai6?g_st=ipc","address":"Ευξείνου Πόντου 172, Νέα Σμύρνη 171 23","categoryIds":["italian"],"categories":["Italian Restaurants"]},{"id":"italianRestaurants_c97c0ccdbf8c","slug":"o-italos-c97c","kind":"restaurant","name":"Ο Ιταλός","lat":37.926673536986776,"lng":23.69220389211545,"url":"https://maps.app.goo.gl/up3EpvmXnu7L2VC67?g_st=ipc","address":"Αλκυόνης 16, Παλαιό Φάληρο 175 61","categoryIds":["italian"],"categories":["Italian Restaurants"]},{"id":"italianRestaurants_4319df2d5e15","slug":"da-bruno-4319","kind":"restaurant","name":"da Bruno","lat":37.92917795499007,"lng":23.694489698206436,"url":"https://maps.app.goo.gl/1dA2z4yKDCdZQUGbA","address":"Agiou Alexandrou 46, Paleo Faliro 175 61","categoryIds":["italian"],"categories":["Italian Restaurants"]}],"nearby":[{"id":"luxuryDiningRestaurants_574534b0d822","slug":"beefbar-athens-5745","kind":"restaurant","name":"Beefbar Athens","lat":37.80501795981881,"lng":23.770115727453245,"url":"https://maps.app.goo.gl/xvud7RHhQEFXiChq5?g_st=ipc","address":"Athens Αστήρ Πάλας, Βουλιαγμένη 166 71","categoryIds":["luxury-dining"],"categories":["Luxury Dining"],"distanceKm":0.12253748689402097},{"id":"luxuryDiningRestaurants_5ce4a2badf9b","slug":"pelagos-5ce4","kind":"restaurant","name":"Pelagos","lat":37.805275140067316,"lng":23.77164308843121,"url":"https://maps.app.goo.gl/QTPENP7kfSJRAMQTA?g_st=ipc","address":"Απόλλωνος 40, Βουλιαγμένη 166 71","categoryIds":["luxury-dining"],"categories":["Luxury Dining"],"distanceKm":0.2595232332472314},{"id":"luxuryDiningRestaurants_6dc5534d9406","slug":"taverna-37-6dc5","kind":"restaurant","name":"Taverna 37","lat":37.80595380281949,"lng":23.772585533663307,"url":"https://maps.app.goo.gl/xaizfkEuwTxWbciw7?g_st=ipc","address":"Απόλλωνος 40, Βουλιαγμένη 166 71","categoryIds":["luxury-dining"],"categories":["Luxury Dining"],"distanceKm":0.3590759577144724},{"id":"fishTavernasRestaurants_a752a7fe8192","slug":"matsuhisa-athens-a752","kind":"restaurant","name":"Matsuhisa Athens","lat":37.806991167366505,"lng":23.7721702530857,"url":"https://maps.app.goo.gl/kX1Hohg5k4FcqjgeA?g_st=ipc","address":"40, Απόλλωνος street, Βουλιαγμένη 166 71","categoryIds":["fish-tavernas","luxury-dining"],"categories":["Fish Tavernas","Luxury Dining"],"legacySlugs":["matsuhisa-athens-c10d"],"distanceKm":0.38275822222545136},{"id":"coffeeBrunchRestaurants_8b66a0a4f338","slug":"moorings-8b66","kind":"restaurant","name":"Moorings","lat":37.80205351483022,"lng":23.772631066760855,"url":"https://maps.app.goo.gl/YdREkVBev1UQTkqh6?g_st=ipc","address":"Μαρινα Βουλιαγμενης, Βουλιαγμένη 166 71","categoryIds":["coffee-brunch","luxury-dining"],"categories":["Coffee & Brunch Spots","Luxury Dining"],"legacySlugs":["moorings-e85b"],"distanceKm":0.4646057179692302},{"id":"luxuryDiningRestaurants_cf5e588a6dce","slug":"estiatorio-ithaki-cf5e","kind":"restaurant","name":"Εστιατόριο Ιθάκη","lat":37.811063360560766,"lng":23.773264732265726,"url":"https://maps.app.goo.gl/bgcHWrkEN1tinWgK8?g_st=ipc","address":"Apollonos, Αθήνας 28, Βουλιαγμένη 166 71","categoryIds":["luxury-dining"],"categories":["Luxury Dining"],"distanceKm":0.7948552281340627},{"id":"fishTavernasRestaurants_f4426065c5a4","slug":"sardelaki-me-thea-f442","kind":"restaurant","name":"Σαρδελάκι με θέα","lat":37.80897457022261,"lng":23.782330412997638,"url":"https://maps.app.goo.gl/6zBxpoBupuA67wwt8?g_st=ipc","address":"Λεωφ. Ποσειδώνος 18, Βουλιαγμένη 166 71","categoryIds":["fish-tavernas"],"categories":["Fish Tavernas"],"distanceKm":1.278574578270109},{"id":"luxuryDiningRestaurants_08bbcc5a4dd6","slug":"labros-restaurant-08bb","kind":"restaurant","name":"Labros Restaurant","lat":37.8081975831625,"lng":23.78348018457994,"url":"https://maps.app.goo.gl/H6wg8L7hEhDJU9C38?g_st=ipc","address":"Λεωφ. Ποσειδώνος 20, Βουλιαγμένη 166 71","categoryIds":["luxury-dining"],"categories":["Luxury Dining"],"distanceKm":1.347233884783359},{"id":"luxuryDiningRestaurants_42ea23e17e35","slug":"abraovata-42ea","kind":"restaurant","name":"abraOvata","lat":37.806852023213075,"lng":23.785311811319485,"url":"https://maps.app.goo.gl/XBCeyEooo1BQ3GPW6?g_st=ipc","address":"Εστιατόριο Λίμνης, Αθήνα 166 71","categoryIds":["luxury-dining"],"categories":["Luxury Dining"],"distanceKm":1.4730338495022566},{"id":"coffeeBrunchRestaurants_80a974b8dc70","slug":"estiatorio-limnis-80a9","kind":"restaurant","name":"Εστιατόριο Λίμνης","lat":37.80691600865377,"lng":23.785479129703763,"url":"https://maps.app.goo.gl/mDVVDSh15YWjZRdF9?g_st=ipc","address":"Λίμνη, Βουλιαγμένη 166 71","categoryIds":["coffee-brunch"],"categories":["Coffee & Brunch Spots"],"distanceKm":1.4886373427099857},{"id":"coffeeBrunchRestaurants_0b20fa30dfc5","slug":"sofi-s-eatery-0b20","kind":"restaurant","name":"Sofi’s Eatery","lat":37.81302845785067,"lng":23.782463728500748,"url":"https://maps.app.goo.gl/Pa3TPAmcLCv6SJsw5?g_st=ipc","address":"Αγίου Παντελεήμονος 7, Βουλιαγμένη 166 71","categoryIds":["coffee-brunch"],"categories":["Coffee & Brunch Spots"],"distanceKm":1.5089067860453649},{"id":"mustSeeAttractions_96c6dc77490d","slug":"limni-voyliagmenis-96c6","kind":"restaurant","name":"Λίμνη Βουλιαγμένης","lat":37.80708594211009,"lng":23.78595413697381,"url":"https://maps.app.goo.gl/HJESfC3rnS8i8UYa9?g_st=ipc","address":"Βουλιαγμένη 166 71","categoryIds":["attractions"],"categories":["Must-See Attractions"],"distanceKm":1.5328079608759508},{"id":"cheapEatsRestaurants_cf5c14c0c783","slug":"zachos-gkril-cf5c","kind":"restaurant","name":"Ζάχος Γκριλ","lat":37.81320496162539,"lng":23.782770964184124,"url":"https://maps.app.goo.gl/bEtWEwaW2PfwcEhW9?g_st=ipc","address":"Ερμού 1, Βουλιαγμένη 166 71","categoryIds":["cheap-eats"],"categories":["Gyros & Cheap Eats"],"distanceKm":1.5422736918147288},{"id":"greekRestaurants_cce1cd728bae","slug":"loyizidis-estiatorio-voyliagmeni-cce1","kind":"restaurant","name":"Λουιζίδης Εστιατόριο Βουλιαγμένη","lat":37.813204547074946,"lng":23.78315032705324,"url":"https://maps.app.goo.gl/DrVjHpSB5fMFZXij9","address":"Ερμού 2, Βουλιαγμένη 166 71","categoryIds":["greek-restaurants"],"categories":["Greek Restaurants"],"distanceKm":1.5690243729784603},{"id":"monasteriesChurches_adc6b19412ee","slug":"parekklisi-agioy-georgioy-adc6","kind":"restaurant","name":"Παρεκκλήσι Αγίου Γεωργίου","lat":37.81919273575849,"lng":23.773228906832582,"url":"https://maps.app.goo.gl/WhtDbBx2hvZfm5mb9?g_st=ipc","address":"Βουλιαγμένη 166 71","categoryIds":["monasteries-churches"],"categories":["Monasteries & Spiritual Sites"],"distanceKm":1.6401571268552053},{"id":"coffeeBrunchRestaurants_1e8b13cd507d","slug":"riviera-coast-1e8b","kind":"restaurant","name":"Riviera Coast","lat":37.8360364556755,"lng":23.766880988503196,"url":"https://maps.app.goo.gl/d8HG2cz27hm9ZC3r9?g_st=ipc","address":"Λεωφ. Κωνσταντίνου Καραμανλή 18, Βούλα 166 73","categoryIds":["coffee-brunch"],"categories":["Coffee & Brunch Spots"],"distanceKm":3.468634365852492},{"id":"cheapEatsRestaurants_b59c9010c8a4","slug":"zachos-b59c","kind":"restaurant","name":"Ζάχος","lat":37.821251970598816,"lng":23.80344271241433,"url":"https://maps.app.goo.gl/DsP5tZnJxShfNf3H9?g_st=ipc","address":"Βασ. Κωνσταντίνου 94, Βάρη 166 72","categoryIds":["cheap-eats"],"categories":["Gyros & Cheap Eats"],"distanceKm":3.551451336064746},{"id":"luxuryDiningRestaurants_c1ae11688e19","slug":"drakoulis-dry-raw-butcheries-voula-c1ae","kind":"restaurant","name":"Drakoulis Dry & Raw - Butcheries Voula","lat":37.837831960071576,"lng":23.769665916102717,"url":"https://maps.app.goo.gl/uMQc68wzQ6KRLhmv6?g_st=ipc","address":"Λεωφ. Βασιλέως Παύλου 103, Βούλα 166 73","categoryIds":["luxury-dining"],"categories":["Luxury Dining"],"distanceKm":3.6653878047781423},{"id":"coffeeBrunchRestaurants_264a40023d71","slug":"oven-264a","kind":"restaurant","name":"όβεν","lat":37.83821741108239,"lng":23.7685609654253,"url":"https://maps.app.goo.gl/gmek3DFpsqqbYYR49?g_st=ipc","address":"Λεωφ. Βασιλέως Παύλου 104, Βούλα 166 73","categoryIds":["coffee-brunch"],"categories":["Coffee & Brunch Spots"],"distanceKm":3.7073615304185106},{"id":"coffeeBrunchRestaurants_8123cddfff42","slug":"rey-pablo-8123","kind":"restaurant","name":"Rey Pablo","lat":37.83850094604755,"lng":23.768770335582047,"url":"https://maps.app.goo.gl/x4TKdGZ4P6i8FcrE6?g_st=ipc","address":"91, Λεωφ. Βασιλέως Παύλου 89, Βούλα 166 73","categoryIds":["coffee-brunch"],"categories":["Coffee & Brunch Spots"],"distanceKm":3.7388600457675185},{"id":"vegetarianRestaurants_5e82930d8565","slug":"coconuts-nuts-specialties-5e82","kind":"restaurant","name":"COCONUTS Nuts & Specialties","lat":37.83974545115199,"lng":23.767343337140883,"url":"https://maps.app.goo.gl/C155rgfingteegQn8?g_st=ipc","address":"Λεωφ. Βασιλέως Παύλου 67, Βούλα 166 73","categoryIds":["vegetarian"],"categories":["Vegetarian Friendly Restaurants"],"distanceKm":3.8791606460169583},{"id":"familyFriendly_b360cd975d06","slug":"voula-park-b360","kind":"restaurant","name":"Voula Park","lat":37.839630282199295,"lng":23.762193155062445,"url":"https://maps.app.goo.gl/V4oZWgECkqhJFkK46?g_st=ipc","address":"Nireos, Voula, Athens 166 73","categoryIds":["family-friendly"],"categories":["Kid Friendly Locations"],"distanceKm":3.9068876648057143},{"id":"greekRestaurants_d87acafe326d","slug":"ta-vlachika-d87a","kind":"restaurant","name":"Ta Vlachika","lat":37.834890045838,"lng":23.791941775154488,"url":"https://maps.app.goo.gl/VC2HFhV1wgWoJ7Ev7","address":"Leoforos Evelpidon, Πρεβέζης, Βάρη 166 72","categoryIds":["greek-restaurants"],"categories":["Greek Restaurants"],"distanceKm":3.910748403845129},{"id":"asianRestaurants_5169dc5ccfbd","slug":"koyasan-in-voula-5169","kind":"restaurant","name":"KoYaSan In Voula","lat":37.84038966721299,"lng":23.76668605741755,"url":"https://maps.app.goo.gl/hRUmgmxtpReyJ54h7?g_st=ipc","address":"KoYaSan In Voula","categoryIds":["asian"],"categories":["Asian Restaurants"],"distanceKm":3.952963565856347}],"mentionedGuides":[],"canonicalSlug":"mercato-2667","enrichment":{"summary_en":"Mercato is a curated restaurant in Vouliagmeni 166 71 in the Italian Restaurants collection. It is connected to 6 nearby Googlementor picks to help travelers build a stronger local route.","summary_el":"Mercato είναι ένα επιλεγμένο σημείο φαγητού στην περιοχή Vouliagmeni 166 71 και ανήκει στη συλλογή Italian Restaurants. Συνδέεται με 6 κοντινές προτάσεις του Googlementor για πιο ολοκληρωμένη εμπειρία.","vibe_tags":["curated","premium-dining"],"best_for":["first-time visitors","food lovers","special occasions"],"visit_moments":["lunch stop","dinner stop"],"practical_note":"Address and direct map link are available for easy turn-by-turn access.","nearby_walkable_count":6,"nearby_count_2km":16,"confidence":0.98},"areaContext":{"slug":"voyliagmeni","name":"Vouliagmeni","nameEl":"Βουλιαγμένη"},"intentContexts":[{"href":"/luxury-dining/voyliagmeni","label":"Luxury Dining in Vouliagmeni","categorySlug":"luxury-dining","categoryName":"Luxury Dining","areaSlug":"voyliagmeni","areaName":"Vouliagmeni","areaNameEl":"Βουλιαγμένη"}]},"__N_SSG":true}