{"pageProps":{"entity":{"id":"cheapEatsRestaurants_0da1d84ce28f","slug":"mitsos-0da1","kind":"restaurant","name":"Μητσος","lat":38.120677354658696,"lng":23.859244908556484,"url":"https://maps.app.goo.gl/5G7Zm7z9NT4rMbC6A?g_st=ipc","address":"Λεωφ. Δροσιάς Σταματάς 4, Δροσιά 145 75","categoryIds":["cheap-eats"],"categories":["Gyros & Cheap Eats"]},"sameCategory":[{"id":"cheapEatsRestaurants_296b6ad90f0e","slug":"o-ntellos-296b","kind":"restaurant","name":"Ο ΝΤΕΛΛΟΣ","lat":38.09071592781455,"lng":23.82013374189109,"url":"https://maps.app.goo.gl/uCpkqt4dsAjh6LfU7?g_st=ipc","address":"Ελ. Βενιζέλου 139, Νέα Ερυθραία 146 71","categoryIds":["cheap-eats"],"categories":["Gyros & Cheap Eats"]},{"id":"cheapEatsRestaurants_ec13b3ed8963","slug":"panerythraikos-ec13","kind":"restaurant","name":"Πανερυθραικος","lat":38.09029256559895,"lng":23.818809766039287,"url":"https://maps.app.goo.gl/E91HSqNkPsC6UtWw7?g_st=ipc","address":"Αναξαγόρα 11, Νέα Ερυθραία 146 71","categoryIds":["cheap-eats"],"categories":["Gyros & Cheap Eats"]},{"id":"asianRestaurants_594b8ad5ccca","slug":"streetwok-594b","kind":"restaurant","name":"Streetwok","lat":38.08826144126291,"lng":23.817027905393033,"url":"https://maps.app.goo.gl/3GSewqndnBiBnEL89?g_st=ipc","address":"Χαρ. Τρικούπη 144, Νέα Ερυθραία 146 71","categoryIds":["asian","cheap-eats"],"categories":["Asian Restaurants","Gyros & Cheap Eats"],"legacySlugs":["streetwok-1a58"]},{"id":"cheapEatsRestaurants_f527d097e08b","slug":"mpampis-soyvlatzidiko-f527","kind":"restaurant","name":"Μπάμπης (Σουβλατζίδικο)","lat":38.07798891290964,"lng":23.794191207475013,"url":"https://maps.app.goo.gl/FPtnwFuAA6xGZThWA?g_st=ipc","address":"Γεωρ. Λύρα 5, Κηφισιά 145 64","categoryIds":["cheap-eats"],"categories":["Gyros & Cheap Eats"]},{"id":"cheapEatsRestaurants_b596150cf3db","slug":"trigono-melission-b596","kind":"restaurant","name":"ΤΡΙΓΩΝΟ ΜΕΛΙΣΣΙΩΝ","lat":38.05317998498453,"lng":23.84087862675326,"url":"https://maps.app.goo.gl/FjiCt1o7yoa331UN8?g_st=ipc","address":"Π. Τσαλδάρη 21, Μελίσσια 151 27","categoryIds":["cheap-eats"],"categories":["Gyros & Cheap Eats"]},{"id":"cheapEatsRestaurants_b230f7d2edc5","slug":"to-petrino-toy-stamati-kapralos-stamatios-th-b230","kind":"restaurant","name":"Το Πέτρινο Του Σταμάτη (Καπράλος Σταμάτιος Θ.)","lat":38.049806163763144,"lng":23.869838485555228,"url":"https://maps.app.goo.gl/AdKg349ahnUtzxXt9?g_st=ipc","address":"Βασ. Γεωργίου Β 10, Πεντέλη 152 36","categoryIds":["cheap-eats"],"categories":["Gyros & Cheap Eats"]},{"id":"cheapEatsRestaurants_666f9d7675e5","slug":"platanos-kempap-soyvlaki-666f","kind":"restaurant","name":"Πλάτανος Κεμπάπ-Σουβλάκι","lat":38.05130210276415,"lng":23.835854870928635,"url":"https://maps.app.goo.gl/uXenfuTid9hYf6He9?g_st=ipc","address":"Leof. Dimokratias 69, Melissia 151 27","categoryIds":["cheap-eats"],"categories":["Gyros & Cheap Eats"]},{"id":"burgersRestaurants_ceb67d2517dd","slug":"godgilla-umami-street-food-ceb6","kind":"restaurant","name":"Godgilla umami street food","lat":38.056565975998105,"lng":23.814008768575892,"url":"https://maps.app.goo.gl/WyovvCKHo17WtrPb8?g_st=ipc","address":"Γεωρ. Κοτζιά 2, Μαρούσι 151 26","categoryIds":["burgers","cheap-eats"],"categories":["Burger Spots","Gyros & Cheap Eats"],"legacySlugs":["godgilla-umami-street-food-784d"]},{"id":"cheapEatsRestaurants_8e2845b1b79c","slug":"to-elliniko-soyvlaki-8e28","kind":"restaurant","name":"Το Ελληνικό Σουβλάκι","lat":38.055611201936195,"lng":23.805858315965597,"url":"https://maps.app.goo.gl/GjgUbFCMPcughxPW6?g_st=ipc","address":"Διονύσου 19, Μαρούσι 151 24","categoryIds":["cheap-eats"],"categories":["Gyros & Cheap Eats"]},{"id":"cheapEatsRestaurants_484ec346fe11","slug":"souzi-tros-street-food-484e","kind":"restaurant","name":"SOUZI TROS street food","lat":38.0550996125921,"lng":23.804743752516742,"url":"https://maps.app.goo.gl/Q2YtxKh8LosNGyHJ6?g_st=ipc","address":"Σπύρου Λέκκα 9, Μαρούσι 151 24","categoryIds":["cheap-eats"],"categories":["Gyros & Cheap Eats"]},{"id":"cheapEatsRestaurants_5a1b3de4b0cd","slug":"ta-soyvlakia-tis-giagias-5a1b","kind":"restaurant","name":"Τα σουβλάκια της γιαγιάς","lat":38.04199101993577,"lng":23.824597588199378,"url":"https://maps.app.goo.gl/K9azEutYtVeRFeTB9?g_st=ipc","address":"Κυπρίων Αγωνιστών 50, Μαρούσι 151 26","categoryIds":["cheap-eats"],"categories":["Gyros & Cheap Eats"]},{"id":"cheapEatsRestaurants_dac5582833c7","slug":"taliban-street-food-dac5","kind":"restaurant","name":"Taliban Street Food","lat":38.06195061055415,"lng":23.783033784917546,"url":"https://maps.app.goo.gl/4yeaKT2EdHHJPxdj7?g_st=ipc","address":"Λεωφ. Αμαρουσίου 29, Λυκόβρυση 141 23","categoryIds":["cheap-eats"],"categories":["Gyros & Cheap Eats"]}],"nearby":[{"id":"burgersRestaurants_95cc953a5a70","slug":"con-voi-brunch-burgers-cocktails-95cc","kind":"restaurant","name":"Con Voi Brunch - Burgers & Cocktails","lat":38.12062536277459,"lng":23.858921152377892,"url":"https://maps.app.goo.gl/Nzdtzrh2vbG4T4VM8?g_st=ipc","address":"Λεωφ. Δροσιάς Σταματάς 2, Δροσιά 145 72","categoryIds":["burgers"],"categories":["Burger Spots"],"distanceKm":0.02890572001098885},{"id":"asianRestaurants_d8c154eb91c4","slug":"cho-cho-san-drosia-d8c1","kind":"restaurant","name":"Cho Cho San Drosiá","lat":38.12004731625109,"lng":23.859184242640065,"url":"https://maps.app.goo.gl/uWRDz7jVt5VDWMv8A?g_st=ipc","address":"Πεύκων 17, Δροσιά 145 72","categoryIds":["asian"],"categories":["Asian Restaurants"],"distanceKm":0.07025779486020595},{"id":"italianRestaurants_7494ebc89891","slug":"amici-miei-cucina-italiana-7494","kind":"restaurant","name":"Amici Miei Cucina Italiana","lat":38.1201358654641,"lng":23.85982839112877,"url":"https://maps.app.goo.gl/TKR7jw9ozmdL38DBA?g_st=ipc","address":"στρατηγού πετρίτη 7, Δροσιά 145 72","categoryIds":["italian"],"categories":["Italian Restaurants"],"distanceKm":0.07893456182094333},{"id":"greekRestaurants_a8f96784536e","slug":"peinirli-eleytheriadis-a8f9","kind":"restaurant","name":"Πεϊνιρλί Ελευθεριάδης","lat":38.11739320879304,"lng":23.862199451872925,"url":"https://maps.app.goo.gl/hWqtsGrqa7nCZyh16","address":"Σολωμού 26, Δροσιά 145 72","categoryIds":["greek-restaurants"],"categories":["Greek Restaurants"],"distanceKm":0.44739315288947223},{"id":"italianRestaurants_b94ef05a5cdb","slug":"nebbiolo-b94e","kind":"restaurant","name":"Nebbiolo","lat":38.114438017917074,"lng":23.849732672241302,"url":"https://maps.app.goo.gl/wzivni6cAptzeBTTA","address":"Leof. Thiseos 111, Ekali 145 78","categoryIds":["italian"],"categories":["Italian Restaurants"],"distanceKm":1.0834248560820574},{"id":"fishTavernasRestaurants_eaec6bd11d2a","slug":"tsipoyradiko-anoixi-para-tetarto-eaec","kind":"restaurant","name":"Τσιπουράδικο \"Άνοιξη παρά Τέταρτο\"","lat":38.13115537085702,"lng":23.860540472523713,"url":"https://maps.app.goo.gl/sSz3YRigMVCbLBcq6?g_st=ipc","address":"Αθηνών Χαλκίδος 17, Άνοιξη 145 69","categoryIds":["fish-tavernas"],"categories":["Fish Tavernas"],"distanceKm":1.1706006839540624},{"id":"greekRestaurants_8bd7eaffbbd0","slug":"ayli-8bd7","kind":"restaurant","name":"Αυλή","lat":38.1169884488727,"lng":23.873697271500465,"url":"https://maps.app.goo.gl/j3KcRnM1M4kAsQz36","address":"25ης Μαρτίου 24, Ροδόπολη 145 74","categoryIds":["greek-restaurants"],"categories":["Greek Restaurants"],"distanceKm":1.329177478303119},{"id":"italianRestaurants_493a4203dbb3","slug":"da-michele-493a","kind":"restaurant","name":"Da Michele","lat":38.133061719353606,"lng":23.858730163431314,"url":"https://maps.app.goo.gl/ZAb7BbVjZ5jTGd8i8?g_st=ipc","address":"Λεωφ. Μαραθώνος 61, Άνοιξη 145 69","categoryIds":["italian"],"categories":["Italian Restaurants"],"distanceKm":1.3778144053197476},{"id":"greekRestaurants_3188c54ebc61","slug":"vlachiki-gastra-3188","kind":"restaurant","name":"Βλάχικη Γάστρα","lat":38.11813280551885,"lng":23.875469007658698,"url":"https://maps.app.goo.gl/DHcE17CBEXSZqg9G9","address":"Κολοκοτρώνη 14, Ροδόπολη 145 74","categoryIds":["greek-restaurants"],"categories":["Greek Restaurants"],"distanceKm":1.4472112514019737},{"id":"dessertsRestaurants_f058cc3bd51b","slug":"galaktopoleio-stamoy-f058","kind":"restaurant","name":"Γαλακτοπωλείο ΣΤΑΜΟΥ","lat":38.1355559087603,"lng":23.85739092129188,"url":"https://maps.app.goo.gl/qoaBzXLhGQRUPCxZ8?g_st=ipc","address":"Λεωφ. Μαραθώνος 88, Άνοιξη 145 69","categoryIds":["desserts"],"categories":["Dessert Shops"],"distanceKm":1.662348608440103},{"id":"greekRestaurants_626964779e0f","slug":"pipinios-6269","kind":"restaurant","name":"Pipinios","lat":38.12550464522669,"lng":23.87986733346546,"url":"https://maps.app.goo.gl/iPGdNokEkHQwjcP5A","address":"Πέππα 1, Σταμάτα 145 75","categoryIds":["greek-restaurants"],"categories":["Greek Restaurants"],"distanceKm":1.882122369948121},{"id":"italianRestaurants_6f0d9cef63fd","slug":"goloso-ristorante-pizzeria-6f0d","kind":"restaurant","name":"GOLOSO ristorante pizzeria","lat":38.139099968736645,"lng":23.85960963696723,"url":"https://maps.app.goo.gl/kpW87YGKNcL27Bhi9","address":"Grigoriou Lampraki 6, Ag. Stefanos 145 65","categoryIds":["italian"],"categories":["Italian Restaurants"],"distanceKm":2.0487496137099486},{"id":"monasteriesChurches_0be61b94a0f8","slug":"ieros-naos-agias-marinas-ekalis-0be6","kind":"restaurant","name":"Ιερός Ναός Αγίας Μαρίνας Εκάλης","lat":38.10774629476024,"lng":23.837173739444502,"url":"https://maps.app.goo.gl/rDcWxEZj5h9aqKaW6?g_st=ipc","address":"Λεωφ. Θησέως 54, Εκάλη 145 78","categoryIds":["monasteries-churches"],"categories":["Monasteries & Spiritual Sites"],"distanceKm":2.407472585917808},{"id":"familyFriendly_840d2fe28674","slug":"ktima-kokotoy-840d","kind":"restaurant","name":"ΚΤΗΜΑ ΚΟΚΟΤΟΥ","lat":38.12312970101472,"lng":23.891798090837362,"url":"https://maps.app.goo.gl/9xRLBKhZXYMexEQX8?g_st=ipc","address":"Κτήμα Γ. Κοκοτού 1, Σταμάτα 145 75","categoryIds":["family-friendly","wineries-vineyards"],"categories":["Kid Friendly Locations","Wineries & Vineyards"],"legacySlugs":["ktima-kokotoy-a927"],"distanceKm":2.8606793614234403},{"id":"greekRestaurants_eb34b601c233","slug":"amygdaleza-eb34","kind":"restaurant","name":"Αμυγδαλέζα","lat":38.138791020092526,"lng":23.886474004082586,"url":"https://maps.app.goo.gl/xbczXzqr95568Y2p7","address":"Μεγ. Αλεξάνδρου 86, Σταμάτα 145 75","categoryIds":["greek-restaurants"],"categories":["Greek Restaurants"],"distanceKm":3.1191517689174244},{"id":"familyFriendly_993db4ae8c60","slug":"paidikes-ekdiloseis-xenes-glosses-petit-paris-993d","kind":"restaurant","name":"ΠΑΙΔΙΚΕΣ ΕΚΔΗΛΩΣΕΙΣ-ΞΕΝΕΣ ΓΛΩΣΣΕΣ | PETIT PARIS","lat":38.10232524306243,"lng":23.827672622944732,"url":"https://maps.app.goo.gl/4YmyHX6EqG7wK1GEA?g_st=ipc","address":"Κρίνων 2, Νέα Ερυθραία 146 71","categoryIds":["family-friendly"],"categories":["Kid Friendly Locations"],"distanceKm":3.4342790883114827},{"id":"greekRestaurants_a9fd28504adb","slug":"agroktima-regkoykoy-taverna-stamata-a9fd","kind":"restaurant","name":"Αγρόκτημα Ρεγκούκου Ταβέρνα Σταμάτα","lat":38.142623703496184,"lng":23.888598580375778,"url":"https://maps.app.goo.gl/X9aRczkLosh9Awyu8","address":"Έκτορος, Σταμάτα 145 75","categoryIds":["greek-restaurants"],"categories":["Greek Restaurants"],"distanceKm":3.542153934038329},{"id":"monasteriesChurches_8c6aab96c311","slug":"iera-moni-agioy-panteleimonos-kokkinara-pentelis-8c6a","kind":"restaurant","name":"Ιερά Μονή Αγίου Παντελεήμονος Κοκκιναρά Πεντέλης","lat":38.088041404491655,"lng":23.864689883498706,"url":"https://maps.app.goo.gl/57pNkxA8Hvik3tA97?g_st=ipc","address":"3VP8+Q2, Κηφισιά 145 63","categoryIds":["monasteries-churches"],"categories":["Monasteries & Spiritual Sites"],"distanceKm":3.6600919717812386},{"id":"familyFriendly_53d1fe8092e8","slug":"parko-andrea-papandreoy-53d1","kind":"restaurant","name":"Πάρκο Ανδρέα Παπανδρέου","lat":38.1031196150353,"lng":23.81935226972679,"url":"https://maps.app.goo.gl/DqJ2RQU9EoTQdjWRA?g_st=ipc","address":"146 71, Αισχύλου 18, Νέα Ερυθραία 146 71","categoryIds":["family-friendly"],"categories":["Kid Friendly Locations"],"distanceKm":3.9991055682659087},{"id":"luxuryDiningRestaurants_822bea0f73cd","slug":"zaatar-822b","kind":"restaurant","name":"Ζάαταρ","lat":38.09899314317068,"lng":23.81974662163474,"url":"https://maps.app.goo.gl/YmorNGxoDArPTMg56?g_st=ipc","address":"Χειμάρρας 7, Νέα Ερυθραία 146 71","categoryIds":["luxury-dining"],"categories":["Luxury Dining"],"distanceKm":4.213791864910171},{"id":"familyFriendly_56591c06f8ca","slug":"geor-papandreoy-5659","kind":"restaurant","name":"Γεωρ. Παπανδρέου","lat":38.09209780213087,"lng":23.824819042791706,"url":"https://maps.app.goo.gl/93r82jmmMvCfQwZe8?g_st=ipc","address":"Κηφισιά 146 71","categoryIds":["family-friendly"],"categories":["Kid Friendly Locations"],"distanceKm":4.378568151730108},{"id":"cheapEatsRestaurants_296b6ad90f0e","slug":"o-ntellos-296b","kind":"restaurant","name":"Ο ΝΤΕΛΛΟΣ","lat":38.09071592781455,"lng":23.82013374189109,"url":"https://maps.app.goo.gl/uCpkqt4dsAjh6LfU7?g_st=ipc","address":"Ελ. Βενιζέλου 139, Νέα Ερυθραία 146 71","categoryIds":["cheap-eats"],"categories":["Gyros & Cheap Eats"],"distanceKm":4.775975918495467},{"id":"cheapEatsRestaurants_ec13b3ed8963","slug":"panerythraikos-ec13","kind":"restaurant","name":"Πανερυθραικος","lat":38.09029256559895,"lng":23.818809766039287,"url":"https://maps.app.goo.gl/E91HSqNkPsC6UtWw7?g_st=ipc","address":"Αναξαγόρα 11, Νέα Ερυθραία 146 71","categoryIds":["cheap-eats"],"categories":["Gyros & Cheap Eats"],"distanceKm":4.892052212264528},{"id":"vegetarianRestaurants_ce13a880a3a7","slug":"the-vegan-fairies-ce13","kind":"restaurant","name":"The Vegan Fairies","lat":38.09075591737279,"lng":23.81765935301376,"url":"https://maps.app.goo.gl/Py2rEQ8tcKsxB97Y9?g_st=ipc","address":"Νικ. Πλαστήρα 29, Νέα Ερυθραία 146 71","categoryIds":["vegetarian"],"categories":["Vegetarian Friendly Restaurants"],"distanceKm":4.9304122518751665}],"mentionedGuides":[],"canonicalSlug":"mitsos-0da1","enrichment":{"summary_en":"Μητσος is a curated restaurant in Δροσιά 145 75 in the Gyros & Cheap Eats collection. It is connected to 4 nearby Googlementor picks to help travelers build a stronger local route.","summary_el":"Μητσος είναι ένα επιλεγμένο σημείο φαγητού στην περιοχή Δροσιά 145 75 και ανήκει στη συλλογή Gyros & Cheap Eats. Συνδέεται με 4 κοντινές προτάσεις του Googlementor για πιο ολοκληρωμένη εμπειρία.","vibe_tags":["curated","budget-friendly"],"best_for":["first-time visitors","food lovers","budget travelers"],"visit_moments":["lunch stop","dinner stop"],"practical_note":"Address and direct map link are available for easy turn-by-turn access.","nearby_walkable_count":4,"nearby_count_2km":16,"confidence":0.98},"areaContext":{"slug":"rodopoli","name":"Rodopoli","nameEl":"Ροδόπολη"},"intentContexts":[]},"__N_SSG":true}