{"pageProps":{"entity":{"id":"cheapEatsRestaurants_08d52517e6fc","slug":"mparmpa-mitsos-vyronas-08d5","kind":"restaurant","name":"Μπάρμπα Μήτσος Βύρωνας","lat":37.95390974598432,"lng":23.759679171308928,"url":"https://maps.app.goo.gl/1eSEWa3g6EhnDAvb6?g_st=ipc","address":"Επταλόφου 88, Βύρωνας 162 33","categoryIds":["cheap-eats"],"categories":["Gyros & Cheap Eats"]},"sameCategory":[{"id":"cheapEatsRestaurants_a6f267f71448","slug":"psitopoleio-o-kostas-a6f2","kind":"restaurant","name":"Ψητοπωλείο Ο Κώστας","lat":37.94774148940973,"lng":23.74608370924349,"url":"https://maps.app.goo.gl/8n9ne3gHR6APgQwh6?g_st=ipc","address":"Ηλιουπόλεως 157, Υμηττός 172 36","categoryIds":["cheap-eats"],"categories":["Gyros & Cheap Eats"]},{"id":"cheapEatsRestaurants_53eb96e06f78","slug":"zampelis-soyvlaki-53eb","kind":"restaurant","name":"ΖΑΜΠΕΛΗΣ Σουβλάκι","lat":37.942278449963005,"lng":23.7489165228981,"url":"https://maps.app.goo.gl/mBFJVYTZsF1kBbtk7?g_st=ipc","address":"Λεωφ. Μαρίνου Αντύπα 42, Ηλιούπολη 163 46","categoryIds":["cheap-eats"],"categories":["Gyros & Cheap Eats"]},{"id":"cheapEatsRestaurants_a825d27fc97c","slug":"i-pita-toy-karafla-a825","kind":"restaurant","name":"Η ΠΙΤΑ ΤΟΥ ΚΑΡΑΦΛΑ","lat":37.96232693388551,"lng":23.744677303486494,"url":"https://maps.app.goo.gl/sAGKAGj6UyDLWwiq7?g_st=ipc","address":"Φιλολάου 142, Αθήνα 116 32","categoryIds":["cheap-eats"],"categories":["Gyros & Cheap Eats"]},{"id":"cheapEatsRestaurants_bf6249591df7","slug":"taverna-psistaria-mandrakis-bf62","kind":"restaurant","name":"Ταβέρνα - Ψησταριά Μανδράκης","lat":37.96926409248282,"lng":23.754508850206804,"url":"https://maps.app.goo.gl/oqmBo1caT2qX5wtB9?g_st=ipc","address":"Λεωφ. Εθ. Αντιστάσεως 11, Καισαριανή 161 21","categoryIds":["cheap-eats"],"categories":["Gyros & Cheap Eats"]},{"id":"cheapEatsRestaurants_72bd27acb0a5","slug":"alexandrino-kempap-pagkrati-72bd","kind":"restaurant","name":"Αλεξανδρινό Κεμπάπ - Παγκράτι","lat":37.9678577883098,"lng":23.74996983153058,"url":"https://maps.app.goo.gl/kBQE51oPhVR5sCDu5?g_st=ipc","address":"Υμηττού 90 &, Ιφικράτους, Αθήνα 116 34","categoryIds":["cheap-eats"],"categories":["Gyros & Cheap Eats"]},{"id":"burgersRestaurants_333f3b6e6592","slug":"chicken-queen-333f","kind":"restaurant","name":"Chicken Queen","lat":37.96764787341708,"lng":23.749271201498335,"url":"https://maps.app.goo.gl/y9qpEuxuYdxvEzYY9?g_st=ipc","address":"Ευτυχίδου 47, Αθήνα 116 34","categoryIds":["burgers","cheap-eats"],"categories":["Burger Spots","Gyros & Cheap Eats"],"legacySlugs":["chicken-queen-b3b7"]},{"id":"cheapEatsRestaurants_f4243fccdc09","slug":"i-thraka-f424","kind":"restaurant","name":"Η Θράκα","lat":37.96908730439045,"lng":23.752466160817594,"url":"https://maps.app.goo.gl/P6rYV5DBevfNLik18?g_st=ipc","address":"Υμηττού 58, Αθήνα 116 34","categoryIds":["cheap-eats"],"categories":["Gyros & Cheap Eats"]},{"id":"burgersRestaurants_c05eb7f13ddf","slug":"psychiatreio-c05e","kind":"restaurant","name":"Ψυχιατρείο","lat":37.941454787946455,"lng":23.74643002685345,"url":"https://maps.app.goo.gl/nvzgc7zjFUEkgZMN8?g_st=ipc","address":"Αγίου Κωνσταντίνου 16, Ηλιούπολη 163 46","categoryIds":["burgers","cheap-eats"],"categories":["Burger Spots","Gyros & Cheap Eats"],"legacySlugs":["psychiatreio-6c0c"]},{"id":"cheapEatsRestaurants_e141c683e929","slug":"psitopoleio-o-ymittos-e141","kind":"restaurant","name":"ΨΗΤΟΠΩΛΕΙΟ Ο ΥΜΗΤΤΟΣ","lat":37.9376577150226,"lng":23.756325000053742,"url":"https://maps.app.goo.gl/jevMqjqUqMVWPizM7?g_st=ipc","address":"Λεωφ. Ειρήνης 12, Ηλιούπολη 163 45","categoryIds":["cheap-eats"],"categories":["Gyros & Cheap Eats"]},{"id":"cheapEatsRestaurants_f61ee90e96c0","slug":"mikra-asia-kebap-pagrati-f61e","kind":"restaurant","name":"Mikra Asia kebap Pagrati","lat":37.96824148094212,"lng":23.7487971975962,"url":"https://maps.app.goo.gl/4TKpFuTdcwscVBCg8?g_st=ipc","address":"Πλ. Μεσολογγίου 2-4, Αθήνα 116 34","categoryIds":["cheap-eats"],"categories":["Gyros & Cheap Eats"]},{"id":"cheapEatsRestaurants_eaa51e908f69","slug":"to-pikantiko-eaa5","kind":"restaurant","name":"Το Πικάντικο","lat":37.967862602711925,"lng":23.74738582728181,"url":"https://maps.app.goo.gl/s2djMEVxUXSybams9?g_st=ipc","address":"Ευτυχίδου 23, Αθήνα 116 34","categoryIds":["cheap-eats"],"categories":["Gyros & Cheap Eats"]},{"id":"cheapEatsRestaurants_1640e0da72d1","slug":"smasheat-o-1640","kind":"restaurant","name":"Smasheat'o","lat":37.95001486404743,"lng":23.73773292955517,"url":"https://maps.app.goo.gl/nrXvTuy8yr3sWi7k8?g_st=ipc","address":"Meg. Alexandrou 2, Athina 172 35","categoryIds":["cheap-eats"],"categories":["Gyros & Cheap Eats"]}],"nearby":[{"id":"burgersRestaurants_1d9dede89409","slug":"hippy-joe-1d9d","kind":"restaurant","name":"Hippy Joe","lat":37.95458600508715,"lng":23.75943276506492,"url":"https://maps.app.goo.gl/crkq6yzRLRbaTy288?g_st=ipc","address":"Καραολή και Δημητρίου 5, Βύρωνας 162 31","categoryIds":["burgers"],"categories":["Burger Spots"],"distanceKm":0.07823854691977486},{"id":"coffeeBrunchRestaurants_767a9009c272","slug":"mademoiselle-coffee-brunch-767a","kind":"restaurant","name":"Mademoiselle Coffee & Brunch","lat":37.954517599815006,"lng":23.760305394672425,"url":"https://maps.app.goo.gl/swhTHqBQtRNT8ZAx6?g_st=ipc","address":"Μαγνησίας 91, Βύρωνας 162 33","categoryIds":["coffee-brunch"],"categories":["Coffee & Brunch Spots"],"distanceKm":0.08708086874594938},{"id":"greekRestaurants_548d92c2d4db","slug":"soyrtoyko-548d","kind":"restaurant","name":"Σουρτουκω","lat":37.96175056849477,"lng":23.75277374627553,"url":"https://maps.app.goo.gl/xYnatdAUqU3QWGLv9","address":"Λεωφ. Χρυσοστόμου Σμύρνης 47, Βύρωνας 162 32","categoryIds":["greek-restaurants"],"categories":["Greek Restaurants"],"distanceKm":1.0614486358396293},{"id":"fishTavernasRestaurants_bfa3fa802461","slug":"to-koytoyki-toy-nikola-bfa3","kind":"restaurant","name":"Το κουτούκι του Νικόλα","lat":37.957390018378845,"lng":23.748097249841244,"url":"https://maps.app.goo.gl/HyEob8x31HSBRG4G6?g_st=ipc","address":"Καλλιπόλεως 1, Βύρωνας 162 32","categoryIds":["fish-tavernas"],"categories":["Fish Tavernas"],"distanceKm":1.0866952689937002},{"id":"greekRestaurants_9f875f84dbee","slug":"taverna-tzimis-9f87","kind":"restaurant","name":"Ταβέρνα Τζίμης","lat":37.96221220979963,"lng":23.752873943570865,"url":"https://maps.app.goo.gl/qCasHzTvfzEm5GVQ9","address":"Κωνσταντιλιέρη 2, Βύρωνας 162 31","categoryIds":["greek-restaurants"],"categories":["Greek Restaurants"],"distanceKm":1.0992066511770535},{"id":"italianRestaurants_d26e71c0baaa","slug":"p3-pizza-pasta-piazza-d26e","kind":"restaurant","name":"P3 • Pizza Pasta Piazza","lat":37.95458478436311,"lng":23.74640491373037,"url":"https://maps.app.goo.gl/RxyTMGLyt4d7KQ4T7?g_st=ipc","address":"Πλ. Υμηττού 15, Υμηττός 172 37","categoryIds":["italian"],"categories":["Italian Restaurants"],"distanceKm":1.1662708283423562},{"id":"greekRestaurants_11dff068e9ea","slug":"taverna-toy-vardi-11df","kind":"restaurant","name":"Ταβέρνα του Βαρδή","lat":37.95570603338151,"lng":23.74583290711746,"url":"https://maps.app.goo.gl/6RAXFnJTA2DTzwA88","address":"Καισαρείας 9, Υμηττός 172 37","categoryIds":["greek-restaurants"],"categories":["Greek Restaurants"],"distanceKm":1.230317359378348},{"id":"greekRestaurants_6d8ba6e8459c","slug":"o-tsompanakos-6d8b","kind":"restaurant","name":"Ο Τσομπανάκος","lat":37.96567041818392,"lng":23.763543849190544,"url":"https://maps.app.goo.gl/D1121EC8pmNBFqbK9","address":"Ανακρέοντος 2, Καισαριανή 161 22","categoryIds":["greek-restaurants"],"categories":["Greek Restaurants"],"distanceKm":1.3509066440630266},{"id":"cheapEatsRestaurants_a6f267f71448","slug":"psitopoleio-o-kostas-a6f2","kind":"restaurant","name":"Ψητοπωλείο Ο Κώστας","lat":37.94774148940973,"lng":23.74608370924349,"url":"https://maps.app.goo.gl/8n9ne3gHR6APgQwh6?g_st=ipc","address":"Ηλιουπόλεως 157, Υμηττός 172 36","categoryIds":["cheap-eats"],"categories":["Gyros & Cheap Eats"],"distanceKm":1.3753045225534308},{"id":"luxuryDiningRestaurants_24449a18a8b0","slug":"cinq-sens-athens-2444","kind":"restaurant","name":"Cinq Sens Athens","lat":37.964330906697526,"lng":23.749169578189175,"url":"https://maps.app.goo.gl/oJzDuNQyNTeigZtU6?g_st=ipc","address":"Πύρρου 38, Αθήνα 116 33","categoryIds":["luxury-dining"],"categories":["Luxury Dining"],"distanceKm":1.4804515194755965},{"id":"dessertsRestaurants_055560d21207","slug":"zacharoplasteio-lido-0555","kind":"restaurant","name":"Ζαχαροπλαστείο Lido","lat":37.96582623086202,"lng":23.750235658736546,"url":"https://maps.app.goo.gl/6RDutorGFGKRD3ru9?g_st=ipc","address":"Χρεμωνίδου 35, Αθήνα 116 33","categoryIds":["desserts"],"categories":["Dessert Shops"],"distanceKm":1.5624389386007194},{"id":"dessertsRestaurants_36cfd9004102","slug":"fresh-mail-pagkratioy-36cf","kind":"restaurant","name":"Fresh Mail Παγκρατίου","lat":37.963053181322294,"lng":23.74589240163266,"url":"https://maps.app.goo.gl/umohxobBLijQzZis5?g_st=ipc","address":"Filolaou 124Α, Athina 116 33","categoryIds":["desserts"],"categories":["Dessert Shops"],"distanceKm":1.5794580474680067},{"id":"asianRestaurants_36f4a8956e8a","slug":"oma-sushi-bar-36f4","kind":"restaurant","name":"Oma Sushi Bar","lat":37.94009382367438,"lng":23.754689791765557,"url":"https://maps.app.goo.gl/sQ4YgJ2S6xgEEqCf7?g_st=ipc","address":"Ανδρέα Παπανδρέου 22, Ηλιούπολη 163 45","categoryIds":["asian"],"categories":["Asian Restaurants"],"distanceKm":1.5973420835617098},{"id":"cheapEatsRestaurants_53eb96e06f78","slug":"zampelis-soyvlaki-53eb","kind":"restaurant","name":"ΖΑΜΠΕΛΗΣ Σουβλάκι","lat":37.942278449963005,"lng":23.7489165228981,"url":"https://maps.app.goo.gl/mBFJVYTZsF1kBbtk7?g_st=ipc","address":"Λεωφ. Μαρίνου Αντύπα 42, Ηλιούπολη 163 46","categoryIds":["cheap-eats"],"categories":["Gyros & Cheap Eats"],"distanceKm":1.601043261092181},{"id":"coffeeBrunchRestaurants_04323df5602c","slug":"moments-cafe-0432","kind":"restaurant","name":"Moments cafe","lat":37.94145822074275,"lng":23.750459312660134,"url":"https://maps.app.goo.gl/6q9NBBvgffKvbrnG7?g_st=ipc","address":"Αγγέλου Σικελιανού 65, Ηλιούπολη 163 45","categoryIds":["coffee-brunch"],"categories":["Coffee & Brunch Spots"],"distanceKm":1.6032945540568293},{"id":"cheapEatsRestaurants_a825d27fc97c","slug":"i-pita-toy-karafla-a825","kind":"restaurant","name":"Η ΠΙΤΑ ΤΟΥ ΚΑΡΑΦΛΑ","lat":37.96232693388551,"lng":23.744677303486494,"url":"https://maps.app.goo.gl/sAGKAGj6UyDLWwiq7?g_st=ipc","address":"Φιλολάου 142, Αθήνα 116 32","categoryIds":["cheap-eats"],"categories":["Gyros & Cheap Eats"],"distanceKm":1.6142794314239208},{"id":"italianRestaurants_98c72b583c4b","slug":"nonna-edda-98c7","kind":"restaurant","name":"Nonna Edda","lat":37.968437805608076,"lng":23.757681215549333,"url":"https://maps.app.goo.gl/QWSrhfiNkAJznHfQA?g_st=ipc","address":"Λεωφ. Εθ. Αντιστάσεως 62, Καισαριανή 161 21","categoryIds":["italian"],"categories":["Italian Restaurants"],"distanceKm":1.6249148252147532},{"id":"fishTavernasRestaurants_86f548233faf","slug":"mpalkoni-stis-kyklades-86f5","kind":"restaurant","name":"ΜΠΑΛΚΟΝΙ ΣΤΙΣ ΚΥΚΛΑΔΕΣ","lat":37.943007346903,"lng":23.772380593489483,"url":"https://maps.app.goo.gl/FNypnyT1fTicRews8?g_st=ipc","address":"Π. Μελά 13, Βύρωνας 162 33","categoryIds":["fish-tavernas"],"categories":["Fish Tavernas"],"distanceKm":1.6462119158139439},{"id":"greekRestaurants_d05f0b437e54","slug":"osonoypo-d05f","kind":"restaurant","name":"Οσονούπω","lat":37.968722862920075,"lng":23.75908756393202,"url":"https://maps.app.goo.gl/HBqT7hbWLLfdjPem9","address":"Πλ. Αναγεννήσεως 2, Καισαριανή 161 21","categoryIds":["greek-restaurants"],"categories":["Greek Restaurants"],"distanceKm":1.6479598270157187},{"id":"mexicanRestaurants_246d0cbd5711","slug":"kaisaras-mpar-kaisaras-bar-246d","kind":"restaurant","name":"Καίσαρας Μπαρ - Kaisaras Bar","lat":37.96879437306453,"lng":23.758782238098565,"url":"https://maps.app.goo.gl/dNnjqQMeoX6QVGm38?g_st=ipc","address":"Πλατεία Παναγιώτη Μακρή 7-9, Καισαριανή 161 21","categoryIds":["mexican"],"categories":["Mexican Restaurants"],"distanceKm":1.6569618863213822},{"id":"asianRestaurants_de634fe107b8","slug":"sushi-j-de63","kind":"restaurant","name":"SUSHI J","lat":37.967626679750225,"lng":23.75054798444388,"url":"https://maps.app.goo.gl/5moDtNiYaQjm8UsX9?g_st=ipc","address":"Υμηττού 101, Αθήνα 116 33","categoryIds":["asian"],"categories":["Asian Restaurants"],"distanceKm":1.7225687518868678},{"id":"burgersRestaurants_2488bfd093b0","slug":"raw-street-burger-2488","kind":"restaurant","name":"RAW Street Burger","lat":37.96608078812892,"lng":23.747084457131937,"url":"https://maps.app.goo.gl/WsNpm6Ti1nzJiYwd7?g_st=ipc","address":"Υμηττού 130, Αθήνα 116 34","categoryIds":["burgers"],"categories":["Burger Spots"],"distanceKm":1.7466552603208996},{"id":"vegetarianRestaurants_26aa685f16e1","slug":"fresh-patisserie-26aa","kind":"restaurant","name":"Fresh Patisserie","lat":37.96747222997714,"lng":23.749300179574934,"url":"https://maps.app.goo.gl/M6kixY8DuERoUL8U8?g_st=ipc","address":"Ευτυχίδου 48, Αθήνα 116 34","categoryIds":["vegetarian"],"categories":["Vegetarian Friendly Restaurants"],"distanceKm":1.7613246095958563},{"id":"cheapEatsRestaurants_bf6249591df7","slug":"taverna-psistaria-mandrakis-bf62","kind":"restaurant","name":"Ταβέρνα - Ψησταριά Μανδράκης","lat":37.96926409248282,"lng":23.754508850206804,"url":"https://maps.app.goo.gl/oqmBo1caT2qX5wtB9?g_st=ipc","address":"Λεωφ. Εθ. Αντιστάσεως 11, Καισαριανή 161 21","categoryIds":["cheap-eats"],"categories":["Gyros & Cheap Eats"],"distanceKm":1.7664706443020388}],"mentionedGuides":[],"canonicalSlug":"mparmpa-mitsos-vyronas-08d5","enrichment":{"summary_en":"Μπάρμπα Μήτσος Βύρωνας is a curated restaurant in Βύρωνας 162 33 in the Gyros & Cheap Eats collection. It is connected to 2 nearby Googlementor picks to help travelers build a stronger local route.","summary_el":"Μπάρμπα Μήτσος Βύρωνας είναι ένα επιλεγμένο σημείο φαγητού στην περιοχή Βύρωνας 162 33 και ανήκει στη συλλογή Gyros & Cheap Eats. Συνδέεται με 2 κοντινές προτάσεις του Googlementor για πιο ολοκληρωμένη εμπειρία.","vibe_tags":["curated","budget-friendly"],"best_for":["first-time visitors","food lovers","budget travelers"],"visit_moments":["lunch stop","dinner stop"],"practical_note":"Address and direct map link are available for easy turn-by-turn access.","nearby_walkable_count":2,"nearby_count_2km":49,"confidence":0.9},"areaContext":{"slug":"ymittos","name":"Ymittos","nameEl":"Υμηττός"},"intentContexts":[{"href":"/cheap-eats/ymittos","label":"Gyros & Cheap Eats in Ymittos","categorySlug":"cheap-eats","categoryName":"Gyros & Cheap Eats","areaSlug":"ymittos","areaName":"Ymittos","areaNameEl":"Υμηττός"}]},"__N_SSG":true}