{"pageProps":{"entity":{"id":"rooftopLoungesRestaurants_9f3b51889721","slug":"neoma-9f3b","kind":"restaurant","name":"Neoma","lat":37.96667210546055,"lng":23.72293271432969,"url":"https://maps.app.goo.gl/GwTqDERwqhw3c72o8?g_st=ipc","address":"Μουσών 13, Αθήνα 117 41","categoryIds":["rooftop-lounges"],"categories":["Rooftop Lounges"]},"sameCategory":[{"id":"luxuryDiningRestaurants_8f9976dae124","slug":"point-a-acropolis-point-8f99","kind":"restaurant","name":"POINT A (Acropolis Point)","lat":37.968415622994755,"lng":23.72706617377212,"url":"https://maps.app.goo.gl/NiwbpnxKE4g22Tzw6?g_st=ipc","address":"Ροβέρτου Γκάλι 4a, Αθήνα 117 42","categoryIds":["luxury-dining","rooftop-lounges"],"categories":["Luxury Dining","Rooftop Lounges"],"legacySlugs":["point-a-acropolis-point-fcea"]},{"id":"rooftopLoungesRestaurants_0166d74152d9","slug":"180-west-rooftop-lounge-restaurant-0166","kind":"restaurant","name":"180º West Rooftop Lounge Restaurant","lat":37.965774750504295,"lng":23.727676619784248,"url":"https://maps.app.goo.gl/B2UsgvhxQkuJx2dU7?g_st=ipc","address":"Φαλήρου 37-39, Αθήνα 117 42","categoryIds":["rooftop-lounges"],"categories":["Rooftop Lounges"]},{"id":"rooftopLoungesRestaurants_208f904925e8","slug":"stork-rooftop-bar-restaurant-208f","kind":"restaurant","name":"stork rooftop bar restaurant","lat":37.967099364958976,"lng":23.7303307646006,"url":"https://maps.app.goo.gl/AF5AEBzt63j5tves7?g_st=ipc","address":"Λεωφόρος Συγγρού 21, Βούρβαχη 2, Αθήνα 117 43","categoryIds":["rooftop-lounges"],"categories":["Rooftop Lounges"]},{"id":"rooftopLoungesRestaurants_7028a5f2c855","slug":"bg-s-roof-garden-terrace-7028","kind":"restaurant","name":"BG's Roof Garden Terrace","lat":37.96555476887021,"lng":23.73099014305094,"url":"https://maps.app.goo.gl/DYB3podcUfK36W3e8?g_st=ipc","address":"Menaimahou 1 & Theofilopoulou, Καλλιρρόης Avenue, 18, 117 43","categoryIds":["rooftop-lounges"],"categories":["Rooftop Lounges"]},{"id":"luxuryDiningRestaurants_6d0eec69a8bb","slug":"sense-modern-greek-cuisine-6d0e","kind":"restaurant","name":"SENSE Modern Greek Cuisine","lat":37.96950501164825,"lng":23.730857786980206,"url":"https://maps.app.goo.gl/BrJr73pSejAaUrbq6?g_st=ipc","address":"Διονυσίου Αρεοπαγίτου 5, Αθήνα 117 42","categoryIds":["luxury-dining","rooftop-lounges"],"categories":["Luxury Dining","Rooftop Lounges"],"legacySlugs":["sense-modern-greek-cuisine-ffb0"]},{"id":"rooftopLoungesRestaurants_f8cacb8baac7","slug":"athens-gate-rooftop-bar-restaurant-f8ca","kind":"restaurant","name":"Athens Gate Rooftop Bar & Restaurant","lat":37.968775997362016,"lng":23.73145032913701,"url":"https://maps.app.goo.gl/q9X7pZzbyKPo8wEb6?g_st=ipc","address":"Leof. Andrea Siggrou 10, Athina 117 41","categoryIds":["rooftop-lounges"],"categories":["Rooftop Lounges"]},{"id":"rooftopLoungesRestaurants_eff063b05a76","slug":"premiere-restaurant-eff0","kind":"restaurant","name":"Premiere Restaurant","lat":37.95933669311001,"lng":23.721893436588108,"url":"https://maps.app.goo.gl/xdoJybpRxJKYAgbKA?g_st=ipc","address":"Λεωφ. Ανδρέα Συγγρού 89-93, Αθήνα 117 45","categoryIds":["rooftop-lounges"],"categories":["Rooftop Lounges"]},{"id":"rooftopLoungesRestaurants_f3813d39259f","slug":"thissio-view-rooftop-estiatorio-mpar-f381","kind":"restaurant","name":"THISSIO VIEW - Rooftop Εστιατόριο & Μπάρ","lat":37.974080279276336,"lng":23.719915035860108,"url":"https://maps.app.goo.gl/fQ8YQr8FRL5GzrPm7?g_st=ipc","address":"Αποστόλου Παύλου 25, Αθήνα 118 51","categoryIds":["rooftop-lounges"],"categories":["Rooftop Lounges"]},{"id":"fishTavernasRestaurants_2ec8563b4367","slug":"anefani-2ec8","kind":"restaurant","name":"Ανεφάνη","lat":37.973535712152035,"lng":23.727823659961384,"url":"https://maps.app.goo.gl/ZNPzCDATcCosWfhTA?g_st=ipc","address":"Μνησικλέους 24, Αθήνα 105 56","categoryIds":["fish-tavernas","rooftop-lounges"],"categories":["Fish Tavernas","Rooftop Lounges"],"legacySlugs":["anefani-d906"]},{"id":"rooftopLoungesRestaurants_f6776fb8dcd6","slug":"hill-athens-rooftop-restaurant-f677","kind":"restaurant","name":"Hill Athens Rooftop Restaurant","lat":37.97419365813568,"lng":23.719905442723636,"url":"https://maps.app.goo.gl/3QDHt2qN9bAbpZCo6?g_st=ipc","address":"Αποστόλου Παύλου 27, Αθήνα 118 51","categoryIds":["rooftop-lounges"],"categories":["Rooftop Lounges"]},{"id":"rooftopLoungesRestaurants_6bc9125d2c6e","slug":"odos-lysioy-6bc9","kind":"restaurant","name":"Οδος Λυσιου","lat":37.97368556896764,"lng":23.727989877138466,"url":"https://maps.app.goo.gl/QFStwG4KRSZkG2Em7?g_st=ipc","address":"Mnisikleous 22 and, Lisiou corner, Athina 105 56","categoryIds":["rooftop-lounges"],"categories":["Rooftop Lounges"]},{"id":"rooftopLoungesRestaurants_fd3b2b6edd97","slug":"anglais-athens-fd3b","kind":"restaurant","name":"Anglais Athens","lat":37.97603265069114,"lng":23.726612987310695,"url":"https://maps.app.goo.gl/3tBECibCkAn27cvf9?g_st=ipc","address":"Κηρυκείου 6, Αθήνα 105 55","categoryIds":["rooftop-lounges"],"categories":["Rooftop Lounges"]}],"nearby":[{"id":"mustSeeAttractions_3df9a416cf1a","slug":"lofos-filopappoy-3df9","kind":"restaurant","name":"Λόφος Φιλοπάππου","lat":37.96711952882775,"lng":23.721574966297474,"url":"https://maps.app.goo.gl/oZosE6Kbfk2BP5e67?g_st=ipc","address":"Φυλής 215, Αθήνα 117 41","categoryIds":["attractions"],"categories":["Must-See Attractions"],"distanceKm":0.12900288486222808},{"id":"mustSeeAttractions_11b87cb6f066","slug":"philopappos-monument-11b8","kind":"restaurant","name":"Philopappos Monument","lat":37.96735214641467,"lng":23.72141968401236,"url":"https://maps.app.goo.gl/4mH8BGK5UQuAHaXf6?g_st=ipc","address":"Athens 117 41","categoryIds":["attractions"],"categories":["Must-See Attractions"],"distanceKm":0.15267658340694198},{"id":"mustSeeAttractions_aeebd3346525","slug":"pnyka-aeeb","kind":"restaurant","name":"Πνύκα","lat":37.96737351880718,"lng":23.721158867490345,"url":"https://maps.app.goo.gl/yJCvqZ3YjAxVjgmU6?g_st=ipc","address":"Αθήνα 117 41","categoryIds":["attractions"],"categories":["Must-See Attractions"],"distanceKm":0.17396273124382639},{"id":"dessertsRestaurants_b3f00cec9209","slug":"dolce-far-niente-ice-cream-b3f0","kind":"restaurant","name":"Dolce Far Niente ice cream","lat":37.967030991920694,"lng":23.725035602938313,"url":"https://maps.app.goo.gl/YaopPeigqjaCn38A6?g_st=ipc","address":"Τσάμη Καρατάσου 26, Αθήνα 117 42","categoryIds":["desserts"],"categories":["Dessert Shops"],"distanceKm":0.18861419955507322},{"id":"coffeeBrunchRestaurants_bdf81375a84e","slug":"ere-athens-bdf8","kind":"restaurant","name":"ERE Athens","lat":37.96787420182931,"lng":23.725296301158785,"url":"https://maps.app.goo.gl/rRZaQcETgQQjdrzg7?g_st=ipc","address":"Ερεχθείου 30, Αθήνα 117 42","categoryIds":["coffee-brunch"],"categories":["Coffee & Brunch Spots"],"distanceKm":0.24657098986255294},{"id":"asianRestaurants_83a81f921b31","slug":"tuk-tuk-thai-street-food-83a8","kind":"restaurant","name":"TUK TUK THAI STREET FOOD","lat":37.96606521122011,"lng":23.725716482971748,"url":"https://maps.app.goo.gl/dLSj52rnQDPAbaGg8?g_st=ipc","address":"Βεΐκου 40, Αθήνα 117 42","categoryIds":["asian"],"categories":["Asian Restaurants"],"distanceKm":0.2531922975497619},{"id":"cheapEatsRestaurants_5e8824ccc538","slug":"kalamaki-bar-5e88","kind":"restaurant","name":"Kalamaki Bar","lat":37.9654765831714,"lng":23.725752010856876,"url":"https://maps.app.goo.gl/vMhM3YojNKaURqwX8?g_st=ipc","address":"Δημητρακοπούλου και, Δράκου 15, Αθήνα 117 42","categoryIds":["cheap-eats"],"categories":["Gyros & Cheap Eats"],"distanceKm":0.2806324218100111},{"id":"cheapEatsRestaurants_ccda7a47a1b9","slug":"falafel-bar-to-revithi-ccda","kind":"restaurant","name":"falafel bar ΤΟ ΡΕΒΙΘΙ","lat":37.96631483519238,"lng":23.7261110398094,"url":"https://maps.app.goo.gl/4FqJYg2raYZvXHja7?g_st=ipc","address":"Παρθενώνος 1, Αθήνα 117 42","categoryIds":["cheap-eats","vegetarian"],"categories":["Gyros & Cheap Eats","Vegetarian Friendly Restaurants"],"legacySlugs":["falafel-bar-to-revithi-dec0"],"distanceKm":0.2814388899943528},{"id":"greekRestaurants_2cc5d772f006","slug":"onos-taverna-2cc5","kind":"restaurant","name":"Onos Taverna","lat":37.96571079116367,"lng":23.725945276440267,"url":"https://maps.app.goo.gl/ur5XrAoMuE8FsR5c6","address":"Δράκου 14, Αθήνα 117 42","categoryIds":["greek-restaurants"],"categories":["Greek Restaurants"],"distanceKm":0.2849036780263059},{"id":"cheapEatsRestaurants_abe36348d52a","slug":"guarantee-abe3","kind":"restaurant","name":"Guarantee","lat":37.96613348579953,"lng":23.726193428667294,"url":"https://maps.app.goo.gl/k43yGuJ8dK72yJAh8?g_st=ipc","address":"Βεΐκου 41, Αθήνα 117 42","categoryIds":["cheap-eats"],"categories":["Gyros & Cheap Eats"],"distanceKm":0.2920508155408111},{"id":"dessertsRestaurants_f792b1129076","slug":"flour-of-youth-f792","kind":"restaurant","name":"Flour Of Youth","lat":37.96404409092071,"lng":23.722471600259,"url":"https://maps.app.goo.gl/FibffjzNDReT3bDx7?g_st=ipc","address":"Βεΐκου 91, Αθήνα 117 41","categoryIds":["desserts"],"categories":["Dessert Shops"],"distanceKm":0.29500451394960353},{"id":"greekRestaurants_fdc308cbed46","slug":"sfika-fdc3","kind":"restaurant","name":"Σφήκα","lat":37.966122619632145,"lng":23.726245016024656,"url":"https://maps.app.goo.gl/WDLKPoT2bayYqor96","address":"Στρ. Κοντούλη 15, Αθήνα 117 42","categoryIds":["greek-restaurants"],"categories":["Greek Restaurants"],"distanceKm":0.2967249131938052},{"id":"burgersRestaurants_ad6cf86d44bd","slug":"sam-burgers-ad6c","kind":"restaurant","name":"Sam burgers","lat":37.96388468249238,"lng":23.72312062221316,"url":"https://maps.app.goo.gl/pYEUc4KHraPYUmvN8?g_st=ipc","address":"Δημητρακοπούλου 82, Αθήνα 117 41","categoryIds":["burgers"],"categories":["Burger Spots"],"distanceKm":0.3103847249535319},{"id":"italianRestaurants_c197477778a8","slug":"fratti-bistro-c197","kind":"restaurant","name":"Fratti Bistro","lat":37.96852406982216,"lng":23.725725056108836,"url":"https://maps.app.goo.gl/v5TXqxqHKdw7mrCr5?g_st=ipc","address":"Φράττι 1, Αθήνα 117 42","categoryIds":["italian"],"categories":["Italian Restaurants"],"distanceKm":0.31988191856425896},{"id":"cheapEatsRestaurants_d094097525b6","slug":"senor-picante-d094","kind":"restaurant","name":"Señor Picante","lat":37.965308606012925,"lng":23.726477821309263,"url":"https://maps.app.goo.gl/bZNApSKDTgmvuiXB7?g_st=ipc","address":"Φαλήρου 40, Αθήνα 117 42","categoryIds":["cheap-eats","mexican"],"categories":["Gyros & Cheap Eats","Mexican Restaurants"],"legacySlugs":["senor-picante-fbd3"],"distanceKm":0.3457870957070924},{"id":"vegetarianRestaurants_4db58e18de0e","slug":"peas-vegan-4db5","kind":"restaurant","name":"Peas Vegan","lat":37.965309081383936,"lng":23.72648212033699,"url":"https://maps.app.goo.gl/8AeCWeh7LczgaD87A?g_st=ipc","address":"Φαλήρου 40, Αθήνα 117 42","categoryIds":["vegetarian"],"categories":["Vegetarian Friendly Restaurants"],"distanceKm":0.3461026933186297},{"id":"coffeeBrunchRestaurants_01aaff71bf45","slug":"pancake-cake-acropolis-01aa","kind":"restaurant","name":"Pancake & CAKE Acropolis","lat":37.967897348905204,"lng":23.726566946010575,"url":"https://maps.app.goo.gl/QuHwWVBbtZh2gYY18?g_st=ipc","address":"Καρυάτιδων 15, Αθήνα 117 42","categoryIds":["coffee-brunch"],"categories":["Coffee & Brunch Spots"],"distanceKm":0.3464924991902509},{"id":"coffeeBrunchRestaurants_93d5a5bf934a","slug":"bite-box-93d5","kind":"restaurant","name":"Bite Box","lat":37.963687328724134,"lng":23.72159915102945,"url":"https://maps.app.goo.gl/szSB6mZP4tWEA46h7?g_st=ipc","address":"Βεΐκου 84, Αθήνα 117 41","categoryIds":["coffee-brunch"],"categories":["Coffee & Brunch Spots"],"distanceKm":0.3518797158036933},{"id":"mustSeeAttractions_bf865dc1bff4","slug":"prison-of-socrates-bf86","kind":"restaurant","name":"Prison of Socrates","lat":37.96945283540711,"lng":23.72099752982901,"url":"https://maps.app.goo.gl/431NuRe11zxrUqR89?g_st=ipc","address":"43, Rovertou Galli 39, Athina 117 41","categoryIds":["attractions"],"categories":["Must-See Attractions"],"distanceKm":0.3526815807937222},{"id":"asianRestaurants_be2d9e8cfa29","slug":"kuchisabishii-sakaba-be2d","kind":"restaurant","name":"Kuchisabishii Sakaba","lat":37.965507796335324,"lng":23.72667501899547,"url":"https://maps.app.goo.gl/mwPcNGYBVTJSy6C59?g_st=ic","address":"Falirou 36, Athina 117 42","categoryIds":["asian"],"categories":["Asian Restaurants"],"distanceKm":0.352684616749404},{"id":"coffeeBrunchRestaurants_60b919ea4202","slug":"artopoiotis-o-takis-60b9","kind":"restaurant","name":"Αρτοποιότης Ο Τάκης","lat":37.96774042832454,"lng":23.72678404932504,"url":"https://maps.app.goo.gl/kz81zzmehsyvYBbQ6?g_st=ipc","address":"Μισαραλιώτου 14, Αθήνα 117 42","categoryIds":["coffee-brunch"],"categories":["Coffee & Brunch Spots"],"distanceKm":0.35790480773162986},{"id":"italianRestaurants_5abecb9e2aaa","slug":"voylkanizater-5abe","kind":"restaurant","name":"Βουλκανιζατέρ","lat":37.96367095489114,"lng":23.724556596700353,"url":"https://maps.app.goo.gl/HebUjJkB8SUt6Xp36?g_st=ipc","address":"Οδυσσέα Ανδρούτσου 17, Αθήνα 117 41","categoryIds":["italian"],"categories":["Italian Restaurants"],"distanceKm":0.3628079358264247},{"id":"coffeeBrunchRestaurants_3cb499b8df33","slug":"drupes-spritzeria-3cb4","kind":"restaurant","name":"Drupes Spritzeria","lat":37.96781101754338,"lng":23.726828197185508,"url":"https://maps.app.goo.gl/3UEtVFAU3pPvguxJA?g_st=ipc","address":"Ζήτρου 20, Αθήνα 117 42","categoryIds":["coffee-brunch"],"categories":["Coffee & Brunch Spots"],"distanceKm":0.3642119813992068},{"id":"luxuryDiningRestaurants_449388b6e901","slug":"gallina-athens-4493","kind":"restaurant","name":"Gallina Athens","lat":37.964508186769734,"lng":23.726121733406966,"url":"https://maps.app.goo.gl/zkqCQmDUHjdt7RX4A?g_st=ipc","address":"Μαρκ. Μπότσαρη 49, Αθήνα 117 42","categoryIds":["luxury-dining"],"categories":["Luxury Dining"],"distanceKm":0.3688512643253288}],"mentionedGuides":[],"canonicalSlug":"neoma-9f3b","enrichment":{"summary_en":"Neoma is a curated restaurant in Αθήνα 117 41 in the Rooftop Lounges collection. It is connected to 85 nearby Googlementor picks to help travelers build a stronger local route.","summary_el":"Neoma είναι ένα επιλεγμένο σημείο φαγητού στην περιοχή Αθήνα 117 41 και ανήκει στη συλλογή Rooftop Lounges. Συνδέεται με 85 κοντινές προτάσεις του Googlementor για πιο ολοκληρωμένη εμπειρία.","vibe_tags":["curated","city-views"],"best_for":["first-time visitors","food lovers"],"visit_moments":["golden hour","night out"],"practical_note":"Address and direct map link are available for easy turn-by-turn access.","nearby_walkable_count":85,"nearby_count_2km":534,"confidence":0.98},"areaContext":{"slug":"koykaki","name":"Koukaki","nameEl":"Κουκάκι"},"intentContexts":[{"href":"/rooftops/koykaki","label":"Rooftop Lounges in Koukaki","categorySlug":"rooftops","categoryName":"Rooftop Lounges","areaSlug":"koykaki","areaName":"Koukaki","areaNameEl":"Κουκάκι"}]},"__N_SSG":true}