{"pageProps":{"entity":{"id":"dessertsRestaurants_e4f66f8adfe3","slug":"nikos-alexoudas-e4f6","kind":"restaurant","name":"Nikos Alexoudas","lat":40.610389059142975,"lng":22.958123238836652,"url":"https://maps.app.goo.gl/ifbqMFmsGqy7oaxA8?g_st=ipc","address":"Makedonias 18, Thessaloniki 546 42","categoryIds":["desserts"],"categories":["Dessert Shops"]},"sameCategory":[{"id":"dessertsRestaurants_7728725cae0c","slug":"zacharoplasteio-ilios-kleanthoys-hlios-pastry-shop-kleanthous-7728","kind":"restaurant","name":"ΖΑΧΑΡΟΠΛΑΣΤΕΙΟ ΗΛΙΟΣ ΚΛΕΑΝΘΟΥΣ /Hlios Pastry Shop Kleanthous","lat":40.61382568960551,"lng":22.969099400369018,"url":"https://maps.app.goo.gl/tNhNJReBE4oYvZx6A?g_st=ipc","address":"Kleanthous 60, Thessaloniki 544 53","categoryIds":["desserts"],"categories":["Dessert Shops"]},{"id":"dessertsRestaurants_8b22dff88156","slug":"alfa-ice-cream-cafe-8b22","kind":"restaurant","name":"Alfa Ice-Cream Cafe","lat":40.60099594467994,"lng":22.959526782313244,"url":"https://maps.app.goo.gl/tbZTnf9V3BccEmubA?g_st=ipc","address":"Delfon 143, Thessaloniki 546 46","categoryIds":["desserts"],"categories":["Dessert Shops"]},{"id":"dessertsRestaurants_a176ca58a94e","slug":"il-panino-a176","kind":"restaurant","name":"Il Panino","lat":40.60111282600128,"lng":22.964094400386756,"url":"https://maps.app.goo.gl/xgjKYkQmNmr9oVeU6?g_st=ipc","address":"Leof. Kon/nou Karamanli 154, Thessaloniki 542 48","categoryIds":["desserts"],"categories":["Dessert Shops"]},{"id":"dessertsRestaurants_1eb1d7d0a39b","slug":"trigona-elenidis-antheon-1eb1","kind":"restaurant","name":"Τρίγωνα Ελενίδης (Ανθέων)","lat":40.601144746020374,"lng":22.95082783427097,"url":"https://maps.app.goo.gl/f4c7NqVni4s54aXE6?g_st=ipc","address":"Geor. Papandreou 6, Thessaloniki 546 45","categoryIds":["desserts"],"categories":["Dessert Shops"]},{"id":"dessertsRestaurants_820e5a62f3a9","slug":"babalooka-to-aythentiko-galaktompoyreko-thessalonikis-820e","kind":"restaurant","name":"Babalooka-Το Αυθεντικό Γαλακτομπούρεκο Θεσσαλονίκης","lat":40.62123778051854,"lng":22.962627985179793,"url":"https://maps.app.goo.gl/tnzvbcbCY13DjRZe7?g_st=ipc","address":"Δίπλα στη στροφή Λαμπράκη, Leof. Kon/nou Karamanli 15, Thessaloniki 546 38","categoryIds":["desserts"],"categories":["Dessert Shops"]},{"id":"dessertsRestaurants_99d685460c3f","slug":"bombolo-99d6","kind":"restaurant","name":"BOMBOLO","lat":40.614466360968855,"lng":22.977765505829847,"url":"https://maps.app.goo.gl/z5pR8EZkJS12MpdQ9?g_st=ipc","address":"Grigoriou Lampraki 150, Thessaloniki 543 51","categoryIds":["desserts"],"categories":["Dessert Shops"]},{"id":"dessertsRestaurants_f84ed009af83","slug":"terkenlis-f84e","kind":"restaurant","name":"Terkenlis","lat":40.59488849299692,"lng":22.956363253741753,"url":"https://maps.app.goo.gl/xBak2d9JxbKxQpz57?g_st=ipc","address":"Leof. Vasilissis Olgas 235, Thessaloniki 546 55","categoryIds":["desserts"],"categories":["Dessert Shops"]},{"id":"dessertsRestaurants_6236474f11ab","slug":"siropiasta-michailidis-6236","kind":"restaurant","name":"Siropiasta Michailidis","lat":40.61392951977613,"lng":22.979367441197244,"url":"https://maps.app.goo.gl/3YNsRZFm5KexaNhJ7?g_st=ipc","address":"Grigoriou Lampraki 160, Thessaloniki 543 52","categoryIds":["desserts"],"categories":["Dessert Shops"]},{"id":"dessertsRestaurants_84006bf7f4fa","slug":"sugarini-8400","kind":"restaurant","name":"Sugarini","lat":40.61332571258828,"lng":22.981104601509724,"url":"https://maps.app.goo.gl/m9owYPpFDRCrPtgq6?g_st=ipc","address":"Grigoriou Lampraki 169, Thessaloniki 543 52","categoryIds":["desserts"],"categories":["Dessert Shops"]},{"id":"dessertsRestaurants_509c5344d793","slug":"armenonville-509c","kind":"restaurant","name":"Armenonville","lat":40.62813210913547,"lng":22.94876500137915,"url":"https://maps.app.goo.gl/3MMykvcTvkcMNqrA6?g_st=ipc","address":"Mitropoleos 102, Thessaloniki 546 21","categoryIds":["desserts"],"categories":["Dessert Shops"]},{"id":"dessertsRestaurants_d6293efcb0d5","slug":"sugarela-d629","kind":"restaurant","name":"Sugarela","lat":40.628286349246984,"lng":22.94919276720608,"url":"https://maps.app.goo.gl/BWRmuMRqDoq6N7MH8?g_st=ipc","address":"Nikiforou Foka 12, Thessaloniki 546 21","categoryIds":["desserts"],"categories":["Dessert Shops"]},{"id":"cheapEatsRestaurants_09ba201c7611","slug":"yum-tree-09ba","kind":"restaurant","name":"Yum Tree","lat":40.62786595411914,"lng":22.947554429551257,"url":"https://maps.app.goo.gl/8t8Wb8QaYGPzQ1F76?g_st=ipc","address":"Dim. Gounari 5, Thessaloniki 546 22","categoryIds":["cheap-eats","desserts"],"categories":["Gyros & Cheap Eats","Dessert Shops"],"legacySlugs":["yum-tree-9cb3"]}],"nearby":[{"id":"greekRestaurants_cc662124d683","slug":"kafe-oyzeri-alekos-cc66","kind":"restaurant","name":"Καφέ Ουζερί Αλέκος","lat":40.6091971451293,"lng":22.955175029539653,"url":"https://maps.app.goo.gl/yo3KzKF59icWfQtFA?g_st=ipc","address":"Kosma tou Εtolou 22, Thessaloniki 546 43","categoryIds":["greek-restaurants"],"categories":["Greek Restaurants"],"distanceKm":0.28196261188093125},{"id":"greekRestaurants_7ec3d69bed0e","slug":"paggaion-7ec3","kind":"restaurant","name":"Παγγαίον","lat":40.60814749933467,"lng":22.96161599459279,"url":"https://maps.app.goo.gl/LDfYbYAQqiNM26EUA?g_st=ipc","address":"Τομπάζη 31, Θεσσαλονίκη 546 44","categoryIds":["greek-restaurants"],"categories":["Greek Restaurants"],"distanceKm":0.38607984820941105},{"id":"burgersRestaurants_3171f582de55","slug":"mpiftekadiko-to-paggaio-3171","kind":"restaurant","name":"ΜΠΙΦΤΕΚΑΔΙΚΟ \"ΤΟ ΠΑΓΓΑΙΟ\"","lat":40.60721344429672,"lng":22.960412947590548,"url":"https://maps.app.goo.gl/yBjtwqxUfodA37Zy6","address":"Mark. Mpotsari 49, Thessaloniki 546 44","categoryIds":["burgers"],"categories":["Burger Spots"],"distanceKm":0.4025525313264527},{"id":"burgersRestaurants_35e7234b2904","slug":"burger-house-pangeo-35e7","kind":"restaurant","name":"Burger House \"Pangèo\"","lat":40.6072060637355,"lng":22.960414958738784,"url":"https://maps.app.goo.gl/gtiPjSQBMAP3UP1C9?g_st=ic","address":"Mark. Mpotsari 49, Thessaloniki 546 44","categoryIds":["burgers"],"categories":["Burger Spots"],"distanceKm":0.4033540159603211},{"id":"coffeeBrunchRestaurants_3f47d83b09c0","slug":"butterflies-and-hurricanes-3f47","kind":"restaurant","name":"Butterflies And Hurricanes","lat":40.61464844201882,"lng":22.960841697890658,"url":"https://maps.app.goo.gl/Gesp19RwCPBWQ9s58?g_st=ipc","address":"Pindarou 1, Thessaloniki 546 39","categoryIds":["coffee-brunch","vegetarian"],"categories":["Coffee & Brunch Spots","Vegetarian Friendly Restaurants"],"legacySlugs":["butterflies-and-hurricanes-37b6"],"distanceKm":0.5262826715449648},{"id":"cheapEatsRestaurants_f00923c77588","slug":"terpsilaryngio-f009","kind":"restaurant","name":"Terpsilarýngio","lat":40.60676570771858,"lng":22.953926859309924,"url":"https://maps.app.goo.gl/AqaCxycK19KfYLPcA?g_st=ipc","address":"Mark. Mpotsari 14, Thessaloniki 546 43","categoryIds":["cheap-eats"],"categories":["Gyros & Cheap Eats"],"distanceKm":0.5364838973034579},{"id":"vegetarianRestaurants_afbddf6d4612","slug":"falaifel-afbd","kind":"restaurant","name":"Falaifel","lat":40.605220221287475,"lng":22.958853196988702,"url":"https://maps.app.goo.gl/GhD8UrgWEeP9DmB59?g_st=ipc","address":"Geor. Drosini 12, Thessaloniki 546 44","categoryIds":["vegetarian"],"categories":["Vegetarian Friendly Restaurants"],"distanceKm":0.5780424268134867},{"id":"coffeeBrunchRestaurants_f80aae297d57","slug":"the-coffee-rawsters-f80a","kind":"restaurant","name":"The Coffee Rawsters","lat":40.605074813300206,"lng":22.958339804305506,"url":"https://maps.app.goo.gl/6bHEuH2VrUaoPjxN6?g_st=ipc","address":"Delfon 117, Thessaloniki 546 44","categoryIds":["coffee-brunch"],"categories":["Coffee & Brunch Spots"],"distanceKm":0.591199912825261},{"id":"familyFriendly_70d9d42feecb","slug":"odysseas-fokas-park-70d9","kind":"restaurant","name":"Odysseas Fokas Park","lat":40.612796604966135,"lng":22.95168040124591,"url":"https://maps.app.goo.gl/yMHqMAgG61irWESX9?g_st=ipc","address":"Επιθεωρητού Δημητρίου Μισυρλή 26, Thessaloniki 542 50","categoryIds":["family-friendly"],"categories":["Kid Friendly Locations"],"distanceKm":0.6061733848888889},{"id":"cheapEatsRestaurants_35033892194c","slug":"souvlaki-street-3503","kind":"restaurant","name":"Souvlaki Street","lat":40.60499215993171,"lng":22.95914208357667,"url":"https://maps.app.goo.gl/8hPpQdZA8iNRAksd7?g_st=ipc","address":"Geor. Drosini 14, Thessaloniki 546 44","categoryIds":["cheap-eats"],"categories":["Gyros & Cheap Eats"],"distanceKm":0.6062398874234872},{"id":"cheapEatsRestaurants_9e983ad5e812","slug":"prassas-9e98","kind":"restaurant","name":"Prassas","lat":40.60822104515919,"lng":22.96538292733955,"url":"https://maps.app.goo.gl/cajfpJVBkeREe7FNA?g_st=ipc","address":"Mark. Mpotsari 89, Thessaloniki 546 44","categoryIds":["cheap-eats"],"categories":["Gyros & Cheap Eats"],"distanceKm":0.6585404106889626},{"id":"coffeeBrunchRestaurants_b83fc8a35279","slug":"byrek-b83f","kind":"restaurant","name":"Byrek","lat":40.604437611308434,"lng":22.958000236614392,"url":"https://maps.app.goo.gl/hxd33pfTMwrTNJ6K6?g_st=ic","address":"Petrou Sindika 46, Thessaloniki 542 48","categoryIds":["coffee-brunch"],"categories":["Coffee & Brunch Spots"],"distanceKm":0.6618522625332387},{"id":"coffeeBrunchRestaurants_395eba0202c2","slug":"orange-395e","kind":"restaurant","name":"Orange","lat":40.61657039911688,"lng":22.959405836121938,"url":"https://maps.app.goo.gl/GeBX3Ci17XiZV9go6?g_st=ipc","address":"Konstantinoupoleos 21, Thessaloniki 546 40","categoryIds":["coffee-brunch"],"categories":["Coffee & Brunch Spots"],"distanceKm":0.6958079234048157},{"id":"cheapEatsRestaurants_c679cc68cdf8","slug":"tost-spesial-c679","kind":"restaurant","name":"Tost Spesial","lat":40.616314670176166,"lng":22.955059124656405,"url":"https://maps.app.goo.gl/9AT6QmGaM1pLwsRb9?g_st=ipc","address":"Paraskevopoulou 12, Thessaloniki 546 40","categoryIds":["cheap-eats"],"categories":["Gyros & Cheap Eats"],"distanceKm":0.7078435152431474},{"id":"greekRestaurants_e19673ba852f","slug":"pire-kai-vradiazei-e196","kind":"restaurant","name":"Πήρε και Βραδιάζει","lat":40.6161654625719,"lng":22.96166588679185,"url":"https://maps.app.goo.gl/Y7iaetGgvQnRv1wAA?g_st=ipc","address":"Ομήρου 7, Θεσσαλονίκη 546 39","categoryIds":["greek-restaurants"],"categories":["Greek Restaurants"],"distanceKm":0.7085058795780701},{"id":"familyFriendly_42d6652d0a87","slug":"garden-of-roses-playground-42d6","kind":"restaurant","name":"Garden of Roses Playground","lat":40.60699253708574,"lng":22.950719648023778,"url":"https://maps.app.goo.gl/cAbkipq3qupUHj1v7?g_st=ipc","address":"Leof. Meg. Alexandrou 14, Thessaloniki 546 43","categoryIds":["family-friendly"],"categories":["Kid Friendly Locations"],"distanceKm":0.7302344665051477},{"id":"familyFriendly_06e3b0e7591a","slug":"hado-arena-toumpa-06e3","kind":"restaurant","name":"HADO ARENA TOUMPA","lat":40.61298475023653,"lng":22.966163361832432,"url":"https://maps.app.goo.gl/Y3M4X3SLfpUBctf88?g_st=ipc","address":"Kleanthous 25, Thessaloniki 544 53","categoryIds":["family-friendly"],"categories":["Kid Friendly Locations"],"distanceKm":0.7375094869916555},{"id":"greekRestaurants_575dfe5a741b","slug":"menu-me-noy-575d","kind":"restaurant","name":"Menu με...νου","lat":40.60815951661583,"lng":22.966514659148867,"url":"https://maps.app.goo.gl/x5kA6azJxjLv1HQX6?g_st=ipc","address":"Αλεξάνδρου Παπαναστασίου, Δ 87, Thessaloniki 544 53","categoryIds":["greek-restaurants"],"categories":["Greek Restaurants"],"distanceKm":0.7504947801955706},{"id":"asianRestaurants_e9c045aff53d","slug":"sushaki-greek-sushi-experience-e9c0","kind":"restaurant","name":"Sushaki | Greek Sushi Experience","lat":40.60428165420744,"lng":22.954061100104322,"url":"https://maps.app.goo.gl/Tfd55EpuS182EpUw7","address":"Petrou Sindika 11, Thessaloniki 546 43","categoryIds":["asian"],"categories":["Asian Restaurants"],"distanceKm":0.7607797307473917},{"id":"coffeeBrunchRestaurants_4980bf5534c8","slug":"avenue-modern-cuisine-4980","kind":"restaurant","name":"AVENUE - Modern Cuisine","lat":40.6155426258885,"lng":22.952060123633387,"url":"https://maps.app.goo.gl/sbWsHkcndnd2Zv547?g_st=ipc","address":"Leof. Meg. Alexandrou 6, Thessaloniki 546 41","categoryIds":["coffee-brunch"],"categories":["Coffee & Brunch Spots"],"distanceKm":0.7683215076005595},{"id":"cheapEatsRestaurants_fccedeec0967","slug":"to-myrmigki-hot-dog-vrasta-loykanika-fcce","kind":"restaurant","name":"Το Μυρμήγκι - HOT-DOG - Βραστά Λουκάνικα","lat":40.61789526919397,"lng":22.95852389027651,"url":"https://maps.app.goo.gl/u5NXam3TJPXTBEGQ6?g_st=ipc","address":"Konstantinoupoleos 8, Thessaloniki 546 40","categoryIds":["cheap-eats"],"categories":["Gyros & Cheap Eats"],"distanceKm":0.835337332706254},{"id":"cheapEatsRestaurants_6567e814aa5e","slug":"o-gyros-toy-michali-6567","kind":"restaurant","name":"Ο Γύρος του Μιχάλη","lat":40.60335488153119,"lng":22.961687059004745,"url":"https://maps.app.goo.gl/sNmZpvpUx9Yt5Avj6?g_st=ipc","address":"Makedonias 105, Thessaloniki 542 48","categoryIds":["cheap-eats"],"categories":["Gyros & Cheap Eats"],"distanceKm":0.8380297595362949},{"id":"cheapEatsRestaurants_0368efbccc32","slug":"grill-junior-0368","kind":"restaurant","name":"Grill Junior","lat":40.60286928963285,"lng":22.956953349868357,"url":"https://maps.app.goo.gl/KmNipqE8jJT8qrZ17?g_st=ipc","address":"Thermopilon 31, Thessaloniki 542 48","categoryIds":["cheap-eats"],"categories":["Gyros & Cheap Eats"],"distanceKm":0.8419724221452425},{"id":"cheapEatsRestaurants_c619a7c97409","slug":"to-kokoraki-c619","kind":"restaurant","name":"ΤΟ ΚΟΚΟΡΑΚΙ","lat":40.6088349903696,"lng":22.967918512345722,"url":"https://maps.app.goo.gl/KNA3DuGAxNV9SYMs8?g_st=ipc","address":"Mark. Mpotsari 105, Thessaloniki 544 53","categoryIds":["cheap-eats","greek-restaurants"],"categories":["Gyros & Cheap Eats","Greek Restaurants"],"legacySlugs":["to-kokoraki-5da1"],"distanceKm":0.844731759822666}],"mentionedGuides":[],"canonicalSlug":"nikos-alexoudas-e4f6","enrichment":{"summary_en":"Nikos Alexoudas is a curated restaurant in Thessaloniki 546 42 in the Dessert Shops collection. It is connected to 22 nearby Googlementor picks to help travelers build a stronger local route.","summary_el":"Nikos Alexoudas είναι ένα επιλεγμένο σημείο φαγητού στην περιοχή Thessaloniki 546 42 και ανήκει στη συλλογή Dessert Shops. Συνδέεται με 22 κοντινές προτάσεις του Googlementor για πιο ολοκληρωμένη εμπειρία.","vibe_tags":["curated","sweet-stop"],"best_for":["first-time visitors","food lovers"],"visit_moments":["afternoon break","after dinner"],"practical_note":"Address and direct map link are available for easy turn-by-turn access.","nearby_walkable_count":22,"nearby_count_2km":101,"confidence":0.98},"areaContext":{"slug":"nea-paralia","name":"Nea Paralia","nameEl":"Νέα Παραλία"},"intentContexts":[{"href":"/desserts/nea-paralia","label":"Dessert Shops in Nea Paralia","categorySlug":"desserts","categoryName":"Dessert Shops","areaSlug":"nea-paralia","areaName":"Nea Paralia","areaNameEl":"Νέα Παραλία"}]},"__N_SSG":true}