{"pageProps":{"entity":{"id":"asianRestaurants_e45a00190680","slug":"nyx-japanese-rooftop-gastrobar-e45a","kind":"restaurant","name":"NYX Japanese Rooftop Gastrobar","lat":37.979692107976724,"lng":23.736124325689694,"url":"https://maps.app.goo.gl/Tg5ncVYwYwG98YZBA?g_st=ipc","address":"Ομήρου 19, Αθήνα 106 19","categoryIds":["asian","luxury-dining","rooftop-lounges"],"categories":["Asian Restaurants","Luxury Dining","Rooftop Lounges"],"legacySlugs":["nyx-japanese-rooftop-gastrobar-3e6e","nyx-japanese-rooftop-gastrobar-f14e"]},"sameCategory":[{"id":"asianRestaurants_ec91ac928fa7","slug":"nakama-sushi-bar-ec91","kind":"restaurant","name":"Nakama Sushi Bar","lat":37.98166443323037,"lng":23.7366555719328,"url":"https://maps.app.goo.gl/uHeeoqNeizUhJTXy6?g_st=ipc","address":"Μασσαλίας 5, Αθήνα 106 80","categoryIds":["asian"],"categories":["Asian Restaurants"]},{"id":"asianRestaurants_145a81e4039e","slug":"akira-sushi-bar-athens-japanese-restaurant-145a","kind":"restaurant","name":"Akira Sushi Bar | Athens Japanese Restaurant","lat":37.979592346362566,"lng":23.73239256912945,"url":"https://maps.app.goo.gl/y6KSXjJTao7NPHZG8?g_st=ipc","address":"Σταδίου 30 &, Κοραή 4, Αθήνα 105 64","categoryIds":["asian"],"categories":["Asian Restaurants"]},{"id":"asianRestaurants_464e7e4c810b","slug":"tanpopo-464e","kind":"restaurant","name":"Tanpopo","lat":37.9795596589589,"lng":23.72974278108181,"url":"https://maps.app.goo.gl/H2M3yGFhApNA288V8?g_st=ipc","address":"Αριστείδου 1, Ευριπίδου 2, Αθήνα 105 59","categoryIds":["asian"],"categories":["Asian Restaurants"]},{"id":"asianRestaurants_427d94265987","slug":"shisan-sushi-bar-427d","kind":"restaurant","name":"Shisan Sushi Bar","lat":37.977337086650145,"lng":23.730266018891072,"url":"https://maps.app.goo.gl/nPpYrXs7ZyBAs7gx9?g_st=ipc","address":"Ρόμβης 24Α, Αθήνα 105 62","categoryIds":["asian"],"categories":["Asian Restaurants"]},{"id":"asianRestaurants_c5be8384da5c","slug":"hanoi-athens-authentic-vietnamese-food-c5be","kind":"restaurant","name":"HANOI ATHENS - AUTHENTIC VIETNAMESE FOOD","lat":37.97561643327209,"lng":23.73154671347612,"url":"https://maps.app.goo.gl/WvsC9Ebt7yScnxNH8?g_st=ipc","address":"Πετράκη 12, Αθήνα 105 63","categoryIds":["asian","vegetarian"],"categories":["Asian Restaurants","Vegetarian Friendly Restaurants"],"legacySlugs":["hanoi-athens-authentic-vietnamese-food-1e56"]},{"id":"asianRestaurants_d1a59d966352","slug":"east-pearl-chinese-restaurant-d1a5","kind":"restaurant","name":"East Pearl Chinese restaurant","lat":37.97475497132636,"lng":23.732999717791024,"url":"https://maps.app.goo.gl/X4tWaVESeHdhnYpi6?g_st=ipc","address":"Απόλλωνος 2, Αθήνα 105 57","categoryIds":["asian"],"categories":["Asian Restaurants"]},{"id":"asianRestaurants_47edca6d922f","slug":"gaku-47ed","kind":"restaurant","name":"GAKU","lat":37.974764541523264,"lng":23.73278280614978,"url":"https://maps.app.goo.gl/d2jzonLKf2Au2UP28?g_st=ipc","address":"Απόλλωνος 2, Αθήνα 105 57","categoryIds":["asian"],"categories":["Asian Restaurants"]},{"id":"asianRestaurants_8d5a854c9f57","slug":"koi-sushi-bar-8d5a","kind":"restaurant","name":"Koi Sushi Bar","lat":37.9746059285853,"lng":23.73317074110448,"url":"https://maps.app.goo.gl/cap6URyugQKPXeA47?g_st=ipc","address":"Νίκης 15, Αθήνα 105 57","categoryIds":["asian"],"categories":["Asian Restaurants"]},{"id":"asianRestaurants_42df17dcd2e4","slug":"dosirak-42df","kind":"restaurant","name":"Dosirak","lat":37.97494107666411,"lng":23.732376863056064,"url":"https://maps.app.goo.gl/PwDtN3ePd5r7qvjc7?g_st=ipc","address":"Βουλής 33, Αθήνα 105 57","categoryIds":["asian"],"categories":["Asian Restaurants"]},{"id":"asianRestaurants_50c893ba0bac","slug":"ikura-sushi-korean-food-50c8","kind":"restaurant","name":"IKURA Sushi - Korean food","lat":37.97430159758245,"lng":23.73415791767136,"url":"https://maps.app.goo.gl/rG3Ram1UiVYEUuFt9?g_st=ipc","address":"Φιλελλήνων 7, Αθήνα 105 57","categoryIds":["asian"],"categories":["Asian Restaurants"]},{"id":"asianRestaurants_43504a2d050f","slug":"shiraki-athens-4350","kind":"restaurant","name":"Shiraki Athens","lat":37.97450335727445,"lng":23.733167658895514,"url":"https://maps.app.goo.gl/WStEy7p33ZAzDLCY7?g_st=ipc","address":"Νίκης 17, Αθήνα 105 57","categoryIds":["asian"],"categories":["Asian Restaurants"]},{"id":"asianRestaurants_e28b11d8898b","slug":"nolan-e28b","kind":"restaurant","name":"Nolan","lat":37.97479795746223,"lng":23.732371775380916,"url":"https://maps.app.goo.gl/X3KiMCEXwDEoAj3N6?g_st=ipc","address":"Βουλής 31 - 33, Αθήνα 105 57","categoryIds":["asian","luxury-dining"],"categories":["Asian Restaurants","Luxury Dining"],"legacySlugs":["nolan-d22b"]}],"nearby":[{"id":"italianRestaurants_b4580bbde39a","slug":"piadina-lumbro-b458","kind":"restaurant","name":"Piadina Lumbro","lat":37.97943796124596,"lng":23.735657958882037,"url":"https://maps.app.goo.gl/uGAbtwYha4Eeb7c56?g_st=ipc","address":"Ομήρου 15, Αθήνα 106 72","categoryIds":["italian"],"categories":["Italian Restaurants"],"distanceKm":0.04969350734317676},{"id":"burgersRestaurants_73735eff606b","slug":"meat-n-roses-kolonaki-7373","kind":"restaurant","name":"Meat n Roses Kolonaki","lat":37.97930236645354,"lng":23.735454286708567,"url":"https://maps.app.goo.gl/KJyNqjkU3cm9AqGa8?g_st=ic","address":"Omirou 13, Athina 106 72","categoryIds":["burgers"],"categories":["Burger Spots"],"distanceKm":0.07298624656765224},{"id":"coffeeBrunchRestaurants_8e0209d5d821","slug":"efimerida-ath-8e02","kind":"restaurant","name":"Εφημερίδα ATH","lat":37.97982401641368,"lng":23.734805099489133,"url":"https://maps.app.goo.gl/Kv2HqL5VxXf39c5Y7?g_st=ipc","address":"Βησσαρίωνος 9, Αθήνα 106 72","categoryIds":["coffee-brunch"],"categories":["Coffee & Brunch Spots"],"distanceKm":0.11655278962649311},{"id":"coffeeBrunchRestaurants_d047b317da2a","slug":"to-tsai-d047","kind":"restaurant","name":"To Tsai","lat":37.97897316301174,"lng":23.737126960431553,"url":"https://maps.app.goo.gl/xwzLF5n6xn8fr2tf8?g_st=ipc","address":"Αλ. Σούτσου 19, Αθήνα 106 71","categoryIds":["coffee-brunch","vegetarian"],"categories":["Coffee & Brunch Spots","Vegetarian Friendly Restaurants"],"legacySlugs":["to-tsai-23ba"],"distanceKm":0.11880027030752664},{"id":"coffeeBrunchRestaurants_ad607df7652f","slug":"samba-coffee-roasters-the-shop-ad60","kind":"restaurant","name":"Samba Coffee Roasters | The Shop","lat":37.9794317267494,"lng":23.73762622482217,"url":"https://maps.app.goo.gl/34yfEmMHeLiaz3iD9?g_st=ipc","address":"Σόλωνος 36, Αθήνα 106 73","categoryIds":["coffee-brunch"],"categories":["Coffee & Brunch Spots"],"distanceKm":0.13478372215437978},{"id":"italianRestaurants_c9470358a12d","slug":"la-pasteria-c947","kind":"restaurant","name":"La Pasteria","lat":37.97832911911956,"lng":23.73614187652223,"url":"https://maps.app.goo.gl/4tmrg1wVrWp5rgjx6?g_st=ipc","address":"Βαλαωρίτου 15, Αθήνα 106 71","categoryIds":["italian"],"categories":["Italian Restaurants"],"distanceKm":0.1515652525504788},{"id":"coffeeBrunchRestaurants_89f23e6089a9","slug":"philos-athens-89f2","kind":"restaurant","name":"Philos Athens","lat":37.97913933627947,"lng":23.73788834865789,"url":"https://maps.app.goo.gl/jExQQH2yipA8bApt9?g_st=ipc","address":"Σόλωνος 32, Αθήνα 106 73","categoryIds":["coffee-brunch"],"categories":["Coffee & Brunch Spots"],"distanceKm":0.16638169392662305},{"id":"dessertsRestaurants_212bd4b3371e","slug":"desire-zacharoplasteio-212b","kind":"restaurant","name":"DESIRE Ζαχαροπλαστείο","lat":37.97875008220235,"lng":23.737643413526353,"url":"https://maps.app.goo.gl/622nuTbk44qURXdA9?g_st=ipc","address":"Δημοκρίτου 6, Αθήνα 106 71","categoryIds":["desserts"],"categories":["Dessert Shops"],"distanceKm":0.16940981492504548},{"id":"burgersRestaurants_3c1c73d21fec","slug":"meat-n-roses-kolonaki-3c1c","kind":"restaurant","name":"Meat n Roses Kolonaki","lat":37.97828442263524,"lng":23.735087640545906,"url":"https://maps.app.goo.gl/qGwCStnKNtrJzrtm6?g_st=ipc","address":"Αμερικής 7, Αθήνα 106 72","categoryIds":["burgers","cheap-eats"],"categories":["Burger Spots","Gyros & Cheap Eats"],"legacySlugs":["meat-n-roses-kolonaki-9219"],"distanceKm":0.18098890222240538},{"id":"mustSeeAttractions_4c1bed18d9f3","slug":"academy-of-athens-4c1b","kind":"restaurant","name":"Academy of Athens","lat":37.980052000475574,"lng":23.73401307902472,"url":"https://maps.app.goo.gl/ggPZ2e3QeajFYXJX8?g_st=ipc","address":"Panepistimiou 28, Athina 106 79","categoryIds":["attractions"],"categories":["Must-See Attractions"],"distanceKm":0.18932188955851265},{"id":"italianRestaurants_a02be0df2fa9","slug":"frankie-a02b","kind":"restaurant","name":"Frankie","lat":37.98052235951531,"lng":23.738034947822758,"url":"https://maps.app.goo.gl/Ju5CstFm66m8QTbA9?g_st=ipc","address":"Σκουφά 42, Αθήνα 106 72","categoryIds":["italian"],"categories":["Italian Restaurants"],"distanceKm":0.19122135976378196},{"id":"vegetarianRestaurants_1d02bb631594","slug":"nice-n-easy-1d02","kind":"restaurant","name":"nice n easy","lat":37.98055624645478,"lng":23.738055581611157,"url":"https://maps.app.goo.gl/5WJ6mEF77rV1Cpfv8?g_st=ipc","address":"Ομήρου 60, Αθήνα 106 72","categoryIds":["vegetarian"],"categories":["Vegetarian Friendly Restaurants"],"distanceKm":0.19463938555172694},{"id":"italianRestaurants_52398969c9ea","slug":"alex-the-fresh-pasta-bar-5239","kind":"restaurant","name":"ALEX the fresh pasta bar","lat":37.98144779340368,"lng":23.73652703184346,"url":"https://maps.app.goo.gl/sAWyTjj3m9qMaTaY8?g_st=ipc","address":"Μασσαλίας 16, Αθήνα 106 80","categoryIds":["italian"],"categories":["Italian Restaurants"],"distanceKm":0.1983883063780303},{"id":"coffeeBrunchRestaurants_19d13a25b343","slug":"filion-19d1","kind":"restaurant","name":"Φίλιον","lat":37.980020632255595,"lng":23.738452651724426,"url":"https://maps.app.goo.gl/Ts2X8wZmEjWPZrR3A?g_st=ipc","address":"Σκουφά 34, Αθήνα 106 72","categoryIds":["coffee-brunch"],"categories":["Coffee & Brunch Spots"],"distanceKm":0.20731428708415772},{"id":"asianRestaurants_ec91ac928fa7","slug":"nakama-sushi-bar-ec91","kind":"restaurant","name":"Nakama Sushi Bar","lat":37.98166443323037,"lng":23.7366555719328,"url":"https://maps.app.goo.gl/uHeeoqNeizUhJTXy6?g_st=ipc","address":"Μασσαλίας 5, Αθήνα 106 80","categoryIds":["asian"],"categories":["Asian Restaurants"],"distanceKm":0.22420075196668451},{"id":"dessertsRestaurants_9c94210f8850","slug":"portatif-9c94","kind":"restaurant","name":"Πορτατίφ","lat":37.98143747413951,"lng":23.73741735308623,"url":"https://maps.app.goo.gl/SMmjRRT6odmioe2Z7?g_st=ipc","address":"Σίνα 21, Αθήνα 106 72","categoryIds":["desserts"],"categories":["Dessert Shops"],"distanceKm":0.22474170547224392},{"id":"coffeeBrunchRestaurants_394da04a2026","slug":"it-restaurant-kolonaki-394d","kind":"restaurant","name":"IT restaurant Kolonaki","lat":37.9781134250021,"lng":23.737763201387953,"url":"https://maps.app.goo.gl/5dn3SzH3a8fsGfeW7?g_st=ipc","address":"106 71 Voukourestiou 30 &, Αλ. Σούτσου, Αθήνα 106 71","categoryIds":["coffee-brunch"],"categories":["Coffee & Brunch Spots"],"distanceKm":0.22682257562851013},{"id":"monasteriesChurches_4b11b4e1cf5d","slug":"ieros-naos-agioy-dionysioy-areopagitoy-polioychoy-athinon-4b11","kind":"restaurant","name":"Ιερός Ναός Αγίου Διονυσίου Αρεοπαγίτου, Πολιούχου Αθηνών","lat":37.97972265813733,"lng":23.73873188558116,"url":"https://maps.app.goo.gl/m2sqAvFCJXsVJyjB8?g_st=ipc","address":"Σκουφά 34, Αθήνα 106 72","categoryIds":["monasteries-churches"],"categories":["Monasteries & Spiritual Sites"],"distanceKm":0.2285701471522333},{"id":"vegetarianRestaurants_4aaf4cac48a9","slug":"pure-juice-bar-kolonaki-4aaf","kind":"restaurant","name":"PURE Juice Bar | Kolonaki","lat":37.981469364192144,"lng":23.7374505875668,"url":"https://maps.app.goo.gl/5fer5pjj8yDkf3VZ7?g_st=ipc","address":"Σίνα 21, Αθήνα 106 80","categoryIds":["vegetarian"],"categories":["Vegetarian Friendly Restaurants"],"distanceKm":0.22927385697917865},{"id":"coffeeBrunchRestaurants_741e5993d85c","slug":"paul-athens-741e","kind":"restaurant","name":"PAUL Athens","lat":37.977628510320386,"lng":23.735790636370144,"url":"https://maps.app.goo.gl/2zHj3YHoNrWUYk8f8?g_st=ipc","address":"Πανεπιστημίου 10, Αθήνα 106 71","categoryIds":["coffee-brunch"],"categories":["Coffee & Brunch Spots"],"distanceKm":0.23131801860434073},{"id":"luxuryDiningRestaurants_cde7552f30ab","slug":"tilemachos-athens-cde7","kind":"restaurant","name":"Τηλέμαχος Athens","lat":37.97762848061713,"lng":23.73578847774419,"url":"https://maps.app.goo.gl/RBuX85zG8FLEfgP38?g_st=ipc","address":"Πανεπιστημίου 10, Αθήνα 106 71","categoryIds":["luxury-dining"],"categories":["Luxury Dining"],"distanceKm":0.23134529272084778},{"id":"luxuryDiningRestaurants_35d3fcaae0e0","slug":"athenee-35d3","kind":"restaurant","name":"Athénée","lat":37.97732441090204,"lng":23.73522238103731,"url":"https://maps.app.goo.gl/XVTtg2fQJZ9BgKwf8?g_st=ipc","address":"Βουκουρεστίου 9, Αθήνα 106 71","categoryIds":["luxury-dining"],"categories":["Luxury Dining"],"distanceKm":0.27488860787710134},{"id":"rooftopLoungesRestaurants_a85e8793b95e","slug":"galaxy-bar-a85e","kind":"restaurant","name":"Galaxy Bar","lat":37.97799760915879,"lng":23.73380131955468,"url":"https://maps.app.goo.gl/onyhWrgj9TNpbXLX8?g_st=ipc","address":"Σταδίου 10, Αθήνα 105 62","categoryIds":["rooftop-lounges"],"categories":["Rooftop Lounges"],"distanceKm":0.2774126594852308},{"id":"coffeeBrunchRestaurants_fbce3a8d9ac7","slug":"free-thinking-zone-fbce","kind":"restaurant","name":"Free Thinking Zone","lat":37.982167427382876,"lng":23.7367442995071,"url":"https://maps.app.goo.gl/MVnbPnESdj5g5dLr8?g_st=ipc","address":"106 80, Skoufa 64 &, Γριβαίων 1, Αθήνα 106 80","categoryIds":["coffee-brunch"],"categories":["Coffee & Brunch Spots"],"distanceKm":0.2805553443492872}],"mentionedGuides":[],"canonicalSlug":"nyx-japanese-rooftop-gastrobar-e45a","enrichment":{"summary_en":"NYX Japanese Rooftop Gastrobar is a curated restaurant in Αθήνα 106 19 in the Asian Restaurants collection. It is connected to 256 nearby Googlementor picks to help travelers build a stronger local route.","summary_el":"NYX Japanese Rooftop Gastrobar είναι ένα επιλεγμένο σημείο φαγητού στην περιοχή Αθήνα 106 19 και ανήκει στη συλλογή Asian Restaurants. Συνδέεται με 256 κοντινές προτάσεις του Googlementor για πιο ολοκληρωμένη εμπειρία.","vibe_tags":["curated","premium-dining","city-views"],"best_for":["first-time visitors","food lovers","special occasions"],"visit_moments":["golden hour","night out"],"practical_note":"Address and direct map link are available for easy turn-by-turn access.","nearby_walkable_count":256,"nearby_count_2km":633,"confidence":0.98},"areaContext":{"slug":"exarcheia","name":"Exarcheia","nameEl":"Εξάρχεια"},"intentContexts":[{"href":"/asian-restaurants/exarcheia","label":"Asian Restaurants in Exarcheia","categorySlug":"asian-restaurants","categoryName":"Asian Restaurants","areaSlug":"exarcheia","areaName":"Exarcheia","areaNameEl":"Εξάρχεια"},{"href":"/luxury-dining/exarcheia","label":"Luxury Dining in Exarcheia","categorySlug":"luxury-dining","categoryName":"Luxury Dining","areaSlug":"exarcheia","areaName":"Exarcheia","areaNameEl":"Εξάρχεια"},{"href":"/rooftops/exarcheia","label":"Rooftop Lounges in Exarcheia","categorySlug":"rooftops","categoryName":"Rooftop Lounges","areaSlug":"exarcheia","areaName":"Exarcheia","areaNameEl":"Εξάρχεια"}]},"__N_SSG":true}