{"pageProps":{"entity":{"id":"greekRestaurants_37aeec286967","slug":"o-zachos-37ae","kind":"restaurant","name":"Ο Ζάχος","lat":40.01217335149507,"lng":23.447184477767923,"url":"https://maps.app.goo.gl/zwVdQG5iLtPWd8BUA?g_st=ipc","address":"0, Κασσανδρηνό 630 77","categoryIds":["greek-restaurants"],"categories":["Greek Restaurants"]},"sameCategory":[{"id":"greekRestaurants_33e109e116ef","slug":"i-plateia-tis-anthoylas-33e1","kind":"restaurant","name":"Η Πλατεία της Ανθούλας","lat":40.03314783613042,"lng":23.477056436374422,"url":"https://maps.app.goo.gl/MZZAF1dJsdusePjd6?g_st=ipc","address":"Main road, Κρυοπηγή 630 77","categoryIds":["greek-restaurants"],"categories":["Greek Restaurants"]},{"id":"greekRestaurants_85a9c3158d92","slug":"stoy-thanasi-85a9","kind":"restaurant","name":"Στου Θανάση","lat":39.97151226037513,"lng":23.40064685012255,"url":"https://maps.app.goo.gl/M587jr7jBknUvhmQ9?g_st=ipc","address":"Unnamed Road, Καλάνδρα 630 77","categoryIds":["greek-restaurants"],"categories":["Greek Restaurants"]},{"id":"greekRestaurants_5f291c18ffbb","slug":"dias-restaurant-5f29","kind":"restaurant","name":"Dias Restaurant","lat":40.06967513248834,"lng":23.453446118410188,"url":"https://maps.app.goo.gl/CuNAkyg2DXjQVmd46?g_st=ipc","address":"Καλλιθέα Κασσανδρεια, Κασσανδρεία 630 77","categoryIds":["greek-restaurants"],"categories":["Greek Restaurants"]},{"id":"greekRestaurants_5bb44ebf778d","slug":"metoxi-restaurant-5bb4","kind":"restaurant","name":"Metoxi restaurant","lat":40.065274134226456,"lng":23.39221583090552,"url":"https://maps.app.goo.gl/7wBDRqK9LUsGSLah7?g_st=ipc","address":"Κασσανδρεία 630 77","categoryIds":["greek-restaurants"],"categories":["Greek Restaurants"]},{"id":"greekRestaurants_9f92ac7d9fa1","slug":"kardamo-9f92","kind":"restaurant","name":"Kardamo","lat":40.097556175200374,"lng":23.437132587550042,"url":"https://maps.app.goo.gl/ePoWRBDG86ratDjz8?g_st=ipc","address":"Άφυτος 630 77","categoryIds":["greek-restaurants"],"categories":["Greek Restaurants"]},{"id":"greekRestaurants_2313eb757566","slug":"to-palio-rementzo-2313","kind":"restaurant","name":"To Palio Rementzo","lat":40.09848139695357,"lng":23.43773202901174,"url":"https://maps.app.goo.gl/2T1nNQxZML5ZNxhC9?g_st=ipc","address":"Άφυτος 630 77","categoryIds":["greek-restaurants"],"categories":["Greek Restaurants"]},{"id":"greekRestaurants_51d0de5678c5","slug":"mnemes-farm-51d0","kind":"restaurant","name":"Mnēmes Farm","lat":39.995744895148555,"lng":23.586019155143934,"url":"https://maps.app.goo.gl/Yr8SQnhBoShFTSkP6?g_st=ipc","address":"Εκτός Οικισμού Πευκοχωρίου, Πευκοχώρι 630 85","categoryIds":["greek-restaurants"],"categories":["Greek Restaurants"]},{"id":"greekRestaurants_1d153d1c9158","slug":"canela-restaurant-by-blue-carpet-1d15","kind":"restaurant","name":"Canela Restaurant by Blue Carpet","lat":39.993683609742966,"lng":23.60103609139866,"url":"https://maps.app.goo.gl/iBL9Hhx7josAfHZq6?g_st=ipc","address":"Παραλία, Πευκοχώρι 630 85","categoryIds":["greek-restaurants"],"categories":["Greek Restaurants"]},{"id":"greekRestaurants_4ed7350eaa50","slug":"massalia-nea-fokaia-4ed7","kind":"restaurant","name":"Μασσαλία - Νέα Φώκαια","lat":40.13302544916829,"lng":23.396518787610884,"url":"https://maps.app.goo.gl/uWerarGoWNG5Gpax8?g_st=ipc","address":"Πλατεια, Νέα Φώκαια 630 77","categoryIds":["greek-restaurants"],"categories":["Greek Restaurants"]},{"id":"greekRestaurants_2beb8ff39579","slug":"archontiko-agia-paraskeyi-2beb","kind":"restaurant","name":"Αρχοντικό Αγία Παρασκευή","lat":39.95369257965996,"lng":23.606491610468332,"url":"https://maps.app.goo.gl/Sg6pdLqPaLdxMQsT7?g_st=ipc","address":"Unnamed Road, Αγ. Παρασκευή 630 85","categoryIds":["greek-restaurants"],"categories":["Greek Restaurants"]},{"id":"greekRestaurants_3369a941ef57","slug":"taverna-giannikos-3369","kind":"restaurant","name":"Ταβέρνα Γιαννίκος","lat":39.94177003077369,"lng":23.66270542049451,"url":"https://maps.app.goo.gl/o6uWLuYRQYRTiAPA9?g_st=ipc","address":"Παλιούρι 630 85","categoryIds":["greek-restaurants"],"categories":["Greek Restaurants"]},{"id":"greekRestaurants_5d95f90e24a6","slug":"ta-kastra-5d95","kind":"restaurant","name":"Τα Κάστρα","lat":40.19644489776472,"lng":23.325795895395796,"url":"https://maps.app.goo.gl/1jdDdXYAsWUehvoW8?g_st=ipc","address":"Κανάλι Νέας Ποτίδαιας, Νέα Ποτίδαια 632 00","categoryIds":["greek-restaurants"],"categories":["Greek Restaurants"]}],"nearby":[{"id":"fishTavernasRestaurants_283debb71041","slug":"glykanisos-283d","kind":"restaurant","name":"Γλυκάνισος","lat":40.005631717428024,"lng":23.415752772781822,"url":"https://maps.app.goo.gl/7zcGKcrt65G6bQFf6?g_st=ipc","address":"Fourka 630 77","categoryIds":["fish-tavernas"],"categories":["Fish Tavernas"],"distanceKm":2.774075795402036},{"id":"fishTavernasRestaurants_192fa7a5e6f3","slug":"trizoni-sea-treasures-192f","kind":"restaurant","name":"Trizoni Sea Treasures","lat":40.03314898834852,"lng":23.476924334583536,"url":"https://maps.app.goo.gl/TbVXDeBneUxZKZxp7?g_st=ipc","address":"Trizoni Sea Treasures, Kriopigi 630 77","categoryIds":["fish-tavernas"],"categories":["Fish Tavernas"],"distanceKm":3.4428339224535733},{"id":"greekRestaurants_33e109e116ef","slug":"i-plateia-tis-anthoylas-33e1","kind":"restaurant","name":"Η Πλατεία της Ανθούλας","lat":40.03314783613042,"lng":23.477056436374422,"url":"https://maps.app.goo.gl/MZZAF1dJsdusePjd6?g_st=ipc","address":"Main road, Κρυοπηγή 630 77","categoryIds":["greek-restaurants"],"categories":["Greek Restaurants"],"distanceKm":3.451029868900875},{"id":"coffeeBrunchRestaurants_2451ebf0828a","slug":"agora-beach-greek-kouzina-beach-bar-2451","kind":"restaurant","name":"Agora Beach - Greek Kouzina & Beach Bar","lat":40.05004401134577,"lng":23.47152357517926,"url":"https://maps.app.goo.gl/cd42keBiiYDufY3k8?g_st=ipc","address":"Κρυοπηγη Χαλκιδική 630 77","categoryIds":["coffee-brunch"],"categories":["Coffee & Brunch Spots"],"distanceKm":4.6932950302324885},{"id":"coffeeBrunchRestaurants_9b3f9081336d","slug":"amaya-beach-club-9b3f","kind":"restaurant","name":"Amaya Beach Club","lat":40.026446407870004,"lng":23.507188076460846,"url":"https://maps.app.goo.gl/DziL4jUhyUbQGmrNA?g_st=ipc","address":"2GG4+9J, Pallini 630 85","categoryIds":["coffee-brunch"],"categories":["Coffee & Brunch Spots"],"distanceKm":5.350481162005251},{"id":"fishTavernasRestaurants_698f5e3c9fb8","slug":"mple-seaside-gastrobar-698f","kind":"restaurant","name":"Mple Seaside Gastrobar","lat":39.996322262418225,"lng":23.38211842182523,"url":"https://maps.app.goo.gl/59Aq6jZbxYFVPEPU7?g_st=ipc","address":"Σκάλα Φούρκας 630 77","categoryIds":["fish-tavernas"],"categories":["Fish Tavernas"],"distanceKm":5.815527950628573},{"id":"coffeeBrunchRestaurants_b84b53e707eb","slug":"crystal-beach-bar-b84b","kind":"restaurant","name":"Crystal Beach Bar","lat":40.02336409343884,"lng":23.51395324156485,"url":"https://maps.app.goo.gl/Q863Q6e1e1985SvJ9?g_st=ipc","address":"Unnamed Road, Kassandra 630 85","categoryIds":["coffee-brunch"],"categories":["Coffee & Brunch Spots"],"distanceKm":5.8204702879261685},{"id":"greekRestaurants_85a9c3158d92","slug":"stoy-thanasi-85a9","kind":"restaurant","name":"Στου Θανάση","lat":39.97151226037513,"lng":23.40064685012255,"url":"https://maps.app.goo.gl/M587jr7jBknUvhmQ9?g_st=ipc","address":"Unnamed Road, Καλάνδρα 630 77","categoryIds":["greek-restaurants"],"categories":["Greek Restaurants"],"distanceKm":6.0133148310894455},{"id":"coffeeBrunchRestaurants_f9a995ba9231","slug":"zattero-seaside-bar-f9a9","kind":"restaurant","name":"Zattero Seaside Bar","lat":39.989902440234324,"lng":23.37887042765103,"url":"https://maps.app.goo.gl/d978qu99YawDBboB8?g_st=ipc","address":"Σκάλα Φούρκας 630 77","categoryIds":["coffee-brunch"],"categories":["Coffee & Brunch Spots"],"distanceKm":6.323957842830052},{"id":"greekRestaurants_5f291c18ffbb","slug":"dias-restaurant-5f29","kind":"restaurant","name":"Dias Restaurant","lat":40.06967513248834,"lng":23.453446118410188,"url":"https://maps.app.goo.gl/CuNAkyg2DXjQVmd46?g_st=ipc","address":"Καλλιθέα Κασσανδρεια, Κασσανδρεία 630 77","categoryIds":["greek-restaurants"],"categories":["Greek Restaurants"],"distanceKm":6.416087475101073},{"id":"coffeeBrunchRestaurants_aaacdfd97bc2","slug":"lemonis-bakery-aaac","kind":"restaurant","name":"Lemonis Bakery","lat":40.01696151934303,"lng":23.52512566073754,"url":"https://maps.app.goo.gl/xaGsvgZfv5mMRi2e6?g_st=ipc","address":"Polychrono 630 85","categoryIds":["coffee-brunch"],"categories":["Coffee & Brunch Spots"],"distanceKm":6.6589521637938365},{"id":"coffeeBrunchRestaurants_95ba17233631","slug":"almira-beach-bar-95ba","kind":"restaurant","name":"Almira beach bar","lat":40.072040605174976,"lng":23.452332342777385,"url":"https://maps.app.goo.gl/E5yFsVWCjLx3EVVM8?g_st=ipc","address":"Kassandra 630 77","categoryIds":["coffee-brunch"],"categories":["Coffee & Brunch Spots"],"distanceKm":6.671343487737763},{"id":"dessertsRestaurants_3b5bf46add7e","slug":"terkenlis-3b5b","kind":"restaurant","name":"Terkenlis","lat":40.07236945700872,"lng":23.44461611117606,"url":"https://maps.app.goo.gl/HGnMQLpSqcLam8fR7?g_st=ipc","address":"Δημόσια, Θεσσαλονικής, Kallithea 630 77","categoryIds":["desserts"],"categories":["Dessert Shops"],"distanceKm":6.69707142413329},{"id":"cheapEatsRestaurants_c1994e1056ff","slug":"andoni-s-gyros-feed-c199","kind":"restaurant","name":"Andoni's Gyros Feed","lat":40.07464288630586,"lng":23.448992983256165,"url":"https://maps.app.goo.gl/L8R286xrXF2isCzv6?g_st=ipc","address":"Καλλιθέα 630 77","categoryIds":["cheap-eats"],"categories":["Gyros & Cheap Eats"],"distanceKm":6.948001141336459},{"id":"coffeeBrunchRestaurants_c8f5eed1bfbd","slug":"encore-beach-bar-c8f5","kind":"restaurant","name":"Encore Beach Bar","lat":39.97745669933178,"lng":23.37333323221752,"url":"https://maps.app.goo.gl/USkZzCwrNThX7hj88?g_st=ipc","address":"Αιγαιοπελαγίτικα, Posidi 630 77","categoryIds":["coffee-brunch"],"categories":["Coffee & Brunch Spots"],"distanceKm":7.381093668276192},{"id":"greekRestaurants_5bb44ebf778d","slug":"metoxi-restaurant-5bb4","kind":"restaurant","name":"Metoxi restaurant","lat":40.065274134226456,"lng":23.39221583090552,"url":"https://maps.app.goo.gl/7wBDRqK9LUsGSLah7?g_st=ipc","address":"Κασσανδρεία 630 77","categoryIds":["greek-restaurants"],"categories":["Greek Restaurants"],"distanceKm":7.534062210178471},{"id":"fishTavernasRestaurants_a407d0c7dcab","slug":"restaurant-sidera-a407","kind":"restaurant","name":"Restaurant Sidera","lat":39.96314971393841,"lng":23.382915590015017,"url":"https://maps.app.goo.gl/xDr9PEeg36c9PLKh7?g_st=ipc","address":"Possidi 630 77","categoryIds":["fish-tavernas"],"categories":["Fish Tavernas"],"distanceKm":7.726298009237521},{"id":"coffeeBrunchRestaurants_f963fc29535a","slug":"eldoris-restaurant-beach-bar-possidi-f963","kind":"restaurant","name":"Eldoris Restaurant Beach Bar Possidi","lat":39.971163869266604,"lng":23.3680455032056,"url":"https://maps.app.goo.gl/XPRD9cmkNsd1XQCDA?g_st=ipc","address":"Possidi 630 77","categoryIds":["coffee-brunch"],"categories":["Coffee & Brunch Spots"],"distanceKm":8.139240532860375},{"id":"greekRestaurants_9f92ac7d9fa1","slug":"kardamo-9f92","kind":"restaurant","name":"Kardamo","lat":40.097556175200374,"lng":23.437132587550042,"url":"https://maps.app.goo.gl/ePoWRBDG86ratDjz8?g_st=ipc","address":"Άφυτος 630 77","categoryIds":["greek-restaurants"],"categories":["Greek Restaurants"],"distanceKm":9.532605745434505},{"id":"greekRestaurants_2313eb757566","slug":"to-palio-rementzo-2313","kind":"restaurant","name":"To Palio Rementzo","lat":40.09848139695357,"lng":23.43773202901174,"url":"https://maps.app.goo.gl/2T1nNQxZML5ZNxhC9?g_st=ipc","address":"Άφυτος 630 77","categoryIds":["greek-restaurants"],"categories":["Greek Restaurants"],"distanceKm":9.630678369495373},{"id":"fishTavernasRestaurants_fbb17c01a708","slug":"oceanides-seafood-restaurant-fbb1","kind":"restaurant","name":"Oceanides Seafood Restaurant","lat":40.10031320438252,"lng":23.437354189641624,"url":"https://maps.app.goo.gl/qubazwv6QdLJPnuv6?g_st=ipc","address":"Epar.Od. Paliouriou-Afitou, Afitos 630 77","categoryIds":["fish-tavernas"],"categories":["Fish Tavernas"],"distanceKm":9.836351032513909},{"id":"fishTavernasRestaurants_8245d15ce972","slug":"thea-thalassa-8245","kind":"restaurant","name":"Thea Thalassa","lat":40.100933443260715,"lng":23.43657383110183,"url":"https://maps.app.goo.gl/M9XGJaEeSqKPrPLY9?g_st=ipc","address":"Greece, Afitos 630 77","categoryIds":["fish-tavernas"],"categories":["Fish Tavernas"],"distanceKm":9.910900849015897},{"id":"fishTavernasRestaurants_713eeba74062","slug":"to-kyma-713e","kind":"restaurant","name":"To Kyma","lat":40.102311716094015,"lng":23.436768440109095,"url":"https://maps.app.goo.gl/AnRAQzdyuWf59ypc6?g_st=ipc","address":"Epar.Od. Paliouriou-Afitou, Afitos 630 77","categoryIds":["fish-tavernas"],"categories":["Fish Tavernas"],"distanceKm":10.062056354819148},{"id":"coffeeBrunchRestaurants_65ba92d0cd82","slug":"golden-beach-near-paliouri-65ba","kind":"restaurant","name":"Golden Beach Near Paliouri","lat":40.00000157623716,"lng":23.566669631082956,"url":"https://maps.app.goo.gl/BuoQtJYMzAyirA8L6?g_st=ipc","address":"Pallini 630 85","categoryIds":["coffee-brunch"],"categories":["Coffee & Brunch Spots"],"distanceKm":10.266471370791384}],"mentionedGuides":[],"canonicalSlug":"o-zachos-37ae","enrichment":{"summary_en":"Ο Ζάχος is a curated restaurant in Κασσανδρηνό 630 77 in the Greek Restaurants collection. It is connected to 0 nearby Googlementor picks to help travelers build a stronger local route.","summary_el":"Ο Ζάχος είναι ένα επιλεγμένο σημείο φαγητού στην περιοχή Κασσανδρηνό 630 77 και ανήκει στη συλλογή Greek Restaurants. Συνδέεται με 0 κοντινές προτάσεις του Googlementor για πιο ολοκληρωμένη εμπειρία.","vibe_tags":["curated"],"best_for":["first-time visitors","food lovers"],"visit_moments":["lunch stop","dinner stop"],"practical_note":"Address and direct map link are available for easy turn-by-turn access.","nearby_walkable_count":0,"nearby_count_2km":0,"confidence":0.9},"areaContext":null,"intentContexts":[]},"__N_SSG":true}