{"pageProps":{"entity":{"id":"cheapEatsRestaurants_620134dd9978","slug":"oasis-6201","kind":"restaurant","name":"Oasis","lat":35.51332964693983,"lng":24.021015604554556,"url":"https://maps.app.goo.gl/cmq1VkqB1tUYSWUX9?g_st=ipc","address":"Voloudaki 4, Chania 731 34","categoryIds":["cheap-eats"],"categories":["Gyros & Cheap Eats"]},"sameCategory":[{"id":"cheapEatsRestaurants_57bd67d6d5e4","slug":"delish-food-streat-story-57bd","kind":"restaurant","name":"Delish Food Streat Story","lat":35.515029891736845,"lng":24.02042482402925,"url":"https://maps.app.goo.gl/UfCwCDqjCiAuobpi9?g_st=ipc","address":"Tsouderon 69, Chania 731 32","categoryIds":["cheap-eats"],"categories":["Gyros & Cheap Eats"]},{"id":"cheapEatsRestaurants_e3e8b9399916","slug":"chicktok-e3e8","kind":"restaurant","name":"Chicktok","lat":35.509944678509925,"lng":24.031396796267106,"url":"https://maps.app.goo.gl/BCA2nTq76iJ2grhB7?g_st=ipc","address":"Papanastasiou 2, Chania 731 34","categoryIds":["cheap-eats"],"categories":["Gyros & Cheap Eats"]},{"id":"cheapEatsRestaurants_d0529bd9203e","slug":"filia-giannari-d052","kind":"restaurant","name":"Filia Giannari","lat":35.33111188005716,"lng":25.144727327039348,"url":"https://maps.app.goo.gl/p8LFpYc2vTdDWnYp6?g_st=ipc","address":"kavpevtan Mavnoli Mpantouva 65, Iraklio 713 07","categoryIds":["cheap-eats"],"categories":["Gyros & Cheap Eats"]},{"id":"cheapEatsRestaurants_de78a5847b53","slug":"pitogyros-traditional-grill-house-gyros-souvlaki-kebab-de78","kind":"restaurant","name":"Pitogyros Traditional Grill House - Gyros, souvlaki, kebab.","lat":36.462570266691884,"lng":25.37797515114607,"url":"https://maps.app.goo.gl/Xyq1DhyUhw2mJaPq9?g_st=ipc","address":"Oia 847 02","categoryIds":["cheap-eats"],"categories":["Gyros & Cheap Eats"]},{"id":"cheapEatsRestaurants_492ec545e3cb","slug":"fbi-food-truck-492e","kind":"restaurant","name":"FBI Food Truck","lat":36.98018032275085,"lng":25.38911877245444,"url":"https://maps.app.goo.gl/tVknNoCtf1VeNxVy7?g_st=ipc","address":"X9JQ+3J, Naxos 843 02","categoryIds":["cheap-eats"],"categories":["Gyros & Cheap Eats"]},{"id":"cheapEatsRestaurants_666655654a40","slug":"souvlakia-kargas-6666","kind":"restaurant","name":"Souvlakia KARGAS","lat":37.124561868830334,"lng":25.238091044543676,"url":"https://maps.app.goo.gl/5vu438KzmoWTk1dRA?g_st=ipc","address":"Naousa 844 01","categoryIds":["cheap-eats"],"categories":["Gyros & Cheap Eats"]},{"id":"cheapEatsRestaurants_13f771b69476","slug":"kalotaritissa-beach-canteen-13f7","kind":"restaurant","name":"Kalotaritissa Beach canteen","lat":36.79366881646542,"lng":25.743376582113193,"url":"https://maps.app.goo.gl/r2Vfu2hZFXLEjrmk8?g_st=ipc","address":"Καλοταρίτισσα 840 08","categoryIds":["cheap-eats"],"categories":["Gyros & Cheap Eats"]},{"id":"cheapEatsRestaurants_4dbaa21f0de9","slug":"yasouvlaki-4dba","kind":"restaurant","name":"Yasouvlaki!","lat":37.104045402591176,"lng":25.37553445494035,"url":"https://maps.app.goo.gl/B6fuRTJ3jQNZCZMJ8?g_st=ipc","address":"Naxos 843 00","categoryIds":["cheap-eats"],"categories":["Gyros & Cheap Eats"]},{"id":"cheapEatsRestaurants_45215b23c30d","slug":"bloom-brothers-canteen-4521","kind":"restaurant","name":"Bloom Brothers canteen","lat":36.90173482477818,"lng":25.977068594760553,"url":"https://maps.app.goo.gl/JYSXRpKjkMx7aNHS7?g_st=ipc","address":"Λιμάνι, Lagada 840 08","categoryIds":["cheap-eats"],"categories":["Gyros & Cheap Eats"]},{"id":"cheapEatsRestaurants_4a509c86a037","slug":"souvlakia-o-tzimis-4a50","kind":"restaurant","name":"Souvlakia o Tzimis","lat":37.04342911583992,"lng":22.113254908943482,"url":"https://maps.app.goo.gl/VEjvVPTR3XkkoZxW8?g_st=ipc","address":"Mpenaki 1, Kalamata 241 00","categoryIds":["cheap-eats"],"categories":["Gyros & Cheap Eats"]},{"id":"cheapEatsRestaurants_598437c8481b","slug":"gyradiko-o-christos-5984","kind":"restaurant","name":"Γυραδικο \"Ο Χρήστος\"","lat":37.7173396733135,"lng":24.054314949086613,"url":"https://maps.app.goo.gl/Kg9SVim1DWH8Lytb6?g_st=ipc","address":"Λεωφ. Σουνίου 6, Λαύριο 195 00","categoryIds":["cheap-eats","greek-restaurants"],"categories":["Gyros & Cheap Eats","Greek Restaurants"],"legacySlugs":["gyradiko-o-christos-d71e"]},{"id":"cheapEatsRestaurants_8ba4f0065f8a","slug":"pita-tom-8ba4","kind":"restaurant","name":"Pita Tom","lat":37.74366491916778,"lng":23.535568140347873,"url":"https://maps.app.goo.gl/YMXgj9Wj4KVHBdms9?g_st=ipc","address":"Αγ. Μαρίνα 180 10","categoryIds":["cheap-eats"],"categories":["Gyros & Cheap Eats"]}],"nearby":[{"id":"cheapEatsRestaurants_57bd67d6d5e4","slug":"delish-food-streat-story-57bd","kind":"restaurant","name":"Delish Food Streat Story","lat":35.515029891736845,"lng":24.02042482402925,"url":"https://maps.app.goo.gl/UfCwCDqjCiAuobpi9?g_st=ipc","address":"Tsouderon 69, Chania 731 32","categoryIds":["cheap-eats"],"categories":["Gyros & Cheap Eats"],"distanceKm":0.19647475444513454},{"id":"coffeeBrunchRestaurants_8cd2a3bebc65","slug":"red-jane-bakery-8cd2","kind":"restaurant","name":"Red Jαne Bakery","lat":35.51226915120583,"lng":24.01521028800191,"url":"https://maps.app.goo.gl/qBPXWtniji8hcKB88?g_st=ipc","address":"Kidonias 101, Chania 731 36","categoryIds":["coffee-brunch"],"categories":["Coffee & Brunch Spots"],"distanceKm":0.5385151178596772},{"id":"cheapEatsRestaurants_e3e8b9399916","slug":"chicktok-e3e8","kind":"restaurant","name":"Chicktok","lat":35.509944678509925,"lng":24.031396796267106,"url":"https://maps.app.goo.gl/BCA2nTq76iJ2grhB7?g_st=ipc","address":"Papanastasiou 2, Chania 731 34","categoryIds":["cheap-eats"],"categories":["Gyros & Cheap Eats"],"distanceKm":1.0122097106658623},{"id":"greekRestaurants_4a595232b3a3","slug":"o-koympes-4a59","kind":"restaurant","name":"Ο Κουμπές","lat":35.5043816279159,"lng":24.026404656039464,"url":"https://maps.app.goo.gl/aq1X1YzrveFNjWCR6?g_st=ipc","address":"Παναγούλη 1, Χανιά 731 34","categoryIds":["greek-restaurants"],"categories":["Greek Restaurants"],"distanceKm":1.1081136140789436},{"id":"fishTavernasRestaurants_052e930b9594","slug":"thalassino-ageri-052e","kind":"restaurant","name":"Thalassino Ageri","lat":35.519850213268185,"lng":24.037118927264085,"url":"https://maps.app.goo.gl/6SKxxTD4XKy95nvdA?g_st=ipc","address":"Vivilaki str 35 Tabakaria, Chania 731 33","categoryIds":["fish-tavernas","luxury-dining"],"categories":["Fish Tavernas","Luxury Dining"],"legacySlugs":["thalassino-ageri-7d75"],"distanceKm":1.6278495329752192},{"id":"coffeeBrunchRestaurants_4060062a68f1","slug":"carte-postale-4060","kind":"restaurant","name":"Carte Postale","lat":35.523454895956455,"lng":24.056556730944372,"url":"https://maps.app.goo.gl/5NWTh15BbgeGgYsx6?g_st=ipc","address":"Michail Kalorizikou 2, Chania 731 33","categoryIds":["coffee-brunch"],"categories":["Coffee & Brunch Spots"],"distanceKm":3.407988059776201},{"id":"italianRestaurants_d9cd36fbb3ef","slug":"don-rosario-restaurant-d9cd","kind":"restaurant","name":"Don Rosario Restaurant","lat":35.47882388836681,"lng":24.099356912172677,"url":"https://maps.app.goo.gl/bPiGaxVDa8GANuXW8?g_st=ipc","address":"Πλατάνι 732 00","categoryIds":["italian"],"categories":["Italian Restaurants"],"distanceKm":8.063579002689542},{"id":"wineriesVineyards_218b1ae88a57","slug":"agia-triada-winery-218b","kind":"restaurant","name":"Αgia Triada Winery","lat":35.56054075236249,"lng":24.135001472011776,"url":"https://maps.app.goo.gl/75yFj7YEiVy8Cvdz7?g_st=ipc","address":"Μόνη Αγίας Τριάδος των Τζαγκαρόλων 731 00","categoryIds":["wineries-vineyards"],"categories":["Wineries & Vineyards"],"distanceKm":11.57302113768409},{"id":"greekRestaurants_585e0390a5d3","slug":"ntoynias-585e","kind":"restaurant","name":"Ντουνιάς","lat":35.40906562971069,"lng":24.014822409059008,"url":"https://maps.app.goo.gl/fPzWW7jmw3vrMepH9?g_st=ipc","address":"Keramion, Νεροκούρος 731 00","categoryIds":["greek-restaurants"],"categories":["Greek Restaurants"],"distanceKm":11.607190607354733},{"id":"wineriesVineyards_6807d76cc581","slug":"manousakis-winery-6807","kind":"restaurant","name":"Manousakis Winery","lat":35.44928609215256,"lng":23.88714203573119,"url":"https://maps.app.goo.gl/rcCjRKaUHGWTfgjX9?g_st=ipc","address":"Βατόλακκος 730 05","categoryIds":["wineries-vineyards"],"categories":["Wineries & Vineyards"],"distanceKm":14.05884017535963},{"id":"greekRestaurants_5e3d51ca0200","slug":"parasia-chania-vamos-parasia-chania-vamos-5e3d","kind":"restaurant","name":"Παρασιά Χανιά Βάμος- Parasia Chania Vamos","lat":35.4074884812459,"lng":24.18598092998549,"url":"https://maps.app.goo.gl/BmHbkuLGE1ioGoyp8?g_st=ipc","address":"διαλέξτε τον επαρχιακό δρόμο, Από Ρέθυμνο βγείτε δεξιά στην έξοδο στο ελαιουργειο Κανάκη και έπειτα πάρτε τον επαρχιακό δρόμο προς Παρασιά, Από, Βρύσες 730 08","categoryIds":["greek-restaurants"],"categories":["Greek Restaurants"],"distanceKm":19.019476692168148},{"id":"wineriesVineyards_30791389b0f6","slug":"anoskeli-winery-3079","kind":"restaurant","name":"Anoskeli Winery","lat":35.460142479001455,"lng":23.77578731455054,"url":"https://maps.app.goo.gl/PgqU5uYf8bg9kRur9?g_st=ipc","address":"Ανώσκελη 730 02","categoryIds":["wineries-vineyards"],"categories":["Wineries & Vineyards"],"distanceKm":22.977241300156667},{"id":"wineriesVineyards_b838da26d565","slug":"dourakis-winery-b838","kind":"restaurant","name":"Dourakis Winery","lat":35.34955760746719,"lng":24.203022751558134,"url":"https://maps.app.goo.gl/RrgeX3PAEePKPZU79?g_st=ipc","address":"Alikampos, Apokoronou, CHANIA 730 07","categoryIds":["wineries-vineyards"],"categories":["Wineries & Vineyards"],"distanceKm":24.56740698856185},{"id":"familyFriendly_647731b73787","slug":"lake-kournas-6477","kind":"restaurant","name":"Lake Kournas","lat":35.33085393719484,"lng":24.275768556511693,"url":"https://maps.app.goo.gl/jBCqSTmypZMRabtf7?g_st=ipc","address":"Georgioupoli 730 07","categoryIds":["family-friendly"],"categories":["Kid Friendly Locations"],"distanceKm":30.73383053591391}],"mentionedGuides":[],"canonicalSlug":"oasis-6201","enrichment":{"summary_en":"Oasis is a curated restaurant in Chania 731 34 in the Gyros & Cheap Eats collection. It is connected to 3 nearby Googlementor picks to help travelers build a stronger local route.","summary_el":"Oasis είναι ένα επιλεγμένο σημείο φαγητού στην περιοχή Chania 731 34 και ανήκει στη συλλογή Gyros & Cheap Eats. Συνδέεται με 3 κοντινές προτάσεις του Googlementor για πιο ολοκληρωμένη εμπειρία.","vibe_tags":["curated","budget-friendly"],"best_for":["first-time visitors","food lovers","budget travelers"],"visit_moments":["lunch stop","dinner stop"],"practical_note":"Address and direct map link are available for easy turn-by-turn access.","nearby_walkable_count":3,"nearby_count_2km":6,"confidence":0.9},"areaContext":null,"intentContexts":[]},"__N_SSG":true}