{"pageProps":{"entity":{"id":"monasteriesChurches_c2b99534a746","slug":"osioy-fraim-c2b9","kind":"restaurant","name":"Οσίου Ἐφραίμ","lat":38.07494568017478,"lng":23.95319576902227,"url":"https://maps.app.goo.gl/t1Fe5nBcUY3vmfcE7?g_st=ipc","address":"Αγίου Εφραίμ, Νέα Μάκρη 190 05","categoryIds":["monasteries-churches"],"categories":["Monasteries & Spiritual Sites"]},"sameCategory":[{"id":"monasteriesChurches_24b60ec568ad","slug":"iera-moni-tao-ntaoy-pentelis-24b6","kind":"restaurant","name":"Ιερά Μονή Ταώ (Νταού) Πεντέλης","lat":38.03988340784935,"lng":23.948125074372278,"url":"https://maps.app.goo.gl/xtRHYrHMqEtBMfwK9?g_st=ipc","address":"Νταού Πεντέλη 152 36","categoryIds":["monasteries-churches"],"categories":["Monasteries & Spiritual Sites"]},{"id":"monasteriesChurches_8c6aab96c311","slug":"iera-moni-agioy-panteleimonos-kokkinara-pentelis-8c6a","kind":"restaurant","name":"Ιερά Μονή Αγίου Παντελεήμονος Κοκκιναρά Πεντέλης","lat":38.088041404491655,"lng":23.864689883498706,"url":"https://maps.app.goo.gl/57pNkxA8Hvik3tA97?g_st=ipc","address":"3VP8+Q2, Κηφισιά 145 63","categoryIds":["monasteries-churches"],"categories":["Monasteries & Spiritual Sites"]},{"id":"monasteriesChurches_2ed5c9c74a50","slug":"iera-moni-pentelis-koimiseos-tis-theotokoy-2ed5","kind":"restaurant","name":"Ιερά Μονή Πεντέλης (Κοιμήσεως της Θεοτόκου)","lat":38.052651924953615,"lng":23.86703856624407,"url":"https://maps.app.goo.gl/Xf9ygVb29EqkAQUs7?g_st=ipc","address":"Πεντέλη 152 36","categoryIds":["monasteries-churches"],"categories":["Monasteries & Spiritual Sites"]},{"id":"monasteriesChurches_0be61b94a0f8","slug":"ieros-naos-agias-marinas-ekalis-0be6","kind":"restaurant","name":"Ιερός Ναός Αγίας Μαρίνας Εκάλης","lat":38.10774629476024,"lng":23.837173739444502,"url":"https://maps.app.goo.gl/rDcWxEZj5h9aqKaW6?g_st=ipc","address":"Λεωφ. Θησέως 54, Εκάλη 145 78","categoryIds":["monasteries-churches"],"categories":["Monasteries & Spiritual Sites"]},{"id":"monasteriesChurches_8565772cb25f","slug":"ieros-naos-metamorfosis-toy-sotiros-8565","kind":"restaurant","name":"Ιερός Ναός Μεταμόρφωσης του Σωτήρος","lat":38.074902566685026,"lng":23.819660581938585,"url":"https://maps.app.goo.gl/aHzFfMJMwLVAE89e9?g_st=ipc","address":"Κολοκοτρώνη, Κηφισιά 145 62","categoryIds":["monasteries-churches"],"categories":["Monasteries & Spiritual Sites"]},{"id":"monasteriesChurches_20d9168100a7","slug":"iera-moni-agioy-ioannoy-toy-kynigoy-20d9","kind":"restaurant","name":"Ιερά Μονή Αγίου Ιωάννου του Κυνηγού","lat":38.00278956163498,"lng":23.836715813242602,"url":"https://maps.app.goo.gl/TkGr97r8sSTcdTYu9?g_st=ipc","address":"Ανατολικής Μεσογείου, Αγ. Παρασκευή 153 42","categoryIds":["monasteries-churches"],"categories":["Monasteries & Spiritual Sites"]},{"id":"monasteriesChurches_5170cd1cd8e1","slug":"monastiri-agias-eirinis-chrysovalantoy-5170","kind":"restaurant","name":"Μοναστήρι Αγίας Ειρήνης Χρυσοβαλάντου","lat":38.0757087984453,"lng":23.784060169292047,"url":"https://maps.app.goo.gl/Kmbb6BYr6fSV4pFRA?g_st=ipc","address":"Δημητσάνας 1, Λυκόβρυση 141 23","categoryIds":["monasteries-churches"],"categories":["Monasteries & Spiritual Sites"]},{"id":"monasteriesChurches_f9758a225b79","slug":"iera-moni-taxiarchon-asterioy-f975","kind":"restaurant","name":"Ιερά Μονή Ταξιαρχών Αστερίου","lat":37.96963791637043,"lng":23.811299998354023,"url":"https://maps.app.goo.gl/3bMH4x4NEyFmUZJ97?g_st=ipc","address":"Ζωγράφου 157 72","categoryIds":["monasteries-churches"],"categories":["Monasteries & Spiritual Sites"]},{"id":"monasteriesChurches_ab2f1ef6db23","slug":"iera-moni-kaisarianis-ab2f","kind":"restaurant","name":"Ιερά Μονή Καισαριανής","lat":37.96085617263528,"lng":23.798163534107264,"url":"https://maps.app.goo.gl/tKzi13MSJeMrbus97?g_st=ipc","address":"Καισαριανή 161 22","categoryIds":["monasteries-churches"],"categories":["Monasteries & Spiritual Sites"]},{"id":"monasteriesChurches_7d585aed6cfa","slug":"ieros-naos-koimiseos-tis-theotokoy-panagitsa-7d58","kind":"restaurant","name":"Ιερός Ναός Κοιμήσεως της Θεοτόκου (Παναγίτσα)","lat":38.01727711784317,"lng":23.744778782538283,"url":"https://maps.app.goo.gl/RDMFUG49GBgqceAu8?g_st=ipc","address":"Ανδρεόπουλου 2, Αθήνα 111 41","categoryIds":["monasteries-churches"],"categories":["Monasteries & Spiritual Sites"]},{"id":"monasteriesChurches_55ac212b36ef","slug":"ieros-naos-agioy-georgioy-lykavittoy-55ac","kind":"restaurant","name":"Ιερός Ναός Αγίου Γεωργίου Λυκαβηττού","lat":37.981958638170035,"lng":23.74338468366007,"url":"https://maps.app.goo.gl/V1br63hybrfVnEiCA?g_st=ipc","address":"Αθήνα 114 71","categoryIds":["monasteries-churches"],"categories":["Monasteries & Spiritual Sites"]},{"id":"monasteriesChurches_caa9124a394d","slug":"ieros-naos-agion-isidoron-lykavittoy-caa9","kind":"restaurant","name":"Ιερός Ναός Αγίων Ισιδώρων Λυκαβηττού","lat":37.982296617522,"lng":23.742795127887568,"url":"https://maps.app.goo.gl/vi4b8bvA5jdYKcqf9?g_st=ipc","address":"Μονοπατι Λυκαβηττου, Αθήνα 114 71","categoryIds":["monasteries-churches","attractions"],"categories":["Monasteries & Spiritual Sites","Must-See Attractions"],"legacySlugs":["ieros-naos-agion-isidoron-lykavittoy-361f"]}],"nearby":[{"id":"coffeeBrunchRestaurants_6aac58356d58","slug":"dimitris-kasimis-foyrnos-6aac","kind":"restaurant","name":"ΔΗΜΗΤΡΗΣ ΚΑΣΙΜΗΣ Φούρνος","lat":38.0797197655773,"lng":23.980827928192117,"url":"https://maps.app.goo.gl/HVgjvMDChspNvrjy7?g_st=ipc","address":"44 Marathonos Ave, Enanti DEI, Nea Makri, 19005","categoryIds":["coffee-brunch"],"categories":["Coffee & Brunch Spots"],"distanceKm":2.476223351681776},{"id":"familyFriendly_db07c7976a87","slug":"jumicar-db07","kind":"restaurant","name":"Jumicar","lat":38.07454902492717,"lng":23.982372514870235,"url":"https://maps.app.goo.gl/b5HKTfYuBC6WE3XP7?g_st=ipc","address":"Λεωφ. Μαραθώνος 1, Νέα Μάκρη 190 05","categoryIds":["family-friendly"],"categories":["Kid Friendly Locations"],"distanceKm":2.5543209683712598},{"id":"italianRestaurants_2acf318486cb","slug":"toto-s-little-italy-2acf","kind":"restaurant","name":"Toto's Little Italy","lat":38.083162778426875,"lng":23.980726245351242,"url":"https://maps.app.goo.gl/oSFQmUYzAW2nsJ8z6?g_st=ipc","address":"Νικ. Πλαστήρα 29, Νέα Μάκρη 190 05","categoryIds":["italian"],"categories":["Italian Restaurants"],"distanceKm":2.5771059871965667},{"id":"dessertsRestaurants_5958ec3ad958","slug":"to-plesti-5958","kind":"restaurant","name":"Το Πλέστι","lat":38.06758002269708,"lng":23.98228118791333,"url":"https://maps.app.goo.gl/8uS8BHW1y7vuZtMn8?g_st=ipc","address":"Λεωφ. Μαραθώνος 31ο, Νέα Μάκρη 190 05","categoryIds":["desserts"],"categories":["Dessert Shops"],"distanceKm":2.6745576156244923},{"id":"familyFriendly_dd0083476ddc","slug":"farmamoo-dd00","kind":"restaurant","name":"Farmamoo","lat":38.095267950428,"lng":23.93118868435028,"url":"https://maps.app.goo.gl/6XzwEHQN7jNiKh5K7?g_st=ipc","address":"Λεωφ. Διονύσου, Νέα Μάκρη 190 05","categoryIds":["family-friendly"],"categories":["Kid Friendly Locations"],"distanceKm":2.9692066158334183},{"id":"greekRestaurants_e13d6a44e9be","slug":"stoy-ladokosta-e13d","kind":"restaurant","name":"Στου Λαδόκωστα","lat":38.08813666230261,"lng":23.982996365102682,"url":"https://maps.app.goo.gl/mXkB4S51cYRYxwCe8","address":"Λεωφ. Ποσειδώνος, Νέα Μάκρη 190 05","categoryIds":["greek-restaurants"],"categories":["Greek Restaurants"],"distanceKm":2.9924359452176716},{"id":"fishTavernasRestaurants_0b56e36ee289","slug":"trata-i-0b56","kind":"restaurant","name":"ΤΡΑΤΑ (Η)","lat":38.09030258735327,"lng":23.982252068927664,"url":"https://maps.app.goo.gl/4cT7yir2FyLEmVPB8?g_st=ipc","address":"Λεωφ. Ποσειδώνος 30, Νέα Μάκρη 190 05","categoryIds":["fish-tavernas"],"categories":["Fish Tavernas"],"distanceKm":3.0632348561527944},{"id":"fishTavernasRestaurants_120bf543e9c4","slug":"to-plokami-120b","kind":"restaurant","name":"Το πλοκάμι","lat":38.09102735114395,"lng":23.981804303325717,"url":"https://maps.app.goo.gl/QuJBtKF3QD3n78sW8?g_st=ipc","address":"Λεωφ. Ποσειδώνος, Νέα Μάκρη 190 05","categoryIds":["fish-tavernas"],"categories":["Fish Tavernas"],"distanceKm":3.0768941970996537},{"id":"fishTavernasRestaurants_c8d79ddce787","slug":"ayra-c8d7","kind":"restaurant","name":"Αύρα","lat":38.09393032588583,"lng":23.981355142971612,"url":"https://maps.app.goo.gl/Qd74p6vmhVLEfQxg7?g_st=ipc","address":"Τέρμα, Λεωφ. Ποσειδώνος, Νέα Μάκρη 190 05","categoryIds":["fish-tavernas"],"categories":["Fish Tavernas"],"distanceKm":3.2450514050648405},{"id":"coffeeBrunchRestaurants_cdd028e1f028","slug":"indianos-cdd0","kind":"restaurant","name":"Indianos","lat":38.07177701154969,"lng":23.99543112392712,"url":"https://maps.app.goo.gl/fQgSyiTZjMscc9UW9?g_st=ipc","address":"Μιαούλη 12, Νέα Μάκρη 190 05","categoryIds":["coffee-brunch"],"categories":["Coffee & Brunch Spots"],"distanceKm":3.7138262630635115},{"id":"fishTavernasRestaurants_d1fdd80a5c4e","slug":"akrogiali-d1fd","kind":"restaurant","name":"Ακρογιάλι","lat":38.07176023911009,"lng":23.99585573289976,"url":"https://maps.app.goo.gl/xsBV1faj5k58gwi47?g_st=ipc","address":"Μιαούλη 8, Νέα Μάκρη 190 05","categoryIds":["fish-tavernas"],"categories":["Fish Tavernas"],"distanceKm":3.751004525597661},{"id":"monasteriesChurches_24b60ec568ad","slug":"iera-moni-tao-ntaoy-pentelis-24b6","kind":"restaurant","name":"Ιερά Μονή Ταώ (Νταού) Πεντέλης","lat":38.03988340784935,"lng":23.948125074372278,"url":"https://maps.app.goo.gl/xtRHYrHMqEtBMfwK9?g_st=ipc","address":"Νταού Πεντέλη 152 36","categoryIds":["monasteries-churches"],"categories":["Monasteries & Spiritual Sites"],"distanceKm":3.923942839092007},{"id":"greekRestaurants_f6d227505896","slug":"i-gonia-toy-torva-f6d2","kind":"restaurant","name":"Η Γωνία του Τόρβα","lat":38.03925979288046,"lng":23.9433795766678,"url":"https://maps.app.goo.gl/LZohHFYr2FaVdjY49","address":"Πλαστηρα & Καραΐσκακη, Νταου Πεντελη - Ραφηνας 190 09","categoryIds":["greek-restaurants"],"categories":["Greek Restaurants"],"distanceKm":4.060097662975752},{"id":"fishTavernasRestaurants_cfc96ee9ddf3","slug":"isidora-cfc9","kind":"restaurant","name":"Ισιδώρα","lat":38.11335499841936,"lng":23.98507325460099,"url":"https://maps.app.goo.gl/USycaJUwTZTzMdADA?g_st=ipc","address":"Περικλέους ΠΑΡΑΛΙΑ, Μαραθώνας 190 07","categoryIds":["fish-tavernas"],"categories":["Fish Tavernas"],"distanceKm":5.101241269116079},{"id":"fishTavernasRestaurants_0618ada54b19","slug":"o-psaras-restaurant-0618","kind":"restaurant","name":"Ο Ψαράς Restaurant","lat":38.11793561687655,"lng":23.99065580006594,"url":"https://maps.app.goo.gl/fSjcPNAg9aRVEF926?g_st=ipc","address":"Παραλία Μαραθώνα, Λεωφ. Ποσειδώνος 3, Αγ. Παντελεήμων 190 07","categoryIds":["fish-tavernas"],"categories":["Fish Tavernas"],"distanceKm":5.796240369377445},{"id":"fishTavernasRestaurants_4a2d79882f36","slug":"panormitis-4a2d","kind":"restaurant","name":"Πανορμίτης","lat":38.121572702191,"lng":23.99671729866393,"url":"https://maps.app.goo.gl/aXSXemiooEkkE8AKA?g_st=ipc","address":"Λεωφ. Ποσειδώνος 55, Αγ. Παντελεήμων 190 07","categoryIds":["fish-tavernas"],"categories":["Fish Tavernas"],"distanceKm":6.4330878514847845},{"id":"greekRestaurants_23f639b6098c","slug":"pilioreitiko-23f6","kind":"restaurant","name":"Πηλιορειτικο","lat":38.05554171208636,"lng":23.870789909416057,"url":"https://maps.app.goo.gl/ZkvmmnHQW4d3ivh49","address":"Κρυστάλλη Κωνσταντίνου 1, Πεντέλη 152 36","categoryIds":["greek-restaurants"],"categories":["Greek Restaurants"],"distanceKm":7.529944333566745},{"id":"greekRestaurants_c753372241fb","slug":"krystallis-c753","kind":"restaurant","name":"Κρυστάλλης","lat":38.05560270007769,"lng":23.870179792849736,"url":"https://maps.app.goo.gl/XofHBMHMp5Y8ecHi6","address":"Πλ. Αγίας Τριάδας, Πεντέλη 152 36","categoryIds":["greek-restaurants"],"categories":["Greek Restaurants"],"distanceKm":7.579202462183048},{"id":"familyFriendly_840d2fe28674","slug":"ktima-kokotoy-840d","kind":"restaurant","name":"ΚΤΗΜΑ ΚΟΚΟΤΟΥ","lat":38.12312970101472,"lng":23.891798090837362,"url":"https://maps.app.goo.gl/9xRLBKhZXYMexEQX8?g_st=ipc","address":"Κτήμα Γ. Κοκοτού 1, Σταμάτα 145 75","categoryIds":["family-friendly","wineries-vineyards"],"categories":["Kid Friendly Locations","Wineries & Vineyards"],"legacySlugs":["ktima-kokotoy-a927"],"distanceKm":7.587532386638056},{"id":"cheapEatsRestaurants_b230f7d2edc5","slug":"to-petrino-toy-stamati-kapralos-stamatios-th-b230","kind":"restaurant","name":"Το Πέτρινο Του Σταμάτη (Καπράλος Σταμάτιος Θ.)","lat":38.049806163763144,"lng":23.869838485555228,"url":"https://maps.app.goo.gl/AdKg349ahnUtzxXt9?g_st=ipc","address":"Βασ. Γεωργίου Β 10, Πεντέλη 152 36","categoryIds":["cheap-eats"],"categories":["Gyros & Cheap Eats"],"distanceKm":7.814844657039854},{"id":"monasteriesChurches_8c6aab96c311","slug":"iera-moni-agioy-panteleimonos-kokkinara-pentelis-8c6a","kind":"restaurant","name":"Ιερά Μονή Αγίου Παντελεήμονος Κοκκιναρά Πεντέλης","lat":38.088041404491655,"lng":23.864689883498706,"url":"https://maps.app.goo.gl/57pNkxA8Hvik3tA97?g_st=ipc","address":"3VP8+Q2, Κηφισιά 145 63","categoryIds":["monasteries-churches"],"categories":["Monasteries & Spiritual Sites"],"distanceKm":7.882184320620124},{"id":"monasteriesChurches_2ed5c9c74a50","slug":"iera-moni-pentelis-koimiseos-tis-theotokoy-2ed5","kind":"restaurant","name":"Ιερά Μονή Πεντέλης (Κοιμήσεως της Θεοτόκου)","lat":38.052651924953615,"lng":23.86703856624407,"url":"https://maps.app.goo.gl/Xf9ygVb29EqkAQUs7?g_st=ipc","address":"Πεντέλη 152 36","categoryIds":["monasteries-churches"],"categories":["Monasteries & Spiritual Sites"],"distanceKm":7.939677002719136},{"id":"wineriesVineyards_07784b315d36","slug":"oinopoieio-zegginis-0778","kind":"restaurant","name":"Οινοποιείο Ζεγγίνης","lat":38.14341389755598,"lng":23.983053677151467,"url":"https://maps.app.goo.gl/ZRuTWvGbiLUcFQZw7?g_st=ipc","address":"Λεωφόρος Κάτω Σουλίου 62, Μαραθώνας 190 07","categoryIds":["wineries-vineyards"],"categories":["Wineries & Vineyards"],"distanceKm":8.04903113914867},{"id":"luxuryDiningRestaurants_d905caa27f80","slug":"meat-the-stars-d905","kind":"restaurant","name":"Meat the Stars","lat":38.00243883538717,"lng":23.941476693248035,"url":"https://maps.app.goo.gl/wrkHDhigdmHrrokL8?g_st=ipc","address":"Λεωφ. Μαραθώνος 63, Πικέρμι 190 09","categoryIds":["luxury-dining"],"categories":["Luxury Dining"],"distanceKm":8.127454094283012}],"mentionedGuides":[],"canonicalSlug":"osioy-fraim-c2b9","enrichment":{"summary_en":"Οσίου Ἐφραίμ is a curated restaurant in Νέα Μάκρη 190 05 in the Monasteries & Spiritual Sites collection. It is connected to 0 nearby Googlementor picks to help travelers build a stronger local route.","summary_el":"Οσίου Ἐφραίμ είναι ένα επιλεγμένο σημείο φαγητού στην περιοχή Νέα Μάκρη 190 05 και ανήκει στη συλλογή Monasteries & Spiritual Sites. Συνδέεται με 0 κοντινές προτάσεις του Googlementor για πιο ολοκληρωμένη εμπειρία.","vibe_tags":["curated"],"best_for":["first-time visitors","food lovers"],"visit_moments":["lunch stop","dinner stop"],"practical_note":"Address and direct map link are available for easy turn-by-turn access.","nearby_walkable_count":0,"nearby_count_2km":0,"confidence":0.9},"areaContext":{"slug":"nea-makri","name":"Nea Makri","nameEl":"Νέα Μάκρη"},"intentContexts":[]},"__N_SSG":true}