{"pageProps":{"entity":{"id":"mustSeeAttractions_d121969affdc","slug":"palace-of-the-grand-master-of-the-knights-of-rhodes-d121","kind":"restaurant","name":"Palace of the Grand Master of the Knights of Rhodes","lat":36.44545330682862,"lng":28.224197135579786,"url":"https://maps.app.goo.gl/R9sce6Eydu3PYta2A?g_st=ipc","address":"Ippoton, Rodos 851 00","categoryIds":["attractions"],"categories":["Must-See Attractions"]},"sameCategory":[{"id":"mustSeeAttractions_934f36a67efa","slug":"medieval-city-of-rhodes-934f","kind":"restaurant","name":"Medieval City of Rhodes","lat":36.44472167652259,"lng":28.227519564434186,"url":"https://maps.app.goo.gl/ni4J6nqoFxCxVhof9?g_st=ipc","address":"Pl. Mouson 6, Rodos 851 00","categoryIds":["attractions"],"categories":["Must-See Attractions"]},{"id":"mustSeeAttractions_9e44fa658aa5","slug":"colossus-of-rhodes-9e44","kind":"restaurant","name":"Colossus of Rhodes","lat":36.451202414947005,"lng":28.227839764419826,"url":"https://maps.app.goo.gl/11HZKgu3Z71ViGrP9?g_st=ipc","address":"Pl. Neoriou, Rodos 851 00","categoryIds":["attractions"],"categories":["Must-See Attractions"]},{"id":"mustSeeAttractions_f86e07718582","slug":"holy-monastery-of-the-taxiarch-michael-panormitis-f86e","kind":"restaurant","name":"Holy Monastery of the Taxiarch Michael Panormitis","lat":36.548390185765086,"lng":27.846271064424094,"url":"https://maps.app.goo.gl/CBJzDDUuaoXFiWW6A?g_st=ipc","address":"Panormitis 856 00","categoryIds":["attractions"],"categories":["Must-See Attractions"]},{"id":"mustSeeAttractions_ef451c3fb153","slug":"asclepieion-at-kos-ef45","kind":"restaurant","name":"Asclepieion at Kos","lat":36.87634063821304,"lng":27.25929156442587,"url":"https://maps.app.goo.gl/KY1PY5mwkiEPn6JS6?g_st=ipc","address":"Kos 853 00","categoryIds":["attractions"],"categories":["Must-See Attractions"]},{"id":"mustSeeAttractions_dd3b16c50b83","slug":"holy-monastery-of-saint-john-the-theologian-dd3b","kind":"restaurant","name":"Holy Monastery of Saint John the Theologian","lat":37.30929209644781,"lng":26.547790252510435,"url":"https://maps.app.goo.gl/KRvkAKujnAt5Cebt6?g_st=ipc","address":"Patmos 855 00","categoryIds":["attractions"],"categories":["Must-See Attractions"]},{"id":"mustSeeAttractions_5cb6c86470e2","slug":"holy-cave-of-the-apocalypse-5cb6","kind":"restaurant","name":"Holy Cave of the Apocalypse","lat":37.3145181446206,"lng":26.544738455388703,"url":"https://maps.app.goo.gl/WRBFuHyUphGycx6B6?g_st=ipc","address":"Patmos Municipality 855 00","categoryIds":["attractions"],"categories":["Must-See Attractions"]},{"id":"mustSeeAttractions_0e0154b8338b","slug":"pythagoras-statue-0e01","kind":"restaurant","name":"Pythagoras Statue","lat":37.689752282548156,"lng":26.94490447179151,"url":"https://maps.app.goo.gl/9QY7VwS3H1acWG6g8?g_st=ipc","address":"Samos 831 03","categoryIds":["attractions"],"categories":["Must-See Attractions"]},{"id":"mustSeeAttractions_54fb3772eb37","slug":"archaeological-site-of-heraion-of-samos-54fb","kind":"restaurant","name":"Archaeological Site of Heraion of Samos","lat":37.67350522925315,"lng":26.88799727034567,"url":"https://maps.app.goo.gl/aSS6QjyqGgHanzsj8?g_st=ipc","address":"Pythagoreio 831 03","categoryIds":["attractions"],"categories":["Must-See Attractions"]},{"id":"mustSeeAttractions_3720c0633a0c","slug":"holy-monastery-of-the-virgin-mary-chozoviotissa-3720","kind":"restaurant","name":"Holy Monastery of the Virgin Mary Chozoviotissa","lat":36.834565267585596,"lng":25.909512235575725,"url":"https://maps.app.goo.gl/v6AEM7JEAUPMzrvP7?g_st=ipc","address":"Amorgos 840 08","categoryIds":["attractions"],"categories":["Must-See Attractions"]},{"id":"mustSeeAttractions_fcaf48a77b52","slug":"akrotiri-fcaf","kind":"restaurant","name":"Akrotiri","lat":36.351796236748676,"lng":25.403447201033227,"url":"https://maps.app.goo.gl/wBKcGui1HWeMLpjPA?g_st=ipc","address":"Fira 847 00","categoryIds":["attractions"],"categories":["Must-See Attractions"]},{"id":"mustSeeAttractions_a300a861d115","slug":"temple-of-apollo-portara-a300","kind":"restaurant","name":"Temple of Apollo (Portara)","lat":37.110129464281634,"lng":25.372467767266336,"url":"https://maps.app.goo.gl/baiRLz2tmYaTbVkt8?g_st=ipc","address":"Naxos 843 00","categoryIds":["attractions"],"categories":["Must-See Attractions"]},{"id":"mustSeeAttractions_fd0e893870f5","slug":"delos-fd0e","kind":"restaurant","name":"Delos","lat":37.39618494324863,"lng":25.268932318593706,"url":"https://maps.app.goo.gl/8aSHhZk2bT9dK56z5?g_st=ipc","address":"Delos 846 00","categoryIds":["attractions"],"categories":["Must-See Attractions"]}],"nearby":[{"id":"greekRestaurants_17adb0f648d3","slug":"mama-sofia-17ad","kind":"restaurant","name":"Μαμά Σοφία","lat":36.4441876301452,"lng":28.223517806980094,"url":"https://maps.app.goo.gl/X3ifevtVb6h2atUp6?g_st=ipc","address":"Οδός Ορφέως 28, Παλιά Πόλη, 28 Orfeos Street, Old Town, Rhodes/Rodos 851 00","categoryIds":["greek-restaurants"],"categories":["Greek Restaurants"],"distanceKm":0.1532945759770023},{"id":"fishTavernasRestaurants_7e035939a6db","slug":"traditional-cafe-symi-7e03","kind":"restaurant","name":"Traditional Cafe Symi","lat":36.447396932123645,"lng":28.225462639664087,"url":"https://maps.app.goo.gl/bB5NM791bDAKeYYP8?g_st=ipc","address":"Nea Agora 109, Rodos 851 00","categoryIds":["fish-tavernas"],"categories":["Fish Tavernas"],"distanceKm":0.24397033444707797},{"id":"mustSeeAttractions_934f36a67efa","slug":"medieval-city-of-rhodes-934f","kind":"restaurant","name":"Medieval City of Rhodes","lat":36.44472167652259,"lng":28.227519564434186,"url":"https://maps.app.goo.gl/ni4J6nqoFxCxVhof9?g_st=ipc","address":"Pl. Mouson 6, Rodos 851 00","categoryIds":["attractions"],"categories":["Must-See Attractions"],"distanceKm":0.3081191396117151},{"id":"burgersRestaurants_8219677fe965","slug":"nom-street-food-smashed-burgers-8219","kind":"restaurant","name":"Nom street food & smashed burgers","lat":36.44818806230804,"lng":28.221540618444198,"url":"https://maps.app.goo.gl/jzcVrFqav7KsRnsy7?g_st=ipc","address":"Sofokli Venizelou 30, Rodos 851 00","categoryIds":["burgers"],"categories":["Burger Spots"],"distanceKm":0.3859174797223623},{"id":"fishTavernasRestaurants_21b0c4363779","slug":"pizanias-the-sea-star-21b0","kind":"restaurant","name":"Pizanias The Sea Star","lat":36.44219184483265,"lng":28.227392660524885,"url":"https://maps.app.goo.gl/bmjrpg6PxNfVuRyLA?g_st=ipc","address":"Sofokleous 24, Rodos 851 31","categoryIds":["fish-tavernas"],"categories":["Fish Tavernas"],"distanceKm":0.4617623561700364},{"id":"mustSeeAttractions_9e44fa658aa5","slug":"colossus-of-rhodes-9e44","kind":"restaurant","name":"Colossus of Rhodes","lat":36.451202414947005,"lng":28.227839764419826,"url":"https://maps.app.goo.gl/11HZKgu3Z71ViGrP9?g_st=ipc","address":"Pl. Neoriou, Rodos 851 00","categoryIds":["attractions"],"categories":["Must-See Attractions"],"distanceKm":0.7175111428332609},{"id":"cheapEatsRestaurants_a7d0ccb07796","slug":"mr-g-s-psitopoleio-greek-street-food-a7d0","kind":"restaurant","name":"Mr.G's - Ψητοπωλείο - Greek Street Food","lat":36.45328895287043,"lng":28.221248936648102,"url":"https://maps.app.goo.gl/HQkLX39r1Ru88dxq8?g_st=ipc","address":"Geor. Papanikolaou 8, Rodos 851 00","categoryIds":["cheap-eats"],"categories":["Gyros & Cheap Eats"],"distanceKm":0.9103140919631909},{"id":"dessertsRestaurants_ebbd52b2670e","slug":"hatzifotiou-ebbd","kind":"restaurant","name":"Hatzifotiou","lat":36.436204834104664,"lng":28.23364904254758,"url":"https://maps.app.goo.gl/KUPjw8WfQrcXZbYA6?g_st=ipc","address":"Kanada 69, Rodos 851 32","categoryIds":["desserts"],"categories":["Dessert Shops"],"distanceKm":1.3313323312644016},{"id":"coffeeBrunchRestaurants_e533a6bcb85f","slug":"naval-cafe-bar-restaurant-e533","kind":"restaurant","name":"NAVAL Cafe Bar Restaurant","lat":36.43323816273261,"lng":28.237832164715215,"url":"https://maps.app.goo.gl/LEtJZTyLhqkrZEGE7?g_st=ipc","address":"Rhodes","categoryIds":["coffee-brunch"],"categories":["Coffee & Brunch Spots"],"distanceKm":1.8255379592944223},{"id":"luxuryDiningRestaurants_f925bc8a8505","slug":"noble-gourmet-restaurant-f925","kind":"restaurant","name":"Noble Gourmet Restaurant","lat":36.37247796232997,"lng":28.224879049367335,"url":"https://maps.app.goo.gl/ymJ2kfjKBHsihXtt9?g_st=ipc","address":"Elysium Resort & Spa | 5 star hotel in Rhodes, Leoforos Rodou - Kallitheas, Ammoudes 851 00","categoryIds":["luxury-dining"],"categories":["Luxury Dining"],"distanceKm":8.114717539139436},{"id":"familyFriendly_569351c660b6","slug":"waterpark-5693","kind":"restaurant","name":"WaterPark","lat":36.36437213652793,"lng":28.212294371159473,"url":"https://maps.app.goo.gl/6wgTeh9tgUC2bD1a8?g_st=ipc","address":"Athanaton, Rodos 851 05","categoryIds":["family-friendly"],"categories":["Kid Friendly Locations"],"distanceKm":9.078525955393275},{"id":"familyFriendly_79cc8da6366f","slug":"butterflies-valley-79cc","kind":"restaurant","name":"Butterflies Valley","lat":36.33937370008562,"lng":28.059689128523214,"url":"https://maps.app.goo.gl/VV66xLTvU3w6LKzy9?g_st=ipc","address":"Επάνω Καλαμωνας 851 06","categoryIds":["family-friendly"],"categories":["Kid Friendly Locations"],"distanceKm":18.866829277165436},{"id":"greekRestaurants_091086b3e4f0","slug":"taverna-to-steki-0910","kind":"restaurant","name":"Taverna To Steki","lat":36.214820215510855,"lng":28.116222906463367,"url":"https://maps.app.goo.gl/whsyEjKzT1J9MqBz8?g_st=ipc","address":"Mezedopwleio To steki, Αρχάγγελος 851 02","categoryIds":["greek-restaurants"],"categories":["Greek Restaurants"],"distanceKm":27.408620930166325},{"id":"fishTavernasRestaurants_5c524a0645d5","slug":"taverna-to-steki-5c52","kind":"restaurant","name":"Taverna To Steki","lat":36.21481289800798,"lng":28.116223331846093,"url":"https://maps.app.goo.gl/uGAqX7jPtUdH564r6?g_st=ipc","address":"Mezedopwleio To steki, Archaggelos 851 02","categoryIds":["fish-tavernas"],"categories":["Fish Tavernas"],"distanceKm":27.409368964651406},{"id":"fishTavernasRestaurants_3329c5f3ac04","slug":"perigiali-sea-food-restaurant-3329","kind":"restaurant","name":"Perigiali Sea Food Restaurant","lat":36.20335875535593,"lng":28.1401896188144,"url":"https://maps.app.goo.gl/BQHAxew1vaRjgSqj8?g_st=ipc","address":"Archangelos 851 02","categoryIds":["fish-tavernas"],"categories":["Fish Tavernas"],"distanceKm":27.95191890520929},{"id":"greekRestaurants_8fa1ab96ff3b","slug":"estiatorio-paragka-8fa1","kind":"restaurant","name":"Εστιατόριο Παράγκα","lat":36.26098242565237,"lng":27.96998024225855,"url":"https://maps.app.goo.gl/rr6G3z1rwAh5ZVjW6?g_st=ipc","address":"Επαρ.Οδ. Απόλλωνα 13, Απόλλωνα 851 06","categoryIds":["greek-restaurants"],"categories":["Greek Restaurants"],"distanceKm":30.6438660707461}],"mentionedGuides":[{"slug":"greece-weather-swimming-ferry-guide-el","title":"Πότε να Επισκεφτείτε την Ελλάδα: Καιρός & Κολύμπι"},{"slug":"greece-weather-swimming-ferry-guide","title":"When to Visit Greece: Weather, Swimming & Ferries"},{"slug":"tap-water-safe-greece-el","title":"Είναι Ασφαλές να Πίνετε Νερό Βρύσης στην Ελλάδα;"},{"slug":"tap-water-safe-greece","title":"Is Tap Water Safe to Drink in Greece?"}],"canonicalSlug":"palace-of-the-grand-master-of-the-knights-of-rhodes-d121","enrichment":{"summary_en":"Palace of the Grand Master of the Knights of Rhodes is a curated restaurant in Rodos 851 00 in the Must-See Attractions collection. It is connected to 6 nearby Googlementor picks to help travelers build a stronger local route.","summary_el":"Palace of the Grand Master of the Knights of Rhodes είναι ένα επιλεγμένο σημείο φαγητού στην περιοχή Rodos 851 00 και ανήκει στη συλλογή Must-See Attractions. Συνδέεται με 6 κοντινές προτάσεις του Googlementor για πιο ολοκληρωμένη εμπειρία.","vibe_tags":["curated"],"best_for":["first-time visitors","food lovers"],"visit_moments":["lunch stop","dinner stop"],"practical_note":"Address and direct map link are available for easy turn-by-turn access.","nearby_walkable_count":6,"nearby_count_2km":10,"confidence":0.98},"areaContext":{"slug":"rodos","name":"Rhodes","nameEl":"Ρόδος"},"intentContexts":[]},"__N_SSG":true}