{"pageProps":{"entity":{"id":"dessertsRestaurants_b21d96062bcb","slug":"pap-liber-patisia-b21d","kind":"restaurant","name":"Pap-Liber (Πατήσια)","lat":38.01877416845803,"lng":23.734552478722144,"url":"https://maps.app.goo.gl/fgNMoYsGZV8mdkn37?g_st=ipc","address":"Ιακωβίδου 10 &, Τσίλλερ, Αθήνα 111 44","categoryIds":["desserts"],"categories":["Dessert Shops"]},"sameCategory":[{"id":"dessertsRestaurants_f22485b9778b","slug":"chara-f224","kind":"restaurant","name":"Χαρά","lat":38.02112078219093,"lng":23.735510538796248,"url":"https://maps.app.goo.gl/xbCzjtuywVhjf9c59?g_st=ipc","address":"Πατησίων 339, Αθήνα 111 44","categoryIds":["desserts"],"categories":["Dessert Shops"]},{"id":"dessertsRestaurants_903707df6326","slug":"papliber-9037","kind":"restaurant","name":"PapLiber","lat":38.021403205203185,"lng":23.74592719548837,"url":"https://maps.app.goo.gl/3KG3eWHdUB7oyaGD7?g_st=ipc","address":"Γεωργούλια Αγησιλάου 10, Αθήνα 111 42","categoryIds":["desserts"],"categories":["Dessert Shops"]},{"id":"dessertsRestaurants_278027c93e69","slug":"zacharoplasteio-syntrivani-2780","kind":"restaurant","name":"Ζαχαροπλαστείο Συντριβάνι","lat":38.031171993923905,"lng":23.736947011882947,"url":"https://maps.app.goo.gl/qd2j8WUJHdAta1mY9?g_st=ipc","address":"Ειρήνης 4, Νέα Φιλαδέλφεια Αττικής 143 41","categoryIds":["desserts"],"categories":["Dessert Shops"]},{"id":"dessertsRestaurants_9a1aa3339c46","slug":"eva-9a1a","kind":"restaurant","name":"Eva","lat":38.015131929032286,"lng":23.750456340002337,"url":"https://maps.app.goo.gl/GBYXZRmRKUPq81F8A?g_st=ic","address":"Karaiskaki 16, Galatsi 111 46","categoryIds":["desserts"],"categories":["Dessert Shops"]},{"id":"dessertsRestaurants_27cc6726185a","slug":"zacharoplasteia-kosmikon-ag-nikolaos-27cc","kind":"restaurant","name":"ΖΑΧΑΡΟΠΛΑΣΤΕΙΑ ΚΟΣΜΙΚΟΝ ΑΓ.ΝΙΚΟΛΑΟΣ","lat":38.00667700680062,"lng":23.72782119868635,"url":"https://maps.app.goo.gl/qDYpfn8xkLTr164U7?g_st=ipc","address":"Λεωφ. Ιωνίας 104, Αθήνα 104 46","categoryIds":["desserts"],"categories":["Dessert Shops"]},{"id":"dessertsRestaurants_f5dcbd5d6956","slug":"tillas-f5dc","kind":"restaurant","name":"ΤΙΛΛΑΣ","lat":38.03389726212368,"lng":23.738299411081684,"url":"https://maps.app.goo.gl/KvFWhV1Ew2To6kLKA?g_st=ipc","address":"Αγίας Τριάδος 2, Νέα Φιλαδέλφεια Αττικής 143 41","categoryIds":["desserts"],"categories":["Dessert Shops"]},{"id":"dessertsRestaurants_3c1566b87f0f","slug":"galaktopoleio-stamoy-galatsi-attikis-3c15","kind":"restaurant","name":"Γαλακτοπωλείο ΣΤΑΜΟΥ, Γαλάτσι Αττικής","lat":38.01421938915903,"lng":23.75342305374386,"url":"https://maps.app.goo.gl/n8JWXhCzyJJxjNQv5?g_st=ipc","address":"Λεωφ. Βεΐκου 9, Γαλάτσι 111 46","categoryIds":["desserts"],"categories":["Dessert Shops"]},{"id":"dessertsRestaurants_72c80ba8b348","slug":"galaktopoleio-stamoy-72c8","kind":"restaurant","name":"Γαλακτοπωλείο ΣΤΑΜΟΥ","lat":38.03443491475164,"lng":23.737764183814345,"url":"https://maps.app.goo.gl/37pG5QPiULEUHnjT8?g_st=ipc","address":"Λεωφ. Δεκελείας 87, Δήμος Νέας Φιλαδέλφειας - Νέας Χαλκηδόνας 143 41","categoryIds":["desserts"],"categories":["Dessert Shops"]},{"id":"coffeeBrunchRestaurants_8eea389a06d0","slug":"santo-belto-8eea","kind":"restaurant","name":"Santo Belto","lat":38.00295539657206,"lng":23.737407823969118,"url":"https://maps.app.goo.gl/ZWa6fMfeNKbHNQGB7?g_st=ipc","address":"Αγίας Ζώνης 21, Αθήνα 113 61","categoryIds":["coffee-brunch","desserts"],"categories":["Coffee & Brunch Spots","Dessert Shops"],"legacySlugs":["santo-belto-1567"]},{"id":"coffeeBrunchRestaurants_9257bf81b3ff","slug":"fairytale-to-paramythopoleio-tis-n-filadelfeias-9257","kind":"restaurant","name":"Fairytale – Το Παραμυθοπωλείο της Ν. Φιλαδέλφειας","lat":38.03555224332492,"lng":23.73629276954315,"url":"https://maps.app.goo.gl/GoWf19SFoVJNYBHP9?g_st=ipc","address":"Νικ. Τρυρια 48, Νέα Φιλαδέλφεια Αττικής 143 41","categoryIds":["coffee-brunch","desserts"],"categories":["Coffee & Brunch Spots","Dessert Shops"],"legacySlugs":["fairytale-to-paramythopoleio-tis-n-filadelfeias-db46"]},{"id":"dessertsRestaurants_6128b9a38565","slug":"zante-6128","kind":"restaurant","name":"Zante","lat":38.01329808317404,"lng":23.75625779357789,"url":"https://maps.app.goo.gl/vdA9XUPFa7M3vbdi7?g_st=ipc","address":"Ελ. Βενιζέλου 21, Γαλάτσι 111 47","categoryIds":["desserts"],"categories":["Dessert Shops"]},{"id":"dessertsRestaurants_b17cae58055b","slug":"solo-gelato-kypseli-b17c","kind":"restaurant","name":"SOLO GELATO ΚΥΨΕΛΗ","lat":37.997495076308105,"lng":23.735075284705523,"url":"https://maps.app.goo.gl/xy8KGbP1LQZJCmxX7?g_st=ipc","address":"Ιθάκης 9, Αθήνα 112 57","categoryIds":["desserts"],"categories":["Dessert Shops"]}],"nearby":[{"id":"dessertsRestaurants_f22485b9778b","slug":"chara-f224","kind":"restaurant","name":"Χαρά","lat":38.02112078219093,"lng":23.735510538796248,"url":"https://maps.app.goo.gl/xbCzjtuywVhjf9c59?g_st=ipc","address":"Πατησίων 339, Αθήνα 111 44","categoryIds":["desserts"],"categories":["Dessert Shops"],"distanceKm":0.27409612564646024},{"id":"greekRestaurants_2f6996caca4e","slug":"spyros-antonis-2f69","kind":"restaurant","name":"Σπύρος-Αντώνης","lat":38.01866922800358,"lng":23.738404062129728,"url":"https://maps.app.goo.gl/9kB2f5FdE7NhgyEF7","address":"Γαβριηλίδου 24, Αθήνα 111 41","categoryIds":["greek-restaurants"],"categories":["Greek Restaurants"],"distanceKm":0.33760206069924464},{"id":"cheapEatsRestaurants_204d68c7c535","slug":"to-ariston-204d","kind":"restaurant","name":"ΤΟ ΑΡΙΣΤΟΝ","lat":38.022955608499146,"lng":23.735820169983455,"url":"https://maps.app.goo.gl/TRT4ewxJ6pQL8ffBA?g_st=ipc","address":"Πατησίων 349, Αθήνα 111 44","categoryIds":["cheap-eats"],"categories":["Gyros & Cheap Eats"],"distanceKm":0.47803192617073426},{"id":"greekRestaurants_7e2e5838aa91","slug":"arolithos-7e2e","kind":"restaurant","name":"Αρόλιθος","lat":38.022714668636375,"lng":23.738679463378304,"url":"https://maps.app.goo.gl/kNua9KhyTtnEhKVV9","address":"Αγίας Λαύρας 70, Αθήνα 111 41","categoryIds":["greek-restaurants"],"categories":["Greek Restaurants"],"distanceKm":0.5680500981831784},{"id":"cheapEatsRestaurants_a39f2b17c80c","slug":"i-vasiliki-psitopoleio-soyvlakopoleio-a39f","kind":"restaurant","name":"Η Βασιλική - Ψητοπωλείο Σουβλακοπωλείο","lat":38.01712717421362,"lng":23.740908436131292,"url":"https://maps.app.goo.gl/5zkEPJhoVXLaVYeF7?g_st=ipc","address":"Μαρκορά 25, Αθήνα 111 41","categoryIds":["cheap-eats"],"categories":["Gyros & Cheap Eats"],"distanceKm":0.5861355501612638},{"id":"luxuryDiningRestaurants_fc72bbd8d95c","slug":"thanasis-1948-fc72","kind":"restaurant","name":"Θανάσης 1948","lat":38.01944995786154,"lng":23.725569046206015,"url":"https://maps.app.goo.gl/Dz6PnDZaCe8Db55q7?g_st=ipc","address":"Κων/νου Καβάφη 48, Αθήνα 111 43","categoryIds":["luxury-dining"],"categories":["Luxury Dining"],"distanceKm":0.7905278682898141},{"id":"cheapEatsRestaurants_d184e5cf8bc9","slug":"psitopoleio-o-spyros-soyvlakia-d184","kind":"restaurant","name":"Ψητοπωλείο ο Σπύρος Σουβλάκια","lat":38.01699116177091,"lng":23.725453216560837,"url":"https://maps.app.goo.gl/jiHHELBpUtGUfeV87?g_st=ipc","address":"Βικέλα 33, Αθήνα 111 45","categoryIds":["cheap-eats"],"categories":["Gyros & Cheap Eats"],"distanceKm":0.8213947062292716},{"id":"monasteriesChurches_7d585aed6cfa","slug":"ieros-naos-koimiseos-tis-theotokoy-panagitsa-7d58","kind":"restaurant","name":"Ιερός Ναός Κοιμήσεως της Θεοτόκου (Παναγίτσα)","lat":38.01727711784317,"lng":23.744778782538283,"url":"https://maps.app.goo.gl/RDMFUG49GBgqceAu8?g_st=ipc","address":"Ανδρεόπουλου 2, Αθήνα 111 41","categoryIds":["monasteries-churches"],"categories":["Monasteries & Spiritual Sites"],"distanceKm":0.9111720167945051},{"id":"greekRestaurants_0c72524c082e","slug":"gia-des-gkarnten-0c72","kind":"restaurant","name":"Για Δες Γκάρντεν","lat":38.02025659339306,"lng":23.745905469042288,"url":"https://maps.app.goo.gl/aLm6k1HqkUoU9PxE8","address":"Χαλεπά 68, Αθήνα 111 41","categoryIds":["greek-restaurants"],"categories":["Greek Restaurants"],"distanceKm":1.008084160694807},{"id":"dessertsRestaurants_903707df6326","slug":"papliber-9037","kind":"restaurant","name":"PapLiber","lat":38.021403205203185,"lng":23.74592719548837,"url":"https://maps.app.goo.gl/3KG3eWHdUB7oyaGD7?g_st=ipc","address":"Γεωργούλια Αγησιλάου 10, Αθήνα 111 42","categoryIds":["desserts"],"categories":["Dessert Shops"],"distanceKm":1.0384102279280283},{"id":"familyFriendly_acd0cfc71ead","slug":"o-lofos-toy-paidioy-acd0","kind":"restaurant","name":"Ο Λόφος του παιδιού","lat":38.01260579188783,"lng":23.744735148228322,"url":"https://maps.app.goo.gl/FRgTyn4QAqJnFsYb8?g_st=ic","address":"Δρίσκου, Passov &, Galatsi 111 46","categoryIds":["family-friendly"],"categories":["Kid Friendly Locations"],"distanceKm":1.1252506001727425},{"id":"greekRestaurants_c66e14e23e12","slug":"stoy-lagoydaki-c66e","kind":"restaurant","name":"Στου Λαγουδάκη","lat":38.02939885957541,"lng":23.734627277985574,"url":"https://maps.app.goo.gl/4j67R3hXxbhm8zc98","address":"Λεωφ. Δεκελείας 36, Νέα Χαλκηδόνα 143 43","categoryIds":["greek-restaurants"],"categories":["Greek Restaurants"],"distanceKm":1.1814299174901224},{"id":"cheapEatsRestaurants_cbf0a0d9c1b3","slug":"lamprinaki-cbf0","kind":"restaurant","name":"Λαμπρινάκι","lat":38.0224148920344,"lng":23.747555518536878,"url":"https://maps.app.goo.gl/M5T9Z6KajRqpaNBA7?g_st=ipc","address":"Τράλλεων 67, Αθήνα 111 42","categoryIds":["cheap-eats"],"categories":["Gyros & Cheap Eats"],"distanceKm":1.2088447270654112},{"id":"greekRestaurants_cf4d36c85e78","slug":"paradosiaki-taverna-o-spanos-cf4d","kind":"restaurant","name":"Παραδοσιακή Ταβέρνα ο Σπανός","lat":38.01128559769368,"lng":23.722291820236695,"url":"https://maps.app.goo.gl/M1LDEQBwqFbK8g7Y6","address":"Αριστείδου Οικονόμου 12, Αθήνα 104 45","categoryIds":["greek-restaurants"],"categories":["Greek Restaurants"],"distanceKm":1.3590622377975297},{"id":"dessertsRestaurants_278027c93e69","slug":"zacharoplasteio-syntrivani-2780","kind":"restaurant","name":"Ζαχαροπλαστείο Συντριβάνι","lat":38.031171993923905,"lng":23.736947011882947,"url":"https://maps.app.goo.gl/qd2j8WUJHdAta1mY9?g_st=ipc","address":"Ειρήνης 4, Νέα Φιλαδέλφεια Αττικής 143 41","categoryIds":["desserts"],"categories":["Dessert Shops"],"distanceKm":1.394439844180812},{"id":"coffeeBrunchRestaurants_5b95e5db288d","slug":"slow-athens-5b95","kind":"restaurant","name":"Slow Athens","lat":38.02276964076481,"lng":23.750109220953814,"url":"https://maps.app.goo.gl/1iFxkjwZn9gN56m89?g_st=ipc","address":"Αγίου Σπυρίδωνος 18, Γαλάτσι 111 46","categoryIds":["coffee-brunch"],"categories":["Coffee & Brunch Spots"],"distanceKm":1.4333315084134521},{"id":"dessertsRestaurants_9a1aa3339c46","slug":"eva-9a1a","kind":"restaurant","name":"Eva","lat":38.015131929032286,"lng":23.750456340002337,"url":"https://maps.app.goo.gl/GBYXZRmRKUPq81F8A?g_st=ic","address":"Karaiskaki 16, Galatsi 111 46","categoryIds":["desserts"],"categories":["Dessert Shops"],"distanceKm":1.4508900456919647},{"id":"dessertsRestaurants_27cc6726185a","slug":"zacharoplasteia-kosmikon-ag-nikolaos-27cc","kind":"restaurant","name":"ΖΑΧΑΡΟΠΛΑΣΤΕΙΑ ΚΟΣΜΙΚΟΝ ΑΓ.ΝΙΚΟΛΑΟΣ","lat":38.00667700680062,"lng":23.72782119868635,"url":"https://maps.app.goo.gl/qDYpfn8xkLTr164U7?g_st=ipc","address":"Λεωφ. Ιωνίας 104, Αθήνα 104 46","categoryIds":["desserts"],"categories":["Dessert Shops"],"distanceKm":1.4687304133827148},{"id":"greekRestaurants_1c33d3a3b85a","slug":"i-voskopoyla-1c33","kind":"restaurant","name":"Η Βοσκοπούλα","lat":38.026845200131646,"lng":23.747963927790185,"url":"https://maps.app.goo.gl/hpb1BhW8cddVUadJA","address":"Σιβόρων 87, Αθήνα 111 42","categoryIds":["greek-restaurants"],"categories":["Greek Restaurants"],"distanceKm":1.478359142517007},{"id":"mexicanRestaurants_c5563429e3b3","slug":"agavita-cantina-mexicana-c556","kind":"restaurant","name":"Agavita Cantina Mexicana","lat":38.03199225780443,"lng":23.737193509502852,"url":"https://maps.app.goo.gl/YNaKL4jWfw735LRo9?g_st=ipc","address":"Λεωφ. Δεκελείας 86, Νέα Φιλαδέλφεια Αττικής 143 41","categoryIds":["mexican"],"categories":["Mexican Restaurants"],"distanceKm":1.4878783555191546},{"id":"greekRestaurants_fa7cc6bab7be","slug":"lefkes-on-the-side-fa7c","kind":"restaurant","name":"Lefkes on the Side","lat":38.013850196604025,"lng":23.75041166079297,"url":"https://maps.app.goo.gl/bBjijsL8Z595BXhZ7","address":"Λεωφ. Γαλατσίου 98, Γαλάτσι 111 46","categoryIds":["greek-restaurants"],"categories":["Greek Restaurants"],"distanceKm":1.4933117329876056},{"id":"cheapEatsRestaurants_3855239555fb","slug":"oi-meraklides-3855","kind":"restaurant","name":"Οι Μερακλήδες","lat":38.005421507151304,"lng":23.738069532004765,"url":"https://maps.app.goo.gl/cQBiuhmvhu6SiSrp9?g_st=ipc","address":"Αγίας Ζώνης 60, Αθήνα 112 56","categoryIds":["cheap-eats"],"categories":["Gyros & Cheap Eats"],"distanceKm":1.5163829030616032},{"id":"greekRestaurants_24b930305a8e","slug":"leykes-24b9","kind":"restaurant","name":"Λεύκες","lat":38.01369593012145,"lng":23.750720348183243,"url":"https://maps.app.goo.gl/f11Mf8a6b4eezgj29","address":"Λεωφ. Γαλατσίου 100, Γαλάτσι 111 46","categoryIds":["greek-restaurants"],"categories":["Greek Restaurants"],"distanceKm":1.5247732733448283},{"id":"greekRestaurants_7620f2ece9a6","slug":"mpompyras-7620","kind":"restaurant","name":"Μπόμπυρας","lat":38.00484148971816,"lng":23.732856919000913,"url":"https://maps.app.goo.gl/9Ay3zpP2cfdFbPpw8","address":"Ευπαλίνου 21, Αθήνα 112 53","categoryIds":["greek-restaurants"],"categories":["Greek Restaurants"],"distanceKm":1.5563483884737457}],"mentionedGuides":[],"canonicalSlug":"pap-liber-patisia-b21d","enrichment":{"summary_en":"Pap-Liber (Πατήσια) is a curated restaurant in Αθήνα 111 44 in the Dessert Shops collection. It is connected to 7 nearby Googlementor picks to help travelers build a stronger local route.","summary_el":"Pap-Liber (Πατήσια) είναι ένα επιλεγμένο σημείο φαγητού στην περιοχή Αθήνα 111 44 και ανήκει στη συλλογή Dessert Shops. Συνδέεται με 7 κοντινές προτάσεις του Googlementor για πιο ολοκληρωμένη εμπειρία.","vibe_tags":["curated","sweet-stop"],"best_for":["first-time visitors","food lovers"],"visit_moments":["afternoon break","after dinner"],"practical_note":"Address and direct map link are available for easy turn-by-turn access.","nearby_walkable_count":7,"nearby_count_2km":62,"confidence":0.98},"areaContext":{"slug":"patisia","name":"Patisia","nameEl":"Πατήσια"},"intentContexts":[{"href":"/desserts/patisia","label":"Dessert Shops in Patisia","categorySlug":"desserts","categoryName":"Dessert Shops","areaSlug":"patisia","areaName":"Patisia","areaNameEl":"Πατήσια"}]},"__N_SSG":true}