{"pageProps":{"entity":{"id":"familyFriendly_0fe2b96ad54c","slug":"paramythochora-powered-by-unboxholics-0fe2","kind":"restaurant","name":"Παραμυθοχώρα powered by Unboxholics","lat":40.96985491269367,"lng":21.914553567562834,"url":"https://maps.app.goo.gl/38dNg4YHr7NMSpqy8?g_st=ipc","address":"Pozar Baths 584 00","categoryIds":["family-friendly"],"categories":["Kid Friendly Locations"]},"sameCategory":[{"id":"familyFriendly_20ce7f662369","slug":"waterfalls-of-edessa-20ce","kind":"restaurant","name":"Waterfalls of Edessa","lat":40.80389706859676,"lng":22.056027729555048,"url":"https://maps.app.goo.gl/jGXWJC6i6KeqGJ128?g_st=ipc","address":"Tsimiski 2, Edessa 582 00","categoryIds":["family-friendly"],"categories":["Kid Friendly Locations"]},{"id":"familyFriendly_6d37527d6031","slug":"aravissos-6d37","kind":"restaurant","name":"Aravissos","lat":40.84372836252556,"lng":22.29977887392331,"url":"https://maps.app.goo.gl/hexPdMp2cuZPUgmA8?g_st=ic","address":"Αραβησσος 581 00","categoryIds":["family-friendly"],"categories":["Kid Friendly Locations"]},{"id":"familyFriendly_5f4d4e2afff8","slug":"bowling-city-club-5f4d","kind":"restaurant","name":"Bowling City Club","lat":40.49775337927069,"lng":22.17239983558456,"url":"https://maps.app.goo.gl/KgPCpfULKMp7KhMJ7?g_st=ipc","address":"Bowling City Club, Veria 591 32","categoryIds":["family-friendly"],"categories":["Kid Friendly Locations"]},{"id":"familyFriendly_9fb0caab5b5a","slug":"parko-elafion-agioy-panteleimonos-agios-dimitrios-kozanis-9fb0","kind":"restaurant","name":"Πάρκο Ελαφιών Αγίου Παντελεήμονος,Άγιος Δημήτριος Κοζάνης","lat":40.43077407157342,"lng":21.94672871822924,"url":"https://maps.app.goo.gl/RuwhJYNYLe2JU3NZA?g_st=ipc","address":"Agios Dimitrios 501 50","categoryIds":["family-friendly"],"categories":["Kid Friendly Locations"]},{"id":"familyFriendly_d1a47ca0dedf","slug":"freedom-interactive-playzone-d1a4","kind":"restaurant","name":"Freedom Interactive Playzone","lat":40.70867369830318,"lng":22.911054983573504,"url":"https://maps.app.goo.gl/GummsjTvyttusdP46?g_st=ipc","address":"Μακεδονικού Αγώνα, Zappa &, Oreokastro 570 13","categoryIds":["family-friendly"],"categories":["Kid Friendly Locations"]},{"id":"familyFriendly_87307641acf6","slug":"r-mote-8730","kind":"restaurant","name":"R'MOTE","lat":40.68581196268978,"lng":22.922356233082034,"url":"https://maps.app.goo.gl/y5U3WvSQGqnkW6KY7?g_st=ipc","address":"Palaiokomis 22, Evosmos 562 24","categoryIds":["family-friendly"],"categories":["Kid Friendly Locations"]},{"id":"familyFriendly_318b4f24e07f","slug":"parko-deinosayron-318b","kind":"restaurant","name":"ΠΑΡΚΟ ΔΕΙΝΟΣΑΥΡΩΝ","lat":40.701527729460004,"lng":22.939792993737786,"url":"https://maps.app.goo.gl/jZyLiRLATZktk5dG7?g_st=ipc","address":"Thessaloniki 7ο χλμ, Oreokastro 570 13","categoryIds":["family-friendly"],"categories":["Kid Friendly Locations"]},{"id":"familyFriendly_4e467d7db3ce","slug":"perivallontiko-parko-dervenioy-4e46","kind":"restaurant","name":"Περιβαλλοντικό Πάρκο Δερβενίου","lat":40.7144477049586,"lng":22.966013369993284,"url":"https://maps.app.goo.gl/12YHRaQcoWEy1dcC6?g_st=ipc","address":"Mygdonia 545 00","categoryIds":["family-friendly"],"categories":["Kid Friendly Locations"]},{"id":"familyFriendly_91fdc1b07999","slug":"parko-tzeni-karezi-91fd","kind":"restaurant","name":"Πάρκο Τζένη Καρέζη","lat":40.65858356268694,"lng":22.948886429553223,"url":"https://maps.app.goo.gl/GLfxf6LcGPn5DhUJA?g_st=ipc","address":"Polichni 565 32","categoryIds":["family-friendly"],"categories":["Kid Friendly Locations"]},{"id":"familyFriendly_bde356affb96","slug":"pony-park-bde3","kind":"restaurant","name":"Pony park","lat":40.771648089590926,"lng":22.997360084589175,"url":"https://maps.app.goo.gl/g2acMrTmNxKzTfi17?g_st=ic","address":"14χλμ ΠΕΟ, EO Thessalonikis Serron, Oreokastro 572 00","categoryIds":["family-friendly"],"categories":["Kid Friendly Locations"]},{"id":"familyFriendly_d122f87f1fed","slug":"kapsalas-tennis-club-d122","kind":"restaurant","name":"Καψάλας tennis club","lat":40.49945923504331,"lng":22.848750088608462,"url":"https://maps.app.goo.gl/yZyZ8YKUDg7Ac4pY7?g_st=ipc","address":"Θέση Επτάρια, Nea Michaniona 570 04","categoryIds":["family-friendly"],"categories":["Kid Friendly Locations"]},{"id":"familyFriendly_7f25af87c856","slug":"bikeit-7f25","kind":"restaurant","name":"BikeIT","lat":40.61873680277816,"lng":22.95194585489908,"url":"https://maps.app.goo.gl/JgmdrRTYY3tBNz6y8?g_st=ic","address":"Leof. Meg. Alexandrou 2, Thessaloniki 546 40","categoryIds":["family-friendly"],"categories":["Kid Friendly Locations"]}],"nearby":[{"id":"familyFriendly_20ce7f662369","slug":"waterfalls-of-edessa-20ce","kind":"restaurant","name":"Waterfalls of Edessa","lat":40.80389706859676,"lng":22.056027729555048,"url":"https://maps.app.goo.gl/jGXWJC6i6KeqGJ128?g_st=ipc","address":"Tsimiski 2, Edessa 582 00","categoryIds":["family-friendly"],"categories":["Kid Friendly Locations"],"distanceKm":21.95398429586096},{"id":"wineriesVineyards_49827f52117e","slug":"oinopoieia-vegoritis-4982","kind":"restaurant","name":"Οινοποιεία Βεγορίτις","lat":40.73416864325467,"lng":21.7391401355809,"url":"https://maps.app.goo.gl/MXd7HMch31d1vFaGA?g_st=ipc","address":"Αγ. Παντελεήμονας, Ag. Panteleimon 532 00","categoryIds":["wineries-vineyards"],"categories":["Wineries & Vineyards"],"distanceKm":30.074622156394426},{"id":"wineriesVineyards_5861d01e2ac1","slug":"alpha-estate-5861","kind":"restaurant","name":"Alpha Estate","lat":40.6946468662729,"lng":21.7063723336842,"url":"https://maps.app.goo.gl/3PDmKNgZdxnTo6Yg8?g_st=ipc","address":"2ο χλμ, Ag. Panteleimon 532 00","categoryIds":["wineries-vineyards"],"categories":["Wineries & Vineyards"],"distanceKm":35.25956891737694},{"id":"wineriesVineyards_b94be12d54af","slug":"ktima-dimopoylos-b94b","kind":"restaurant","name":"Κτήμα Δημόπουλος","lat":40.69536137671463,"lng":21.639884501803266,"url":"https://maps.app.goo.gl/vbjKsFrGPLCsWRvm7?g_st=ipc","address":"1ο χλμ, Xino Nero 530 72","categoryIds":["wineries-vineyards"],"categories":["Wineries & Vineyards"],"distanceKm":38.28335633749499}],"mentionedGuides":[],"canonicalSlug":"paramythochora-powered-by-unboxholics-0fe2","enrichment":{"summary_en":"Παραμυθοχώρα powered by Unboxholics is a curated restaurant in Greece in the Kid Friendly Locations collection. It is connected to 0 nearby Googlementor picks to help travelers build a stronger local route.","summary_el":"Παραμυθοχώρα powered by Unboxholics είναι ένα επιλεγμένο σημείο φαγητού στην περιοχή Greece και ανήκει στη συλλογή Kid Friendly Locations. Συνδέεται με 0 κοντινές προτάσεις του Googlementor για πιο ολοκληρωμένη εμπειρία.","vibe_tags":["curated","family-ready"],"best_for":["first-time visitors","food lovers","families"],"visit_moments":["lunch stop","dinner stop"],"practical_note":"Address and direct map link are available for easy turn-by-turn access.","nearby_walkable_count":0,"nearby_count_2km":0,"confidence":0.9},"areaContext":null,"intentContexts":[]},"__N_SSG":true}