{"pageProps":{"entity":{"id":"greekRestaurants_23f639b6098c","slug":"pilioreitiko-23f6","kind":"restaurant","name":"Πηλιορειτικο","lat":38.05554171208636,"lng":23.870789909416057,"url":"https://maps.app.goo.gl/ZkvmmnHQW4d3ivh49","address":"Κρυστάλλη Κωνσταντίνου 1, Πεντέλη 152 36","categoryIds":["greek-restaurants"],"categories":["Greek Restaurants"]},"sameCategory":[{"id":"greekRestaurants_c753372241fb","slug":"krystallis-c753","kind":"restaurant","name":"Κρυστάλλης","lat":38.05560270007769,"lng":23.870179792849736,"url":"https://maps.app.goo.gl/XofHBMHMp5Y8ecHi6","address":"Πλ. Αγίας Τριάδας, Πεντέλη 152 36","categoryIds":["greek-restaurants"],"categories":["Greek Restaurants"]},{"id":"greekRestaurants_2a4d19d5fad0","slug":"karavaiki-2a4d","kind":"restaurant","name":"Καραβαϊκή","lat":38.05688896672271,"lng":23.85683837486962,"url":"https://maps.app.goo.gl/bDovbnEG8g4iXg669","address":"25ης Μαρτίου 3, Νέα Πεντέλη 152 36","categoryIds":["greek-restaurants"],"categories":["Greek Restaurants"]},{"id":"greekRestaurants_898e4444f3d9","slug":"o-kalofagas-steakhouse-898e","kind":"restaurant","name":"Ο Καλοφαγάς Steakhouse","lat":38.046607872986925,"lng":23.84536540675465,"url":"https://maps.app.goo.gl/K5myWMM5kegmZRGj7","address":"Παλαιών Πατρών Γερμανού 1, Βριλήσσια 152 38","categoryIds":["greek-restaurants"],"categories":["Greek Restaurants"]},{"id":"greekRestaurants_6b39ddfea6e1","slug":"magginas-taverna-melissia-6b39","kind":"restaurant","name":"Μαγγινας Ταβέρνα Μελίσσια","lat":38.06545992903425,"lng":23.842357706146192,"url":"https://maps.app.goo.gl/FMMwbifodFsWzbX47","address":"Πλ. Εθ. Αντιστάσεως, Μελίσσια 151 27","categoryIds":["greek-restaurants"],"categories":["Greek Restaurants"]},{"id":"greekRestaurants_e5f425af5317","slug":"vlachos-mprizoles-choriatikes-pites-e5f4","kind":"restaurant","name":"Βλαχος, Μπριζόλες - Χωριάτικες πίτες","lat":38.06080156016513,"lng":23.83614625903362,"url":"https://maps.app.goo.gl/hue4bt53ZxfCUeXg6","address":"Κων/νου Καραμανλή, 17ης Νοεμβρίου και, Μελίσσια 151 27","categoryIds":["greek-restaurants"],"categories":["Greek Restaurants"]},{"id":"greekRestaurants_217beb188c9d","slug":"to-peyko-taverna-fagito-sto-choro-take-away-delivery-217b","kind":"restaurant","name":"Το Πευκο | Ταβέρνα - Φαγητό στο χώρο - Take Away - Delivery","lat":38.048953774865154,"lng":23.835609448784652,"url":"https://maps.app.goo.gl/2DPr3yhvS2JApV5x5","address":"Τήνου 12, Μελίσσια 151 27","categoryIds":["greek-restaurants"],"categories":["Greek Restaurants"]},{"id":"greekRestaurants_2ee34caffafc","slug":"to-mprizoladiko-toy-geraka-2ee3","kind":"restaurant","name":"Το Μπριζολάδικο του Γέρακα","lat":38.02301749370778,"lng":23.859957200296044,"url":"https://maps.app.goo.gl/neQoZEu5PGEjM9DP9","address":"Λεωφ. Γέρακας 84, Γέρακας 153 44","categoryIds":["greek-restaurants"],"categories":["Greek Restaurants"]},{"id":"greekRestaurants_191a2f7954ba","slug":"to-aythaireto-191a","kind":"restaurant","name":"ΤΟ ΑΥΘΑΙΡΕΤΟ","lat":38.05739141623042,"lng":23.82532230565926,"url":"https://maps.app.goo.gl/oF5WnEmN9HdHPyPo9","address":"Πεύκων 10, Μαρούσι 151 26","categoryIds":["greek-restaurants"],"categories":["Greek Restaurants"]},{"id":"greekRestaurants_3a95a72d63b7","slug":"to-steki-toy-andrea-sto-chalandri-3a95","kind":"restaurant","name":"Το Στέκι του Ανδρέα στο Χαλάνδρι","lat":38.02735400038434,"lng":23.82467794898433,"url":"https://maps.app.goo.gl/Wp9gL9KTg1iHqv8R6?g_st=ipc","address":"Μεσσηνίας 46, Χαλάνδρι 152 34","categoryIds":["greek-restaurants"],"categories":["Greek Restaurants"]},{"id":"greekRestaurants_f61d819e1926","slug":"taverna-toyrkantoni-f61d","kind":"restaurant","name":"Ταβέρνα Τουρκαντώνη","lat":38.01211262091287,"lng":23.8515403603164,"url":"https://maps.app.goo.gl/B6AxbVv7MU6bztsX6","address":"Μιαούλη 59, Γέρακας 153 44","categoryIds":["greek-restaurants"],"categories":["Greek Restaurants"]},{"id":"greekRestaurants_077f474cb97d","slug":"stis-ellis-077f","kind":"restaurant","name":"Στης Έλλης","lat":38.01628513050535,"lng":23.840166535568635,"url":"https://maps.app.goo.gl/o1oe4gt1mipnzHE77?g_st=ipc","address":"Ἁγ. Τριάδος 57, Αγ. Παρασκευή 153 43","categoryIds":["greek-restaurants"],"categories":["Greek Restaurants"]},{"id":"greekRestaurants_81215dd76f6b","slug":"artisanal-8121","kind":"restaurant","name":"Artisanal","lat":38.067981010642875,"lng":23.811453792339574,"url":"https://maps.app.goo.gl/WsfMSGTo3b3Mq3hS6","address":"Ζηρίνη 2, Κηφισιά 145 62","categoryIds":["greek-restaurants"],"categories":["Greek Restaurants"]}],"nearby":[{"id":"greekRestaurants_c753372241fb","slug":"krystallis-c753","kind":"restaurant","name":"Κρυστάλλης","lat":38.05560270007769,"lng":23.870179792849736,"url":"https://maps.app.goo.gl/XofHBMHMp5Y8ecHi6","address":"Πλ. Αγίας Τριάδας, Πεντέλη 152 36","categoryIds":["greek-restaurants"],"categories":["Greek Restaurants"],"distanceKm":0.05384831917881475},{"id":"monasteriesChurches_2ed5c9c74a50","slug":"iera-moni-pentelis-koimiseos-tis-theotokoy-2ed5","kind":"restaurant","name":"Ιερά Μονή Πεντέλης (Κοιμήσεως της Θεοτόκου)","lat":38.052651924953615,"lng":23.86703856624407,"url":"https://maps.app.goo.gl/Xf9ygVb29EqkAQUs7?g_st=ipc","address":"Πεντέλη 152 36","categoryIds":["monasteries-churches"],"categories":["Monasteries & Spiritual Sites"],"distanceKm":0.4594987472992015},{"id":"cheapEatsRestaurants_b230f7d2edc5","slug":"to-petrino-toy-stamati-kapralos-stamatios-th-b230","kind":"restaurant","name":"Το Πέτρινο Του Σταμάτη (Καπράλος Σταμάτιος Θ.)","lat":38.049806163763144,"lng":23.869838485555228,"url":"https://maps.app.goo.gl/AdKg349ahnUtzxXt9?g_st=ipc","address":"Βασ. Γεωργίου Β 10, Πεντέλη 152 36","categoryIds":["cheap-eats"],"categories":["Gyros & Cheap Eats"],"distanceKm":0.6431817273184413},{"id":"italianRestaurants_eac42fd61c0e","slug":"coupepe-eac4","kind":"restaurant","name":"COUPEPE","lat":38.059126782333124,"lng":23.858013173173166,"url":"https://maps.app.goo.gl/dhSjH71uBwFmJRQg8?g_st=ipc","address":"Ηρ. Πολυτεχνείου 43, Νέα Πεντέλη 152 39","categoryIds":["italian"],"categories":["Italian Restaurants"],"distanceKm":1.1875646788237668},{"id":"greekRestaurants_2a4d19d5fad0","slug":"karavaiki-2a4d","kind":"restaurant","name":"Καραβαϊκή","lat":38.05688896672271,"lng":23.85683837486962,"url":"https://maps.app.goo.gl/bDovbnEG8g4iXg669","address":"25ης Μαρτίου 3, Νέα Πεντέλη 152 36","categoryIds":["greek-restaurants"],"categories":["Greek Restaurants"],"distanceKm":1.2306866788433846},{"id":"asianRestaurants_0fceaf69bfec","slug":"tailandi-0fce","kind":"restaurant","name":"Ταϊλάνδη","lat":38.05465471580679,"lng":23.844081463874097,"url":"https://maps.app.goo.gl/EKBgxEmreeAUsw7BA?g_st=ipc","address":"Σωκράτους 7, Μελίσσια 151 27","categoryIds":["asian"],"categories":["Asian Restaurants"],"distanceKm":2.3405883327171377},{"id":"familyFriendly_b5b6b464edb9","slug":"planet-cosmos-b5b6","kind":"restaurant","name":"Planet Cosmos","lat":38.036967894838305,"lng":23.858200213835428,"url":"https://maps.app.goo.gl/p7oh1sqhz5MkfN978?g_st=ipc","address":"Κλεισθένους 399, Γέρακας 153 44","categoryIds":["family-friendly"],"categories":["Kid Friendly Locations"],"distanceKm":2.341135397653782},{"id":"fishTavernasRestaurants_43c82b52a2f5","slug":"nisiotissa-taverna-vrilissia-43c8","kind":"restaurant","name":"Νησιώτισσα | Ταβέρνα - Βριλήσσια","lat":38.049892048450445,"lng":23.844559347971032,"url":"https://maps.app.goo.gl/GRmK1dMStEro6P898?g_st=ipc","address":"Λεωφ. Πεντέλης 168, Βριλήσσια 152 35","categoryIds":["fish-tavernas"],"categories":["Fish Tavernas"],"distanceKm":2.381108269309358},{"id":"greekRestaurants_898e4444f3d9","slug":"o-kalofagas-steakhouse-898e","kind":"restaurant","name":"Ο Καλοφαγάς Steakhouse","lat":38.046607872986925,"lng":23.84536540675465,"url":"https://maps.app.goo.gl/K5myWMM5kegmZRGj7","address":"Παλαιών Πατρών Γερμανού 1, Βριλήσσια 152 38","categoryIds":["greek-restaurants"],"categories":["Greek Restaurants"],"distanceKm":2.4377993845219548},{"id":"italianRestaurants_3f60e58e5074","slug":"nolio-restaurant-3f60","kind":"restaurant","name":"Nolio Restaurant","lat":38.0541360368352,"lng":23.842912804517134,"url":"https://maps.app.goo.gl/yrWwCAmRFC73bnXRA?g_st=ipc","address":"Π. Τσαλδάρη 32-34, Μελίσσια 151 27","categoryIds":["italian"],"categories":["Italian Restaurants"],"distanceKm":2.445841704113076},{"id":"luxuryDiningRestaurants_7b82ed0407ba","slug":"kozi-s-7b82","kind":"restaurant","name":"Kozi's","lat":38.05410178054939,"lng":23.84283580469915,"url":"https://maps.app.goo.gl/FDQnvFLEucyn2rft6?g_st=ipc","address":"Π. Τσαλδάρη 34, Μελίσσια 151 27","categoryIds":["luxury-dining"],"categories":["Luxury Dining"],"distanceKm":2.4528161274985285},{"id":"mexicanRestaurants_a122440089bb","slug":"chilangos-melissia-a122","kind":"restaurant","name":"Chilangos Μελίσσια","lat":38.054355571864015,"lng":23.84267375327988,"url":"https://maps.app.goo.gl/1nUje6biZMsuVgA88?g_st=ipc","address":"Π. Τσαλδάρη 31, Μελίσσια 151 27","categoryIds":["mexican"],"categories":["Mexican Restaurants"],"distanceKm":2.465299826776526},{"id":"burgersRestaurants_b5cd5e9d8f33","slug":"comet-street-gourmet-athens-b5cd","kind":"restaurant","name":"Comet Street Gourmet Athens","lat":38.05458806834009,"lng":23.84252767987863,"url":"https://maps.app.goo.gl/7yT5TAqAFBttQ8yZ7?g_st=ipc","address":"Σωκράτους 3, Μελίσσια 151 27","categoryIds":["burgers"],"categories":["Burger Spots"],"distanceKm":2.4768260145275685},{"id":"asianRestaurants_b06ea4e8fead","slug":"shisan-sushi-bar-b06e","kind":"restaurant","name":"Shisan Sushi Bar","lat":38.053962138366174,"lng":23.841922115859383,"url":"https://maps.app.goo.gl/xTbQEiSszAswqYqi8?g_st=ipc","address":"Αλ. Ζαΐμη 1, Μελίσσια 151 27","categoryIds":["asian"],"categories":["Asian Restaurants"],"distanceKm":2.533682407939171},{"id":"mexicanRestaurants_3cb054fab422","slug":"juan-s-cantina-vrilissia-3cb0","kind":"restaurant","name":"Juan's Cantina (Βριλήσσια)","lat":38.04160062532965,"lng":23.847620862228275,"url":"https://maps.app.goo.gl/6ANASWUmUfUoDhQ17?g_st=ipc","address":"Αναπαύσεως 40, Βριλήσσια 152 38","categoryIds":["mexican"],"categories":["Mexican Restaurants"],"distanceKm":2.5532423969346834},{"id":"cheapEatsRestaurants_b596150cf3db","slug":"trigono-melission-b596","kind":"restaurant","name":"ΤΡΙΓΩΝΟ ΜΕΛΙΣΣΙΩΝ","lat":38.05317998498453,"lng":23.84087862675326,"url":"https://maps.app.goo.gl/FjiCt1o7yoa331UN8?g_st=ipc","address":"Π. Τσαλδάρη 21, Μελίσσια 151 27","categoryIds":["cheap-eats"],"categories":["Gyros & Cheap Eats"],"distanceKm":2.632099839523281},{"id":"greekRestaurants_6b39ddfea6e1","slug":"magginas-taverna-melissia-6b39","kind":"restaurant","name":"Μαγγινας Ταβέρνα Μελίσσια","lat":38.06545992903425,"lng":23.842357706146192,"url":"https://maps.app.goo.gl/FMMwbifodFsWzbX47","address":"Πλ. Εθ. Αντιστάσεως, Μελίσσια 151 27","categoryIds":["greek-restaurants"],"categories":["Greek Restaurants"],"distanceKm":2.722621532681654},{"id":"fishTavernasRestaurants_8fa64823bdb9","slug":"psarokokkalo-8fa6","kind":"restaurant","name":"Ψαροκόκκαλο","lat":38.05407148936591,"lng":23.838879406158195,"url":"https://maps.app.goo.gl/yjqJBhxZ9XwdkDBv7?g_st=ipc","address":"Ελ. Βενιζέλου 19, Μελίσσια 151 27","categoryIds":["fish-tavernas","luxury-dining"],"categories":["Fish Tavernas","Luxury Dining"],"legacySlugs":["psarokokkalo-9b9d"],"distanceKm":2.7987753419891757},{"id":"dessertsRestaurants_2b678632636d","slug":"gelateria-giovanni-2b67","kind":"restaurant","name":"Gelateria Giovanni","lat":38.05439248631055,"lng":23.83864189197517,"url":"https://maps.app.goo.gl/vHiSCvP87r2bMcgL7?g_st=ipc","address":"Μπουμπουλίνας 1, Μελίσσια 151 27","categoryIds":["desserts"],"categories":["Dessert Shops"],"distanceKm":2.8176857938011737},{"id":"familyFriendly_86f9e83bcddf","slug":"parko-proin-naytikis-vasis-86f9","kind":"restaurant","name":"Πάρκο Πρώην Ναυτικής Βάσης","lat":38.045491355804536,"lng":23.838523859146985,"url":"https://maps.app.goo.gl/bVGsyiVv6EgBKgQg7?g_st=ipc","address":"Λεωφ. Πεντέλης 41, Βριλήσσια 152 35","categoryIds":["family-friendly"],"categories":["Kid Friendly Locations"],"distanceKm":3.0382882031015477},{"id":"fishTavernasRestaurants_94cda06b3f37","slug":"ta-psarakia-94cd","kind":"restaurant","name":"Τα Ψαράκια","lat":38.060545213135285,"lng":23.836609678627113,"url":"https://maps.app.goo.gl/uvjoui4AHeT11Xzo7?g_st=ipc","address":"Πλατεία Ελευθερίας 2, Νέστορος 4, Μελίσσια 151 27","categoryIds":["fish-tavernas"],"categories":["Fish Tavernas"],"distanceKm":3.043873895735075},{"id":"greekRestaurants_e5f425af5317","slug":"vlachos-mprizoles-choriatikes-pites-e5f4","kind":"restaurant","name":"Βλαχος, Μπριζόλες - Χωριάτικες πίτες","lat":38.06080156016513,"lng":23.83614625903362,"url":"https://maps.app.goo.gl/hue4bt53ZxfCUeXg6","address":"Κων/νου Καραμανλή, 17ης Νοεμβρίου και, Μελίσσια 151 27","categoryIds":["greek-restaurants"],"categories":["Greek Restaurants"],"distanceKm":3.0890379500448755},{"id":"cheapEatsRestaurants_666f9d7675e5","slug":"platanos-kempap-soyvlaki-666f","kind":"restaurant","name":"Πλάτανος Κεμπάπ-Σουβλάκι","lat":38.05130210276415,"lng":23.835854870928635,"url":"https://maps.app.goo.gl/uXenfuTid9hYf6He9?g_st=ipc","address":"Leof. Dimokratias 69, Melissia 151 27","categoryIds":["cheap-eats"],"categories":["Gyros & Cheap Eats"],"distanceKm":3.0949884213495085},{"id":"greekRestaurants_217beb188c9d","slug":"to-peyko-taverna-fagito-sto-choro-take-away-delivery-217b","kind":"restaurant","name":"Το Πευκο | Ταβέρνα - Φαγητό στο χώρο - Take Away - Delivery","lat":38.048953774865154,"lng":23.835609448784652,"url":"https://maps.app.goo.gl/2DPr3yhvS2JApV5x5","address":"Τήνου 12, Μελίσσια 151 27","categoryIds":["greek-restaurants"],"categories":["Greek Restaurants"],"distanceKm":3.166317416747921}],"mentionedGuides":[],"canonicalSlug":"pilioreitiko-23f6","enrichment":{"summary_en":"Πηλιορειτικο is a curated restaurant in Πεντέλη 152 36 in the Greek Restaurants collection. It is connected to 3 nearby Googlementor picks to help travelers build a stronger local route.","summary_el":"Πηλιορειτικο είναι ένα επιλεγμένο σημείο φαγητού στην περιοχή Πεντέλη 152 36 και ανήκει στη συλλογή Greek Restaurants. Συνδέεται με 3 κοντινές προτάσεις του Googlementor για πιο ολοκληρωμένη εμπειρία.","vibe_tags":["curated"],"best_for":["first-time visitors","food lovers"],"visit_moments":["lunch stop","dinner stop"],"practical_note":"Address and direct map link are available for easy turn-by-turn access.","nearby_walkable_count":3,"nearby_count_2km":6,"confidence":0.9},"areaContext":{"slug":"anthoysa","name":"Anthousa","nameEl":"Ανθούσα"},"intentContexts":[]},"__N_SSG":true}