{"pageProps":{"entity":{"id":"fishTavernasRestaurants_62c7b8f3faa2","slug":"porfyra-62c7","kind":"restaurant","name":"ΠΟΡΦΥΡΑ","lat":38.05133265699478,"lng":23.83230614489945,"url":"https://maps.app.goo.gl/TQBY6fhE1DqGovNJ9?g_st=ipc","address":"Leof. Dimokratias 29, Melissia 151 27","categoryIds":["fish-tavernas"],"categories":["Fish Tavernas"]},"sameCategory":[{"id":"fishTavernasRestaurants_8fa64823bdb9","slug":"psarokokkalo-8fa6","kind":"restaurant","name":"Ψαροκόκκαλο","lat":38.05407148936591,"lng":23.838879406158195,"url":"https://maps.app.goo.gl/yjqJBhxZ9XwdkDBv7?g_st=ipc","address":"Ελ. Βενιζέλου 19, Μελίσσια 151 27","categoryIds":["fish-tavernas","luxury-dining"],"categories":["Fish Tavernas","Luxury Dining"],"legacySlugs":["psarokokkalo-9b9d"]},{"id":"fishTavernasRestaurants_43c82b52a2f5","slug":"nisiotissa-taverna-vrilissia-43c8","kind":"restaurant","name":"Νησιώτισσα | Ταβέρνα - Βριλήσσια","lat":38.049892048450445,"lng":23.844559347971032,"url":"https://maps.app.goo.gl/GRmK1dMStEro6P898?g_st=ipc","address":"Λεωφ. Πεντέλης 168, Βριλήσσια 152 35","categoryIds":["fish-tavernas"],"categories":["Fish Tavernas"]},{"id":"fishTavernasRestaurants_94cda06b3f37","slug":"ta-psarakia-94cd","kind":"restaurant","name":"Τα Ψαράκια","lat":38.060545213135285,"lng":23.836609678627113,"url":"https://maps.app.goo.gl/uvjoui4AHeT11Xzo7?g_st=ipc","address":"Πλατεία Ελευθερίας 2, Νέστορος 4, Μελίσσια 151 27","categoryIds":["fish-tavernas"],"categories":["Fish Tavernas"]},{"id":"fishTavernasRestaurants_b5ecf6b7087f","slug":"psaromania-b5ec","kind":"restaurant","name":"Ψαρομανία","lat":38.048408639606166,"lng":23.81356249118105,"url":"https://maps.app.goo.gl/h2KMfix1JBmXpQQB9?g_st=ipc","address":"Δάφνης 57, Μαρούσι 151 25","categoryIds":["fish-tavernas"],"categories":["Fish Tavernas"]},{"id":"fishTavernasRestaurants_3ffa036aa4a7","slug":"psarakia-thalassina-3ffa","kind":"restaurant","name":"Ψαράκια & Θαλασσινά","lat":38.02324309009889,"lng":23.800101703415542,"url":"https://maps.app.goo.gl/WKwKfmp9nBvnCPzT9?g_st=ipc","address":"Κώστα Βάρναλη 5, Χαλάνδρι 152 33","categoryIds":["fish-tavernas"],"categories":["Fish Tavernas"]},{"id":"fishTavernasRestaurants_ecc815b7c2ba","slug":"chromata-vythoy-ecc8","kind":"restaurant","name":"Χρώματα Βυθού","lat":38.087925786455884,"lng":23.814850327043008,"url":"https://maps.app.goo.gl/8rz5Adk17ejAsxHP6?g_st=ipc","address":"Εκάλης 40, Νέα Ερυθραία 146 71","categoryIds":["fish-tavernas","luxury-dining"],"categories":["Fish Tavernas","Luxury Dining"],"legacySlugs":["chromata-vythoy-9dbb"]},{"id":"fishTavernasRestaurants_2930f14bae6f","slug":"psariston-2930","kind":"restaurant","name":"Ψάριστον","lat":38.05007046502227,"lng":23.781403693268317,"url":"https://maps.app.goo.gl/4KPzMCG1HKq5Gpdw6?g_st=ipc","address":"Καλαβρύτων 16, Ηράκλειο 141 21, 141 21","categoryIds":["fish-tavernas"],"categories":["Fish Tavernas"]},{"id":"fishTavernasRestaurants_28abc536c707","slug":"kapetanissa-28ab","kind":"restaurant","name":"Καπετάνισσα","lat":38.01937904398287,"lng":23.79769429563829,"url":"https://maps.app.goo.gl/eEbHLBANhp5td8HH9?g_st=ipc","address":"Ομήρου 24, Χαλάνδρι 152 32","categoryIds":["fish-tavernas"],"categories":["Fish Tavernas"]},{"id":"fishTavernasRestaurants_e776bdd89777","slug":"psitos-mpakaliaros-e776","kind":"restaurant","name":"Ψητός Μπακαλιάρος","lat":38.01692370219889,"lng":23.79499254813244,"url":"https://maps.app.goo.gl/qf5FPeY2czx43z2TA?g_st=ipc","address":"Εθ. Αντιστάσεως 9, Χαλάνδρι 152 32","categoryIds":["fish-tavernas"],"categories":["Fish Tavernas"]},{"id":"fishTavernasRestaurants_bdb6fa732eec","slug":"foititis-bdb6","kind":"restaurant","name":"Φοιτητής","lat":38.00738588877098,"lng":23.783442614729104,"url":"https://maps.app.goo.gl/abzrUsQsRH3gKTL2A?g_st=ipc","address":"Θεμιστοκλέους 72-74, Νέο Ψυχικό 154 51","categoryIds":["fish-tavernas"],"categories":["Fish Tavernas"]},{"id":"fishTavernasRestaurants_391097bf7912","slug":"mezedopoleio-psarotaverna-karavidas-3910","kind":"restaurant","name":"Μεζεδοπωλείο Ψαροταβέρνα Καραβίδας","lat":38.03096216854331,"lng":23.75947032164881,"url":"https://maps.app.goo.gl/JGxgiBHhNLEpm7F8A?g_st=ipc","address":"Δεμιρδεσίου 89, Νέα Ιωνία 142 33","categoryIds":["fish-tavernas"],"categories":["Fish Tavernas"]},{"id":"fishTavernasRestaurants_8be01291d057","slug":"steki-psarofagadon-8be0","kind":"restaurant","name":"ΣΤΕΚΙ ΨΑΡΟΦΑΓΑΔΩΝ","lat":38.0206189578116,"lng":23.753464770079276,"url":"https://maps.app.goo.gl/z4bfrFA8WgPgak7Q6?g_st=ipc","address":"Παπαφλέσσα 36, Γαλάτσι 111 46","categoryIds":["fish-tavernas"],"categories":["Fish Tavernas"]}],"nearby":[{"id":"familyFriendly_a9b8fd64bf88","slug":"funmily-eat-drink-play-a9b8","kind":"restaurant","name":"FUNMILY eat-drink-play","lat":38.051902735451634,"lng":23.82889440448781,"url":"https://maps.app.goo.gl/5ypCQjX1CzhhmDWMA?g_st=ipc","address":"Οδός Πεντέλης 114, Μαρούσι 151 26","categoryIds":["family-friendly"],"categories":["Kid Friendly Locations"],"distanceKm":0.30538711707392185},{"id":"cheapEatsRestaurants_666f9d7675e5","slug":"platanos-kempap-soyvlaki-666f","kind":"restaurant","name":"Πλάτανος Κεμπάπ-Σουβλάκι","lat":38.05130210276415,"lng":23.835854870928635,"url":"https://maps.app.goo.gl/uXenfuTid9hYf6He9?g_st=ipc","address":"Leof. Dimokratias 69, Melissia 151 27","categoryIds":["cheap-eats"],"categories":["Gyros & Cheap Eats"],"distanceKm":0.3107501610219826},{"id":"greekRestaurants_217beb188c9d","slug":"to-peyko-taverna-fagito-sto-choro-take-away-delivery-217b","kind":"restaurant","name":"Το Πευκο | Ταβέρνα - Φαγητό στο χώρο - Take Away - Delivery","lat":38.048953774865154,"lng":23.835609448784652,"url":"https://maps.app.goo.gl/2DPr3yhvS2JApV5x5","address":"Τήνου 12, Μελίσσια 151 27","categoryIds":["greek-restaurants"],"categories":["Greek Restaurants"],"distanceKm":0.39196210304088624},{"id":"dessertsRestaurants_2b678632636d","slug":"gelateria-giovanni-2b67","kind":"restaurant","name":"Gelateria Giovanni","lat":38.05439248631055,"lng":23.83864189197517,"url":"https://maps.app.goo.gl/vHiSCvP87r2bMcgL7?g_st=ipc","address":"Μπουμπουλίνας 1, Μελίσσια 151 27","categoryIds":["desserts"],"categories":["Dessert Shops"],"distanceKm":0.6507804465987092},{"id":"fishTavernasRestaurants_8fa64823bdb9","slug":"psarokokkalo-8fa6","kind":"restaurant","name":"Ψαροκόκκαλο","lat":38.05407148936591,"lng":23.838879406158195,"url":"https://maps.app.goo.gl/yjqJBhxZ9XwdkDBv7?g_st=ipc","address":"Ελ. Βενιζέλου 19, Μελίσσια 151 27","categoryIds":["fish-tavernas","luxury-dining"],"categories":["Fish Tavernas","Luxury Dining"],"legacySlugs":["psarokokkalo-9b9d"],"distanceKm":0.6511596618918358},{"id":"cheapEatsRestaurants_b596150cf3db","slug":"trigono-melission-b596","kind":"restaurant","name":"ΤΡΙΓΩΝΟ ΜΕΛΙΣΣΙΩΝ","lat":38.05317998498453,"lng":23.84087862675326,"url":"https://maps.app.goo.gl/FjiCt1o7yoa331UN8?g_st=ipc","address":"Π. Τσαλδάρη 21, Μελίσσια 151 27","categoryIds":["cheap-eats"],"categories":["Gyros & Cheap Eats"],"distanceKm":0.7782088499663797},{"id":"familyFriendly_d45bb5296460","slug":"maroussi-tennis-club-d45b","kind":"restaurant","name":"Maroussi Tennis Club","lat":38.04651986209008,"lng":23.825630520397997,"url":"https://maps.app.goo.gl/pF3h6gGnqMiku8Wg9?g_st=ic","address":"Sismanogliou 74, Marousi 151 26","categoryIds":["family-friendly"],"categories":["Kid Friendly Locations"],"distanceKm":0.792520678002433},{"id":"familyFriendly_86f9e83bcddf","slug":"parko-proin-naytikis-vasis-86f9","kind":"restaurant","name":"Πάρκο Πρώην Ναυτικής Βάσης","lat":38.045491355804536,"lng":23.838523859146985,"url":"https://maps.app.goo.gl/bVGsyiVv6EgBKgQg7?g_st=ipc","address":"Λεωφ. Πεντέλης 41, Βριλήσσια 152 35","categoryIds":["family-friendly"],"categories":["Kid Friendly Locations"],"distanceKm":0.8475317090437536},{"id":"asianRestaurants_b06ea4e8fead","slug":"shisan-sushi-bar-b06e","kind":"restaurant","name":"Shisan Sushi Bar","lat":38.053962138366174,"lng":23.841922115859383,"url":"https://maps.app.goo.gl/xTbQEiSszAswqYqi8?g_st=ipc","address":"Αλ. Ζαΐμη 1, Μελίσσια 151 27","categoryIds":["asian"],"categories":["Asian Restaurants"],"distanceKm":0.8912954484802639},{"id":"greekRestaurants_191a2f7954ba","slug":"to-aythaireto-191a","kind":"restaurant","name":"ΤΟ ΑΥΘΑΙΡΕΤΟ","lat":38.05739141623042,"lng":23.82532230565926,"url":"https://maps.app.goo.gl/oF5WnEmN9HdHPyPo9","address":"Πεύκων 10, Μαρούσι 151 26","categoryIds":["greek-restaurants"],"categories":["Greek Restaurants"],"distanceKm":0.9098327848364737},{"id":"burgersRestaurants_b5cd5e9d8f33","slug":"comet-street-gourmet-athens-b5cd","kind":"restaurant","name":"Comet Street Gourmet Athens","lat":38.05458806834009,"lng":23.84252767987863,"url":"https://maps.app.goo.gl/7yT5TAqAFBttQ8yZ7?g_st=ipc","address":"Σωκράτους 3, Μελίσσια 151 27","categoryIds":["burgers"],"categories":["Burger Spots"],"distanceKm":0.965424536886933},{"id":"mexicanRestaurants_a122440089bb","slug":"chilangos-melissia-a122","kind":"restaurant","name":"Chilangos Μελίσσια","lat":38.054355571864015,"lng":23.84267375327988,"url":"https://maps.app.goo.gl/1nUje6biZMsuVgA88?g_st=ipc","address":"Π. Τσαλδάρη 31, Μελίσσια 151 27","categoryIds":["mexican"],"categories":["Mexican Restaurants"],"distanceKm":0.9680169405673991},{"id":"luxuryDiningRestaurants_7b82ed0407ba","slug":"kozi-s-7b82","kind":"restaurant","name":"Kozi's","lat":38.05410178054939,"lng":23.84283580469915,"url":"https://maps.app.goo.gl/FDQnvFLEucyn2rft6?g_st=ipc","address":"Π. Τσαλδάρη 34, Μελίσσια 151 27","categoryIds":["luxury-dining"],"categories":["Luxury Dining"],"distanceKm":0.9720325631923874},{"id":"italianRestaurants_3f60e58e5074","slug":"nolio-restaurant-3f60","kind":"restaurant","name":"Nolio Restaurant","lat":38.0541360368352,"lng":23.842912804517134,"url":"https://maps.app.goo.gl/yrWwCAmRFC73bnXRA?g_st=ipc","address":"Π. Τσαλδάρη 32-34, Μελίσσια 151 27","categoryIds":["italian"],"categories":["Italian Restaurants"],"distanceKm":0.979634975524822},{"id":"familyFriendly_a06976665fe3","slug":"dentrospito-a069","kind":"restaurant","name":"Δεντρόσπιτο","lat":38.04193059212469,"lng":23.83336989792643,"url":"https://maps.app.goo.gl/xX4rv5hpzm2R55iv8?g_st=ipc","address":"Λεωφ. Πεντέλης 102, Βριλήσσια 152 35","categoryIds":["family-friendly"],"categories":["Kid Friendly Locations"],"distanceKm":1.0496034881645204},{"id":"fishTavernasRestaurants_43c82b52a2f5","slug":"nisiotissa-taverna-vrilissia-43c8","kind":"restaurant","name":"Νησιώτισσα | Ταβέρνα - Βριλήσσια","lat":38.049892048450445,"lng":23.844559347971032,"url":"https://maps.app.goo.gl/GRmK1dMStEro6P898?g_st=ipc","address":"Λεωφ. Πεντέλης 168, Βριλήσσια 152 35","categoryIds":["fish-tavernas"],"categories":["Fish Tavernas"],"distanceKm":1.0848108056534496},{"id":"fishTavernasRestaurants_94cda06b3f37","slug":"ta-psarakia-94cd","kind":"restaurant","name":"Τα Ψαράκια","lat":38.060545213135285,"lng":23.836609678627113,"url":"https://maps.app.goo.gl/uvjoui4AHeT11Xzo7?g_st=ipc","address":"Πλατεία Ελευθερίας 2, Νέστορος 4, Μελίσσια 151 27","categoryIds":["fish-tavernas"],"categories":["Fish Tavernas"],"distanceKm":1.0914907158042102},{"id":"asianRestaurants_0fceaf69bfec","slug":"tailandi-0fce","kind":"restaurant","name":"Ταϊλάνδη","lat":38.05465471580679,"lng":23.844081463874097,"url":"https://maps.app.goo.gl/EKBgxEmreeAUsw7BA?g_st=ipc","address":"Σωκράτους 7, Μελίσσια 151 27","categoryIds":["asian"],"categories":["Asian Restaurants"],"distanceKm":1.0952158209583032},{"id":"greekRestaurants_e5f425af5317","slug":"vlachos-mprizoles-choriatikes-pites-e5f4","kind":"restaurant","name":"Βλαχος, Μπριζόλες - Χωριάτικες πίτες","lat":38.06080156016513,"lng":23.83614625903362,"url":"https://maps.app.goo.gl/hue4bt53ZxfCUeXg6","address":"Κων/νου Καραμανλή, 17ης Νοεμβρίου και, Μελίσσια 151 27","categoryIds":["greek-restaurants"],"categories":["Greek Restaurants"],"distanceKm":1.1052748202657119},{"id":"cheapEatsRestaurants_5a1b3de4b0cd","slug":"ta-soyvlakia-tis-giagias-5a1b","kind":"restaurant","name":"Τα σουβλάκια της γιαγιάς","lat":38.04199101993577,"lng":23.824597588199378,"url":"https://maps.app.goo.gl/K9azEutYtVeRFeTB9?g_st=ipc","address":"Κυπρίων Αγωνιστών 50, Μαρούσι 151 26","categoryIds":["cheap-eats"],"categories":["Gyros & Cheap Eats"],"distanceKm":1.2388026284154907},{"id":"greekRestaurants_898e4444f3d9","slug":"o-kalofagas-steakhouse-898e","kind":"restaurant","name":"Ο Καλοφαγάς Steakhouse","lat":38.046607872986925,"lng":23.84536540675465,"url":"https://maps.app.goo.gl/K5myWMM5kegmZRGj7","address":"Παλαιών Πατρών Γερμανού 1, Βριλήσσια 152 38","categoryIds":["greek-restaurants"],"categories":["Greek Restaurants"],"distanceKm":1.2584371696049672},{"id":"burgersRestaurants_264306258d6e","slug":"busty-s-burger-2643","kind":"restaurant","name":"Busty's Burger","lat":38.05283037769694,"lng":23.815776704443905,"url":"https://maps.app.goo.gl/ZPYfcdYHMWXyKwF16?g_st=ipc","address":"Οδός Πεντέλης, Μαρούσι 151 26","categoryIds":["burgers"],"categories":["Burger Spots"],"distanceKm":1.456876648914918},{"id":"familyFriendly_aade95e892c7","slug":"parko-mikis-theodorakis-typet-aade","kind":"restaurant","name":"Πάρκο Μίκης Θεοδωράκης - ΤΥΠΕΤ","lat":38.0376288072202,"lng":23.83650236719041,"url":"https://maps.app.goo.gl/pvC5VhagjzGcsF3b7?g_st=ipc","address":"Υμηττού 57, Βριλήσσια 152 35","categoryIds":["family-friendly"],"categories":["Kid Friendly Locations"],"distanceKm":1.567478904978786},{"id":"burgersRestaurants_cdde40de0c45","slug":"the-burger-dudes-cdde","kind":"restaurant","name":"The Burger Dudes","lat":38.037808685524865,"lng":23.82651013380888,"url":"https://maps.app.goo.gl/nCm18QqReRW4TNmb6?g_st=ipc","address":"Θέτιδος 1, Βριλήσσια 152 35","categoryIds":["burgers"],"categories":["Burger Spots"],"distanceKm":1.5871409562906964}],"mentionedGuides":[],"canonicalSlug":"porfyra-62c7","enrichment":{"summary_en":"ΠΟΡΦΥΡΑ is a curated restaurant in Melissia 151 27 in the Fish Tavernas collection. It is connected to 8 nearby Googlementor picks to help travelers build a stronger local route.","summary_el":"ΠΟΡΦΥΡΑ είναι ένα επιλεγμένο σημείο φαγητού στην περιοχή Melissia 151 27 και ανήκει στη συλλογή Fish Tavernas. Συνδέεται με 8 κοντινές προτάσεις του Googlementor για πιο ολοκληρωμένη εμπειρία.","vibe_tags":["curated","seafood-local"],"best_for":["first-time visitors","food lovers"],"visit_moments":["lunch stop","dinner stop"],"practical_note":"Address and direct map link are available for easy turn-by-turn access.","nearby_walkable_count":8,"nearby_count_2km":36,"confidence":0.98},"areaContext":{"slug":"melissia","name":"Melissia","nameEl":"Μελίσσια"},"intentContexts":[]},"__N_SSG":true}