{"pageProps":{"entity":{"id":"cheapEatsRestaurants_f656711be260","slug":"psitopoleio-o-thanasis-f656","kind":"restaurant","name":"Ψητοπωλείο ο Θανάσης","lat":37.95535052108935,"lng":23.854531337453796,"url":"https://maps.app.goo.gl/GvWt9fy2W45TxTRs8?g_st=ipc","address":"Αγ. Τριάδος 42, Παιανία 190 02","categoryIds":["cheap-eats"],"categories":["Gyros & Cheap Eats"]},"sameCategory":[{"id":"cheapEatsRestaurants_e8be7933bd6e","slug":"i-love-souvlaki-e8be","kind":"restaurant","name":"I Love Souvlaki","lat":38.00365767820438,"lng":23.880036032400344,"url":"https://maps.app.goo.gl/TceiwQJnedx4muqW7?g_st=ipc","address":"Λεωφ. Μαραθώνος 72, Παλλήνη 153 51","categoryIds":["cheap-eats"],"categories":["Gyros & Cheap Eats"]},{"id":"cheapEatsRestaurants_6aba6b4d71c3","slug":"cook-and-grill-pallinis-6aba","kind":"restaurant","name":"Cook And Grill Παλλήνης","lat":38.00364715720239,"lng":23.880433616458955,"url":"https://maps.app.goo.gl/KtBirzLenbmGoPCW9?g_st=ipc","address":"Λεωφ. Μαραθώνος 76, Παλλήνη 153 51","categoryIds":["cheap-eats"],"categories":["Gyros & Cheap Eats"]},{"id":"cheapEatsRestaurants_4972a0c1f005","slug":"o-fotis-4972","kind":"restaurant","name":"Ο ΦΩΤΗΣ","lat":37.997971184116544,"lng":23.807075270455382,"url":"https://maps.app.goo.gl/AtknvuaCHijVG2ha8?g_st=ipc","address":"17ης Νοεμβρίου 122, Χολαργός 155 62","categoryIds":["cheap-eats"],"categories":["Gyros & Cheap Eats"]},{"id":"cheapEatsRestaurants_69bbfb44507d","slug":"papigko-69bb","kind":"restaurant","name":"Πάπιγκο","lat":37.9930301423727,"lng":23.798961270934143,"url":"https://maps.app.goo.gl/7eU14tbuLV6n9imX7?g_st=ipc","address":"25ης Μαρτίου 9, Χολαργός 155 61","categoryIds":["cheap-eats"],"categories":["Gyros & Cheap Eats"]},{"id":"cheapEatsRestaurants_33f4e7b2d02a","slug":"dix-sept-33f4","kind":"restaurant","name":"Dix Sept","lat":37.99369686292994,"lng":23.79952330912713,"url":"https://maps.app.goo.gl/LQP8izqcwdktGcwX6?g_st=ipc","address":"25ης Μαρτίου 17, Χολαργός 155 61","categoryIds":["cheap-eats"],"categories":["Gyros & Cheap Eats"]},{"id":"cheapEatsRestaurants_b8837f726b0e","slug":"avraam-cholargos-b883","kind":"restaurant","name":"Αβραάμ Χολαργός","lat":37.99365661341766,"lng":23.796975079778093,"url":"https://maps.app.goo.gl/njaacvURe6u87qaX6?g_st=ipc","address":"Αναστάσεως 111, Χολαργός 155 61","categoryIds":["cheap-eats"],"categories":["Gyros & Cheap Eats"]},{"id":"cheapEatsRestaurants_9a8ccf003ba5","slug":"spitiki-koyzina-cholargos-9a8c","kind":"restaurant","name":"Σπιτική Κουζίνα - Χολαργός","lat":37.99895841021995,"lng":23.798536677313294,"url":"https://maps.app.goo.gl/KtAC7AzUgjd3Jmuk8?g_st=ipc","address":"Λεωφ. Περικλέους 50, Χολαργός 155 61","categoryIds":["cheap-eats"],"categories":["Gyros & Cheap Eats"]},{"id":"cheapEatsRestaurants_2194bc1389f8","slug":"pita-pan-2194","kind":"restaurant","name":"Πίτα Παν","lat":38.012724500083856,"lng":23.82116799472927,"url":"https://maps.app.goo.gl/dizAr5MBZxwBUbmGA?g_st=ipc","address":"Ευεργέτου Γιαβάση 1, Αγ. Παρασκευή 153 42","categoryIds":["cheap-eats"],"categories":["Gyros & Cheap Eats"]},{"id":"cheapEatsRestaurants_ba28713d01c5","slug":"jackaroo-ba28","kind":"restaurant","name":"Jackaroo","lat":38.012488048135104,"lng":23.81953806352836,"url":"https://maps.app.goo.gl/ixb3zjYZ1Wg65gYq8?g_st=ipc","address":"Ηρ. Πολυτεχνείου 8, Αγ. Παρασκευή 153 43","categoryIds":["cheap-eats"],"categories":["Gyros & Cheap Eats"]},{"id":"cheapEatsRestaurants_03694aa725a0","slug":"geysidromio-0369","kind":"restaurant","name":"Γευσηδρόμιο","lat":38.00041852140095,"lng":23.792910266059533,"url":"https://maps.app.goo.gl/NVZiDeS8yd6auwo78?g_st=ipc","address":"Ασπασίας 63, Χολαργός 155 61","categoryIds":["cheap-eats"],"categories":["Gyros & Cheap Eats"]},{"id":"cheapEatsRestaurants_4884ead367e7","slug":"platanos-kempap-soyvlaki-4884","kind":"restaurant","name":"Πλάτανος Κεμπάπ-Σουβλάκι","lat":38.00070110906074,"lng":23.792623402226006,"url":"https://maps.app.goo.gl/mqGbLZnM6T5sQ3YF9?g_st=ipc","address":"Βουτσινά 66, Χολαργός 155 61","categoryIds":["cheap-eats"],"categories":["Gyros & Cheap Eats"]},{"id":"cheapEatsRestaurants_27cac1fed09e","slug":"cocofino-i-nea-geysi-sto-kotopoylo-27ca","kind":"restaurant","name":"Cocofino Η Νέα Γεύση Στο Κοτόπουλο","lat":38.005115910403084,"lng":23.79578002602544,"url":"https://maps.app.goo.gl/uKWqbt6RdiChRPZi8?g_st=ipc","address":"Φανερωμένης 1α, Χολαργός 155 61","categoryIds":["cheap-eats"],"categories":["Gyros & Cheap Eats"]}],"nearby":[{"id":"greekRestaurants_24ceffe54bf6","slug":"krokos-taverna-i-folia-24ce","kind":"restaurant","name":"Κροκος Ταβέρνα Η Φωλια","lat":37.941171044387104,"lng":23.86789220057886,"url":"https://maps.app.goo.gl/rsdLSf9DyCBtiGXo8","address":"Λεωφ. Λαυρίου 20 χλμ, Παιανία 190 02","categoryIds":["greek-restaurants"],"categories":["Greek Restaurants"],"distanceKm":1.9642933212485703},{"id":"familyFriendly_569cf558f6b0","slug":"oasis-activity-farm-park-569c","kind":"restaurant","name":"OASIS Activity Farm Park","lat":37.928303788781086,"lng":23.851038750815583,"url":"https://maps.app.goo.gl/VYjCmEzxbNTXc6xX9?g_st=ipc","address":"Πλαπούτα, Άνω Καρέλλας 194 00","categoryIds":["family-friendly"],"categories":["Kid Friendly Locations"],"distanceKm":3.0230142513066154},{"id":"familyFriendly_86643dc5354c","slug":"gaidoyrochora-to-elliniko-kentro-gia-to-gaidoyri-8664","kind":"restaurant","name":"Γαϊδουροχώρα - Το Ελληνικό Κέντρο για το Γαϊδούρι","lat":37.92251188321968,"lng":23.844073086239685,"url":"https://maps.app.goo.gl/bxj4o99on71RaCp79?g_st=ipc","address":"Ηπείρου 40, Κρωπία 194 00","categoryIds":["family-friendly"],"categories":["Kid Friendly Locations"],"distanceKm":3.76490788898363},{"id":"monasteriesChurches_f9758a225b79","slug":"iera-moni-taxiarchon-asterioy-f975","kind":"restaurant","name":"Ιερά Μονή Ταξιαρχών Αστερίου","lat":37.96963791637043,"lng":23.811299998354023,"url":"https://maps.app.goo.gl/3bMH4x4NEyFmUZJ97?g_st=ipc","address":"Ζωγράφου 157 72","categoryIds":["monasteries-churches"],"categories":["Monasteries & Spiritual Sites"],"distanceKm":4.109492280785897},{"id":"coffeeBrunchRestaurants_6490fab080eb","slug":"anapsyktirio-kalopoyla-6490","kind":"restaurant","name":"Αναψυκτήριο Καλοπούλα","lat":37.96354797529962,"lng":23.804248106884938,"url":"https://maps.app.goo.gl/uXF6EF7MznZrK5Jb9?g_st=ipc","address":"Unnamed Road, Καισαριανή","categoryIds":["coffee-brunch"],"categories":["Coffee & Brunch Spots"],"distanceKm":4.501642395474198},{"id":"monasteriesChurches_ab2f1ef6db23","slug":"iera-moni-kaisarianis-ab2f","kind":"restaurant","name":"Ιερά Μονή Καισαριανής","lat":37.96085617263528,"lng":23.798163534107264,"url":"https://maps.app.goo.gl/tKzi13MSJeMrbus97?g_st=ipc","address":"Καισαριανή 161 22","categoryIds":["monasteries-churches"],"categories":["Monasteries & Spiritual Sites"],"distanceKm":4.979699976566723},{"id":"monasteriesChurches_20d9168100a7","slug":"iera-moni-agioy-ioannoy-toy-kynigoy-20d9","kind":"restaurant","name":"Ιερά Μονή Αγίου Ιωάννου του Κυνηγού","lat":38.00278956163498,"lng":23.836715813242602,"url":"https://maps.app.goo.gl/TkGr97r8sSTcdTYu9?g_st=ipc","address":"Ανατολικής Μεσογείου, Αγ. Παρασκευή 153 42","categoryIds":["monasteries-churches"],"categories":["Monasteries & Spiritual Sites"],"distanceKm":5.501243130605994},{"id":"familyFriendly_db6ace0662f1","slug":"aquapolis-athens-db6a","kind":"restaurant","name":"Aquapolis Athens","lat":37.97858312845216,"lng":23.91151007116057,"url":"https://maps.app.goo.gl/5Ru3eXW4yXz7efi98?g_st=ic","address":"Θέση Γιαλού, Spata 190 04","categoryIds":["family-friendly"],"categories":["Kid Friendly Locations"],"distanceKm":5.623393366352835},{"id":"familyFriendly_8ed15a9c84d5","slug":"attica-zoological-park-8ed1","kind":"restaurant","name":"Attica Zoological Park","lat":37.98044022083859,"lng":23.910805906852257,"url":"https://maps.app.goo.gl/f6rw3vWAJG1aAtPU6?g_st=ipc","address":"Spata 190 04","categoryIds":["family-friendly"],"categories":["Kid Friendly Locations"],"distanceKm":5.6673321650802215},{"id":"coffeeBrunchRestaurants_9c4fad0bdb87","slug":"opus-coffee-and-more-9c4f","kind":"restaurant","name":"Opus coffee and more","lat":38.001260916187285,"lng":23.825716095768566,"url":"https://maps.app.goo.gl/ZsSXep3FZfHkFyPYA?g_st=ipc","address":"Αιγαίου Πελάγους, Γραβιάς και, Αγ. Παρασκευή 153 42","categoryIds":["coffee-brunch"],"categories":["Coffee & Brunch Spots"],"distanceKm":5.695595251422582},{"id":"italianRestaurants_4d0287b65d26","slug":"arancini-restaurant-4d02","kind":"restaurant","name":"Arancini - Restaurant","lat":38.00362078615682,"lng":23.878168070453672,"url":"https://maps.app.goo.gl/1Y5w6FVjdG8zz4d67?g_st=ipc","address":"Λεωφ. Μαραθώνος 56, Παλλήνη 153 51","categoryIds":["italian"],"categories":["Italian Restaurants"],"distanceKm":5.753346686477291},{"id":"cheapEatsRestaurants_e8be7933bd6e","slug":"i-love-souvlaki-e8be","kind":"restaurant","name":"I Love Souvlaki","lat":38.00365767820438,"lng":23.880036032400344,"url":"https://maps.app.goo.gl/TceiwQJnedx4muqW7?g_st=ipc","address":"Λεωφ. Μαραθώνος 72, Παλλήνη 153 51","categoryIds":["cheap-eats"],"categories":["Gyros & Cheap Eats"],"distanceKm":5.818093954097108},{"id":"cheapEatsRestaurants_6aba6b4d71c3","slug":"cook-and-grill-pallinis-6aba","kind":"restaurant","name":"Cook And Grill Παλλήνης","lat":38.00364715720239,"lng":23.880433616458955,"url":"https://maps.app.goo.gl/KtBirzLenbmGoPCW9?g_st=ipc","address":"Λεωφ. Μαραθώνος 76, Παλλήνη 153 51","categoryIds":["cheap-eats"],"categories":["Gyros & Cheap Eats"],"distanceKm":5.830494102819344},{"id":"dessertsRestaurants_c8d21c4fe9cf","slug":"katamaya-bakery-c8d2","kind":"restaurant","name":"katamaya Bakery","lat":38.007980001797705,"lng":23.85734830290807,"url":"https://maps.app.goo.gl/ZpojSaEBYd5LNBoG9?g_st=ipc","address":"Λεωφόρος Μαραθώνος 113, Ηρώων Πολυτεχνείου 1, Γέρακας 153 44","categoryIds":["desserts"],"categories":["Dessert Shops"],"distanceKm":5.857336922363342},{"id":"coffeeBrunchRestaurants_3667c08b817e","slug":"garazaki-3667","kind":"restaurant","name":"Garazaki","lat":38.00820112050225,"lng":23.859624038909082,"url":"https://maps.app.goo.gl/nhS7zheSxj71qxXFA?g_st=ipc","address":"Θεσσαλονίκης 33, Γέρακας 153 44","categoryIds":["coffee-brunch"],"categories":["Coffee & Brunch Spots"],"distanceKm":5.8936446090798285},{"id":"familyFriendly_81e1faa2d7f2","slug":"kafe-nuestro-sueno-81e1","kind":"restaurant","name":"καφέ Nuestro sueno","lat":37.996802341238464,"lng":23.81194934538021,"url":"https://maps.app.goo.gl/VTAxttodcrh81J5E9?g_st=ipc","address":"Καραολή και Δημητρίου, Χολαργός 153 41","categoryIds":["family-friendly"],"categories":["Kid Friendly Locations"],"distanceKm":5.9309025878063455},{"id":"greekRestaurants_d99e659b75b8","slug":"melydron-d99e","kind":"restaurant","name":"ΜΕΛΥΔΡΟΝ","lat":37.99974475346684,"lng":23.816882406708455,"url":"https://maps.app.goo.gl/5M5MsFCweGzbhN1y7?g_st=ipc","address":"Πατριάρχου Γρηγορίου Ε 32, Αγ. Παρασκευή 153 41","categoryIds":["greek-restaurants"],"categories":["Greek Restaurants"],"distanceKm":5.9378119446697095},{"id":"dessertsRestaurants_811168d74e33","slug":"galaktopoleio-stamoy-8111","kind":"restaurant","name":"Γαλακτοπωλείο ΣΤΑΜΟΥ","lat":38.00342843509359,"lng":23.88465857262915,"url":"https://maps.app.goo.gl/o476BKf3dKiVdLTg6?g_st=ipc","address":"Λεωφ. Μαραθώνος, Παλλαδος Αθηνας &, Παλλήνη 153 51","categoryIds":["desserts"],"categories":["Dessert Shops"],"distanceKm":5.9625969997417565},{"id":"familyFriendly_9cc1c30ecd05","slug":"designer-outlet-athens-9cc1","kind":"restaurant","name":"Designer Outlet Athens","lat":37.98621935732948,"lng":23.91050612444449,"url":"https://maps.app.goo.gl/FiJWknWTB14td3ra9?g_st=ipc","address":"D-Oikodomiko Tetragono, Γυαλού E71, Σπάτα 190 04","categoryIds":["family-friendly"],"categories":["Kid Friendly Locations"],"distanceKm":5.988045782601996},{"id":"familyFriendly_0326a78aaa56","slug":"leontario-entertainment-center-0326","kind":"restaurant","name":"Leontario Entertainment Center","lat":37.996183572327645,"lng":23.899494670938427,"url":"https://maps.app.goo.gl/Qjmb6xRCJvU3Lj87A?g_st=ipc","address":"Αμαζονoσ 15, Παλληνη 15344","categoryIds":["family-friendly"],"categories":["Kid Friendly Locations"],"distanceKm":6.012309859986452},{"id":"italianRestaurants_e3c2b10afd7e","slug":"bellagio-pizza-pasta-bar-e3c2","kind":"restaurant","name":"Bellagio Pizza & Pasta Bar","lat":38.005496461487304,"lng":23.82824148801167,"url":"https://maps.app.goo.gl/fzHTDB9dRXhv8Puh9?g_st=ipc","address":"Αγίου Ιωάννου 82, Αγ. Παρασκευή 153 42","categoryIds":["italian"],"categories":["Italian Restaurants"],"distanceKm":6.033311478804729},{"id":"familyFriendly_0ccded432145","slug":"smart-park-0ccd","kind":"restaurant","name":"Smart Park","lat":37.98478188179295,"lng":23.913104747091037,"url":"https://maps.app.goo.gl/JecbscmoWg1c4Snw5?g_st=ipc","address":"Εμπορικό Πάρκο Smart Park, Ε. Πουλακη, OT 71, & 72, Σπάτα 190 04","categoryIds":["family-friendly"],"categories":["Kid Friendly Locations"],"distanceKm":6.088736167770486},{"id":"familyFriendly_5510b3f1c00f","slug":"the-wall-5510","kind":"restaurant","name":"THE WALL","lat":38.00928367382339,"lng":23.8721127138081,"url":"https://maps.app.goo.gl/ikBxVbssGYshQenA7?g_st=ipc","address":"Αγίου Αθανασίου 12, Παλλήνη 153 51","categoryIds":["family-friendly"],"categories":["Kid Friendly Locations"],"distanceKm":6.191889750698859},{"id":"coffeeBrunchRestaurants_047701412132","slug":"big-spoon-0477","kind":"restaurant","name":"Big Spoon","lat":38.00695313454604,"lng":23.827222163103215,"url":"https://maps.app.goo.gl/xKV3uQ5sHdPxcNpR6?g_st=ipc","address":"Αγίου Ιωάννου 65, Αγ. Παρασκευή 153 42","categoryIds":["coffee-brunch"],"categories":["Coffee & Brunch Spots"],"distanceKm":6.217153607579155}],"mentionedGuides":[],"canonicalSlug":"psitopoleio-o-thanasis-f656","enrichment":{"summary_en":"Ψητοπωλείο ο Θανάσης is a curated restaurant in Παιανία 190 02 in the Gyros & Cheap Eats collection. It is connected to 0 nearby Googlementor picks to help travelers build a stronger local route.","summary_el":"Ψητοπωλείο ο Θανάσης είναι ένα επιλεγμένο σημείο φαγητού στην περιοχή Παιανία 190 02 και ανήκει στη συλλογή Gyros & Cheap Eats. Συνδέεται με 0 κοντινές προτάσεις του Googlementor για πιο ολοκληρωμένη εμπειρία.","vibe_tags":["curated","budget-friendly"],"best_for":["first-time visitors","food lovers","budget travelers"],"visit_moments":["lunch stop","dinner stop"],"practical_note":"Address and direct map link are available for easy turn-by-turn access.","nearby_walkable_count":0,"nearby_count_2km":1,"confidence":0.9},"areaContext":null,"intentContexts":[]},"__N_SSG":true}