{"pageProps":{"entity":{"id":"luxuryDiningRestaurants_d4cce740d47c","slug":"rooftop-terrace-on-top-of-st-george-hotel-d4cc","kind":"restaurant","name":"Rooftop Terrace on top of St. George Hotel","lat":37.97925289319014,"lng":23.74214536289671,"url":"https://maps.app.goo.gl/NWNaSroxE1Lncry6A?g_st=ipc","address":"Αθήνα 106 75","categoryIds":["luxury-dining","rooftop-lounges"],"categories":["Luxury Dining","Rooftop Lounges"],"legacySlugs":["rooftop-terrace-on-top-of-st-george-hotel-9716"]},"sameCategory":[{"id":"luxuryDiningRestaurants_313a938ef96e","slug":"st-george-lycabettus-lifestyle-hotel-313a","kind":"restaurant","name":"St George Lycabettus Lifestyle Hotel","lat":37.979411883866305,"lng":23.742302492612982,"url":"https://maps.app.goo.gl/Nw5wbke6z4TMJnQi8?g_st=ipc","address":"Κλεομένους 2, Αθήνα 106 75","categoryIds":["luxury-dining"],"categories":["Luxury Dining"]},{"id":"luxuryDiningRestaurants_4207b64cfee5","slug":"ronin-4207","kind":"restaurant","name":"Ronin","lat":37.97868261628751,"lng":23.74283922763361,"url":"https://maps.app.goo.gl/7nmcpWX3r9sBfd248?g_st=ipc","address":"Ξανθίππου 2, Αθήνα 106 75","categoryIds":["luxury-dining"],"categories":["Luxury Dining"]},{"id":"luxuryDiningRestaurants_dc35227b76dd","slug":"iodio-dc35","kind":"restaurant","name":"Iodio","lat":37.97846718508711,"lng":23.7434152762831,"url":"https://maps.app.goo.gl/xJsngrNWcKcLy6AB6?g_st=ipc","address":"Λουκιανού 36, Αθήνα 106 75","categoryIds":["luxury-dining"],"categories":["Luxury Dining"]},{"id":"luxuryDiningRestaurants_e28089becd81","slug":"nido-athens-e280","kind":"restaurant","name":"NiDo Athens","lat":37.977919345579465,"lng":23.741770246682712,"url":"https://maps.app.goo.gl/okbeASGTeSTwszzP7?g_st=ipc","address":"Λεβέντη 5, Αθήνα 106 73","categoryIds":["luxury-dining"],"categories":["Luxury Dining"]},{"id":"luxuryDiningRestaurants_2ecaca7a8cdf","slug":"brutus-tavern-2eca","kind":"restaurant","name":"Brutus Tavern","lat":37.9778313193549,"lng":23.741690006593426,"url":"https://maps.app.goo.gl/9gWFrAvvmqBKsy2bA?g_st=ipc","address":"Λεβέντη 3, Αθήνα 106 73","categoryIds":["luxury-dining"],"categories":["Luxury Dining"]},{"id":"fishTavernasRestaurants_c390847dbff0","slug":"papadakis-restaurant-c390","kind":"restaurant","name":"Papadakis Restaurant","lat":37.97973026422826,"lng":23.740290543738375,"url":"https://maps.app.goo.gl/kujR9b76mkGXYeFM6?g_st=ipc","address":"Φωκυλίδου 15, Αθήνα 106 73","categoryIds":["fish-tavernas","luxury-dining"],"categories":["Fish Tavernas","Luxury Dining"],"legacySlugs":["papadakis-restaurant-cdff"]},{"id":"luxuryDiningRestaurants_10b90e1a8f52","slug":"zano-athens-10b9","kind":"restaurant","name":"Zanó - Athens","lat":37.97774961244962,"lng":23.741221128338456,"url":"https://maps.app.goo.gl/ybfkAt98uRcmLcZLA?g_st=ipc","address":"Παναγιώτου Αναγνωστοπούλου 3, Αθήνα 106 73","categoryIds":["luxury-dining"],"categories":["Luxury Dining"]},{"id":"luxuryDiningRestaurants_b803a88d407f","slug":"zurbaran-athens-b803","kind":"restaurant","name":"Zurbaran Athens","lat":37.97801172701077,"lng":23.744349686117033,"url":"https://maps.app.goo.gl/rXKGxv9snP1gaFVh9?g_st=ipc","address":"Πατριάρχου Ιωακείμ 38, Αθήνα 106 75","categoryIds":["luxury-dining"],"categories":["Luxury Dining"]},{"id":"luxuryDiningRestaurants_18db80acc872","slug":"drakoulis-dry-raw-kolonaki-18db","kind":"restaurant","name":"Drakoulis Dry & Raw Kolonaki","lat":37.97718005520891,"lng":23.741289591081852,"url":"https://maps.app.goo.gl/LMGwAzhv7RzR34wj6?g_st=ipc","address":"Πλ. Φιλικής Εταιρείας 14, Αθήνα 106 74","categoryIds":["luxury-dining"],"categories":["Luxury Dining"]},{"id":"luxuryDiningRestaurants_ed36498bd60c","slug":"woowoo-athens-ed36","kind":"restaurant","name":"WooWoo Athens","lat":37.97826618328873,"lng":23.744714006159654,"url":"https://maps.app.goo.gl/gH4BTnSVsyBMroV17?g_st=ipc","address":"Πατριάρχου Ιωακείμ 43, Αθήνα 106 75","categoryIds":["luxury-dining"],"categories":["Luxury Dining"]},{"id":"italianRestaurants_3be4af98c471","slug":"trattoria-capanna-3be4","kind":"restaurant","name":"Trattoria Capanna","lat":37.978619151360974,"lng":23.74496219249258,"url":"https://maps.app.goo.gl/TbrGKuznviUTnbH8A?g_st=ipc","address":"Πλουτάρχου 38, Αθήνα 106 75","categoryIds":["italian","luxury-dining"],"categories":["Italian Restaurants","Luxury Dining"],"legacySlugs":["trattoria-capanna-78fc"]},{"id":"luxuryDiningRestaurants_16ebd8c6efae","slug":"forte-charitos-restaurant-16eb","kind":"restaurant","name":"Forte Charitos Restaurant","lat":37.97881342237638,"lng":23.745155145341098,"url":"https://maps.app.goo.gl/LvCPT5L2JR5q3a5TA?g_st=ipc","address":"Χάρητος 43, Αθήνα 106 76","categoryIds":["luxury-dining"],"categories":["Luxury Dining"]}],"nearby":[{"id":"luxuryDiningRestaurants_313a938ef96e","slug":"st-george-lycabettus-lifestyle-hotel-313a","kind":"restaurant","name":"St George Lycabettus Lifestyle Hotel","lat":37.979411883866305,"lng":23.742302492612982,"url":"https://maps.app.goo.gl/Nw5wbke6z4TMJnQi8?g_st=ipc","address":"Κλεομένους 2, Αθήνα 106 75","categoryIds":["luxury-dining"],"categories":["Luxury Dining"],"distanceKm":0.022410135410376775},{"id":"greekRestaurants_b892553ca459","slug":"i-dexameni-paradosiako-kafeneio-b892","kind":"restaurant","name":"Η Δεξαμενή| παραδοσιακό καφενείο","lat":37.97904976951895,"lng":23.7417447741282,"url":"https://maps.app.goo.gl/LtHtTEpZMdDdqe3S8","address":"Πλ. Δεξαμενής, Αθήνα 106 73","categoryIds":["greek-restaurants"],"categories":["Greek Restaurants"],"distanceKm":0.04174807958158135},{"id":"luxuryDiningRestaurants_4207b64cfee5","slug":"ronin-4207","kind":"restaurant","name":"Ronin","lat":37.97868261628751,"lng":23.74283922763361,"url":"https://maps.app.goo.gl/7nmcpWX3r9sBfd248?g_st=ipc","address":"Ξανθίππου 2, Αθήνα 106 75","categoryIds":["luxury-dining"],"categories":["Luxury Dining"],"distanceKm":0.0878614287266098},{"id":"luxuryDiningRestaurants_dc35227b76dd","slug":"iodio-dc35","kind":"restaurant","name":"Iodio","lat":37.97846718508711,"lng":23.7434152762831,"url":"https://maps.app.goo.gl/xJsngrNWcKcLy6AB6?g_st=ipc","address":"Λουκιανού 36, Αθήνα 106 75","categoryIds":["luxury-dining"],"categories":["Luxury Dining"],"distanceKm":0.14149858373030083},{"id":"luxuryDiningRestaurants_e28089becd81","slug":"nido-athens-e280","kind":"restaurant","name":"NiDo Athens","lat":37.977919345579465,"lng":23.741770246682712,"url":"https://maps.app.goo.gl/okbeASGTeSTwszzP7?g_st=ipc","address":"Λεβέντη 5, Αθήνα 106 73","categoryIds":["luxury-dining"],"categories":["Luxury Dining"],"distanceKm":0.15188498489324612},{"id":"luxuryDiningRestaurants_2ecaca7a8cdf","slug":"brutus-tavern-2eca","kind":"restaurant","name":"Brutus Tavern","lat":37.9778313193549,"lng":23.741690006593426,"url":"https://maps.app.goo.gl/9gWFrAvvmqBKsy2bA?g_st=ipc","address":"Λεβέντη 3, Αθήνα 106 73","categoryIds":["luxury-dining"],"categories":["Luxury Dining"],"distanceKm":0.16303251980809663},{"id":"fishTavernasRestaurants_c390847dbff0","slug":"papadakis-restaurant-c390","kind":"restaurant","name":"Papadakis Restaurant","lat":37.97973026422826,"lng":23.740290543738375,"url":"https://maps.app.goo.gl/kujR9b76mkGXYeFM6?g_st=ipc","address":"Φωκυλίδου 15, Αθήνα 106 73","categoryIds":["fish-tavernas","luxury-dining"],"categories":["Fish Tavernas","Luxury Dining"],"legacySlugs":["papadakis-restaurant-cdff"],"distanceKm":0.17101632986783977},{"id":"luxuryDiningRestaurants_10b90e1a8f52","slug":"zano-athens-10b9","kind":"restaurant","name":"Zanó - Athens","lat":37.97774961244962,"lng":23.741221128338456,"url":"https://maps.app.goo.gl/ybfkAt98uRcmLcZLA?g_st=ipc","address":"Παναγιώτου Αναγνωστοπούλου 3, Αθήνα 106 73","categoryIds":["luxury-dining"],"categories":["Luxury Dining"],"distanceKm":0.18575193893349856},{"id":"coffeeBrunchRestaurants_f33248e61009","slug":"prasini-tenta-lykavittos-f332","kind":"restaurant","name":"Πράσινη Τέντα, Λυκαβηττός","lat":37.980853849375265,"lng":23.74311999324442,"url":"https://maps.app.goo.gl/Ra6VkFbWmNNsbYnu8?g_st=ipc","address":"Μονοπάτι Λυκαβηττού, Αθήνα 114 71","categoryIds":["coffee-brunch","rooftop-lounges"],"categories":["Coffee & Brunch Spots","Rooftop Lounges"],"legacySlugs":["prasini-tenta-lykavittos-3190"],"distanceKm":0.1974527306830104},{"id":"coffeeBrunchRestaurants_32f3744210f1","slug":"ruins-athens-urban-area-32f3","kind":"restaurant","name":"Ruins Athens Urban Area","lat":37.97772096182225,"lng":23.740886798075717,"url":"https://maps.app.goo.gl/m4eWX6HzHjiKpfSEA?g_st=ipc","address":"Τσακάλωφ 4, Αθήνα 106 73","categoryIds":["coffee-brunch"],"categories":["Coffee & Brunch Spots"],"distanceKm":0.20294167208848488},{"id":"italianRestaurants_5bb1f8760120","slug":"brunello-5bb1","kind":"restaurant","name":"Brunello","lat":37.97774328484756,"lng":23.74346729703624,"url":"https://maps.app.goo.gl/71Ffa4D3sz17HHuJ7?g_st=ipc","address":"Λουκιανού 21b, Αθήνα 106 75","categoryIds":["italian"],"categories":["Italian Restaurants"],"distanceKm":0.20396583921731154},{"id":"greekRestaurants_1f74ff05ff24","slug":"estiatorio-filippoy-1f74","kind":"restaurant","name":"Εστιατόριο Φιλίππου","lat":37.979221094535326,"lng":23.744501065071557,"url":"https://maps.app.goo.gl/Zq4cnAxJ4Dx6qQUq8","address":"Ξενοκράτους 19, Αθήνα 106 75","categoryIds":["greek-restaurants"],"categories":["Greek Restaurants"],"distanceKm":0.20650191643366664},{"id":"coffeeBrunchRestaurants_b9df566768c1","slug":"kora-b9df","kind":"restaurant","name":"KORA","lat":37.98011321585773,"lng":23.739705197719534,"url":"https://maps.app.goo.gl/bGLYXaCD894A2zsQ8?g_st=ipc","address":"Παναγιώτου Αναγνωστοπούλου 44, Αθήνα 106 73","categoryIds":["coffee-brunch","desserts"],"categories":["Coffee & Brunch Spots","Dessert Shops"],"legacySlugs":["kora-96fe"],"distanceKm":0.2342932057638014},{"id":"luxuryDiningRestaurants_b803a88d407f","slug":"zurbaran-athens-b803","kind":"restaurant","name":"Zurbaran Athens","lat":37.97801172701077,"lng":23.744349686117033,"url":"https://maps.app.goo.gl/rXKGxv9snP1gaFVh9?g_st=ipc","address":"Πατριάρχου Ιωακείμ 38, Αθήνα 106 75","categoryIds":["luxury-dining"],"categories":["Luxury Dining"],"distanceKm":0.23743505111629565},{"id":"luxuryDiningRestaurants_18db80acc872","slug":"drakoulis-dry-raw-kolonaki-18db","kind":"restaurant","name":"Drakoulis Dry & Raw Kolonaki","lat":37.97718005520891,"lng":23.741289591081852,"url":"https://maps.app.goo.gl/LMGwAzhv7RzR34wj6?g_st=ipc","address":"Πλ. Φιλικής Εταιρείας 14, Αθήνα 106 74","categoryIds":["luxury-dining"],"categories":["Luxury Dining"],"distanceKm":0.24238671278256788},{"id":"luxuryDiningRestaurants_ed36498bd60c","slug":"woowoo-athens-ed36","kind":"restaurant","name":"WooWoo Athens","lat":37.97826618328873,"lng":23.744714006159654,"url":"https://maps.app.goo.gl/gH4BTnSVsyBMroV17?g_st=ipc","address":"Πατριάρχου Ιωακείμ 43, Αθήνα 106 75","categoryIds":["luxury-dining"],"categories":["Luxury Dining"],"distanceKm":0.2504485291042915},{"id":"italianRestaurants_468953c2e15e","slug":"malconi-s-italian-restaurant-4689","kind":"restaurant","name":"Malconi's Italian Restaurant","lat":37.9782776822669,"lng":23.744765633446125,"url":"https://maps.app.goo.gl/q6QEwwnvQiVfYob8A?g_st=ipc","address":"Patriarhou Ioakim 43 &, Πλουτάρχου 23, Αθήνα 106 75","categoryIds":["italian"],"categories":["Italian Restaurants"],"distanceKm":0.2539753906427706},{"id":"italianRestaurants_3be4af98c471","slug":"trattoria-capanna-3be4","kind":"restaurant","name":"Trattoria Capanna","lat":37.978619151360974,"lng":23.74496219249258,"url":"https://maps.app.goo.gl/TbrGKuznviUTnbH8A?g_st=ipc","address":"Πλουτάρχου 38, Αθήνα 106 75","categoryIds":["italian","luxury-dining"],"categories":["Italian Restaurants","Luxury Dining"],"legacySlugs":["trattoria-capanna-78fc"],"distanceKm":0.2567493371349334},{"id":"luxuryDiningRestaurants_16ebd8c6efae","slug":"forte-charitos-restaurant-16eb","kind":"restaurant","name":"Forte Charitos Restaurant","lat":37.97881342237638,"lng":23.745155145341098,"url":"https://maps.app.goo.gl/LvCPT5L2JR5q3a5TA?g_st=ipc","address":"Χάρητος 43, Αθήνα 106 76","categoryIds":["luxury-dining"],"categories":["Luxury Dining"],"distanceKm":0.26828886127104},{"id":"dessertsRestaurants_adae00fa679c","slug":"cake-kolonaki-adae","kind":"restaurant","name":"CAKE Kolonaki","lat":37.97679932249832,"lng":23.7424790611418,"url":"https://maps.app.goo.gl/ga6C3Z87HsSYfMGx5?g_st=ipc","address":"Ηροδότου 15, Αθήνα 106 74","categoryIds":["desserts"],"categories":["Dessert Shops"],"distanceKm":0.27438792701584724},{"id":"coffeeBrunchRestaurants_6c5755f458a3","slug":"vasilissa-melissa-athina-6c57","kind":"restaurant","name":"Βασίλισσα μέλισσα Αθήνα","lat":37.97835486257647,"lng":23.745084929463765,"url":"https://maps.app.goo.gl/gMvoN4EZdoGpDeZ47?g_st=ipc","address":"Πατριάρχου Ιωακείμ 45, Αθήνα 106 76","categoryIds":["coffee-brunch"],"categories":["Coffee & Brunch Spots"],"distanceKm":0.276321429169753},{"id":"coffeeBrunchRestaurants_218e6a31a50d","slug":"poco-a-poco-218e","kind":"restaurant","name":"Poco a poco","lat":37.977055798633465,"lng":23.743703400457175,"url":"https://maps.app.goo.gl/hkFGzq8fmpCWam4f8?g_st=ipc","address":"Loukianou 13, Athina 106 75","categoryIds":["coffee-brunch"],"categories":["Coffee & Brunch Spots"],"distanceKm":0.2798821449674305},{"id":"coffeeBrunchRestaurants_f6e68f133ff0","slug":"chez-michel-f6e6","kind":"restaurant","name":"Chez Michel","lat":37.976675534882084,"lng":23.742456621704683,"url":"https://maps.app.goo.gl/XTb8dAWevvMWgsTW9?g_st=ic","address":"Irodotou 15, Athina 106 74","categoryIds":["coffee-brunch"],"categories":["Coffee & Brunch Spots"],"distanceKm":0.2878847595324229},{"id":"coffeeBrunchRestaurants_da407c688cb3","slug":"cocona-da40","kind":"restaurant","name":"Cocona","lat":37.977556380518415,"lng":23.739553637845837,"url":"https://maps.app.goo.gl/eL1Nh7NXC2UfRJX69?g_st=ipc","address":"Μηλιώνη 10, Αθήνα 106 73","categoryIds":["coffee-brunch"],"categories":["Coffee & Brunch Spots"],"distanceKm":0.29527708133847214}],"mentionedGuides":[],"canonicalSlug":"rooftop-terrace-on-top-of-st-george-hotel-d4cc","enrichment":{"summary_en":"Rooftop Terrace on top of St. George Hotel is a curated restaurant in Greece in the Luxury Dining collection. It is connected to 87 nearby Googlementor picks to help travelers build a stronger local route.","summary_el":"Rooftop Terrace on top of St. George Hotel είναι ένα επιλεγμένο σημείο φαγητού στην περιοχή Greece και ανήκει στη συλλογή Luxury Dining. Συνδέεται με 87 κοντινές προτάσεις του Googlementor για πιο ολοκληρωμένη εμπειρία.","vibe_tags":["curated","premium-dining","city-views"],"best_for":["first-time visitors","food lovers","special occasions"],"visit_moments":["golden hour","night out"],"practical_note":"Address and direct map link are available for easy turn-by-turn access.","nearby_walkable_count":87,"nearby_count_2km":590,"confidence":0.98},"areaContext":{"slug":"kolonaki","name":"Kolonaki","nameEl":"Κολωνάκι"},"intentContexts":[{"href":"/luxury-dining/kolonaki","label":"Luxury Dining in Kolonaki","categorySlug":"luxury-dining","categoryName":"Luxury Dining","areaSlug":"kolonaki","areaName":"Kolonaki","areaNameEl":"Κολωνάκι"},{"href":"/rooftops/kolonaki","label":"Rooftop Lounges in Kolonaki","categorySlug":"rooftops","categoryName":"Rooftop Lounges","areaSlug":"kolonaki","areaName":"Kolonaki","areaNameEl":"Κολωνάκι"}]},"__N_SSG":true}