{"pageProps":{"entity":{"id":"dessertsRestaurants_d2c71b210d1a","slug":"solo-gelato-d2c7","kind":"restaurant","name":"Solo Gelato","lat":37.972749067243114,"lng":23.730253715604512,"url":"https://maps.app.goo.gl/NjipC5csKbXMwq4j7?g_st=ipc","address":"Αδριανού 120, Αθήνα 105 58","categoryIds":["desserts"],"categories":["Dessert Shops"]},"sameCategory":[{"id":"dessertsRestaurants_db3d47fd588a","slug":"arte-athens-db3d","kind":"restaurant","name":"Arte Athens","lat":37.97243004672386,"lng":23.729479004279412,"url":"https://maps.app.goo.gl/Lqr3t1JFkHesFNnk6?g_st=ipc","address":"Τριπόδων 16, Αθήνα 105 58","categoryIds":["desserts"],"categories":["Dessert Shops"]},{"id":"dessertsRestaurants_5b8f8c355ff9","slug":"smyrni-baklava-5b8f","kind":"restaurant","name":"Smyrni Baklava","lat":37.9752937454741,"lng":23.73138268254239,"url":"https://maps.app.goo.gl/gwLnHFtKf8mGiYH8A?g_st=ipc","address":"Μητροπόλεως 25, Αθήνα 105 57","categoryIds":["desserts"],"categories":["Dessert Shops"]},{"id":"dessertsRestaurants_46c9cba5969e","slug":"sweet-nolan-46c9","kind":"restaurant","name":"Sweet Nolan","lat":37.9747984209274,"lng":23.73248311530336,"url":"https://maps.app.goo.gl/vVwFTAJ3a7QrKyTr5?g_st=ipc","address":"Απόλλωνος 6Β, Αθήνα 105 57","categoryIds":["desserts"],"categories":["Dessert Shops"]},{"id":"dessertsRestaurants_dd2783c4061c","slug":"my-cookie-dough-athens-dd27","kind":"restaurant","name":"My Cookie Dough Athens","lat":37.97549732457017,"lng":23.731646460060947,"url":"https://maps.app.goo.gl/h3es1mjnAZfnhipp6?g_st=ipc","address":"Petraki 7, Athina 105 63","categoryIds":["desserts"],"categories":["Dessert Shops"]},{"id":"dessertsRestaurants_2434d906577a","slug":"le-greche-syntagma-2434","kind":"restaurant","name":"Le Greche Syntagma","lat":37.975295473634475,"lng":23.732572121627147,"url":"https://maps.app.goo.gl/8ERFwaLDZCRWvw329?g_st=ipc","address":"Μητροπόλεως 16, Αθήνα 105 63","categoryIds":["desserts"],"categories":["Dessert Shops"]},{"id":"dessertsRestaurants_fb018ad3c271","slug":"baklavas-fb01","kind":"restaurant","name":"Baklavas","lat":37.975429717960225,"lng":23.733177865867727,"url":"https://maps.app.goo.gl/JsVLmYGPmMaYJGiKA?g_st=ipc","address":"Νίκης 10, Αθήνα 105 63","categoryIds":["desserts"],"categories":["Dessert Shops"]},{"id":"dessertsRestaurants_eb9f02ba5b47","slug":"choureal-choux-profiterole-eb9f","kind":"restaurant","name":"CHOUREAL - Choux & Profiterole","lat":37.97617972861017,"lng":23.73180056203846,"url":"https://maps.app.goo.gl/qEAK3Nkr3LyPuUwh9?g_st=ipc","address":"Διομείας 2 &, Ερμού 18, Αθήνα 105 63","categoryIds":["desserts"],"categories":["Dessert Shops"]},{"id":"dessertsRestaurants_ecf6d66518c8","slug":"oggi-officina-gelato-gusto-italiano-athens-ecf6","kind":"restaurant","name":"Oggi - Officina Gelato Gusto Italiano, Athens","lat":37.97609425961556,"lng":23.73264733165775,"url":"https://maps.app.goo.gl/tFchspxKZcFEKXjf6?g_st=ipc","address":"Βουλής 17, Αθήνα 105 63","categoryIds":["desserts"],"categories":["Dessert Shops"]},{"id":"dessertsRestaurants_7f61f06e1814","slug":"ice-queen-gelato-7f61","kind":"restaurant","name":"Ice Queen Gelato","lat":37.96875198593791,"lng":23.729719578537868,"url":"https://maps.app.goo.gl/HyCCcJSVYZCw8dMV7?g_st=ipc","address":"Μακρυγιάννη 9, Αθήνα 117 42","categoryIds":["desserts","vegetarian"],"categories":["Dessert Shops","Vegetarian Friendly Restaurants"],"legacySlugs":["ice-queen-gelato-e688"]},{"id":"dessertsRestaurants_9b5ef29493b0","slug":"fystiki-shop-downtown-9b5e","kind":"restaurant","name":"Fystiki Shop Downtown","lat":37.97606272763876,"lng":23.7332915007465,"url":"https://maps.app.goo.gl/kHKQgnoXfNFn8vtP9?g_st=ipc","address":"Ερμού &, Νίκης 4, Αθήνα 105 63","categoryIds":["desserts"],"categories":["Dessert Shops"]},{"id":"dessertsRestaurants_5e0cb4cc4116","slug":"zuccherino-5e0c","kind":"restaurant","name":"Zuccherino","lat":37.97623565675873,"lng":23.72722343699636,"url":"https://maps.app.goo.gl/boMtKFAnr9YpgWRf9?g_st=ipc","address":"Μητροπόλεως 80, Αθήνα 105 60","categoryIds":["desserts"],"categories":["Dessert Shops"]},{"id":"dessertsRestaurants_c341ccbd87e0","slug":"ariston-lompotesis-c341","kind":"restaurant","name":"ΑΡΙΣΤΟΝ ΛΟΜΠΟΤΕΣΗΣ","lat":37.97670511785389,"lng":23.732649290748736,"url":"https://maps.app.goo.gl/GQVtxtBLY3rpmzsa9?g_st=ipc","address":"Βουλής 10, Αθήνα 105 62","categoryIds":["desserts","vegetarian"],"categories":["Dessert Shops","Vegetarian Friendly Restaurants"],"legacySlugs":["ariston-lompotesis-daef"]}],"nearby":[{"id":"greekRestaurants_e299a6be96f9","slug":"to-kafeneio-e299","kind":"restaurant","name":"Το Καφενείο","lat":37.97255962660001,"lng":23.729567011443763,"url":"https://maps.app.goo.gl/3s8YnKNXM61cpsz69","address":"Επιχάρμου 1, Αθήνα 105 58","categoryIds":["greek-restaurants"],"categories":["Greek Restaurants"],"distanceKm":0.0637727935894909},{"id":"dessertsRestaurants_db3d47fd588a","slug":"arte-athens-db3d","kind":"restaurant","name":"Arte Athens","lat":37.97243004672386,"lng":23.729479004279412,"url":"https://maps.app.goo.gl/Lqr3t1JFkHesFNnk6?g_st=ipc","address":"Τριπόδων 16, Αθήνα 105 58","categoryIds":["desserts"],"categories":["Dessert Shops"],"distanceKm":0.07661479972341499},{"id":"monasteriesChurches_10f29f7ed669","slug":"ieros-naos-agioy-nikolaoy-ragkava-10f2","kind":"restaurant","name":"Ιερός Ναός Αγίου Νικολάου Ραγκαβά","lat":37.972457611954724,"lng":23.729131060991204,"url":"https://maps.app.goo.gl/HnQHckK1xrE13jmu5?g_st=ipc","address":"Πρυτανείου 1, Αθήνα 105 58","categoryIds":["monasteries-churches"],"categories":["Monasteries & Spiritual Sites"],"distanceKm":0.10360605395977632},{"id":"mustSeeAttractions_513259a6b06d","slug":"olympioy-dios-5132","kind":"restaurant","name":"Ολυμπίου Διός","lat":37.97177631416209,"lng":23.731310537974434,"url":"https://maps.app.goo.gl/FgkJ1umuygHQYmoC8?g_st=ipc","address":"Αθήνα 105 58","categoryIds":["attractions"],"categories":["Must-See Attractions"],"distanceKm":0.14241235521055187},{"id":"luxuryDiningRestaurants_915576fc1c0f","slug":"samano-radio-restaurant-9155","kind":"restaurant","name":"Samano Radio Restaurant","lat":37.97164530530575,"lng":23.731079390163124,"url":"https://maps.app.goo.gl/HCtBkZVH9f9shwEp9?g_st=ipc","address":"Πλ. Φιλόμουσου Εταιρίας 3, Αθήνα 105 58","categoryIds":["luxury-dining"],"categories":["Luxury Dining"],"distanceKm":0.14248337290035415},{"id":"coffeeBrunchRestaurants_ca5c6fd3b033","slug":"plakaki-cafe-ca5c","kind":"restaurant","name":"Plakaki Cafe","lat":37.97168034602651,"lng":23.731177071228885,"url":"https://maps.app.goo.gl/fCZvCfcqYbM4mrRz8?g_st=ic","address":"Pl. Filomousou Eterias 2, Athina 105 58","categoryIds":["coffee-brunch"],"categories":["Coffee & Brunch Spots"],"distanceKm":0.14378103980734885},{"id":"coffeeBrunchRestaurants_6b3f7db90a24","slug":"nonnas-athens-6b3f","kind":"restaurant","name":"Nonnas Athens","lat":37.971651792837406,"lng":23.731123841030353,"url":"https://maps.app.goo.gl/5RFfLvtqnpk2BDQp8?g_st=ipc","address":"Pl. Filomousou Eterias 3, Athina 105 58","categoryIds":["coffee-brunch"],"categories":["Coffee & Brunch Spots"],"distanceKm":0.14388934514637414},{"id":"greekRestaurants_4d35ec674015","slug":"taverna-saita-4d35","kind":"restaurant","name":"Taverna Saita","lat":37.97248143588815,"lng":23.732031545694568,"url":"https://maps.app.goo.gl/SCwWcqyGvhz7WVrE8","address":"Κυδαθηναίων 21, Αθήνα 105 58","categoryIds":["greek-restaurants"],"categories":["Greek Restaurants"],"distanceKm":0.15865263517242667},{"id":"coffeeBrunchRestaurants_ef8ff3ba5523","slug":"melina-mercouri-cafe-ef8f","kind":"restaurant","name":"Melina Mercouri Café","lat":37.973329408985265,"lng":23.72859454809977,"url":"https://maps.app.goo.gl/fE5D7HkmY8kdkhM6A?g_st=ic","address":"Lisiou 22, Athina 105 56","categoryIds":["coffee-brunch"],"categories":["Coffee & Brunch Spots"],"distanceKm":0.15910814503170695},{"id":"luxuryDiningRestaurants_d7864d62c4d5","slug":"electra-roof-garden-d786","kind":"restaurant","name":"Electra Roof Garden","lat":37.97379853875271,"lng":23.731619747681133,"url":"https://maps.app.goo.gl/DRSR8qGkR5GU1Bts9?g_st=ipc","address":"Ναυάρχου Νικοδήμου 18-20, Αθήνα 105 57","categoryIds":["luxury-dining","rooftop-lounges"],"categories":["Luxury Dining","Rooftop Lounges"],"legacySlugs":["electra-roof-garden-e530"],"distanceKm":0.1671986889236412},{"id":"monasteriesChurches_8533fc9b9b94","slug":"ieros-naos-agion-anargyron-kolokynthi-metochion-panagioy-tafoy-8533","kind":"restaurant","name":"Ιερός Ναός Αγίων Αναργύρων Κολοκύνθη - Μετόχιον Παναγίου Τάφου","lat":37.97293435768165,"lng":23.728208879310362,"url":"https://maps.app.goo.gl/nKcEJuoZ25jXrQqeA?g_st=ipc","address":"Ερεχθέως 18, Αθήνα 105 56","categoryIds":["monasteries-churches"],"categories":["Monasteries & Spiritual Sites"],"distanceKm":0.18042088277941204},{"id":"mustSeeAttractions_8085cf28024a","slug":"choragic-monument-of-lysicrates-8085","kind":"restaurant","name":"Choragic Monument of Lysicrates","lat":37.97108971386169,"lng":23.72994596958006,"url":"https://maps.app.goo.gl/7Xgk65sqPNFM93Sy9?g_st=ipc","address":"Epimenidou 3, Athina 105 58","categoryIds":["attractions"],"categories":["Must-See Attractions"],"distanceKm":0.18647320926393512},{"id":"mustSeeAttractions_f9286196691d","slug":"anafiotika-f928","kind":"restaurant","name":"Αναφιώτικα","lat":37.97237012452399,"lng":23.728116657972198,"url":"https://maps.app.goo.gl/tWCR6cy3umt66P4p6?g_st=ipc","address":"Αθήνα 105 58","categoryIds":["attractions"],"categories":["Must-See Attractions"],"distanceKm":0.19200558910937318},{"id":"greekRestaurants_93f1c5af7d4e","slug":"evgenia-restaurant-93f1","kind":"restaurant","name":"Evgenia Restaurant","lat":37.9738473626084,"lng":23.732008770618236,"url":"https://maps.app.goo.gl/snfb8zhcUBZxSoPx9","address":"Βουλής 44Α, Αθήνα 105 58","categoryIds":["greek-restaurants"],"categories":["Greek Restaurants"],"distanceKm":0.1964201189964398},{"id":"rooftopLoungesRestaurants_ffccd88e3b0f","slug":"thea-terrace-bar-ffcc","kind":"restaurant","name":"Thea Terrace Bar","lat":37.97456272302777,"lng":23.731138501787182,"url":"https://maps.app.goo.gl/KVbnoHN86FaFe6Ch8?g_st=ipc","address":"Απόλλωνος 21, Αθήνα 105 57","categoryIds":["rooftop-lounges"],"categories":["Rooftop Lounges"],"distanceKm":0.2160678997281242},{"id":"greekRestaurants_75bff303ba08","slug":"symposio-restaurant-75bf","kind":"restaurant","name":"Symposio Restaurant","lat":37.97466836386933,"lng":23.73070242967316,"url":"https://maps.app.goo.gl/tMkNDw4cpv1tsuv86?g_st=ipc","address":"Apollonos 22, Athina 105 56","categoryIds":["greek-restaurants"],"categories":["Greek Restaurants"],"distanceKm":0.21701011476985504},{"id":"rooftopLoungesRestaurants_6bc9125d2c6e","slug":"odos-lysioy-6bc9","kind":"restaurant","name":"Οδος Λυσιου","lat":37.97368556896764,"lng":23.727989877138466,"url":"https://maps.app.goo.gl/QFStwG4KRSZkG2Em7?g_st=ipc","address":"Mnisikleous 22 and, Lisiou corner, Athina 105 56","categoryIds":["rooftop-lounges"],"categories":["Rooftop Lounges"],"distanceKm":0.22410019741329784},{"id":"coffeeBrunchRestaurants_af73cfd62392","slug":"the-zillers-pastry-bar-af73","kind":"restaurant","name":"The Zillers Pastry Bar","lat":37.97475815330705,"lng":23.729657937121086,"url":"https://maps.app.goo.gl/F16LXUX65PanPNx76?g_st=ipc","address":"Παλαιολόγου Μπενιζέλου 6, Αθήνα 105 56","categoryIds":["coffee-brunch"],"categories":["Coffee & Brunch Spots"],"distanceKm":0.22942280659928405},{"id":"fishTavernasRestaurants_2ec8563b4367","slug":"anefani-2ec8","kind":"restaurant","name":"Ανεφάνη","lat":37.973535712152035,"lng":23.727823659961384,"url":"https://maps.app.goo.gl/ZNPzCDATcCosWfhTA?g_st=ipc","address":"Μνησικλέους 24, Αθήνα 105 56","categoryIds":["fish-tavernas","rooftop-lounges"],"categories":["Fish Tavernas","Rooftop Lounges"],"legacySlugs":["anefani-d906"],"distanceKm":0.2302668392276198},{"id":"coffeeBrunchRestaurants_d230a95180a5","slug":"anafiotika-cafe-restaurant-d230","kind":"restaurant","name":"Anafiotika Cafe - Restaurant","lat":37.97339153102626,"lng":23.727755098705728,"url":"https://maps.app.goo.gl/5TUnwM6DgvopJtKt9?g_st=ipc","address":"Μνησικλέους 24β, Αθήνα 105 56","categoryIds":["coffee-brunch"],"categories":["Coffee & Brunch Spots"],"distanceKm":0.23037268707640993},{"id":"asianRestaurants_ddcb57380116","slug":"ekiben-kitchen-ddcb","kind":"restaurant","name":"EKIBEN KITCHEN","lat":37.97373780649657,"lng":23.73268249015655,"url":"https://maps.app.goo.gl/phQR869HE6dZNJGS9?g_st=ipc","address":"Σκούφου 15, Αθήνα 105 57","categoryIds":["asian","burgers"],"categories":["Asian Restaurants","Burger Spots"],"legacySlugs":["ekiben-kitchen-bf81"],"distanceKm":0.2396061788040435},{"id":"greekRestaurants_2ce35eba5f67","slug":"aspro-alogo-i-e-white-horse-traditional-greek-food-2ce3","kind":"restaurant","name":"Aspro Alogo (i.e. White Horse) Traditional Greek Food","lat":37.9748589013975,"lng":23.731279347476626,"url":"https://maps.app.goo.gl/Lo9db7KSrAQMHjXi6","address":"Απόλλωνος, Αθήνα 105 57","categoryIds":["greek-restaurants"],"categories":["Greek Restaurants"],"distanceKm":0.25123824903811875},{"id":"asianRestaurants_d2dfba8aa86e","slug":"ikigai-japanese-market-d2df","kind":"restaurant","name":"Ikigai Japanese Market","lat":37.9738141066951,"lng":23.732787828654633,"url":"https://maps.app.goo.gl/qkTpkDkptgwCVeF68?g_st=ipc","address":"Σκούφου 15, Αθήνα 105 57","categoryIds":["asian"],"categories":["Asian Restaurants"],"distanceKm":0.25172471566243665},{"id":"greekRestaurants_3e896dd5b050","slug":"spit-jack-3e89","kind":"restaurant","name":"Spit Jack","lat":37.97409123224814,"lng":23.732567622429254,"url":"https://maps.app.goo.gl/WP3HmHeYBBcXxVPM6","address":"Σκούφου 10, Αθήνα 105 57","categoryIds":["greek-restaurants"],"categories":["Greek Restaurants"],"distanceKm":0.2518152409639266}],"mentionedGuides":[],"canonicalSlug":"solo-gelato-d2c7","enrichment":{"summary_en":"Solo Gelato is a curated restaurant in Αθήνα 105 58 in the Dessert Shops collection. It is connected to 291 nearby Googlementor picks to help travelers build a stronger local route.","summary_el":"Solo Gelato είναι ένα επιλεγμένο σημείο φαγητού στην περιοχή Αθήνα 105 58 και ανήκει στη συλλογή Dessert Shops. Συνδέεται με 291 κοντινές προτάσεις του Googlementor για πιο ολοκληρωμένη εμπειρία.","vibe_tags":["curated","sweet-stop"],"best_for":["first-time visitors","food lovers"],"visit_moments":["afternoon break","after dinner"],"practical_note":"Address and direct map link are available for easy turn-by-turn access.","nearby_walkable_count":291,"nearby_count_2km":658,"confidence":0.98},"areaContext":{"slug":"plaka","name":"Plaka","nameEl":"Πλάκα"},"intentContexts":[{"href":"/desserts/plaka","label":"Dessert Shops in Plaka","categorySlug":"desserts","categoryName":"Dessert Shops","areaSlug":"plaka","areaName":"Plaka","areaNameEl":"Πλάκα"}]},"__N_SSG":true}