{"pageProps":{"entity":{"id":"cheapEatsRestaurants_10569f764062","slug":"sotiris-1056","kind":"restaurant","name":"Σωτήρης","lat":37.96420811591891,"lng":23.572955787134685,"url":"https://maps.app.goo.gl/6kV5zXHh5EwZ8Cy57?g_st=ipc","address":"ΑΘ.ΔΙΑΚΟΥ &, Σολωμού 6, Πέραμα 188 63","categoryIds":["cheap-eats"],"categories":["Gyros & Cheap Eats"]},"sameCategory":[{"id":"cheapEatsRestaurants_5e71f8045feb","slug":"to-steki-toy-manoli-5e71","kind":"restaurant","name":"Το Στέκι του Μανώλη","lat":37.963705294377505,"lng":23.57363615954898,"url":"https://maps.app.goo.gl/t3CWta3mHexys9Gs7?g_st=ipc","address":"Λεωφ. Ειρήνης 179, Πέραμα 188 63","categoryIds":["cheap-eats"],"categories":["Gyros & Cheap Eats"]},{"id":"burgersRestaurants_4906276397a1","slug":"godgilla-keratsini-4906","kind":"restaurant","name":"GODGILLA ΚΕΡΑΤΣΙΝΙ","lat":37.95895954039208,"lng":23.62512429010796,"url":"https://maps.app.goo.gl/XPM5TwgWvpZmGQUh6?g_st=ipc","address":"Θεόφραστου 54, Κερατσίνι 187 56","categoryIds":["burgers","cheap-eats"],"categories":["Burger Spots","Gyros & Cheap Eats"],"legacySlugs":["godgilla-keratsini-e67b"]},{"id":"cheapEatsRestaurants_45ca9e952a78","slug":"bella-vista-45ca","kind":"restaurant","name":"Bella Vista","lat":37.96390003095981,"lng":23.626189441266973,"url":"https://maps.app.goo.gl/C4Pcs9AmY91g2TWr8?g_st=ipc","address":"Κωνσταντινουπόλεως 65, Κερατσίνι 187 56","categoryIds":["cheap-eats"],"categories":["Gyros & Cheap Eats"]},{"id":"cheapEatsRestaurants_06c18b2e0a28","slug":"o-polyvios-06c1","kind":"restaurant","name":"ο Πολύβιος","lat":37.94989609662676,"lng":23.635292950073545,"url":"https://maps.app.goo.gl/hykabQee4Gtqnvuk9?g_st=ipc","address":"Αγίου Δημητρίου 28, Πειραιάς 185 45","categoryIds":["cheap-eats"],"categories":["Gyros & Cheap Eats"]},{"id":"cheapEatsRestaurants_a7b0441198ed","slug":"kempaptzidikon-aivali-nikaia-a7b0","kind":"restaurant","name":"Κεμπαπτζίδικον Αϊβαλί Νίκαια","lat":37.97771284812105,"lng":23.63690051700111,"url":"https://maps.app.goo.gl/v85fF9CDnUXK4e4e6?g_st=ipc","address":"Ελλησπόντου 43, Νίκαια 184 51","categoryIds":["cheap-eats"],"categories":["Gyros & Cheap Eats"]},{"id":"cheapEatsRestaurants_3d78bb5a465c","slug":"makis-psitopoleio-soyvlatzidiko-3d78","kind":"restaurant","name":"\"Μάκης\" Ψητοπωλείο-Σουβλατζίδικο","lat":37.97402598918491,"lng":23.643093504500488,"url":"https://maps.app.goo.gl/43quDvAwPQhkbk6t5?g_st=ipc","address":"Π. Τσαλδάρη 262, Νίκαια 184 53","categoryIds":["cheap-eats"],"categories":["Gyros & Cheap Eats"]},{"id":"cheapEatsRestaurants_93e5a087f2a2","slug":"soyvlakia-o-mpilis-93e5","kind":"restaurant","name":"Σουβλάκια \"ο ΜΠΙΛΗΣ\"","lat":37.97112327966262,"lng":23.64443348855245,"url":"https://maps.app.goo.gl/pWZio4wYos7hfNkq6?g_st=ipc","address":"Προύσης 22, Νίκαια 184 53","categoryIds":["cheap-eats"],"categories":["Gyros & Cheap Eats"]},{"id":"cheapEatsRestaurants_ff4578059709","slug":"story-streat-ff45","kind":"restaurant","name":"Story Streat","lat":37.93927555121359,"lng":23.639905760009334,"url":"https://maps.app.goo.gl/EXsQn9E1PkJeJjZU9?g_st=ipc","address":"301 Ακτή Μιαούλη, Enanti Agiou Nikolaou, Πειραιάς 185 35","categoryIds":["cheap-eats"],"categories":["Gyros & Cheap Eats"]},{"id":"cheapEatsRestaurants_e1efa6cc4eb9","slug":"kebab-hub-e1ef","kind":"restaurant","name":"KEBAB HUB","lat":37.96544893408382,"lng":23.64762675898248,"url":"https://maps.app.goo.gl/1jU1MDHhWUfkjuNTA?g_st=ipc","address":"Εφέσου 49, Νίκαια 184 50","categoryIds":["cheap-eats"],"categories":["Gyros & Cheap Eats"]},{"id":"cheapEatsRestaurants_44069571c770","slug":"o-giorgos-4406","kind":"restaurant","name":"Ο Γιώργος","lat":37.94626514113319,"lng":23.644321784628165,"url":"https://maps.app.goo.gl/41PfRyTP8uJ6c3uy9?g_st=ipc","address":"Γούναρη 18 και, Νικήτα, Πειραιάς 185 31","categoryIds":["cheap-eats"],"categories":["Gyros & Cheap Eats"]},{"id":"cheapEatsRestaurants_338abca2bc3e","slug":"jackaroo-338a","kind":"restaurant","name":"Jackaroo","lat":37.940156634414215,"lng":23.643183475106575,"url":"https://maps.app.goo.gl/QjFk2WWeE9jasgmR8?g_st=ipc","address":"Κολοκοτρώνη 126, Πειραιάς 185 35","categoryIds":["cheap-eats"],"categories":["Gyros & Cheap Eats"]},{"id":"cheapEatsRestaurants_9166d63b45f7","slug":"enty-9166","kind":"restaurant","name":"ΕΝΤΥ","lat":37.96700050503918,"lng":23.65031239624474,"url":"https://maps.app.goo.gl/TJbtwJ75EUsRPcRt8?g_st=ipc","address":"Δημ. Καρακουλουξή 4, Νίκαια 184 54","categoryIds":["cheap-eats"],"categories":["Gyros & Cheap Eats"]}],"nearby":[{"id":"cheapEatsRestaurants_5e71f8045feb","slug":"to-steki-toy-manoli-5e71","kind":"restaurant","name":"Το Στέκι του Μανώλη","lat":37.963705294377505,"lng":23.57363615954898,"url":"https://maps.app.goo.gl/t3CWta3mHexys9Gs7?g_st=ipc","address":"Λεωφ. Ειρήνης 179, Πέραμα 188 63","categoryIds":["cheap-eats"],"categories":["Gyros & Cheap Eats"],"distanceKm":0.08175352776076335},{"id":"fishTavernasRestaurants_9ca929492cba","slug":"o-takis-9ca9","kind":"restaurant","name":"Ο Τάκης","lat":37.965219250882924,"lng":23.56442918090091,"url":"https://maps.app.goo.gl/ZwRnw6egRaawky1TA?g_st=ipc","address":"Ηπείρου 66, Πέραμα 188 63","categoryIds":["fish-tavernas"],"categories":["Fish Tavernas"],"distanceKm":0.7558929751454698},{"id":"greekRestaurants_da2ab78c5fb8","slug":"sknipa-da2a","kind":"restaurant","name":"Σκνίπα","lat":37.96447715022685,"lng":23.56326926823615,"url":"https://maps.app.goo.gl/zYvZ3P8Ee67RZoNy6","address":"Ηλέκτρας 1, Πέραμα 188 63","categoryIds":["greek-restaurants"],"categories":["Greek Restaurants"],"distanceKm":0.849699185413409},{"id":"fishTavernasRestaurants_2b503e4a2bfd","slug":"charti-kai-kalamari-2b50","kind":"restaurant","name":"ΧΑΡΤΙ ΚΑΙ ΚΑΛΑΜΑΡΙ","lat":37.964880612781556,"lng":23.561831186974818,"url":"https://maps.app.goo.gl/H8GUjvvHpXMG9g9D8?g_st=ipc","address":"Λεωφ. Ειρήνης 33, Πέραμα 188 63","categoryIds":["fish-tavernas"],"categories":["Fish Tavernas"],"distanceKm":0.9781023551583817},{"id":"fishTavernasRestaurants_076c1eca8c96","slug":"oyzeri-lagoydera-076c","kind":"restaurant","name":"Ουζερί Λαγουδέρα","lat":37.96427992970154,"lng":23.558753968080776,"url":"https://maps.app.goo.gl/osnWCGuQG8gn8L3B9?g_st=ipc","address":"Λεωφ. Δημοκρατίας 33, Πέραμα 188 63","categoryIds":["fish-tavernas"],"categories":["Fish Tavernas"],"distanceKm":1.2450352180361177},{"id":"fishTavernasRestaurants_3d632b6f2123","slug":"oinomageireio-o-vasilis-3d63","kind":"restaurant","name":"ΟΙΝΟΜΑΓΕΙΡΕΙΟ Ο ΒΑΣΙΛΗΣ","lat":37.95641057665237,"lng":23.61228914458667,"url":"https://maps.app.goo.gl/a3BE4Jby4PK3CikYA?g_st=ipc","address":"Ιχθυόσκαλα, Κερατσίνι 187 55","categoryIds":["fish-tavernas"],"categories":["Fish Tavernas"],"distanceKm":3.5556967765955516},{"id":"fishTavernasRestaurants_0d1e86dc9c98","slug":"psarotaverna-o-vasilis-0d1e","kind":"restaurant","name":"ΨΑΡΟΤΑΒΕΡΝΑ \"Ο ΒΑΣΙΛΗΣ\"","lat":37.963242750995164,"lng":23.620073628540776,"url":"https://maps.app.goo.gl/aW7neYrejPJDa4ZB6?g_st=ipc","address":"Κουντουριώτου 12, Κερατσίνι 187 56","categoryIds":["fish-tavernas"],"categories":["Fish Tavernas"],"distanceKm":4.132032940351118},{"id":"coffeeBrunchRestaurants_80f636c96420","slug":"azimouthio-80f6","kind":"restaurant","name":"Azimouthio","lat":37.968862186258185,"lng":23.621767789991836,"url":"https://maps.app.goo.gl/5pGu2NryRiA9Qcms5?g_st=ipc","address":"Ταϋγέτου 4, Κερατσίνι 187 57","categoryIds":["coffee-brunch"],"categories":["Coffee & Brunch Spots"],"distanceKm":4.310175819968909},{"id":"fishTavernasRestaurants_ce3d409f9fbd","slug":"e-g-taxideyontas-ce3d","kind":"restaurant","name":"Ε/Γ Ταξιδεύοντας","lat":37.953699461411354,"lng":23.621203196911647,"url":"https://maps.app.goo.gl/sYJ5yzi7qXwu1PYh8?g_st=ipc","address":"Πλάτωνος 72, Κερατσίνι 187 55","categoryIds":["fish-tavernas"],"categories":["Fish Tavernas"],"distanceKm":4.388369819740749},{"id":"fishTavernasRestaurants_8d6cb659e1a2","slug":"psarokokkalo-tis-annas-8d6c","kind":"restaurant","name":"ΨΑΡΟΚΟΚΚΑΛΟ ΤΗΣ ΑΝΝΑΣ","lat":37.969120176200505,"lng":23.623070103225206,"url":"https://maps.app.goo.gl/Fqinu6WnUcLK6Pe87?g_st=ipc","address":"Τσακάλωφ, Βίκτωρος Ουγκώ και, Κερατσίνι 187 57","categoryIds":["fish-tavernas"],"categories":["Fish Tavernas"],"distanceKm":4.426975676121143},{"id":"burgersRestaurants_4906276397a1","slug":"godgilla-keratsini-4906","kind":"restaurant","name":"GODGILLA ΚΕΡΑΤΣΙΝΙ","lat":37.95895954039208,"lng":23.62512429010796,"url":"https://maps.app.goo.gl/XPM5TwgWvpZmGQUh6?g_st=ipc","address":"Θεόφραστου 54, Κερατσίνι 187 56","categoryIds":["burgers","cheap-eats"],"categories":["Burger Spots","Gyros & Cheap Eats"],"legacySlugs":["godgilla-keratsini-e67b"],"distanceKm":4.610629905419749},{"id":"cheapEatsRestaurants_45ca9e952a78","slug":"bella-vista-45ca","kind":"restaurant","name":"Bella Vista","lat":37.96390003095981,"lng":23.626189441266973,"url":"https://maps.app.goo.gl/C4Pcs9AmY91g2TWr8?g_st=ipc","address":"Κωνσταντινουπόλεως 65, Κερατσίνι 187 56","categoryIds":["cheap-eats"],"categories":["Gyros & Cheap Eats"],"distanceKm":4.666892811107946},{"id":"dessertsRestaurants_2ce344200b32","slug":"artozacharoplasteia-gavriilidis-2ce3","kind":"restaurant","name":"Αρτοζαχαροπλαστεία Γαβριηλίδης","lat":37.964134303993816,"lng":23.626317751280503,"url":"https://maps.app.goo.gl/JyTzpkU2ifwrGv839?g_st=ipc","address":"Λεωφ. Σαλαμίνος 71, Κερατσίνι 187 56","categoryIds":["desserts"],"categories":["Dessert Shops"],"distanceKm":4.678015203393745},{"id":"burgersRestaurants_108c8d4114f6","slug":"bbc-burger-barbeque-corner-108c","kind":"restaurant","name":"BBC Burger Barbeque Corner","lat":37.952390409927204,"lng":23.625437904614223,"url":"https://maps.app.goo.gl/G6x3d2ZUCEMQrN3k7?g_st=ipc","address":"Ἀναπαύσεως 90, Κερατσίνι 187 55","categoryIds":["burgers"],"categories":["Burger Spots"],"distanceKm":4.785208445642679},{"id":"dessertsRestaurants_bd4141abfc88","slug":"paylakis-zacharoplasteio-bd41","kind":"restaurant","name":"Παυλάκης Ζαχαροπλαστείο","lat":37.95571450585217,"lng":23.63113250439145,"url":"https://maps.app.goo.gl/uG9ew76UW6orfg278?g_st=ipc","address":"Σπάρτης 129, Πειραιάς 185 46","categoryIds":["desserts"],"categories":["Dessert Shops"],"distanceKm":5.187093796732904},{"id":"greekRestaurants_0105e2b1bfb5","slug":"i-taverna-toy-katsogiannoy-0105","kind":"restaurant","name":"Η ταβέρνα του Κατσόγιαννου","lat":37.9460888309485,"lng":23.627498476767997,"url":"https://maps.app.goo.gl/JYrJ78md5Yy4N4n89","address":"Αγίου Παντελεήμονος 15, Δραπετσώνα 186 48","categoryIds":["greek-restaurants"],"categories":["Greek Restaurants"],"distanceKm":5.189203318905939},{"id":"greekRestaurants_899916cf9819","slug":"izampela-armenikes-nostimies-8999","kind":"restaurant","name":"Ιζαμπέλα - Αρμένικες νοστιμιές","lat":37.95153993965958,"lng":23.631088706562064,"url":"https://maps.app.goo.gl/r3twrz7bwRr76j8n8","address":"Αναπαύσεως 36, Δραπετσώνα 185 46","categoryIds":["greek-restaurants"],"categories":["Greek Restaurants"],"distanceKm":5.287773011820374},{"id":"rooftopLoungesRestaurants_43009144e178","slug":"la-luna-see-the-view-4300","kind":"restaurant","name":"La Luna See The View","lat":37.94499432681891,"lng":23.62996124370496,"url":"https://maps.app.goo.gl/uPm46zTckTNqv3Qu9?g_st=ipc","address":"Παύλου, Κουντουριώτου 73, Δραπετσώνα 186 48","categoryIds":["rooftop-lounges"],"categories":["Rooftop Lounges"],"distanceKm":5.435550899968827},{"id":"greekRestaurants_e914468cc862","slug":"oinopantopoleio-to-eidikon-e914","kind":"restaurant","name":"Οινοπαντοπωλείο Tο Ειδικόν","lat":37.953880471733605,"lng":23.63384583394419,"url":"https://maps.app.goo.gl/PMXGHCEV52xT7G7w7","address":"Ψαρών 38, Πειραιάς 185 46","categoryIds":["greek-restaurants"],"categories":["Greek Restaurants"],"distanceKm":5.460457394611161},{"id":"dessertsRestaurants_1148b5deca52","slug":"galaktopoleio-stamoy-1148","kind":"restaurant","name":"Γαλακτοπωλείο ΣΤΑΜΟΥ","lat":37.9652037202668,"lng":23.635596413779496,"url":"https://maps.app.goo.gl/rrTmftHWRasbJb7aA?g_st=ipc","address":"Πέτρου Ράλλη 438, Νίκαια 184 51","categoryIds":["desserts"],"categories":["Dessert Shops"],"distanceKm":5.492503199808597},{"id":"greekRestaurants_f42ac62c3249","slug":"bounty-all-aboard-f42a","kind":"restaurant","name":"Bounty all aboard","lat":37.949723445369806,"lng":23.63332963263093,"url":"https://maps.app.goo.gl/2iShe5bzo7qg3ohc6","address":"Εθ. Αντιστάσεως 10, Δραπετσώνα 186 48","categoryIds":["greek-restaurants"],"categories":["Greek Restaurants"],"distanceKm":5.532844216119963},{"id":"burgersRestaurants_d46a3e1807bd","slug":"what-they-said-d46a","kind":"restaurant","name":"What They Said","lat":37.94935179980419,"lng":23.633928811446484,"url":"https://maps.app.goo.gl/1hcPfQeHfJrzqf8KA","address":"Eth. Antistaseos 37, Drapetsona 186 48","categoryIds":["burgers"],"categories":["Burger Spots"],"distanceKm":5.595196913910614},{"id":"cheapEatsRestaurants_06c18b2e0a28","slug":"o-polyvios-06c1","kind":"restaurant","name":"ο Πολύβιος","lat":37.94989609662676,"lng":23.635292950073545,"url":"https://maps.app.goo.gl/hykabQee4Gtqnvuk9?g_st=ipc","address":"Αγίου Δημητρίου 28, Πειραιάς 185 45","categoryIds":["cheap-eats"],"categories":["Gyros & Cheap Eats"],"distanceKm":5.692338913760504},{"id":"cheapEatsRestaurants_a7b0441198ed","slug":"kempaptzidikon-aivali-nikaia-a7b0","kind":"restaurant","name":"Κεμπαπτζίδικον Αϊβαλί Νίκαια","lat":37.97771284812105,"lng":23.63690051700111,"url":"https://maps.app.goo.gl/v85fF9CDnUXK4e4e6?g_st=ipc","address":"Ελλησπόντου 43, Νίκαια 184 51","categoryIds":["cheap-eats"],"categories":["Gyros & Cheap Eats"],"distanceKm":5.80289788036948}],"mentionedGuides":[],"canonicalSlug":"sotiris-1056","enrichment":{"summary_en":"Σωτήρης is a curated restaurant in Πέραμα 188 63 in the Gyros & Cheap Eats collection. It is connected to 3 nearby Googlementor picks to help travelers build a stronger local route.","summary_el":"Σωτήρης είναι ένα επιλεγμένο σημείο φαγητού στην περιοχή Πέραμα 188 63 και ανήκει στη συλλογή Gyros & Cheap Eats. Συνδέεται με 3 κοντινές προτάσεις του Googlementor για πιο ολοκληρωμένη εμπειρία.","vibe_tags":["curated","budget-friendly"],"best_for":["first-time visitors","food lovers","budget travelers"],"visit_moments":["lunch stop","dinner stop"],"practical_note":"Address and direct map link are available for easy turn-by-turn access.","nearby_walkable_count":3,"nearby_count_2km":6,"confidence":0.9},"areaContext":null,"intentContexts":[]},"__N_SSG":true}