{"pageProps":{"entity":{"id":"greekRestaurants_96a815ab2fda","slug":"spitjack-golden-hall-96a8","kind":"restaurant","name":"Spitjack Golden Hall","lat":38.034373053538495,"lng":23.793186418589283,"url":"https://maps.app.goo.gl/MjaG7qgQXBbLTT8n7","address":"Λεωφ. Κηφισίας 37A, Μαρούσι 151 23","categoryIds":["greek-restaurants"],"categories":["Greek Restaurants"]},"sameCategory":[{"id":"greekRestaurants_ecd1114337bb","slug":"taverna-kissos-ecd1","kind":"restaurant","name":"Ταβέρνα Κισσός","lat":38.02828285759166,"lng":23.793071906306483,"url":"https://maps.app.goo.gl/DEUMA4eJH6RLG2DU8","address":"Ρούμελης 28 &, Σπάρτης, Χαλάνδρι 152 33","categoryIds":["greek-restaurants"],"categories":["Greek Restaurants"]},{"id":"greekRestaurants_22195ee291a7","slug":"i-parea-tis-fanis-2219","kind":"restaurant","name":"Η παρέα της Φανής","lat":38.02610478288273,"lng":23.79313013557708,"url":"https://maps.app.goo.gl/BaPBtWqbaacn9oDc6?g_st=ipc","address":"Καρέλλα 20, Χαλάνδρι 152 33","categoryIds":["greek-restaurants"],"categories":["Greek Restaurants"]},{"id":"greekRestaurants_f482326498f3","slug":"taverna-michalis-f482","kind":"restaurant","name":"Ταβέρνα Μιχάλης","lat":38.024972399350155,"lng":23.792694033579224,"url":"https://maps.app.goo.gl/o1rWWp4p742jj85G7?g_st=ipc","address":"Βαλαωρίτου 20, Χαλάνδρι 152 33","categoryIds":["greek-restaurants"],"categories":["Greek Restaurants"]},{"id":"greekRestaurants_cb270382bf75","slug":"spiti-neat-eat-drinks-spiti-filothei-filothei-cb27","kind":"restaurant","name":"Spiti neat eat + drinks σπίτι Φιλοθέη Filothei","lat":38.027348561849706,"lng":23.784455346396886,"url":"https://maps.app.goo.gl/aHoAWHKWgJf5N5Tm6","address":"Λεωφ. Καποδιστρίου 42, Μαρούσι 151 23","categoryIds":["greek-restaurants"],"categories":["Greek Restaurants"]},{"id":"greekRestaurants_773d46c778fd","slug":"estiatorio-taverna-o-manolis-773d","kind":"restaurant","name":"Εστιατόριο Ταβέρνα Ο Μανώλης","lat":38.030716089112936,"lng":23.806470122135025,"url":"https://maps.app.goo.gl/E6ZfG324dBPeoKmz5?g_st=ipc","address":"Σάμου 1, Χαλάνδρι 152 33","categoryIds":["greek-restaurants"],"categories":["Greek Restaurants"]},{"id":"cheapEatsRestaurants_d9e484914294","slug":"mparmpalias-d9e4","kind":"restaurant","name":"Μπαρμπαλιάς","lat":38.022224299572,"lng":23.79656538042495,"url":"https://maps.app.goo.gl/LeEZCDs2GRC6YKuT7?g_st=ipc","address":"Λεωφ. Βασιλέως Γεωργίου B 6, Χαλάνδρι 152 33","categoryIds":["cheap-eats","greek-restaurants"],"categories":["Gyros & Cheap Eats","Greek Restaurants"],"legacySlugs":["mparmpalias-c76d"]},{"id":"greekRestaurants_42b778a801b1","slug":"psomi-alati-42b7","kind":"restaurant","name":"ΨΩΜΙ & ΑΛΑΤΙ","lat":38.02138760980619,"lng":23.797709722137604,"url":"https://maps.app.goo.gl/3yMZtJ6XHLXuktHM7?g_st=ipc","address":"Πλ. Ελευθερωτών 8, Χαλάνδρι 152 32","categoryIds":["greek-restaurants"],"categories":["Greek Restaurants"]},{"id":"greekRestaurants_69231f24503b","slug":"mpakalotaverna-6923","kind":"restaurant","name":"Μπακαλοταβέρνα","lat":38.02091962634735,"lng":23.79935272546419,"url":"https://maps.app.goo.gl/D6gW3fsdkz7sh9bg8?g_st=ipc","address":"Θουκυδίδου 6, Χαλάνδρι 152 32","categoryIds":["greek-restaurants"],"categories":["Greek Restaurants"]},{"id":"greekRestaurants_f52198928cda","slug":"mystikos-kipos-f521","kind":"restaurant","name":"Μυστικός Κήπος","lat":38.02018220795105,"lng":23.798366893276665,"url":"https://maps.app.goo.gl/RvfsJX8RaCUstXSa6?g_st=ipc","address":"Καραολη Δημήτριου 21, Χαλάνδρι 152 32","categoryIds":["greek-restaurants"],"categories":["Greek Restaurants"]},{"id":"greekRestaurants_6657f75f25c7","slug":"trypia-dekara-6657","kind":"restaurant","name":"Τρύπια Δεκάρα","lat":38.020535111511364,"lng":23.799981150995844,"url":"https://maps.app.goo.gl/aTApNBNRqHkEo3CH8?g_st=ipc","address":"Θεμιστοκλέους 6, Χαλάνδρι 152 32","categoryIds":["greek-restaurants"],"categories":["Greek Restaurants"]},{"id":"greekRestaurants_420dc8617ebb","slug":"to-vrasto-420d","kind":"restaurant","name":"Το Βραστό","lat":38.02920880289756,"lng":23.811047379895488,"url":"https://maps.app.goo.gl/GRjH6qkfc2wa5Tcv9?g_st=ipc","address":"Ρόδων 3, Χαλάνδρι 152 33","categoryIds":["greek-restaurants"],"categories":["Greek Restaurants"]},{"id":"greekRestaurants_a120da3cfe10","slug":"mezedopoleio-iordanis-a120","kind":"restaurant","name":"Μεζεδοπωλείο Ιορδάνης","lat":38.020133303757966,"lng":23.80185334902281,"url":"https://maps.app.goo.gl/FYyCghhM4WWKom5n9?g_st=ipc","address":"Αριστοτέλους 42, Χαλάνδρι 152 32","categoryIds":["greek-restaurants"],"categories":["Greek Restaurants"]}],"nearby":[{"id":"asianRestaurants_302bc43e3be3","slug":"wagamama-golden-hall-302b","kind":"restaurant","name":"Wagamama Golden Hall","lat":38.03406369279884,"lng":23.792244943430262,"url":"https://maps.app.goo.gl/A7uShDTP3yFcChSd7?g_st=ipc","address":"Λεωφ. Κηφισίας, Μαρούσι 151 23","categoryIds":["asian"],"categories":["Asian Restaurants"],"distanceKm":0.08934392346740766},{"id":"familyFriendly_bdbc58481ced","slug":"enydreio-xplore-oceans-bdbc","kind":"restaurant","name":"Ενυδρείο XPLORE Oceans","lat":38.03457407087024,"lng":23.791982125171685,"url":"https://maps.app.goo.gl/qibAD4W4gNvVSf698?g_st=ipc","address":"Αγησιλάου, Μαρούσι 151 23","categoryIds":["family-friendly"],"categories":["Kid Friendly Locations"],"distanceKm":0.10781636087331627},{"id":"familyFriendly_714cd57583c7","slug":"xplore-714c","kind":"restaurant","name":"XPLORE","lat":38.034636437257035,"lng":23.79103363842638,"url":"https://maps.app.goo.gl/TKKhEa5LN1Dy53v36?g_st=ipc","address":"Λεωφ. Κηφισίας 37Α, Μαρούσι 151 23","categoryIds":["family-friendly"],"categories":["Kid Friendly Locations"],"distanceKm":0.190804878932741},{"id":"coffeeBrunchRestaurants_15371932080b","slug":"willow-cafe-chalandri-1537","kind":"restaurant","name":"Willow Cafe Χαλάνδρι","lat":38.03103124415517,"lng":23.796167188145933,"url":"https://maps.app.goo.gl/KjpKvzNXdWoxzDFA7?g_st=ipc","address":"Ριζαρείου 9, Χαλάνδρι 152 33","categoryIds":["coffee-brunch"],"categories":["Coffee & Brunch Spots"],"distanceKm":0.45413291409537726},{"id":"dessertsRestaurants_8ce39ac32801","slug":"cinnabon-halandri-8ce3","kind":"restaurant","name":"Cinnabon Halandri","lat":38.0300758962987,"lng":23.793141060079883,"url":"https://maps.app.goo.gl/n8CZv8iLgAB4Xf2E9?g_st=ipc","address":"Μαραθώνος 4, Χαλάνδρι 152 33","categoryIds":["desserts"],"categories":["Dessert Shops"],"distanceKm":0.47783859858763245},{"id":"mustSeeAttractions_54efa8dcf204","slug":"olympiako-stadio-athinon-54ef","kind":"restaurant","name":"Ολυμπιακό Στάδιο Αθηνών","lat":38.035910568153284,"lng":23.786973025948996,"url":"https://maps.app.goo.gl/8fas6bpPgSs2neZj8?g_st=ipc","address":"Λεωφ. Ολυμπιονίκου Σπύρου Λούη 1, Μαρούσι 151 23","categoryIds":["attractions"],"categories":["Must-See Attractions"],"distanceKm":0.5703979438288189},{"id":"cheapEatsRestaurants_28c94df5ce5f","slug":"krepilateion-28c9","kind":"restaurant","name":"ΚΡΕΠΗΛΑΤΕΙΟΝ","lat":38.037837677741585,"lng":23.799467140725334,"url":"https://maps.app.goo.gl/CSqgCp2SZrPwcWdC6?g_st=ipc","address":"Λεωφ. Κηφισίας 59, Μαρούσι 151 25","categoryIds":["cheap-eats"],"categories":["Gyros & Cheap Eats"],"distanceKm":0.6715550925173788},{"id":"greekRestaurants_ecd1114337bb","slug":"taverna-kissos-ecd1","kind":"restaurant","name":"Ταβέρνα Κισσός","lat":38.02828285759166,"lng":23.793071906306483,"url":"https://maps.app.goo.gl/DEUMA4eJH6RLG2DU8","address":"Ρούμελης 28 &, Σπάρτης, Χαλάνδρι 152 33","categoryIds":["greek-restaurants"],"categories":["Greek Restaurants"],"distanceKm":0.6772731587622447},{"id":"burgersRestaurants_11e6ae00efca","slug":"melt-burgers-11e6","kind":"restaurant","name":"Melt Burgers","lat":38.037895872437886,"lng":23.799602975307902,"url":"https://maps.app.goo.gl/17z1ma6NXSDvgsM2A?g_st=ipc","address":"Λεωφ. Κηφισίας 59, Μαρούσι 151 24","categoryIds":["burgers"],"categories":["Burger Spots"],"distanceKm":0.6850129395155364},{"id":"familyFriendly_ca1b21e5d960","slug":"planet-physics-ca1b","kind":"restaurant","name":"Planet Physics","lat":38.03717219186782,"lng":23.78478282955737,"url":"https://maps.app.goo.gl/zXVMtXNDFGQx4jhn7?g_st=ipc","address":"Located in: Olympic Indoor Hall Nikos Galis, Leof. Olimpionikou Spirou Loui, Marousi 151 23","categoryIds":["family-friendly"],"categories":["Kid Friendly Locations"],"distanceKm":0.7990950536223081},{"id":"coffeeBrunchRestaurants_b9882b026b76","slug":"montakioy-maroysi-b988","kind":"restaurant","name":"ΜΟΝΤΑΚΙΟΥ ΜΑΡΟΥΣΙ","lat":38.03797108447277,"lng":23.80161359245891,"url":"https://maps.app.goo.gl/P3WZt5PaHNoTambf6?g_st=ipc","address":"Ρωμανού Μελωδού 1, Μαρούσι 151 25","categoryIds":["coffee-brunch"],"categories":["Coffee & Brunch Spots"],"distanceKm":0.8395125756889448},{"id":"familyFriendly_ad68bde06d5c","slug":"replayce-ad68","kind":"restaurant","name":"Replayce","lat":38.04114619526046,"lng":23.788356717778257,"url":"https://maps.app.goo.gl/ByfaE3CKqvW9hrLv6?g_st=ipc","address":"OAKA Gate Z, Αμαρυσίας Αρτέμιδος, Μαρούσι 151 22","categoryIds":["family-friendly"],"categories":["Kid Friendly Locations"],"distanceKm":0.8637854338248789},{"id":"greekRestaurants_22195ee291a7","slug":"i-parea-tis-fanis-2219","kind":"restaurant","name":"Η παρέα της Φανής","lat":38.02610478288273,"lng":23.79313013557708,"url":"https://maps.app.goo.gl/BaPBtWqbaacn9oDc6?g_st=ipc","address":"Καρέλλα 20, Χαλάνδρι 152 33","categoryIds":["greek-restaurants"],"categories":["Greek Restaurants"],"distanceKm":0.9194029649761802},{"id":"greekRestaurants_f482326498f3","slug":"taverna-michalis-f482","kind":"restaurant","name":"Ταβέρνα Μιχάλης","lat":38.024972399350155,"lng":23.792694033579224,"url":"https://maps.app.goo.gl/o1rWWp4p742jj85G7?g_st=ipc","address":"Βαλαωρίτου 20, Χαλάνδρι 152 33","categoryIds":["greek-restaurants"],"categories":["Greek Restaurants"],"distanceKm":1.0461943246481473},{"id":"greekRestaurants_cb270382bf75","slug":"spiti-neat-eat-drinks-spiti-filothei-filothei-cb27","kind":"restaurant","name":"Spiti neat eat + drinks σπίτι Φιλοθέη Filothei","lat":38.027348561849706,"lng":23.784455346396886,"url":"https://maps.app.goo.gl/aHoAWHKWgJf5N5Tm6","address":"Λεωφ. Καποδιστρίου 42, Μαρούσι 151 23","categoryIds":["greek-restaurants"],"categories":["Greek Restaurants"],"distanceKm":1.0931117214191304},{"id":"italianRestaurants_5125cdfe0b5a","slug":"portofino-pizza-xalandri-5125","kind":"restaurant","name":"Portofino Pizza Xalandri","lat":38.0247038627797,"lng":23.797586721157028,"url":"https://maps.app.goo.gl/D9rRduThcXn2ff1i8?g_st=ipc","address":"Γρ. Γυφτοπούλου 23, Χαλάνδρι 152 33","categoryIds":["italian"],"categories":["Italian Restaurants"],"distanceKm":1.1421565941399683},{"id":"familyFriendly_20cf4ac4b119","slug":"freeline-athens-inline-skating-school-20cf","kind":"restaurant","name":"Freeline - Athens Inline Skating School","lat":38.04178979504894,"lng":23.783943829723313,"url":"https://maps.app.goo.gl/eikiyDUe7JH1ESeMA?g_st=ipc","address":"Μαρούσι 151 23","categoryIds":["family-friendly"],"categories":["Kid Friendly Locations"],"distanceKm":1.1555652719708067},{"id":"dessertsRestaurants_01f94a155dc7","slug":"cinnabon-01f9","kind":"restaurant","name":"Cinnabon","lat":38.04451091204427,"lng":23.790126921989934,"url":"https://maps.app.goo.gl/vor1PCh85rY2x8xr5?g_st=ipc","address":"Andrea Papandreou 35 Loc. 215, 2nd floor, The Mall Athens, Μαρούσι 151 22","categoryIds":["desserts"],"categories":["Dessert Shops"],"distanceKm":1.158683355505033},{"id":"mexicanRestaurants_e68c0563bcc0","slug":"ancho-mexican-grill-e68c","kind":"restaurant","name":"Ancho Mexican Grill","lat":38.04461245221765,"lng":23.790240662976885,"url":"https://maps.app.goo.gl/VDFRPLTGKi6Cxw6b9?g_st=ipc","address":"Ανδρέα Παπανδρέου 35, Μαρούσι 151 22","categoryIds":["mexican"],"categories":["Mexican Restaurants"],"distanceKm":1.1674294637657086},{"id":"italianRestaurants_99d6d6ea615c","slug":"alio-99d6","kind":"restaurant","name":"ALIO","lat":38.02380840827294,"lng":23.79252131680721,"url":"https://maps.app.goo.gl/pCWntKXiEkk3VBdj8?g_st=ipc","address":"Βασιλέως Γεωργίου 34, Χαλάνδρι 152 33","categoryIds":["italian"],"categories":["Italian Restaurants"],"distanceKm":1.1761784961805748},{"id":"greekRestaurants_773d46c778fd","slug":"estiatorio-taverna-o-manolis-773d","kind":"restaurant","name":"Εστιατόριο Ταβέρνα Ο Μανώλης","lat":38.030716089112936,"lng":23.806470122135025,"url":"https://maps.app.goo.gl/E6ZfG324dBPeoKmz5?g_st=ipc","address":"Σάμου 1, Χαλάνδρι 152 33","categoryIds":["greek-restaurants"],"categories":["Greek Restaurants"],"distanceKm":1.232453648285839},{"id":"luxuryDiningRestaurants_0a7040f4978e","slug":"botrini-s-restaurant-athens-0a70","kind":"restaurant","name":"Botrini's Restaurant Athens","lat":38.02321116531418,"lng":23.793992884008055,"url":"https://maps.app.goo.gl/9QeJrtg4uVD3LnL38?g_st=ipc","address":"Λεωφ. Βασιλέως Γεωργίου B 24, Χαλάνδρι 152 33","categoryIds":["luxury-dining"],"categories":["Luxury Dining"],"distanceKm":1.2431537905774486},{"id":"dessertsRestaurants_632e9113067f","slug":"mike-632e","kind":"restaurant","name":"ΜΙΚΕ","lat":38.023677794017026,"lng":23.786751421962965,"url":"https://maps.app.goo.gl/V5DcUdgiwebZo8JS6?g_st=ipc","address":"Καλλιγά 31, Φιλοθέη 152 37","categoryIds":["desserts"],"categories":["Dessert Shops"],"distanceKm":1.3160599721740762},{"id":"burgersRestaurants_c336eb92f70f","slug":"benjamin-burger-house-c336","kind":"restaurant","name":"Benjamin Burger House","lat":38.02349485615921,"lng":23.79940305236398,"url":"https://maps.app.goo.gl/1oUJJNhHwJDfzkoK6?g_st=ipc","address":"Ανδρέα Γκίνη 8-12, Χαλάνδρι 152 33","categoryIds":["burgers"],"categories":["Burger Spots"],"distanceKm":1.3265057411377272}],"mentionedGuides":[],"canonicalSlug":"spitjack-golden-hall-96a8","enrichment":{"summary_en":"Spitjack Golden Hall is a curated restaurant in Μαρούσι 151 23 in the Greek Restaurants collection. It is connected to 10 nearby Googlementor picks to help travelers build a stronger local route.","summary_el":"Spitjack Golden Hall είναι ένα επιλεγμένο σημείο φαγητού στην περιοχή Μαρούσι 151 23 και ανήκει στη συλλογή Greek Restaurants. Συνδέεται με 10 κοντινές προτάσεις του Googlementor για πιο ολοκληρωμένη εμπειρία.","vibe_tags":["curated"],"best_for":["first-time visitors","food lovers"],"visit_moments":["lunch stop","dinner stop"],"practical_note":"Address and direct map link are available for easy turn-by-turn access.","nearby_walkable_count":10,"nearby_count_2km":100,"confidence":0.98},"areaContext":{"slug":"chalandri","name":"Chalandri","nameEl":"Χαλάνδρι"},"intentContexts":[{"href":"/greek-restaurants/chalandri","label":"Greek Restaurants in Chalandri","categorySlug":"greek-restaurants","categoryName":"Greek Restaurants","areaSlug":"chalandri","areaName":"Chalandri","areaNameEl":"Χαλάνδρι"}]},"__N_SSG":true}