{"pageProps":{"entity":{"id":"cheapEatsRestaurants_11ca527f21ff","slug":"story-streat-11ca","kind":"restaurant","name":"Story Streat","lat":37.99310908999883,"lng":23.678421408504626,"url":"https://maps.app.goo.gl/qwnqmZVR9fGMGk1GA?g_st=ipc","address":"Θηβών 395, Αιγάλεω 122 42","categoryIds":["cheap-eats"],"categories":["Gyros & Cheap Eats"]},"sameCategory":[{"id":"cheapEatsRestaurants_507a873fe8bb","slug":"kuke-feel-conocido-507a","kind":"restaurant","name":"KUKE feel conocido","lat":37.991254650701244,"lng":23.678569756355024,"url":"https://maps.app.goo.gl/YPqbR69SY4YBXH98A?g_st=ipc","address":"Μαρκ. Μπότσαρη 12, Αιγάλεω 122 41","categoryIds":["cheap-eats"],"categories":["Gyros & Cheap Eats"]},{"id":"cheapEatsRestaurants_e88cecd313d4","slug":"kempatzidiko-o-nikos-e88c","kind":"restaurant","name":"Κεμπατζίδικο ο Νίκος","lat":37.99463818746986,"lng":23.672052339400672,"url":"https://maps.app.goo.gl/aSgB8uZ7Vn2JHks67?g_st=ipc","address":"Πλ. Δαβάκη 2, Αιγάλεω 122 44","categoryIds":["cheap-eats"],"categories":["Gyros & Cheap Eats"]},{"id":"cheapEatsRestaurants_ff6ed582468d","slug":"kantina-mpoylis-ff6e","kind":"restaurant","name":"Καντίνα Μπούλης","lat":37.99687794724643,"lng":23.669076776828845,"url":"https://maps.app.goo.gl/xe2rY6uCMrsoqN6Z6?g_st=ipc","address":"Δελφών 1, Αιγάλεω 122 43","categoryIds":["cheap-eats"],"categories":["Gyros & Cheap Eats"]},{"id":"cheapEatsRestaurants_78dd0823b695","slug":"psitopoleio-peloponnisos-psita-soyvlas-thivon-78dd","kind":"restaurant","name":"ΨΗΤΟΠΩΛΕΙΟ ΠΕΛΟΠΟΝΝΗΣΟΣ (ΨΗΤΑ ΣΟΥΒΛΑΣ ΘΗΒΩΝ)","lat":38.00117940953343,"lng":23.684942285189337,"url":"https://maps.app.goo.gl/TuyE1q1NNNhTr3Vo6?g_st=ipc","address":"Θηβών 531, Αιγάλεω 122 43","categoryIds":["cheap-eats"],"categories":["Gyros & Cheap Eats"]},{"id":"cheapEatsRestaurants_85d33bf344bd","slug":"psistaria-mparmpa-q-85d3","kind":"restaurant","name":"Ψησταριά ΜΠΑΡΜΠΑ-Q","lat":38.00370912884522,"lng":23.671659527057734,"url":"https://maps.app.goo.gl/hUJucEmJmMyQKCdo7?g_st=ipc","address":"Ηρακλείτου 68, Αιγάλεω 122 43","categoryIds":["cheap-eats"],"categories":["Gyros & Cheap Eats"]},{"id":"cheapEatsRestaurants_50faa8efdb7a","slug":"alexandrino-50fa","kind":"restaurant","name":"Αλεξανδρινό","lat":37.988352964195414,"lng":23.66083903239818,"url":"https://maps.app.goo.gl/29w8wVCTHrf1eEoi7?g_st=ipc","address":"143, Λεωφ. Μεγ. Αλεξάνδρου 141, Αγ. Βαρβάρα 123 51","categoryIds":["cheap-eats"],"categories":["Gyros & Cheap Eats"]},{"id":"cheapEatsRestaurants_5adc759d28ee","slug":"soyvlatzidiko-makedonas-5adc","kind":"restaurant","name":"ΣΟΥΒΛΑΤΖΙΔΙΚΟ ΜΑΚΕΔΟΝΑΣ","lat":37.98418614658137,"lng":23.66055565137486,"url":"https://maps.app.goo.gl/GywP2se78BN7JkRc8?g_st=ipc","address":"Γ. Γεννηματα 52, Αγ. Βαρβάρα 123 51","categoryIds":["cheap-eats"],"categories":["Gyros & Cheap Eats"]},{"id":"cheapEatsRestaurants_0640e4f8d480","slug":"o-saltsas-0640","kind":"restaurant","name":"Ο Σάλτσας","lat":38.00504433316188,"lng":23.6944140076251,"url":"https://maps.app.goo.gl/FvTc2tgDrzPX1PFX7?g_st=ipc","address":"Σοφοκλή Βενιζέλου 50, Περιστέρι 121 34","categoryIds":["cheap-eats"],"categories":["Gyros & Cheap Eats"]},{"id":"cheapEatsRestaurants_eb9e5b7b1e69","slug":"nostimies-eb9e","kind":"restaurant","name":"Νοστιμιές","lat":38.006695342963845,"lng":23.664393083804136,"url":"https://maps.app.goo.gl/dWSfhPqcebsnfQNf9?g_st=ipc","address":"Γεωργίου Καραϊσκάκη 73 & Σάμου, Χαϊδάρι 124 61","categoryIds":["cheap-eats"],"categories":["Gyros & Cheap Eats"]},{"id":"cheapEatsRestaurants_194354552c25","slug":"toy-savvidi-1943","kind":"restaurant","name":"Του... Σαββίδη","lat":37.98532436234628,"lng":23.65728485284073,"url":"https://maps.app.goo.gl/NoNkrUm2DjN83eAw7?g_st=ipc","address":"Λεωφ. Ελ. Βενιζέλου 158, Αγ. Βαρβάρα 123 51","categoryIds":["cheap-eats"],"categories":["Gyros & Cheap Eats"]},{"id":"cheapEatsRestaurants_e447034a05ff","slug":"o-oraios-tis-geitonias-ovelistirio-e447","kind":"restaurant","name":"Ο ΩΡΑΙΟΣ ΤΗΣ ΓΕΙΤΟΝΙΑΣ ΟΒΕΛΙΣΤΗΡΙΟ","lat":38.01006375373495,"lng":23.6881134895059,"url":"https://maps.app.goo.gl/MTNygxiVF9e3viYE9?g_st=ipc","address":"Θηβών 119, Περιστέρι 121 36","categoryIds":["cheap-eats"],"categories":["Gyros & Cheap Eats"]},{"id":"cheapEatsRestaurants_f4852478be70","slug":"kantina-mpilis-f485","kind":"restaurant","name":"Καντίνα Μπίλης","lat":38.01164780075542,"lng":23.6884871707283,"url":"https://maps.app.goo.gl/CHy9bu3k15qybj71A?g_st=ipc","address":"Πελασγίας 7, Περιστέρι 121 31","categoryIds":["cheap-eats"],"categories":["Gyros & Cheap Eats"]}],"nearby":[{"id":"coffeeBrunchRestaurants_0d51f4763466","slug":"kafeteria-qahwa-0d51","kind":"restaurant","name":"Καφετέρια \"Qahwa\"","lat":37.99158829780308,"lng":23.678085829142972,"url":"https://maps.app.goo.gl/TbdwQmd1xnGniKgk8?g_st=ipc","address":"Μαρκ. Μπότσαρη 1, Αιγάλεω 122 41","categoryIds":["coffee-brunch"],"categories":["Coffee & Brunch Spots"],"distanceKm":0.17164233016607233},{"id":"cheapEatsRestaurants_507a873fe8bb","slug":"kuke-feel-conocido-507a","kind":"restaurant","name":"KUKE feel conocido","lat":37.991254650701244,"lng":23.678569756355024,"url":"https://maps.app.goo.gl/YPqbR69SY4YBXH98A?g_st=ipc","address":"Μαρκ. Μπότσαρη 12, Αιγάλεω 122 41","categoryIds":["cheap-eats"],"categories":["Gyros & Cheap Eats"],"distanceKm":0.20661362564651},{"id":"greekRestaurants_7ac3119d5e13","slug":"meze-meze-7ac3","kind":"restaurant","name":"Meze Meze","lat":37.991476631105556,"lng":23.679783507694246,"url":"https://maps.app.goo.gl/w2k4XzSbicFJD4K48","address":"Γρ. Κυδωνιών 10, Αιγάλεω 122 41","categoryIds":["greek-restaurants"],"categories":["Greek Restaurants"],"distanceKm":0.21725001290725648},{"id":"greekRestaurants_5f1c7c67f828","slug":"remeze-5f1c","kind":"restaurant","name":"Ρεμεζέ","lat":37.99150355248482,"lng":23.676971347564844,"url":"https://maps.app.goo.gl/XpGuqMmfj7kNQaD17","address":"Αγίας Λαύρας 14, Αιγάλεω 122 42","categoryIds":["greek-restaurants"],"categories":["Greek Restaurants"],"distanceKm":0.21913314828206354},{"id":"dessertsRestaurants_0236d86220bb","slug":"zacharoplasteio-fouad-glyka-anatolis-0236","kind":"restaurant","name":"Ζαχαροπλαστείο Fouad Γλυκά Ανατολής","lat":37.99152497419196,"lng":23.67649706519698,"url":"https://maps.app.goo.gl/BtnzzxhnjQsHc3Ve9?g_st=ipc","address":"25ης Μαρτίου 18Α, Αιγάλεω 122 44","categoryIds":["desserts"],"categories":["Dessert Shops"],"distanceKm":0.24385388166549843},{"id":"dessertsRestaurants_cb5513dd463f","slug":"galaktopoleio-stamoy-aigaleo-cb55","kind":"restaurant","name":"Γαλακτοπωλείο ΣΤΑΜΟΥ, Αιγάλεω","lat":37.990343839092134,"lng":23.676707151969765,"url":"https://maps.app.goo.gl/E7heRXWnWQRCBv4S7?g_st=ipc","address":"Θηβών 359, Αιγάλεω 122 44","categoryIds":["desserts"],"categories":["Dessert Shops"],"distanceKm":0.3422172140259713},{"id":"dessertsRestaurants_ba6234463276","slug":"maron-ba62","kind":"restaurant","name":"Μαρόν","lat":37.99449617488293,"lng":23.67314837817293,"url":"https://maps.app.goo.gl/V3oLNwTqi4An5qFb8?g_st=ipc","address":"Ιερά Οδός 287, Αιγάλεω 122 44","categoryIds":["desserts"],"categories":["Dessert Shops"],"distanceKm":0.48713846159554414},{"id":"coffeeBrunchRestaurants_44bd3c6a7140","slug":"theoria-tou-house-44bd","kind":"restaurant","name":"Theoria Tou House","lat":37.99483558716702,"lng":23.67242611231958,"url":"https://maps.app.goo.gl/xJYXm4QXBt9wx7wx5?g_st=ipc","address":"Πλ. Δαβάκη 1, Αιγάλεω 122 44","categoryIds":["coffee-brunch","desserts"],"categories":["Coffee & Brunch Spots","Dessert Shops"],"legacySlugs":["theoria-tou-house-74b7"],"distanceKm":0.5593449507343892},{"id":"cheapEatsRestaurants_e88cecd313d4","slug":"kempatzidiko-o-nikos-e88c","kind":"restaurant","name":"Κεμπατζίδικο ο Νίκος","lat":37.99463818746986,"lng":23.672052339400672,"url":"https://maps.app.goo.gl/aSgB8uZ7Vn2JHks67?g_st=ipc","address":"Πλ. Δαβάκη 2, Αιγάλεω 122 44","categoryIds":["cheap-eats"],"categories":["Gyros & Cheap Eats"],"distanceKm":0.5834466144772061},{"id":"cheapEatsRestaurants_ff6ed582468d","slug":"kantina-mpoylis-ff6e","kind":"restaurant","name":"Καντίνα Μπούλης","lat":37.99687794724643,"lng":23.669076776828845,"url":"https://maps.app.goo.gl/xe2rY6uCMrsoqN6Z6?g_st=ipc","address":"Δελφών 1, Αιγάλεω 122 43","categoryIds":["cheap-eats"],"categories":["Gyros & Cheap Eats"],"distanceKm":0.9198672319324034},{"id":"cheapEatsRestaurants_78dd0823b695","slug":"psitopoleio-peloponnisos-psita-soyvlas-thivon-78dd","kind":"restaurant","name":"ΨΗΤΟΠΩΛΕΙΟ ΠΕΛΟΠΟΝΝΗΣΟΣ (ΨΗΤΑ ΣΟΥΒΛΑΣ ΘΗΒΩΝ)","lat":38.00117940953343,"lng":23.684942285189337,"url":"https://maps.app.goo.gl/TuyE1q1NNNhTr3Vo6?g_st=ipc","address":"Θηβών 531, Αιγάλεω 122 43","categoryIds":["cheap-eats"],"categories":["Gyros & Cheap Eats"],"distanceKm":1.0638542934452861},{"id":"dessertsRestaurants_785eeca94828","slug":"zacharoplasteia-kosmikon-ag-marina-iera-odos-335-785e","kind":"restaurant","name":"ΖΑΧΑΡΟΠΛΑΣΤΕΙΑ ΚΟΣΜΙΚΟΝ ΑΓ.ΜΑΡΙΝΑ ΙΕΡΑ ΟΔΟΣ 335","lat":37.997674954706554,"lng":23.667015535582053,"url":"https://maps.app.goo.gl/dYPUKHVLHxCx5BKd6?g_st=ipc","address":"Ιερά Οδός 335, Αγ. Βαρβάρα 123 51","categoryIds":["desserts"],"categories":["Dessert Shops"],"distanceKm":1.1210330738532857},{"id":"coffeeBrunchRestaurants_56346e942815","slug":"qahwa-roastery-5634","kind":"restaurant","name":"Qahwa Roastery","lat":38.00443805181344,"lng":23.67683735104457,"url":"https://maps.app.goo.gl/iwKrvWdDuhAmB8YHA?g_st=ipc","address":"Αγίου Σπυρίδωνος 48, Αιγάλεω 122 43","categoryIds":["coffee-brunch"],"categories":["Coffee & Brunch Spots"],"distanceKm":1.2673469104579105},{"id":"cheapEatsRestaurants_85d33bf344bd","slug":"psistaria-mparmpa-q-85d3","kind":"restaurant","name":"Ψησταριά ΜΠΑΡΜΠΑ-Q","lat":38.00370912884522,"lng":23.671659527057734,"url":"https://maps.app.goo.gl/hUJucEmJmMyQKCdo7?g_st=ipc","address":"Ηρακλείτου 68, Αιγάλεω 122 43","categoryIds":["cheap-eats"],"categories":["Gyros & Cheap Eats"],"distanceKm":1.3192155873273328},{"id":"dessertsRestaurants_2d68be5dbeef","slug":"cinnabon-river-west-2d68","kind":"restaurant","name":"Cinnabon River West","lat":37.98076958767386,"lng":23.67777033031343,"url":"https://maps.app.goo.gl/iys8A2TDdunHPN1i8?g_st=ic","address":"Par. Leoforou Kifisou 96-98, Egaleo 122 41","categoryIds":["desserts"],"categories":["Dessert Shops"],"distanceKm":1.3732759745765681},{"id":"familyFriendly_98c2e7261cb9","slug":"river-west-98c2","kind":"restaurant","name":"RΙVER WEST","lat":37.98032396745312,"lng":23.679187542082428,"url":"https://maps.app.goo.gl/f3b5sDipJZCcLSLC7?g_st=ipc","address":"Par. Leoforou Kifisou 98, Egaleo 122 41","categoryIds":["family-friendly"],"categories":["Kid Friendly Locations"],"distanceKm":1.4232254330069845},{"id":"coffeeBrunchRestaurants_639c2aabee9d","slug":"qahwa-chaidari-639c","kind":"restaurant","name":"Qahwa Chaidari","lat":38.00126380773835,"lng":23.663252642859884,"url":"https://maps.app.goo.gl/vAwUeBwjnVB6oM6A7?g_st=ipc","address":"Στρ. Καραϊσκάκη 12, Χαϊδάρι 124 61","categoryIds":["coffee-brunch"],"categories":["Coffee & Brunch Spots"],"distanceKm":1.6090185947943931},{"id":"cheapEatsRestaurants_50faa8efdb7a","slug":"alexandrino-50fa","kind":"restaurant","name":"Αλεξανδρινό","lat":37.988352964195414,"lng":23.66083903239818,"url":"https://maps.app.goo.gl/29w8wVCTHrf1eEoi7?g_st=ipc","address":"143, Λεωφ. Μεγ. Αλεξάνδρου 141, Αγ. Βαρβάρα 123 51","categoryIds":["cheap-eats"],"categories":["Gyros & Cheap Eats"],"distanceKm":1.6290458689343628},{"id":"greekRestaurants_b6bacb590b9a","slug":"to-yiasemi-food-wine-experience-b6ba","kind":"restaurant","name":"To Yiasemi Food & Wine Experience","lat":38.00142234618658,"lng":23.662754824513232,"url":"https://maps.app.goo.gl/72YzkYeb6xxkDt68A","address":"Στρ. Καραϊσκάκη 1, Β, Χαϊδάρι 124 61","categoryIds":["greek-restaurants"],"categories":["Greek Restaurants"],"distanceKm":1.6550176028262196},{"id":"greekRestaurants_2f9a21e4ef01","slug":"pesto-ki-egine-2f9a","kind":"restaurant","name":"Πέστο Κι Έγινε","lat":38.00286560260897,"lng":23.663110435533067,"url":"https://maps.app.goo.gl/xWbZXEXeN5pg16TG9","address":"Στρ. Καραϊσκάκη 17, Χαϊδάρι 124 61","categoryIds":["greek-restaurants"],"categories":["Greek Restaurants"],"distanceKm":1.7253742805469359},{"id":"greekRestaurants_741518abaa86","slug":"the-meaters-urban-beer-garden-7415","kind":"restaurant","name":"The Meaters Urban Beer Garden","lat":38.003598614109904,"lng":23.66346778642219,"url":"https://maps.app.goo.gl/zrm7vsMu18rMsZFJA","address":"Στρ. Καραϊσκάκη 25, Χαϊδάρι 124 61","categoryIds":["greek-restaurants"],"categories":["Greek Restaurants"],"distanceKm":1.7542384922422034},{"id":"familyFriendly_bfc72d329d31","slug":"hado-agia-varvara-bfc7","kind":"restaurant","name":"HADO AGIA VARVARA","lat":37.98824441492673,"lng":23.659086481003886,"url":"https://maps.app.goo.gl/aP4Lewjodvss5zHY9?g_st=ipc","address":"Λεωφ. Ελ. Βενιζέλου 73, Αγ. Βαρβάρα 123 51","categoryIds":["family-friendly"],"categories":["Kid Friendly Locations"],"distanceKm":1.7786453721363464},{"id":"italianRestaurants_2e4b8b331a1f","slug":"trattoria-casa-bianca-2e4b","kind":"restaurant","name":"Trattoria Casa Bianca","lat":38.004704945340144,"lng":23.664059272009183,"url":"https://maps.app.goo.gl/akcP8bTGNqFh27cR9?g_st=ipc","address":"Στρ. Καραϊσκάκη 43, Χαϊδάρι 124 61","categoryIds":["italian"],"categories":["Italian Restaurants"],"distanceKm":1.8017486376375031},{"id":"mexicanRestaurants_4fd2b517e59f","slug":"chicos-tequileria-mexicana-4fd2","kind":"restaurant","name":"Chicos Tequileria Mexicana","lat":38.00505726765837,"lng":23.664098826548518,"url":"https://maps.app.goo.gl/EqAGEAoJuRooejLJA?g_st=ipc","address":"Στρ. Καραϊσκάκη 49, Χαϊδάρι 124 61","categoryIds":["mexican"],"categories":["Mexican Restaurants"],"distanceKm":1.8276055700833354}],"mentionedGuides":[],"canonicalSlug":"story-streat-11ca","enrichment":{"summary_en":"Story Streat is a curated restaurant in Αιγάλεω 122 42 in the Gyros & Cheap Eats collection. It is connected to 9 nearby Googlementor picks to help travelers build a stronger local route.","summary_el":"Story Streat είναι ένα επιλεγμένο σημείο φαγητού στην περιοχή Αιγάλεω 122 42 και ανήκει στη συλλογή Gyros & Cheap Eats. Συνδέεται με 9 κοντινές προτάσεις του Googlementor για πιο ολοκληρωμένη εμπειρία.","vibe_tags":["curated","budget-friendly"],"best_for":["first-time visitors","food lovers","budget travelers"],"visit_moments":["lunch stop","dinner stop"],"practical_note":"Address and direct map link are available for easy turn-by-turn access.","nearby_walkable_count":9,"nearby_count_2km":32,"confidence":0.98},"areaContext":{"slug":"agia-varvara","name":"Agia Varvara","nameEl":"Αγία Βαρβάρα"},"intentContexts":[{"href":"/cheap-eats/agia-varvara","label":"Gyros & Cheap Eats in Agia Varvara","categorySlug":"cheap-eats","categoryName":"Gyros & Cheap Eats","areaSlug":"agia-varvara","areaName":"Agia Varvara","areaNameEl":"Αγία Βαρβάρα"}]},"__N_SSG":true}