{"pageProps":{"entity":{"id":"burgersRestaurants_73788d5c5e26","slug":"street-habit-burgers-sandwiches-7378","kind":"restaurant","name":"Street Habit Burgers & Sandwiches","lat":37.982308190228395,"lng":23.718935233979323,"url":"https://maps.app.goo.gl/ypf3MAMpnquGQSrr6?g_st=ipc","address":"Λεωνίδου 41, Μαραθώνος 20, Αθήνα 104 36","categoryIds":["burgers"],"categories":["Burger Spots"]},"sameCategory":[{"id":"burgersRestaurants_96fe4c6a69f2","slug":"stivs-a-e-kerameikos-champoyrgker-pitses-96fe","kind":"restaurant","name":"ΣΤΗΒΣ Α.Ε. Κεραμεικός - ΧΑΜΠΟΥΡΓΚΕΡ & ΠΙΤΣΕΣ","lat":37.981862507718745,"lng":23.71676727771988,"url":"https://maps.app.goo.gl/dfoGjBoXnHtHAokj9?g_st=ipc","address":"Σαλαμίνος 42, Αθήνα 104 35","categoryIds":["burgers","italian"],"categories":["Burger Spots","Italian Restaurants"],"legacySlugs":["stivs-a-e-kerameikos-champoyrgker-pitses-7e62"]},{"id":"burgersRestaurants_cc99e8bcfb01","slug":"ortsag-nextgen-street-resto-cc99","kind":"restaurant","name":"ORTSAG - NextGen Street Resto","lat":37.980720186478266,"lng":23.716880146435926,"url":"https://maps.app.goo.gl/Ty754KFyBeh5iYD99?g_st=ipc","address":"Κεραμεικού 93-95, Αθήνα 104 35","categoryIds":["burgers"],"categories":["Burger Spots"]},{"id":"burgersRestaurants_6bb98587ed95","slug":"four-hands-6bb9","kind":"restaurant","name":"Four Hands","lat":37.98010264048048,"lng":23.71572330295299,"url":"https://maps.app.goo.gl/ppbxAjV7hVEDbZiV7?g_st=ipc","address":"Κεραμεικού 111, Αθήνα 104 35","categoryIds":["burgers"],"categories":["Burger Spots"]},{"id":"burgersRestaurants_09af19b27a7c","slug":"po-boys-bbq-09af","kind":"restaurant","name":"PO'BOYS BBQ","lat":37.97837875741083,"lng":23.723280392822467,"url":"https://maps.app.goo.gl/j39YQoSzREu8gQk77?g_st=ipc","address":"Agatharchou 12 &, Λεπενιώτου, Αθήνα 105 54","categoryIds":["burgers"],"categories":["Burger Spots"]},{"id":"burgersRestaurants_de31086328e0","slug":"balboa-athens-de31","kind":"restaurant","name":"Balboa Athens","lat":37.977044741999016,"lng":23.724391193177723,"url":"https://maps.app.goo.gl/xqbjAq65izWtnBT18?g_st=ipc","address":"Αρτέμιδος 1-3, Αθήνα 105 54","categoryIds":["burgers"],"categories":["Burger Spots"]},{"id":"burgersRestaurants_d55e3b1fc4f6","slug":"one-burger-d55e","kind":"restaurant","name":"ONE BURGER","lat":37.97831953861062,"lng":23.727493287060057,"url":"https://maps.app.goo.gl/N76y7HGoU6TuZHcW8?g_st=ipc","address":"Αγάθωνος 7, Αθήνα 105 51","categoryIds":["burgers"],"categories":["Burger Spots"]},{"id":"burgersRestaurants_ca036ca42e3f","slug":"pax-burgers-ca03","kind":"restaurant","name":"Pax burgers","lat":37.97692157366875,"lng":23.727728305189554,"url":"https://maps.app.goo.gl/w3oRJbpwaMiNHFW39?g_st=ipc","address":"Αιόλου 34, Αθήνα 105 63","categoryIds":["burgers"],"categories":["Burger Spots"]},{"id":"burgersRestaurants_7e2f237c9f2e","slug":"juicygrill-athens-downtown-7e2f","kind":"restaurant","name":"juicygrill_Athens (downtown)","lat":37.97921135341064,"lng":23.730357458956963,"url":"https://maps.app.goo.gl/Nb6on5D2zYtdFLqw7?g_st=ipc","address":"Παλαιών Πατρών Γερμανού 7, Αθήνα 105 61","categoryIds":["burgers"],"categories":["Burger Spots"]},{"id":"burgersRestaurants_594f0da03951","slug":"the-smashers-athens-594f","kind":"restaurant","name":"The Smashers Athens","lat":37.976855263908405,"lng":23.728850035341498,"url":"https://maps.app.goo.gl/eZb9zRu5ZEKX8jLZ6?g_st=ipc","address":"Καλαμιώτου 7, Αθήνα 105 63","categoryIds":["burgers"],"categories":["Burger Spots"]},{"id":"burgersRestaurants_7c6e8e764472","slug":"the-smashers-athens-7c6e","kind":"restaurant","name":"The Smashers Athens","lat":37.97685470027012,"lng":23.728849657560023,"url":"https://maps.app.goo.gl/uKyi2SUBZv1EWPoV7?g_st=ic","address":"Kalamiotou 7, Athina 105 63","categoryIds":["burgers"],"categories":["Burger Spots"]},{"id":"burgersRestaurants_72777d81b2c1","slug":"cadillac-burgers-7277","kind":"restaurant","name":"Cadillac Burgers","lat":37.97549144814891,"lng":23.728731411277973,"url":"https://maps.app.goo.gl/tbzr2ePrf29seJBFA?g_st=ipc","address":"Μνησικλέους 6, Αθήνα 105 56","categoryIds":["burgers"],"categories":["Burger Spots"]},{"id":"burgersRestaurants_f300f2c4a7ef","slug":"starlight-burgers-f300","kind":"restaurant","name":"Starlight Burgers","lat":37.97768708628673,"lng":23.730973383072776,"url":"https://maps.app.goo.gl/tRpSe3harTyJVBVg7?g_st=ipc","address":"Πραξιτέλους 1, Αθήνα 105 62","categoryIds":["burgers"],"categories":["Burger Spots"]}],"nearby":[{"id":"greekRestaurants_6dad5c0e5b55","slug":"to-aygo-toy-kokkora-6dad","kind":"restaurant","name":"Το Αυγό Του Κόκκορα","lat":37.98270365301358,"lng":23.719206888648312,"url":"https://maps.app.goo.gl/iKbPmGsQDpnYazKs9","address":"Λεωνίδου 46, Αθήνα 104 36","categoryIds":["greek-restaurants"],"categories":["Greek Restaurants"],"distanceKm":0.050005246271339614},{"id":"greekRestaurants_8c5628ce57f7","slug":"seychelles-8c56","kind":"restaurant","name":"Σεϋχέλλες","lat":37.9823149491854,"lng":23.720253813195804,"url":"https://maps.app.goo.gl/iUj8NxtUsYKhihFV9","address":"Κεραμεικού 49, Αθήνα 104 36","categoryIds":["greek-restaurants"],"categories":["Greek Restaurants"],"distanceKm":0.11556790617251739},{"id":"cheapEatsRestaurants_ee7a3b30b5dc","slug":"galiantra-ee7a","kind":"restaurant","name":"Γαλιάντρα","lat":37.982766279881204,"lng":23.72018754800204,"url":"https://maps.app.goo.gl/WkvoPR33PQyg4HdDA?g_st=ipc","address":"Γιατράκου 4, Αθήνα 104 36","categoryIds":["cheap-eats"],"categories":["Gyros & Cheap Eats"],"distanceKm":0.1210011821153965},{"id":"mexicanRestaurants_624c5c1ab8d8","slug":"mentirosa-tacos-cocktails-624c","kind":"restaurant","name":"Mentirosa - Tacos & Cocktails","lat":37.982550988441936,"lng":23.717503924756294,"url":"https://maps.app.goo.gl/1xXknD2jtrEpodcR7?g_st=ipc","address":"Θερμοπυλών 41, Αθήνα 104 35","categoryIds":["mexican"],"categories":["Mexican Restaurants"],"distanceKm":0.12831767942739583},{"id":"luxuryDiningRestaurants_67ad308e6455","slug":"aleria-restaurant-67ad","kind":"restaurant","name":"Aleria Restaurant","lat":37.983083255227115,"lng":23.717769708530103,"url":"https://maps.app.goo.gl/4upFvmVgdSbUxB7F8?g_st=ipc","address":"Μεγ. Αλεξάνδρου 57, Αθήνα 104 35","categoryIds":["luxury-dining"],"categories":["Luxury Dining"],"distanceKm":0.1336500085213701},{"id":"coffeeBrunchRestaurants_62e18f8f4450","slug":"latraac-skate-cafe-62e1","kind":"restaurant","name":"Latraac Skate Cafe","lat":37.98176220702239,"lng":23.717574996831285,"url":"https://maps.app.goo.gl/J7RDc1cHJeB4hUZC7?g_st=ipc","address":"Λεωνίδου 63-65, Αθήνα 104 35","categoryIds":["coffee-brunch"],"categories":["Coffee & Brunch Spots"],"distanceKm":0.13378512548339147},{"id":"burgersRestaurants_96fe4c6a69f2","slug":"stivs-a-e-kerameikos-champoyrgker-pitses-96fe","kind":"restaurant","name":"ΣΤΗΒΣ Α.Ε. Κεραμεικός - ΧΑΜΠΟΥΡΓΚΕΡ & ΠΙΤΣΕΣ","lat":37.981862507718745,"lng":23.71676727771988,"url":"https://maps.app.goo.gl/dfoGjBoXnHtHAokj9?g_st=ipc","address":"Σαλαμίνος 42, Αθήνα 104 35","categoryIds":["burgers","italian"],"categories":["Burger Spots","Italian Restaurants"],"legacySlugs":["stivs-a-e-kerameikos-champoyrgker-pitses-7e62"],"distanceKm":0.1963652181737144},{"id":"asianRestaurants_d23972f8388f","slug":"noodle-shop-d239","kind":"restaurant","name":"Noodle Shop - 相遇面馆","lat":37.98145210842213,"lng":23.721054788106656,"url":"https://maps.app.goo.gl/Za9q8z3zwF4WhUQs8?g_st=ipc","address":"Ακαδήμου 4, Αθήνα 104 36","categoryIds":["asian"],"categories":["Asian Restaurants"],"distanceKm":0.2087365304769255},{"id":"cheapEatsRestaurants_f6e9355765da","slug":"armando-pizzeria-cafeteria-f6e9","kind":"restaurant","name":"Armando Pizzeria Cafeteria","lat":37.98213236236815,"lng":23.71647213293712,"url":"https://maps.app.goo.gl/X5ofrEqzBi24eigT6?g_st=ipc","address":"Σαλαμίνος 43, Αθήνα 104 35","categoryIds":["cheap-eats","italian"],"categories":["Gyros & Cheap Eats","Italian Restaurants"],"legacySlugs":["armando-pizzeria-cafeteria-53d4"],"distanceKm":0.2167596530685868},{"id":"asianRestaurants_11df834afa0a","slug":"axi-11df","kind":"restaurant","name":"AXI - 阿锡早点","lat":37.98134764148285,"lng":23.721168322095103,"url":"https://maps.app.goo.gl/BQFSgk7VHKmzvjWN9?g_st=ipc","address":"Athens, Greece, Akadimou, 104 36","categoryIds":["asian","cheap-eats"],"categories":["Asian Restaurants","Gyros & Cheap Eats"],"legacySlugs":["axi-8113"],"distanceKm":0.2229651958633499},{"id":"burgersRestaurants_cc99e8bcfb01","slug":"ortsag-nextgen-street-resto-cc99","kind":"restaurant","name":"ORTSAG - NextGen Street Resto","lat":37.980720186478266,"lng":23.716880146435926,"url":"https://maps.app.goo.gl/Ty754KFyBeh5iYD99?g_st=ipc","address":"Κεραμεικού 93-95, Αθήνα 104 35","categoryIds":["burgers"],"categories":["Burger Spots"],"distanceKm":0.25223448406145815},{"id":"greekRestaurants_79d853816a19","slug":"rakor-79d8","kind":"restaurant","name":"Rakor","lat":37.98047740550758,"lng":23.717062587155947,"url":"https://maps.app.goo.gl/eVrzxTMuCzQvAE596","address":"Πλαταιών 10, Αθήνα 104 35","categoryIds":["greek-restaurants"],"categories":["Greek Restaurants"],"distanceKm":0.26149650376138106},{"id":"luxuryDiningRestaurants_79d4330d9768","slug":"osteria-mamma-79d4","kind":"restaurant","name":"Osteria Mamma","lat":37.98294206858995,"lng":23.71602963121187,"url":"https://maps.app.goo.gl/KpcsdbWmQM1rsB9dA?g_st=ipc","address":"Σαλαμίνος 64, Αθήνα 104 35","categoryIds":["luxury-dining"],"categories":["Luxury Dining"],"distanceKm":0.2642316590516511},{"id":"vegetarianRestaurants_5038de25697a","slug":"los-v-vegan-vegetarian-restaurant-5038","kind":"restaurant","name":"Los V - Vegan & Vegetarian Restaurant","lat":37.98154957793841,"lng":23.71604712211994,"url":"https://maps.app.goo.gl/ZWkqdkixRwwqeKq8A?g_st=ipc","address":"Πλαταιών 37, Αθήνα 104 35","categoryIds":["vegetarian"],"categories":["Vegetarian Friendly Restaurants"],"distanceKm":0.26681218342706026},{"id":"luxuryDiningRestaurants_a27bfcd50aac","slug":"ctc-urban-gastronomy-a27b","kind":"restaurant","name":"CTC Urban Gastronomy","lat":37.98049469537203,"lng":23.71689046945663,"url":"https://maps.app.goo.gl/GpnAhWfdMHLu7ZMPA?g_st=ipc","address":"Πλαταιών 15, Αθήνα 104 35","categoryIds":["luxury-dining"],"categories":["Luxury Dining"],"distanceKm":0.2697790714554407},{"id":"italianRestaurants_eda14ce07bd0","slug":"proveleggios-eda1","kind":"restaurant","name":"Proveleggioς","lat":37.98314343701362,"lng":23.716034626731084,"url":"https://maps.app.goo.gl/MitPmZaCFjCBtxr4A?g_st=ipc","address":"Παραμυθίας 11, Αθήνα 104 35","categoryIds":["italian"],"categories":["Italian Restaurants"],"distanceKm":0.2706532736423468},{"id":"italianRestaurants_301b52803ea0","slug":"amante-athens-301b","kind":"restaurant","name":"Amante Athens","lat":37.983114932894274,"lng":23.7159682164575,"url":"https://maps.app.goo.gl/9Zg1mEJh6x2SjrNx6?g_st=ipc","address":"Παραμυθίας 13, Αθήνα 104 35","categoryIds":["italian"],"categories":["Italian Restaurants"],"distanceKm":0.2750776845794303},{"id":"vegetarianRestaurants_92b90dbde5a4","slug":"veganistan-92b9","kind":"restaurant","name":"Veganistan","lat":37.980551028763045,"lng":23.716428370276027,"url":"https://maps.app.goo.gl/hviT1v1LXcBDpknS6?g_st=ipc","address":"Κεραμεικού 101, Αθήνα 104 35","categoryIds":["vegetarian"],"categories":["Vegetarian Friendly Restaurants"],"distanceKm":0.29402466542351224},{"id":"coffeeBrunchRestaurants_427065b8cb6b","slug":"okupa-kitchen-listening-bar-4270","kind":"restaurant","name":"Okupa Kitchen & Listening Bar","lat":37.979629344397615,"lng":23.720723846557707,"url":"https://maps.app.goo.gl/qmz7mBRbaa6QhTDd8?g_st=ipc","address":"Σαμουήλ Καλογήρου 3, Αθήνα 105 53","categoryIds":["coffee-brunch"],"categories":["Coffee & Brunch Spots"],"distanceKm":0.3366064165707969},{"id":"greekRestaurants_280ac53a773c","slug":"mironi-restaurant-greek-kitchen-280a","kind":"restaurant","name":"MIRONI Restaurant - Greek Kitchen","lat":37.98465016325456,"lng":23.72140702973958,"url":"https://maps.app.goo.gl/5WVbqoo2mBUmdX2z6?g_st=ipc","address":"Meg. Alexandrou 7, Athina 104 37","categoryIds":["greek-restaurants"],"categories":["Greek Restaurants"],"distanceKm":0.33874285899992485},{"id":"greekRestaurants_1b0710fd0635","slug":"loyis-kafeneio-1b07","kind":"restaurant","name":"Λούης καφενείο","lat":37.98085946462118,"lng":23.71532632472864,"url":"https://maps.app.goo.gl/HykcqWbVLkwR9HqJ7","address":"Λεωνίδου 87, Αθήνα 104 35","categoryIds":["greek-restaurants"],"categories":["Greek Restaurants"],"distanceKm":0.3549610142216563},{"id":"asianRestaurants_f31c7fe7455a","slug":"168-bar-f31c","kind":"restaurant","name":"168 Bar","lat":37.97952828529781,"lng":23.72107861467235,"url":"https://maps.app.goo.gl/kfZE6p7Ddwomz7Zd9?g_st=ipc","address":"Διπύλου 6, Αθήνα 105 53","categoryIds":["asian"],"categories":["Asian Restaurants"],"distanceKm":0.361718662359447},{"id":"cheapEatsRestaurants_9273dc402e3b","slug":"piccola-9273","kind":"restaurant","name":"Piccola","lat":37.980127892484575,"lng":23.715865229557284,"url":"https://maps.app.goo.gl/MuZFA3dXT4LnZFtL7?g_st=ipc","address":"Keramikou 111, Athina 104 35","categoryIds":["cheap-eats"],"categories":["Gyros & Cheap Eats"],"distanceKm":0.362181651048761},{"id":"burgersRestaurants_6bb98587ed95","slug":"four-hands-6bb9","kind":"restaurant","name":"Four Hands","lat":37.98010264048048,"lng":23.71572330295299,"url":"https://maps.app.goo.gl/ppbxAjV7hVEDbZiV7?g_st=ipc","address":"Κεραμεικού 111, Αθήνα 104 35","categoryIds":["burgers"],"categories":["Burger Spots"],"distanceKm":0.3733546995083589}],"mentionedGuides":[],"canonicalSlug":"street-habit-burgers-sandwiches-7378","enrichment":{"summary_en":"Street Habit Burgers & Sandwiches is a curated restaurant in Αθήνα 104 36 in the Burger Spots collection. It is connected to 117 nearby Googlementor picks to help travelers build a stronger local route.","summary_el":"Street Habit Burgers & Sandwiches είναι ένα επιλεγμένο σημείο φαγητού στην περιοχή Αθήνα 104 36 και ανήκει στη συλλογή Burger Spots. Συνδέεται με 117 κοντινές προτάσεις του Googlementor για πιο ολοκληρωμένη εμπειρία.","vibe_tags":["curated"],"best_for":["first-time visitors","food lovers"],"visit_moments":["lunch stop","dinner stop"],"practical_note":"Address and direct map link are available for easy turn-by-turn access.","nearby_walkable_count":117,"nearby_count_2km":523,"confidence":0.98},"areaContext":{"slug":"metaxoyrgeio","name":"Metaxourgeio","nameEl":"Μεταξουργείο"},"intentContexts":[{"href":"/burgers/metaxoyrgeio","label":"Burger Spots in Metaxourgeio","categorySlug":"burgers","categoryName":"Burger Spots","areaSlug":"metaxoyrgeio","areaName":"Metaxourgeio","areaNameEl":"Μεταξουργείο"}]},"__N_SSG":true}