{"pageProps":{"entity":{"id":"asianRestaurants_4caa87d6e139","slug":"sushaki-greek-sushi-experience-4caa","kind":"restaurant","name":"Sushaki | Greek Sushi Experience","lat":40.650072445284856,"lng":22.958835229549017,"url":"https://maps.app.goo.gl/5vFVT9HMbgmQ6Erc6","address":"Eptapirgiou 75, Sikies 566 26","categoryIds":["asian"],"categories":["Asian Restaurants"]},"sameCategory":[{"id":"asianRestaurants_694015c62c4a","slug":"asian-house-6940","kind":"restaurant","name":"Asian House","lat":40.63703399499959,"lng":22.939883592923085,"url":"https://maps.app.goo.gl/uTVSPYHZ31yXdaY57?g_st=ipc","address":"Καποδιστρίου 7 &, Paikou, Thessaloniki 546 25","categoryIds":["asian"],"categories":["Asian Restaurants"]},{"id":"asianRestaurants_5ace71fa56ea","slug":"ramen-tales-5ace","kind":"restaurant","name":"Ramen Tales","lat":40.63194421660545,"lng":22.948458874656616,"url":"https://maps.app.goo.gl/3FZQEKYHJjXKCNKcA?g_st=ipc","address":"Al. Svolou 16, Thessaloniki 546 22","categoryIds":["asian"],"categories":["Asian Restaurants"]},{"id":"asianRestaurants_aa56878cf133","slug":"nagomi-jpn-aa56","kind":"restaurant","name":"Nagomi Jpn","lat":40.63061239454344,"lng":22.951225233616498,"url":"https://maps.app.goo.gl/8UyTpuy2ncGK15GJ6?g_st=ic","address":"Al. Svolou 41, Thessaloniki 546 22","categoryIds":["asian","desserts"],"categories":["Asian Restaurants","Dessert Shops"],"legacySlugs":["nagomi-jpn-eccd"]},{"id":"asianRestaurants_8419e93bcb2d","slug":"ikigai-the-dumpling-experience-8419","kind":"restaurant","name":"Ikigai - The Dumpling Experience","lat":40.637093410026516,"lng":22.93763984161015,"url":"https://maps.app.goo.gl/zEYfCsMm5fXf8Dd78?g_st=ipc","address":"Veroias 5, Thessaloniki 546 25","categoryIds":["asian"],"categories":["Asian Restaurants"]},{"id":"asianRestaurants_41c1b197a672","slug":"wen-zhou-specialties-41c1","kind":"restaurant","name":"Wen Zhou Specialties","lat":40.63090950249029,"lng":22.94800772208168,"url":"https://maps.app.goo.gl/6cq2gTB2UTEdBKux5?g_st=ipc","address":"Grigoriou Palama 16, Thessaloniki 546 22","categoryIds":["asian"],"categories":["Asian Restaurants"]},{"id":"asianRestaurants_7b20ac80bba4","slug":"hanaya-sushi-7b20","kind":"restaurant","name":"Hanaya Sushi","lat":40.6345384090758,"lng":22.93892478438703,"url":"https://maps.app.goo.gl/QoHkvVMWp7YGca2T8?g_st=ipc","address":"Rogkoti 4, Thessaloniki 546 24 (Bourla-Levi Building)","categoryIds":["asian"],"categories":["Asian Restaurants"]},{"id":"asianRestaurants_829415263030","slug":"mongo-asian-food-8294","kind":"restaurant","name":"Mongo Asian Food","lat":40.63082745054034,"lng":22.945340872957278,"url":"https://maps.app.goo.gl/sb6JL78bVoxjZHir9","address":"John Kouskoura 6, Thessaloniki 546 22","categoryIds":["asian"],"categories":["Asian Restaurants"]},{"id":"asianRestaurants_169207d89dbd","slug":"sushi-city-1692","kind":"restaurant","name":"Sushi City","lat":40.633479553417104,"lng":22.939350429758118,"url":"https://maps.app.goo.gl/zBAUew3tfQKdJ3yX9","address":"Kalapothaki 7, Thessaloniki 546 45","categoryIds":["asian"],"categories":["Asian Restaurants"]},{"id":"asianRestaurants_50e903fa0513","slug":"empire-sushi-bar-50e9","kind":"restaurant","name":"Εmpire Sushi Bar","lat":40.63454338249302,"lng":22.937599876944155,"url":"https://maps.app.goo.gl/xtgjstGFH9sAG6Ya7?g_st=ipc","address":"Oplopiou 3, Thessaloniki 546 25","categoryIds":["asian"],"categories":["Asian Restaurants"]},{"id":"asianRestaurants_788113ad98ac","slug":"sushaki-greek-sushi-experience-7881","kind":"restaurant","name":"Sushaki | Greek Sushi Experience","lat":40.63309136297845,"lng":22.939152229553493,"url":"https://maps.app.goo.gl/ggCr6zagpbao1wwt9","address":"Komninon 3, Thessaloniki 546 24","categoryIds":["asian"],"categories":["Asian Restaurants"]},{"id":"asianRestaurants_4ecd6c075c4e","slug":"huang-4ecd","kind":"restaurant","name":"Huang","lat":40.62746881479162,"lng":22.95210600219236,"url":"https://maps.app.goo.gl/GNVEYmU2FT2611vx5?g_st=ipc","address":"Geor. Theotoka 1, Thessaloniki 546 21","categoryIds":["asian"],"categories":["Asian Restaurants"]},{"id":"asianRestaurants_fa15bba13e7a","slug":"asian-house-fa15","kind":"restaurant","name":"Asian House","lat":40.61406863205144,"lng":22.96925982276085,"url":"https://maps.app.goo.gl/RZUt6eATfNjJBVMW9?g_st=ipc","address":"Kleanthous 49, Thessaloniki 544 53","categoryIds":["asian"],"categories":["Asian Restaurants"]}],"nearby":[{"id":"cheapEatsRestaurants_d40ad575edd7","slug":"michelangelo-skg-d40a","kind":"restaurant","name":"Michelangelo.skg","lat":40.65053808833563,"lng":22.95671243903333,"url":"https://maps.app.goo.gl/nAwyYBALch1ybbQSA?g_st=ipc","address":"Riga Feraiou 162, Sikies 566 26","categoryIds":["cheap-eats","italian"],"categories":["Gyros & Cheap Eats","Italian Restaurants"],"legacySlugs":["michelangelo-skg-4e92"],"distanceKm":0.18642081493489254},{"id":"mustSeeAttractions_d05b087a8840","slug":"heptapyrgion-of-thessaloniki-d05b","kind":"restaurant","name":"Heptapyrgion of Thessaloniki","lat":40.64405781477335,"lng":22.96178016442897,"url":"https://maps.app.goo.gl/1s8aj4cc3MbpvaGq9?g_st=ipc","address":"Επταπύργιο, Eptapirgiou 40, Thessaloniki 546 34","categoryIds":["attractions"],"categories":["Must-See Attractions"],"distanceKm":0.7134561064986881},{"id":"mustSeeAttractions_72fd08699c11","slug":"thessaloniki-acropolis-72fd","kind":"restaurant","name":"Thessaloniki Acropolis","lat":40.644004048967396,"lng":22.961770870557544,"url":"https://maps.app.goo.gl/Pj3FuXA7LeypGUARA?g_st=ipc","address":"Eptapirgiou 130, Thessaloniki 546 34","categoryIds":["attractions"],"categories":["Must-See Attractions"],"distanceKm":0.7187928554439447},{"id":"greekRestaurants_284ab55d844a","slug":"drosia-284a","kind":"restaurant","name":"Δροσιά","lat":40.64461236646585,"lng":22.953803286668357,"url":"https://maps.app.goo.gl/APT3HJiqoZGsnyPs9?g_st=ipc","address":"Μεσολογγίου 44, Θεσσαλονίκη 566 25","categoryIds":["greek-restaurants"],"categories":["Greek Restaurants"],"distanceKm":0.7408356637622641},{"id":"fishTavernasRestaurants_f7102e19ba0d","slug":"koukida-fun-seafood-f710","kind":"restaurant","name":"Koukida Fun-Seafood","lat":40.643445839214266,"lng":22.95570392041812,"url":"https://maps.app.goo.gl/B9KYRcx4RDrq1Zh48?g_st=ipc","address":"Agrafon 13, Thessaloniki 546 34","categoryIds":["fish-tavernas"],"categories":["Fish Tavernas"],"distanceKm":0.7827725442363039},{"id":"greekRestaurants_26adfb378173","slug":"toicho-toicho-26ad","kind":"restaurant","name":"Τοίχο Τοίχο","lat":40.64280442360803,"lng":22.955285045566942,"url":"https://maps.app.goo.gl/98dknE2zQL7T8npUA?g_st=ipc","address":"Στεργίου Πολυδώρου 1, Θεσσαλονίκη 546 34","categoryIds":["greek-restaurants"],"categories":["Greek Restaurants"],"distanceKm":0.8618865571529803},{"id":"coffeeBrunchRestaurants_61bbbed9f0b5","slug":"castra-all-day-terrace-bar-61bb","kind":"restaurant","name":"Castra- All Day Terrace Bar","lat":40.641322666802424,"lng":22.958308851938888,"url":"https://maps.app.goo.gl/bvxf6vbBiEtuPwrh9?g_st=ipc","address":"Eptapirgiou 122, Thessaloniki 546 34","categoryIds":["coffee-brunch"],"categories":["Coffee & Brunch Spots"],"distanceKm":0.9739440161031905},{"id":"coffeeBrunchRestaurants_0052077d62fc","slug":"merenda-coffee-wine-more-0052","kind":"restaurant","name":"Merenda Coffee Wine & More","lat":40.651073348117436,"lng":22.945590441346173,"url":"https://maps.app.goo.gl/AiQwHhGbA2vVd8nH7?g_st=ipc","address":"Flogiton 2, Neapoli 567 28","categoryIds":["coffee-brunch"],"categories":["Coffee & Brunch Spots"],"distanceKm":1.1229019548289043},{"id":"cheapEatsRestaurants_59e2b6d2677d","slug":"to-prytaneio-59e2","kind":"restaurant","name":"Το Πρυτανείο","lat":40.64303995879506,"lng":22.947630622213342,"url":"https://maps.app.goo.gl/p1mkurFCqsY7XC3w5?g_st=ipc","address":"Alexandras Papadopoulou 72, Thessaloniki 546 33","categoryIds":["cheap-eats"],"categories":["Gyros & Cheap Eats"],"distanceKm":1.226827403816877},{"id":"greekRestaurants_c253491b9a8d","slug":"to-igglis-taverna-c253","kind":"restaurant","name":"το \"Ιγγλις\" ταβέρνα","lat":40.63880204066886,"lng":22.95710932601345,"url":"https://maps.app.goo.gl/dRFfUaqod6DSYEDx8?g_st=ipc","address":"Ηροδότου 32, Θεσσαλονίκη 546 34","categoryIds":["greek-restaurants"],"categories":["Greek Restaurants"],"distanceKm":1.2616433395039655},{"id":"familyFriendly_91fdc1b07999","slug":"parko-tzeni-karezi-91fd","kind":"restaurant","name":"Πάρκο Τζένη Καρέζη","lat":40.65858356268694,"lng":22.948886429553223,"url":"https://maps.app.goo.gl/GLfxf6LcGPn5DhUJA?g_st=ipc","address":"Polichni 565 32","categoryIds":["family-friendly"],"categories":["Kid Friendly Locations"],"distanceKm":1.2649215065056325},{"id":"greekRestaurants_0c9a78977f40","slug":"nea-folia-0c9a","kind":"restaurant","name":"Νέα Φωλιά","lat":40.63831468853848,"lng":22.95095515507328,"url":"https://maps.app.goo.gl/RoPE5F5QLpWFB4rcA?g_st=ipc","address":"Αριστομένους 4, Θεσσαλονίκη 546 34","categoryIds":["greek-restaurants"],"categories":["Greek Restaurants"],"distanceKm":1.4667414382129838},{"id":"cheapEatsRestaurants_949277637a55","slug":"grill-105-street-9492","kind":"restaurant","name":"Grill 105 Street","lat":40.63849961526695,"lng":22.950253004997894,"url":"https://maps.app.goo.gl/ZgMdxKzTjuAureyV8?g_st=ic","address":"Kassandrou 105, Thessaloniki 546 33","categoryIds":["cheap-eats"],"categories":["Gyros & Cheap Eats"],"distanceKm":1.4765726248876123},{"id":"greekRestaurants_8b274eab2a6d","slug":"taverna-to-roloi-8b27","kind":"restaurant","name":"Ταβέρνα το Ρολόι","lat":40.652570939966324,"lng":22.941580979423406,"url":"https://maps.app.goo.gl/PNNn8uDapDZFBdjd6?g_st=ipc","address":"Ελ. Βενιζέλου 87, Νεάπολη 567 28","categoryIds":["greek-restaurants"],"categories":["Greek Restaurants"],"distanceKm":1.4818830901581415},{"id":"coffeeBrunchRestaurants_142cba27d845","slug":"cedar-142c","kind":"restaurant","name":"Cedar","lat":40.637496852872374,"lng":22.964756224661162,"url":"https://maps.app.goo.gl/yNB87tJxbm51sRh69?g_st=ipc","address":"Leof. Ochi 25, Ag. Pavlos 554 38","categoryIds":["coffee-brunch"],"categories":["Coffee & Brunch Spots"],"distanceKm":1.4848992312432296},{"id":"dessertsRestaurants_eb88db21bc35","slug":"dorkada-eb88","kind":"restaurant","name":"Dorkada","lat":40.63877718781837,"lng":22.949276397393735,"url":"https://maps.app.goo.gl/56EQSujX5a55tWkk6?g_st=ipc","address":"Kassandrou 66, Thessaloniki 546 33","categoryIds":["desserts"],"categories":["Dessert Shops"],"distanceKm":1.4926141623371756},{"id":"greekRestaurants_5762dafe8770","slug":"giannoyla-5762","kind":"restaurant","name":"Γιαννούλα","lat":40.640039548951144,"lng":22.946778249418276,"url":"https://maps.app.goo.gl/bG2X8oAd5FzPwzKJ9?g_st=ipc","address":"Κασσάνδρου 50, Θεσσαλονίκη 546 33","categoryIds":["greek-restaurants"],"categories":["Greek Restaurants"],"distanceKm":1.5097603243292064},{"id":"dessertsRestaurants_f577f5bbd8fd","slug":"nick-alexoudas-f577","kind":"restaurant","name":"NICK ALEXOUDAS","lat":40.640152390023324,"lng":22.946508561358726,"url":"https://maps.app.goo.gl/mqxpWWxFf4unYCA89?g_st=ipc","address":"Kassandrou 48, Thessaloniki 546 33","categoryIds":["desserts"],"categories":["Dessert Shops"],"distanceKm":1.5160296774894801},{"id":"greekRestaurants_f55cb9debc6f","slug":"iliopetra-f55c","kind":"restaurant","name":"Ηλιόπετρα","lat":40.637407844896174,"lng":22.95118029752211,"url":"https://maps.app.goo.gl/twTSSnJJWA1rop578?g_st=ipc","address":"Αισχύλου 5, Θεσσαλονίκη 546 34","categoryIds":["greek-restaurants"],"categories":["Greek Restaurants"],"distanceKm":1.549281800575117},{"id":"greekRestaurants_8cc725e89b2f","slug":"doxa-8cc7","kind":"restaurant","name":"Δόξα","lat":40.63645880387639,"lng":22.95480906477019,"url":"https://maps.app.goo.gl/v7a1JB4C1wDKAViy6?g_st=ipc","address":"Αποστόλου Παύλου 25, Θεσσαλονίκη 546 34","categoryIds":["greek-restaurants"],"categories":["Greek Restaurants"],"distanceKm":1.5514146577209713},{"id":"fishTavernasRestaurants_bc4a7296f096","slug":"ouzo-jordan-bc4a","kind":"restaurant","name":"Ouzo Jordan","lat":40.66214244715697,"lng":22.949433655289134,"url":"https://maps.app.goo.gl/sSPrTBB7crBhtfLs6?g_st=ipc","address":"Stadiou 6, Thessaloniki 565 33","categoryIds":["fish-tavernas"],"categories":["Fish Tavernas"],"distanceKm":1.5589329315944105},{"id":"mustSeeAttractions_7edc1e3f8f0e","slug":"holy-church-of-saint-demetrius-7edc","kind":"restaurant","name":"Holy Church of Saint Demetrius","lat":40.638898161361496,"lng":22.947614216085658,"url":"https://maps.app.goo.gl/f1z5P772ZL438rrB9?g_st=ipc","address":"Ag. Dimitriou 81-83, Thessaloniki 546 33","categoryIds":["attractions"],"categories":["Must-See Attractions"],"distanceKm":1.5621002805213056},{"id":"cheapEatsRestaurants_6f8bdca7e315","slug":"aigli-24h-crepe-toast-coffee-bougatsa-6f8b","kind":"restaurant","name":"\"AIGLI\" 24h CREPE-toast-coffee-BOUGATSA","lat":40.638115571761915,"lng":22.948717629555613,"url":"https://maps.app.goo.gl/LWSzARXmcX6GhcQdA?g_st=ipc","address":"Ag. Dimitriou 89, Thessaloniki 546 33","categoryIds":["cheap-eats"],"categories":["Gyros & Cheap Eats"],"distanceKm":1.5799939791294515},{"id":"cheapEatsRestaurants_aa2a8e3577a2","slug":"liga-ke-kala-aa2a","kind":"restaurant","name":"Liga ke kala","lat":40.63627784998205,"lng":22.954179728027064,"url":"https://maps.app.goo.gl/KNAkyJUgnkqkuPQs9?g_st=ipc","address":"Kassandrou 132, Thessaloniki 546 34","categoryIds":["cheap-eats"],"categories":["Gyros & Cheap Eats"],"distanceKm":1.5833839306864101}],"mentionedGuides":[],"canonicalSlug":"sushaki-greek-sushi-experience-4caa","enrichment":{"summary_en":"Sushaki | Greek Sushi Experience is a curated restaurant in Sikies 566 26 in the Asian Restaurants collection. It is connected to 7 nearby Googlementor picks to help travelers build a stronger local route.","summary_el":"Sushaki | Greek Sushi Experience είναι ένα επιλεγμένο σημείο φαγητού στην περιοχή Sikies 566 26 και ανήκει στη συλλογή Asian Restaurants. Συνδέεται με 7 κοντινές προτάσεις του Googlementor για πιο ολοκληρωμένη εμπειρία.","vibe_tags":["curated"],"best_for":["first-time visitors","food lovers"],"visit_moments":["lunch stop","dinner stop"],"practical_note":"Address and direct map link are available for easy turn-by-turn access.","nearby_walkable_count":7,"nearby_count_2km":79,"confidence":0.98},"areaContext":{"slug":"neapoli-sykies","name":"Neapoli - Sykies","nameEl":"Νεάπολη - Συκιές"},"intentContexts":[{"href":"/asian-restaurants/neapoli-sykies","label":"Asian Restaurants in Neapoli - Sykies","categorySlug":"asian-restaurants","categoryName":"Asian Restaurants","areaSlug":"neapoli-sykies","areaName":"Neapoli - Sykies","areaNameEl":"Νεάπολη - Συκιές"}]},"__N_SSG":true}