{"pageProps":{"entity":{"id":"fishTavernasRestaurants_144ba866725a","slug":"taverna-plymari-144b","kind":"restaurant","name":"Ταβέρνα Πλυμάρι","lat":39.47033473010399,"lng":23.111161118498085,"url":"https://maps.app.goo.gl/GtDv9b8CT74i2V498?g_st=ipc","address":"Analipsi, Zagora 370 01","categoryIds":["fish-tavernas"],"categories":["Fish Tavernas"]},"sameCategory":[{"id":"fishTavernasRestaurants_c8eeb49067cc","slug":"aggelika-fish-taverna-c8ee","kind":"restaurant","name":"Aggelika Fish Taverna","lat":39.37460340431694,"lng":23.203276067077514,"url":"https://maps.app.goo.gl/TXanhReoHFTGYtHL9?g_st=ipc","address":"Μαγνησία Πήλιο Τσαγκαράδα Μυλοπόταμος, Πήλιο Μυλοπόταμος 370 12","categoryIds":["fish-tavernas"],"categories":["Fish Tavernas"]},{"id":"fishTavernasRestaurants_437fe44ea5d0","slug":"bokos-ouzeri-437f","kind":"restaurant","name":"BOKOS OUZERI","lat":39.37238019955491,"lng":22.928830138574348,"url":"https://maps.app.goo.gl/oxZs4qMQgE4Km14y6?g_st=ipc","address":"Meandrou 143, Nea Ionia 384 45","categoryIds":["fish-tavernas"],"categories":["Fish Tavernas"]},{"id":"fishTavernasRestaurants_2384089ac0c0","slug":"tsipouradiko-jim-2384","kind":"restaurant","name":"Tsipouradiko Jim","lat":39.369800719515084,"lng":22.92725362558626,"url":"https://maps.app.goo.gl/12A4RBbA4PBszZC29?g_st=ipc","address":"Miaouli 75, Volos 383 34","categoryIds":["fish-tavernas"],"categories":["Fish Tavernas"]},{"id":"fishTavernasRestaurants_458d48d686b2","slug":"akrogiali-galanos-458d","kind":"restaurant","name":"Ακρογιαλι Γαλανος","lat":39.26649482814042,"lng":23.166733047141467,"url":"https://maps.app.goo.gl/KNjSWtb43DnSGnxU7?g_st=ipc","address":"Epar.Od. Lefokastrou-Afisou, Afissos 370 10","categoryIds":["fish-tavernas"],"categories":["Fish Tavernas"]},{"id":"fishTavernasRestaurants_8539d0698831","slug":"argo-restaurant-8539","kind":"restaurant","name":"Argo Restaurant","lat":39.17227725570198,"lng":23.22064957150471,"url":"https://maps.app.goo.gl/HKBpdAh3KxQWGaRr8?g_st=ipc","address":"Epar.Od. Milina-Trikeri, Milina 370 13","categoryIds":["fish-tavernas"],"categories":["Fish Tavernas"]},{"id":"fishTavernasRestaurants_c628ee14dc22","slug":"taverna-areti-stamoulis-c628","kind":"restaurant","name":"Taverna Areti - Stamoulis","lat":39.172445737181256,"lng":23.342568733517215,"url":"https://maps.app.goo.gl/tHMerUFf4UU2S8jr8?g_st=ipc","address":"Αγ. Γεώργιος 370 06","categoryIds":["fish-tavernas"],"categories":["Fish Tavernas"]},{"id":"fishTavernasRestaurants_fb10a0ef09f6","slug":"to-karnagio-to-karnagio-agia-kyriaki-notioy-pilioy-fb10","kind":"restaurant","name":"To Karnagio / Το Καρνάγιο - Αγία Κυριακή Νοτίου Πηλίου","lat":39.09262802220784,"lng":23.06864421145359,"url":"https://maps.app.goo.gl/9qZMAALf8EZ6XnGKA?g_st=ipc","address":"Epar.Od. Trikeriou-Agias Kiriakis 212, Ag. Kiriaki 370 09","categoryIds":["fish-tavernas"],"categories":["Fish Tavernas"]},{"id":"fishTavernasRestaurants_efccd15b6223","slug":"kehria-tarsanas-taverna-efcc","kind":"restaurant","name":"Kehria Tarsanas Taverna","lat":39.18412173483994,"lng":23.445119695165598,"url":"https://maps.app.goo.gl/tUiEEByDucNo1PfbA?g_st=ipc","address":"Unnamed Road, Skiathos 370 02","categoryIds":["fish-tavernas"],"categories":["Fish Tavernas"]},{"id":"fishTavernasRestaurants_77d3e9a1bb44","slug":"infinity-blue-restaurant-77d3","kind":"restaurant","name":"Infinity Blue Restaurant","lat":39.142389727462664,"lng":23.44573084758166,"url":"https://maps.app.goo.gl/GYPTidFzoXiRNDdCA?g_st=ipc","address":"Kolios, 370 02","categoryIds":["fish-tavernas"],"categories":["Fish Tavernas"]},{"id":"fishTavernasRestaurants_71c8fedcef80","slug":"carnayo-restaurant-skiathos-71c8","kind":"restaurant","name":"Carnayo Restaurant Skiathos","lat":39.165824279351774,"lng":23.493041550704223,"url":"https://maps.app.goo.gl/DardoapX9Zoh1VF77?g_st=ipc","address":"Paraliakos, Skiathos 370 02","categoryIds":["fish-tavernas"],"categories":["Fish Tavernas"]},{"id":"fishTavernasRestaurants_a407d0c7dcab","slug":"restaurant-sidera-a407","kind":"restaurant","name":"Restaurant Sidera","lat":39.96314971393841,"lng":23.382915590015017,"url":"https://maps.app.goo.gl/xDr9PEeg36c9PLKh7?g_st=ipc","address":"Possidi 630 77","categoryIds":["fish-tavernas"],"categories":["Fish Tavernas"]},{"id":"fishTavernasRestaurants_698f5e3c9fb8","slug":"mple-seaside-gastrobar-698f","kind":"restaurant","name":"Mple Seaside Gastrobar","lat":39.996322262418225,"lng":23.38211842182523,"url":"https://maps.app.goo.gl/59Aq6jZbxYFVPEPU7?g_st=ipc","address":"Σκάλα Φούρκας 630 77","categoryIds":["fish-tavernas"],"categories":["Fish Tavernas"]}],"nearby":[{"id":"greekRestaurants_24faaabf2725","slug":"estiatorio-o-makis-ta-5f-24fa","kind":"restaurant","name":"Εστιατόριο \"Ο Μάκης\" (Τα 5φ)","lat":39.406879787357994,"lng":23.13137854437809,"url":"https://maps.app.goo.gl/MVaqELfDNQavTVj78?g_st=ipc","address":"Κισσός 370 12","categoryIds":["greek-restaurants"],"categories":["Greek Restaurants"],"distanceKm":7.266337661482352},{"id":"greekRestaurants_a4dfe435f448","slug":"synantisi-estiatorio-kissos-pilio-a4df","kind":"restaurant","name":"Συνάντηση ΕΣΤΙΑΤΟΡΙΟ ΚΙΣΣΟΣ ΠΗΛΙΟ","lat":39.40657416072869,"lng":23.13161356443952,"url":"https://maps.app.goo.gl/wt5g3M2MqHJT3Hdz8?g_st=ipc","address":"Κισσός 370 12","categoryIds":["greek-restaurants"],"categories":["Greek Restaurants"],"distanceKm":7.304169786953068},{"id":"dessertsRestaurants_18c800bb34dd","slug":"apalou-bistro-18c8","kind":"restaurant","name":"Apalou bistro","lat":39.38733910168991,"lng":23.17288978772186,"url":"https://maps.app.goo.gl/8B5hS4CF5VjiJNweA?g_st=ic","address":"EO Neochoriou Tsagkaradas 26, Tsagkarada 370 12","categoryIds":["desserts"],"categories":["Dessert Shops"],"distanceKm":10.643198250793667},{"id":"greekRestaurants_1079f07652cc","slug":"dipnosofistis-1079","kind":"restaurant","name":"Dipnosofistis","lat":39.38375041090327,"lng":23.18105009328821,"url":"https://maps.app.goo.gl/R1fF5NSY4Gzefgph6?g_st=ipc","address":"Μυλοποτάμου, Τσαγκαράδα 370 12","categoryIds":["greek-restaurants"],"categories":["Greek Restaurants"],"distanceKm":11.345796030785984},{"id":"greekRestaurants_267ed799993c","slug":"platanus-orientalis-267e","kind":"restaurant","name":"Platanus Orientalis","lat":39.36160028394274,"lng":23.05970176441853,"url":"https://maps.app.goo.gl/CeNcPhtv8mJKEc4q7?g_st=ipc","address":"Αγ. Λαυρέντιος 373 00","categoryIds":["greek-restaurants"],"categories":["Greek Restaurants"],"distanceKm":12.873500853485455},{"id":"coffeeBrunchRestaurants_e35f2fd907c7","slug":"aeriko-cafe-bar-makrinitsa-e35f","kind":"restaurant","name":"Aeriko cafe bar - Makrinitsa","lat":39.396275519682625,"lng":22.994190417214696,"url":"https://maps.app.goo.gl/uEvFEaZxa3VWrgDA7?g_st=ipc","address":"1o km PORTARIAS-MAKRINITSAS, PELION 370 11","categoryIds":["coffee-brunch"],"categories":["Coffee & Brunch Spots"],"distanceKm":12.989739347616911},{"id":"greekRestaurants_f1609d667006","slug":"kritsa-restaurant-f160","kind":"restaurant","name":"KRITSA Restaurant","lat":39.390714981206585,"lng":22.99890427348712,"url":"https://maps.app.goo.gl/nVaAkJVNsbHGrwKh9?g_st=ipc","address":"CENTRAL SQUARE PORTARIA PELION, 370 11","categoryIds":["greek-restaurants"],"categories":["Greek Restaurants"],"distanceKm":13.089558019209166},{"id":"greekRestaurants_f894a7783597","slug":"kardamo-oinomageireion-f894","kind":"restaurant","name":"Κάρδαμο Οινομαγειρείον","lat":39.402083128717685,"lng":22.984980722142236,"url":"https://maps.app.goo.gl/2BVduXtmC112zqJN8?g_st=ipc","address":"Πηλίου, Μακρινίτσα 370 11","categoryIds":["greek-restaurants"],"categories":["Greek Restaurants"],"distanceKm":13.229580266335775},{"id":"fishTavernasRestaurants_c8eeb49067cc","slug":"aggelika-fish-taverna-c8ee","kind":"restaurant","name":"Aggelika Fish Taverna","lat":39.37460340431694,"lng":23.203276067077514,"url":"https://maps.app.goo.gl/TXanhReoHFTGYtHL9?g_st=ipc","address":"Μαγνησία Πήλιο Τσαγκαράδα Μυλοπόταμος, Πήλιο Μυλοπόταμος 370 12","categoryIds":["fish-tavernas"],"categories":["Fish Tavernas"],"distanceKm":13.263394673988481},{"id":"greekRestaurants_144d3acb24f4","slug":"chromata-144d","kind":"restaurant","name":"Χρώματα","lat":39.360435382943386,"lng":23.212842528145245,"url":"https://maps.app.goo.gl/xvs49fJpk8BZa6Wq8?g_st=ipc","address":"Unnamed Road, Νότιο Πήλιο 370 12","categoryIds":["greek-restaurants"],"categories":["Greek Restaurants"],"distanceKm":15.021111964006943},{"id":"familyFriendly_b5b29fc053cc","slug":"the-pelion-train-b5b2","kind":"restaurant","name":"The Pelion Train","lat":39.327703252626804,"lng":23.143518252950724,"url":"https://maps.app.goo.gl/P1JAubEdVdzV1V5Y8?g_st=ipc","address":"South Pelion 370 10","categoryIds":["family-friendly"],"categories":["Kid Friendly Locations"],"distanceKm":16.101749967126477},{"id":"greekRestaurants_e6f75b86de1f","slug":"to-salkimi-e6f7","kind":"restaurant","name":"Το Σαλκίμι","lat":39.32842613710333,"lng":23.150200950982853,"url":"https://maps.app.goo.gl/a2R9yDYGNQsY2fUS6?g_st=ipc","address":"Πήλιο 370 10","categoryIds":["greek-restaurants"],"categories":["Greek Restaurants"],"distanceKm":16.132132552935317},{"id":"dessertsRestaurants_fab74267c12c","slug":"anna-na-ena-milo-fab7","kind":"restaurant","name":"Άννα να ένα μήλο","lat":39.32818241324449,"lng":23.15069435375763,"url":"https://maps.app.goo.gl/pFdSDfbmt9PYS4wT9?g_st=ic","address":"Epar.Od. Agrias-Mileon 107, Milies 370 10","categoryIds":["desserts"],"categories":["Dessert Shops"],"distanceKm":16.1674976422308},{"id":"italianRestaurants_c53ee4efcd79","slug":"pasta-la-vista-kala-nera-c53e","kind":"restaurant","name":"Pasta La Vista KALA NERA","lat":39.3056996345145,"lng":23.120100052879696,"url":"https://maps.app.goo.gl/tYaU41CZfgnnQu8V7","address":"Kala Nera 370 10","categoryIds":["italian"],"categories":["Italian Restaurants"],"distanceKm":18.322698315577135},{"id":"greekRestaurants_f58f287acaec","slug":"1900-paradosiako-taverneio-traditional-tavern-f58f","kind":"restaurant","name":"1900 Παραδοσιακό Ταβερνείο (Traditional Tavern)","lat":39.30568114219273,"lng":23.12040447873948,"url":"https://maps.app.goo.gl/Zbob4RrewGaAi1fY9?g_st=ipc","address":"Kala Nera 370 10","categoryIds":["greek-restaurants"],"categories":["Greek Restaurants"],"distanceKm":18.325868154493637},{"id":"burgersRestaurants_1efcdff68c36","slug":"urban-burger-co-1efc","kind":"restaurant","name":"Urban Burger Co.","lat":39.359716759351,"lng":22.950932981495203,"url":"https://maps.app.goo.gl/Hj1LZsKmFMwoeDYk8?g_st=ipc","address":"Δημάρχου Κονταράτου 8, Βόλος 382 21","categoryIds":["burgers"],"categories":["Burger Spots"],"distanceKm":18.45954167586312},{"id":"burgersRestaurants_07d450e3e91f","slug":"shoreditch-burgers-sandwiches-07d4","kind":"restaurant","name":"Shoreditch Burgers & Sandwiches","lat":39.358294664127236,"lng":22.9508396365885,"url":"https://maps.app.goo.gl/1QRrTYXfUm7MCQ5cA?g_st=ipc","address":"Δημητριάδος 186, Βόλος 382 21","categoryIds":["burgers"],"categories":["Burger Spots"],"distanceKm":18.57133288592821},{"id":"cheapEatsRestaurants_9135e360a957","slug":"shoreditch-burgers-sandwiches-9135","kind":"restaurant","name":"Shoreditch Burgers & Sandwiches","lat":39.358292162660355,"lng":22.950837613452617,"url":"https://maps.app.goo.gl/5xzuz9k7GPVzTJnDA?g_st=ipc","address":"Dimitriados 186, Volos 382 21","categoryIds":["cheap-eats"],"categories":["Gyros & Cheap Eats"],"distanceKm":18.571648553503124},{"id":"greekRestaurants_f8c7fc9e1119","slug":"mezen-mezen-f8c7","kind":"restaurant","name":"Μεζέν - Mezen","lat":39.360202586197914,"lng":22.94855189327868,"url":"https://maps.app.goo.gl/8kEStDeZbgxBjzsH6?g_st=ipc","address":"Αλοννήσου 8, Βόλος 382 21","categoryIds":["greek-restaurants"],"categories":["Greek Restaurants"],"distanceKm":18.57687109064262},{"id":"coffeeBrunchRestaurants_8f68ea1d28c9","slug":"isalos-beach-club-8f68","kind":"restaurant","name":"Isalos Beach Club","lat":39.35159082602954,"lng":22.9581356571748,"url":"https://maps.app.goo.gl/whtVq9izZXDLCZ8k7?g_st=ipc","address":"Plastira 17b, Volos 382 22","categoryIds":["coffee-brunch"],"categories":["Coffee & Brunch Spots"],"distanceKm":18.63245761600185},{"id":"cheapEatsRestaurants_4de5fd1f21ea","slug":"rainbow-4de5","kind":"restaurant","name":"Rainbow","lat":39.358716294857,"lng":22.949235444566693,"url":"https://maps.app.goo.gl/RfPoKrLrjoUUEA32A?g_st=ipc","address":"Iasonos 135, Volos 382 21","categoryIds":["cheap-eats"],"categories":["Gyros & Cheap Eats"],"distanceKm":18.642485847190954},{"id":"dessertsRestaurants_ddfd2ed8f8da","slug":"glyko-styllas-ddfd","kind":"restaurant","name":"Glyko Styllas","lat":39.358756123978736,"lng":22.949172631183142,"url":"https://maps.app.goo.gl/C2qoG9g6ogZM9U2H6?g_st=ipc","address":"Iasonos 135, Volos 382 21","categoryIds":["desserts"],"categories":["Dessert Shops"],"distanceKm":18.643562002836582},{"id":"cheapEatsRestaurants_6c680d57fcca","slug":"r-the-original-fast-food-6c68","kind":"restaurant","name":"R The Original fast food","lat":39.35863953139754,"lng":22.949097785508563,"url":"https://maps.app.goo.gl/c4a3sw59T33zdhDU8?g_st=ipc","address":"Iasonos 118, Volos 382 21","categoryIds":["cheap-eats"],"categories":["Gyros & Cheap Eats"],"distanceKm":18.65699832706531},{"id":"cheapEatsRestaurants_14fc216d1bd2","slug":"makis-14fc","kind":"restaurant","name":"Makis","lat":39.35994931747672,"lng":22.947511340680645,"url":"https://maps.app.goo.gl/Dd1J2caUfwteeWVJA?g_st=ipc","address":"Dimitriados 126, Volos 382 21","categoryIds":["cheap-eats"],"categories":["Gyros & Cheap Eats"],"distanceKm":18.662709814357715}],"mentionedGuides":[],"canonicalSlug":"taverna-plymari-144b","enrichment":{"summary_en":"Ταβέρνα Πλυμάρι is a curated restaurant in Zagora 370 01 in the Fish Tavernas collection. It is connected to 0 nearby Googlementor picks to help travelers build a stronger local route.","summary_el":"Ταβέρνα Πλυμάρι είναι ένα επιλεγμένο σημείο φαγητού στην περιοχή Zagora 370 01 και ανήκει στη συλλογή Fish Tavernas. Συνδέεται με 0 κοντινές προτάσεις του Googlementor για πιο ολοκληρωμένη εμπειρία.","vibe_tags":["curated","seafood-local"],"best_for":["first-time visitors","food lovers"],"visit_moments":["lunch stop","dinner stop"],"practical_note":"Address and direct map link are available for easy turn-by-turn access.","nearby_walkable_count":0,"nearby_count_2km":0,"confidence":0.9},"areaContext":null,"intentContexts":[]},"__N_SSG":true}