{"pageProps":{"entity":{"id":"greekRestaurants_7df46f2d33f8","slug":"taverna-vilaeti-7df4","kind":"restaurant","name":"Ταβέρνα Βιλαέτι","lat":36.74797589012075,"lng":25.29254143751964,"url":"https://maps.app.goo.gl/YzqRc8pVvtFzcna37?g_st=ipc","address":"Επάνω Κάμπος 840 01","categoryIds":["greek-restaurants"],"categories":["Greek Restaurants"]},"sameCategory":[{"id":"greekRestaurants_d2b708170d7f","slug":"deli-restaurant-and-cafe-bar-d2b7","kind":"restaurant","name":"Deli Restaurant and cafe bar","lat":36.869590262270314,"lng":25.518770921181957,"url":"https://maps.app.goo.gl/ZNHHURiAn33ARUcg7?g_st=ipc","address":"Σχοινούσσα 843 00","categoryIds":["greek-restaurants"],"categories":["Greek Restaurants"]},{"id":"greekRestaurants_9a173dd91bb8","slug":"kira-pothiti-9a17","kind":"restaurant","name":"Kira Pothiti","lat":36.869449747116555,"lng":25.519666821787904,"url":"https://maps.app.goo.gl/483iYa8hPsWmV2He8?g_st=ipc","address":"Chora, Schinoussa, Χώρα, Σχοινούσα, Chora, Σχοινούσσα 843 00","categoryIds":["greek-restaurants"],"categories":["Greek Restaurants"]},{"id":"greekRestaurants_aaff692063fa","slug":"bizeli-greek-restaurant-aaff","kind":"restaurant","name":"Bizeli Greek Restaurant","lat":36.86948697879524,"lng":25.51980769097378,"url":"https://maps.app.goo.gl/QUY5UC2bDWXfny3i7?g_st=ipc","address":"Χωρα, Σχοινούσσα 843 00","categoryIds":["greek-restaurants"],"categories":["Greek Restaurants"]},{"id":"greekRestaurants_90c18905dda5","slug":"restaurant-anna-90c1","kind":"restaurant","name":"Restaurant Anna","lat":37.004432167225445,"lng":25.223293064427825,"url":"https://maps.app.goo.gl/q682NKoAC4uBTxx19?g_st=ipc","address":"Δρυός 844 00","categoryIds":["greek-restaurants"],"categories":["Greek Restaurants"]},{"id":"greekRestaurants_63896ef45064","slug":"taverna-axiotissa-6389","kind":"restaurant","name":"Taverna Axiotissa","lat":37.00531817331461,"lng":25.39495449152434,"url":"https://maps.app.goo.gl/TfCQXtRYj4ztLf7s8?g_st=ipc","address":"Νάξος 843 00","categoryIds":["greek-restaurants"],"categories":["Greek Restaurants"]},{"id":"greekRestaurants_aa0e1af7bc56","slug":"thalassamou-open-fire-cuisine-aa0e","kind":"restaurant","name":"THALASSAMOU Open fire cuisine","lat":36.99421802833398,"lng":25.136146022142626,"url":"https://maps.app.goo.gl/DfsAxthWgbjoKtec7?g_st=ipc","address":"Overlooking the Marina, Αλυκή 844 00","categoryIds":["greek-restaurants"],"categories":["Greek Restaurants"]},{"id":"greekRestaurants_19a1aff10d3b","slug":"lefkes-santorini-19a1","kind":"restaurant","name":"Lefkes ΣΑΝΤΟΡΙΝΗ","lat":36.46311561251902,"lng":25.393685023435904,"url":"https://maps.app.goo.gl/6kjSiC5Bk9fdfy1b8?g_st=ipc","address":"Φοινικιά 847 02","categoryIds":["greek-restaurants"],"categories":["Greek Restaurants"]},{"id":"greekRestaurants_bd1dd4fa8785","slug":"taverna-charoyla-bd1d","kind":"restaurant","name":"Ταβέρνα Χαρούλα","lat":37.044240609289616,"lng":25.24781569297046,"url":"https://maps.app.goo.gl/vTVSyzgoJGLRUtHJ6?g_st=ipc","address":"Μάρπησσα 844 00","categoryIds":["greek-restaurants"],"categories":["Greek Restaurants"]},{"id":"greekRestaurants_1f1aa19a1160","slug":"yazoo-summer-bliss-1f1a","kind":"restaurant","name":"Yazoo Summer Bliss","lat":37.05947332168921,"lng":25.35827570673648,"url":"https://maps.app.goo.gl/NhU86ckth6hj5Sat7?g_st=ipc","address":"Beach, Πλάκα 843 00","categoryIds":["greek-restaurants"],"categories":["Greek Restaurants"]},{"id":"greekRestaurants_83e1c2c69f39","slug":"o-klarinos-83e1","kind":"restaurant","name":"Ο Κλαρίνος","lat":37.05648947923969,"lng":25.206502727549665,"url":"https://maps.app.goo.gl/4Tf96Q67ADKq6o4e8?g_st=ipc","address":"Unnamed Road, Λεύκες 844 00","categoryIds":["greek-restaurants"],"categories":["Greek Restaurants"]},{"id":"greekRestaurants_e19d898df0e1","slug":"taverna-paradeisos-naxos-e19d","kind":"restaurant","name":"Ταβέρνα Παράδεισος | Νάξος","lat":37.06269869849226,"lng":25.355485426360563,"url":"https://maps.app.goo.gl/snSuBibKoHzbKRP3A?g_st=ipc","address":"Μαραγκας 843 00","categoryIds":["greek-restaurants"],"categories":["Greek Restaurants"]},{"id":"greekRestaurants_7686c3c0f262","slug":"o-kritikos-grill-house-7686","kind":"restaurant","name":"O kritikos grill House","lat":36.627890366358834,"lng":24.919693098594816,"url":"https://maps.app.goo.gl/iQF1nr3qBtvUYK6aA?g_st=ipc","address":"Χώρας, Φολέγανδρος 840 11","categoryIds":["greek-restaurants"],"categories":["Greek Restaurants"]}],"nearby":[{"id":"fishTavernasRestaurants_1b4735e87a52","slug":"koubara-seafood-bar-restaurant-1b47","kind":"restaurant","name":"Koubara Seafood Bar Restaurant","lat":36.72514063337273,"lng":25.257265066552723,"url":"https://maps.app.goo.gl/kT2ULB9zvGfgQDHr6?g_st=ipc","address":"Κουμπάρα 840 01","categoryIds":["fish-tavernas"],"categories":["Fish Tavernas"],"distanceKm":4.040918353519921},{"id":"wineriesVineyards_c4b8aaa71f14","slug":"manalis-c4b8","kind":"restaurant","name":"Μάναλης","lat":36.681144681918035,"lng":25.100751857820168,"url":"https://maps.app.goo.gl/3DPBf6dGCNTLKikN6?g_st=ipc","address":"Σίκινος 840 10","categoryIds":["wineries-vineyards"],"categories":["Wineries & Vineyards"],"distanceKm":18.64077085095759},{"id":"greekRestaurants_d2b708170d7f","slug":"deli-restaurant-and-cafe-bar-d2b7","kind":"restaurant","name":"Deli Restaurant and cafe bar","lat":36.869590262270314,"lng":25.518770921181957,"url":"https://maps.app.goo.gl/ZNHHURiAn33ARUcg7?g_st=ipc","address":"Σχοινούσσα 843 00","categoryIds":["greek-restaurants"],"categories":["Greek Restaurants"],"distanceKm":24.259220797665318},{"id":"greekRestaurants_9a173dd91bb8","slug":"kira-pothiti-9a17","kind":"restaurant","name":"Kira Pothiti","lat":36.869449747116555,"lng":25.519666821787904,"url":"https://maps.app.goo.gl/483iYa8hPsWmV2He8?g_st=ipc","address":"Chora, Schinoussa, Χώρα, Σχοινούσα, Chora, Σχοινούσσα 843 00","categoryIds":["greek-restaurants"],"categories":["Greek Restaurants"],"distanceKm":24.316812302162116},{"id":"greekRestaurants_aaff692063fa","slug":"bizeli-greek-restaurant-aaff","kind":"restaurant","name":"Bizeli Greek Restaurant","lat":36.86948697879524,"lng":25.51980769097378,"url":"https://maps.app.goo.gl/QUY5UC2bDWXfny3i7?g_st=ipc","address":"Χωρα, Σχοινούσσα 843 00","categoryIds":["greek-restaurants"],"categories":["Greek Restaurants"],"distanceKm":24.32953652683468},{"id":"cheapEatsRestaurants_492ec545e3cb","slug":"fbi-food-truck-492e","kind":"restaurant","name":"FBI Food Truck","lat":36.98018032275085,"lng":25.38911877245444,"url":"https://maps.app.goo.gl/tVknNoCtf1VeNxVy7?g_st=ipc","address":"X9JQ+3J, Naxos 843 02","categoryIds":["cheap-eats"],"categories":["Gyros & Cheap Eats"],"distanceKm":27.211918552197584},{"id":"greekRestaurants_90c18905dda5","slug":"restaurant-anna-90c1","kind":"restaurant","name":"Restaurant Anna","lat":37.004432167225445,"lng":25.223293064427825,"url":"https://maps.app.goo.gl/q682NKoAC4uBTxx19?g_st=ipc","address":"Δρυός 844 00","categoryIds":["greek-restaurants"],"categories":["Greek Restaurants"],"distanceKm":29.17427654701022},{"id":"greekRestaurants_63896ef45064","slug":"taverna-axiotissa-6389","kind":"restaurant","name":"Taverna Axiotissa","lat":37.00531817331461,"lng":25.39495449152434,"url":"https://maps.app.goo.gl/TfCQXtRYj4ztLf7s8?g_st=ipc","address":"Νάξος 843 00","categoryIds":["greek-restaurants"],"categories":["Greek Restaurants"],"distanceKm":30.03013102716107},{"id":"greekRestaurants_aa0e1af7bc56","slug":"thalassamou-open-fire-cuisine-aa0e","kind":"restaurant","name":"THALASSAMOU Open fire cuisine","lat":36.99421802833398,"lng":25.136146022142626,"url":"https://maps.app.goo.gl/DfsAxthWgbjoKtec7?g_st=ipc","address":"Overlooking the Marina, Αλυκή 844 00","categoryIds":["greek-restaurants"],"categories":["Greek Restaurants"],"distanceKm":30.712499191254206},{"id":"fishTavernasRestaurants_027f6761e133","slug":"apoplous-greek-restaurant-027f","kind":"restaurant","name":"Apoplous Greek Restaurant","lat":36.99681929753503,"lng":25.136496141109756,"url":"https://maps.app.goo.gl/Akkg1SwxQNzQ7Qxb7?g_st=ipc","address":"Αλυκη Παρος, Aliki 844 00","categoryIds":["fish-tavernas"],"categories":["Fish Tavernas"],"distanceKm":30.956563380333453},{"id":"wineriesVineyards_f66d3d921eed","slug":"domaine-sigalas-f66d","kind":"restaurant","name":"Domaine Sigalas","lat":36.47144515332007,"lng":25.394233805271192,"url":"https://maps.app.goo.gl/kxHf2McGP81at7gq9?g_st=ipc","address":"Baxes, Oia, Santorini 847 02","categoryIds":["wineries-vineyards"],"categories":["Wineries & Vineyards"],"distanceKm":32.06054456023441}],"mentionedGuides":[],"canonicalSlug":"taverna-vilaeti-7df4","enrichment":{"summary_en":"Ταβέρνα Βιλαέτι is a curated restaurant in Greece in the Greek Restaurants collection. It is connected to 0 nearby Googlementor picks to help travelers build a stronger local route.","summary_el":"Ταβέρνα Βιλαέτι είναι ένα επιλεγμένο σημείο φαγητού στην περιοχή Greece και ανήκει στη συλλογή Greek Restaurants. Συνδέεται με 0 κοντινές προτάσεις του Googlementor για πιο ολοκληρωμένη εμπειρία.","vibe_tags":["curated"],"best_for":["first-time visitors","food lovers"],"visit_moments":["lunch stop","dinner stop"],"practical_note":"Address and direct map link are available for easy turn-by-turn access.","nearby_walkable_count":0,"nearby_count_2km":1,"confidence":0.9},"areaContext":null,"intentContexts":[]},"__N_SSG":true}