{"pageProps":{"entity":{"id":"luxuryDiningRestaurants_2ae90f83c8cf","slug":"the-secret-gorge-restaurant-wine-tasting-experience-2ae9","kind":"restaurant","name":"The Secret Gorge - Restaurant & Wine Tasting Experience","lat":35.36437434920116,"lng":24.419370445837004,"url":"https://maps.app.goo.gl/gPHcQmEJJv1GDCXa7?g_st=ipc","address":"3rd Klm. National Road, Rethymno 741 50","categoryIds":["luxury-dining","wineries-vineyards"],"categories":["Luxury Dining","Wineries & Vineyards"],"legacySlugs":["the-secret-gorge-restaurant-wine-tasting-experience-46f1"]},"sameCategory":[{"id":"fishTavernasRestaurants_052e930b9594","slug":"thalassino-ageri-052e","kind":"restaurant","name":"Thalassino Ageri","lat":35.519850213268185,"lng":24.037118927264085,"url":"https://maps.app.goo.gl/6SKxxTD4XKy95nvdA?g_st=ipc","address":"Vivilaki str 35 Tabakaria, Chania 731 33","categoryIds":["fish-tavernas","luxury-dining"],"categories":["Fish Tavernas","Luxury Dining"],"legacySlugs":["thalassino-ageri-7d75"]},{"id":"luxuryDiningRestaurants_e1d805e6a099","slug":"makris-elounda-fine-dining-restaurant-by-domes-e1d8","kind":"restaurant","name":"Makris Elounda Fine Dining Restaurant by Domes","lat":35.289457611664844,"lng":25.729231449277293,"url":"https://maps.app.goo.gl/5ZKMq3CQuLYPt9qu7?g_st=ipc","address":"Domes of Elounda, Tsifliki, Schisma Elountas 720 53","categoryIds":["luxury-dining"],"categories":["Luxury Dining"]},{"id":"luxuryDiningRestaurants_de6ed2283d49","slug":"dionysos-restaurant-elounda-de6e","kind":"restaurant","name":"Dionysos restaurant elounda","lat":35.24868944871254,"lng":25.730385349919736,"url":"https://maps.app.goo.gl/XzHLEvGxzDciEKDY8?g_st=ipc","address":"Unnamed Road, Ag. Nikolaos 720 53","categoryIds":["luxury-dining"],"categories":["Luxury Dining"]},{"id":"luxuryDiningRestaurants_c4314de9f562","slug":"alali-restaurant-c431","kind":"restaurant","name":"Alali Restaurant","lat":36.36348374683768,"lng":25.385971079626298,"url":"https://maps.app.goo.gl/bj4VGwDTK6k29a2h8?g_st=ipc","address":"epar. od. akrotiriou, Akrotiri 847 00","categoryIds":["luxury-dining"],"categories":["Luxury Dining"]},{"id":"luxuryDiningRestaurants_a54c6ec9f1fa","slug":"selene-restaurant-a54c","kind":"restaurant","name":"Selene Restaurant","lat":36.4214954695669,"lng":25.43077555199888,"url":"https://maps.app.goo.gl/WMAKe6khJLqtbDgo7?g_st=ipc","address":"Old catholic monastery, Thira 847 00","categoryIds":["luxury-dining"],"categories":["Luxury Dining"]},{"id":"luxuryDiningRestaurants_20e2fea855d8","slug":"varoulko-santorini-within-grace-hotel-20e2","kind":"restaurant","name":"Varoulko Santorini (within Grace Hotel)","lat":36.432959672130295,"lng":25.420955482423597,"url":"https://maps.app.goo.gl/8GTiiHfZwjCgosfT6?g_st=ipc","address":"Imerovigli Thira, Santorini 847 00","categoryIds":["luxury-dining"],"categories":["Luxury Dining"]},{"id":"luxuryDiningRestaurants_60ed304175f8","slug":"koukoumavlos-restaurant-60ed","kind":"restaurant","name":"Koukoumavlos Restaurant","lat":36.43146159101605,"lng":25.424418520966256,"url":"https://maps.app.goo.gl/uc1kbLbBqgnUhLot7?g_st=ipc","address":"Imerovigli 847 00","categoryIds":["luxury-dining"],"categories":["Luxury Dining"]},{"id":"luxuryDiningRestaurants_1dc2bd6a8064","slug":"elements-restaurant-bar-1dc2","kind":"restaurant","name":"Elements Restaurant Bar","lat":36.46364006260335,"lng":25.371104539849476,"url":"https://maps.app.goo.gl/ehAKLfSTD13fa851A?g_st=ipc","address":"Oia 847 02","categoryIds":["luxury-dining"],"categories":["Luxury Dining"]},{"id":"luxuryDiningRestaurants_92281f88cd62","slug":"lauda-restaurant-9228","kind":"restaurant","name":"Lauda Restaurant","lat":36.461955784508554,"lng":25.377938602582883,"url":"https://maps.app.goo.gl/qsriKPJsQcgJ43x46?g_st=ipc","address":"Oia 847 02","categoryIds":["luxury-dining"],"categories":["Luxury Dining"]},{"id":"luxuryDiningRestaurants_ab3674135abd","slug":"lycabettus-restaurant-ab36","kind":"restaurant","name":"Lycabettus Restaurant","lat":36.4620987049079,"lng":25.379910060169035,"url":"https://maps.app.goo.gl/2mrH4kakyMDha6iV9?g_st=ipc","address":"Nik. Nomikou, Oía 847 02","categoryIds":["luxury-dining"],"categories":["Luxury Dining"]},{"id":"luxuryDiningRestaurants_473c799c8410","slug":"botrini-s-santorini-473c","kind":"restaurant","name":"Botrini's Santorini","lat":36.46201811215205,"lng":25.382543844805166,"url":"https://maps.app.goo.gl/e9tmihEjv2QRq6DKA?g_st=ipc","address":"Main Street, Nik. Nomikou, Oía 847 02","categoryIds":["luxury-dining"],"categories":["Luxury Dining"]},{"id":"fishTavernasRestaurants_088f1a113b0b","slug":"afropsaro-santorini-088f","kind":"restaurant","name":"Afropsaro Santorini","lat":36.44373697181477,"lng":25.4260466585142,"url":"https://maps.app.goo.gl/ocoYehgdG9tZzoCd6?g_st=ipc","address":"Imerovigli 847 00","categoryIds":["fish-tavernas","luxury-dining"],"categories":["Fish Tavernas","Luxury Dining"],"legacySlugs":["afropsaro-santorini-da47"]}],"nearby":[{"id":"greekRestaurants_b50a3b0926c1","slug":"raki-ba-raki-b50a","kind":"restaurant","name":"Raki Ba Raki","lat":35.370091171281985,"lng":24.473900295265366,"url":"https://maps.app.goo.gl/9dE1VSZKrMDMbd5q8?g_st=ipc","address":"Ραδαμάνθυος 16, Ρέθυμνο 741 31","categoryIds":["greek-restaurants"],"categories":["Greek Restaurants"],"distanceKm":4.98518379298352},{"id":"greekRestaurants_025e209eb62b","slug":"hasika-025e","kind":"restaurant","name":"Hasika","lat":35.36781760941864,"lng":24.474835852084063,"url":"https://maps.app.goo.gl/hVvx64ssnxuZvpzs7?g_st=ipc","address":"Αγίας Βαρβάρας 11-13, Ρέθυμνο 741 31","categoryIds":["greek-restaurants"],"categories":["Greek Restaurants"],"distanceKm":5.043943286021076},{"id":"coffeeBrunchRestaurants_0e2f635e730f","slug":"savoidakis-bakery-patisserie-rethymno-0e2f","kind":"restaurant","name":"Σαβοϊδάκης Bakery & Patisserie, Ρέθυμνο","lat":35.364498475258735,"lng":24.48871039963828,"url":"https://maps.app.goo.gl/JMMKwevbapcLZ5jw5?g_st=ipc","address":"Mark. Portaliou 57, Rethymno 741 50","categoryIds":["coffee-brunch","desserts"],"categories":["Coffee & Brunch Spots","Dessert Shops"],"legacySlugs":["savoidakis-bakery-patisserie-rethymno-b443"],"distanceKm":6.2876260780432505},{"id":"familyFriendly_179239195c85","slug":"biotopoi-of-crete-nature-park-1792","kind":"restaurant","name":"Biotopoi of Crete Nature Park","lat":35.36002627927518,"lng":24.496326916546945,"url":"https://maps.app.goo.gl/bgFXGA2JPNnDk4Nh8?g_st=ipc","address":"Kalaitzakis Kastelakia, Rethymno 741 33","categoryIds":["family-friendly"],"categories":["Kid Friendly Locations"],"distanceKm":6.995183346386049},{"id":"familyFriendly_e3a260aa1584","slug":"calcetto-e3a2","kind":"restaurant","name":"Calcetto","lat":35.35988785622983,"lng":24.496442751230653,"url":"https://maps.app.goo.gl/acAH5pkUBqCJVJGj6?g_st=ipc","address":"Ιωάννου Καλαϊτζάκη, Rethymno 741 00","categoryIds":["family-friendly"],"categories":["Kid Friendly Locations"],"distanceKm":7.006747265613989},{"id":"greekRestaurants_640a14efa101","slug":"taverna-alekos-640a","kind":"restaurant","name":"Ταβέρνα Αλέκος","lat":35.30375888651602,"lng":24.459324408714505,"url":"https://maps.app.goo.gl/PgBU6UUwxg9oXgGh6?g_st=ipc","address":"Επαρ.Οδ. Ρέθυμνου-Αγίας Γαλήνης, Αρμένοι 741 50","categoryIds":["greek-restaurants"],"categories":["Greek Restaurants"],"distanceKm":7.652776884963941},{"id":"familyFriendly_647731b73787","slug":"lake-kournas-6477","kind":"restaurant","name":"Lake Kournas","lat":35.33085393719484,"lng":24.275768556511693,"url":"https://maps.app.goo.gl/jBCqSTmypZMRabtf7?g_st=ipc","address":"Georgioupoli 730 07","categoryIds":["family-friendly"],"categories":["Kid Friendly Locations"],"distanceKm":13.547096587730344},{"id":"greekRestaurants_454ccdf9aa06","slug":"vrisi-restaurant-454c","kind":"restaurant","name":"Vrisi Restaurant","lat":35.19843251555281,"lng":24.402218916691474,"url":"https://maps.app.goo.gl/hnANNzynf7sfyaKTA?g_st=ipc","address":"Μύρθιος, 740 60","categoryIds":["greek-restaurants"],"categories":["Greek Restaurants"],"distanceKm":18.5174531145974},{"id":"wineriesVineyards_b838da26d565","slug":"dourakis-winery-b838","kind":"restaurant","name":"Dourakis Winery","lat":35.34955760746719,"lng":24.203022751558134,"url":"https://maps.app.goo.gl/RrgeX3PAEePKPZU79?g_st=ipc","address":"Alikampos, Apokoronou, CHANIA 730 07","categoryIds":["wineries-vineyards"],"categories":["Wineries & Vineyards"],"distanceKm":19.688849667562188},{"id":"mustSeeAttractions_da0706993263","slug":"arkadi-monastery-da07","kind":"restaurant","name":"Arkadi Monastery","lat":35.30989822185389,"lng":24.629043901550116,"url":"https://maps.app.goo.gl/sig6rYbJ8UK4ZqaX7?g_st=ipc","address":"Arkadi 741 50","categoryIds":["attractions"],"categories":["Must-See Attractions"],"distanceKm":19.960533446294587},{"id":"greekRestaurants_5e3d51ca0200","slug":"parasia-chania-vamos-parasia-chania-vamos-5e3d","kind":"restaurant","name":"Παρασιά Χανιά Βάμος- Parasia Chania Vamos","lat":35.4074884812459,"lng":24.18598092998549,"url":"https://maps.app.goo.gl/BmHbkuLGE1ioGoyp8?g_st=ipc","address":"διαλέξτε τον επαρχιακό δρόμο, Από Ρέθυμνο βγείτε δεξιά στην έξοδο στο ελαιουργειο Κανάκη και έπειτα πάρτε τον επαρχιακό δρόμο προς Παρασιά, Από, Βρύσες 730 08","categoryIds":["greek-restaurants"],"categories":["Greek Restaurants"],"distanceKm":21.694002768780337}],"mentionedGuides":[],"canonicalSlug":"the-secret-gorge-restaurant-wine-tasting-experience-2ae9","enrichment":{"summary_en":"The Secret Gorge - Restaurant & Wine Tasting Experience is a curated restaurant in Rethymno 741 50 in the Luxury Dining collection. It is connected to 0 nearby Googlementor picks to help travelers build a stronger local route.","summary_el":"The Secret Gorge - Restaurant & Wine Tasting Experience είναι ένα επιλεγμένο σημείο φαγητού στην περιοχή Rethymno 741 50 και ανήκει στη συλλογή Luxury Dining. Συνδέεται με 0 κοντινές προτάσεις του Googlementor για πιο ολοκληρωμένη εμπειρία.","vibe_tags":["curated","premium-dining","wine-moment"],"best_for":["first-time visitors","food lovers","special occasions"],"visit_moments":["lunch stop","dinner stop"],"practical_note":"Address and direct map link are available for easy turn-by-turn access.","nearby_walkable_count":0,"nearby_count_2km":0,"confidence":0.9},"areaContext":null,"intentContexts":[]},"__N_SSG":true}