{"pageProps":{"entity":{"id":"fishTavernasRestaurants_bd9876636f9e","slug":"to-steki-tou-psara-bd98","kind":"restaurant","name":"To steki tou psara","lat":40.66006472959922,"lng":22.944806880091097,"url":"https://maps.app.goo.gl/7KH5KmXVrcaeNEh36","address":"Agnostou Stratiotou 33, Polichni 565 33","categoryIds":["fish-tavernas"],"categories":["Fish Tavernas"]},"sameCategory":[{"id":"fishTavernasRestaurants_bc4a7296f096","slug":"ouzo-jordan-bc4a","kind":"restaurant","name":"Ouzo Jordan","lat":40.66214244715697,"lng":22.949433655289134,"url":"https://maps.app.goo.gl/sSPrTBB7crBhtfLs6?g_st=ipc","address":"Stadiou 6, Thessaloniki 565 33","categoryIds":["fish-tavernas"],"categories":["Fish Tavernas"]},{"id":"fishTavernasRestaurants_20b8b4ae6be5","slug":"karnagio-psarotaverna-20b8","kind":"restaurant","name":"Καρνάγιο ΨΑΡΟΤΑΒΕΡΝΑ","lat":40.65672226446403,"lng":22.929289665430808,"url":"https://maps.app.goo.gl/dET6AhcimdU74KXm7?g_st=ipc","address":"Akriton 15, Ampelokipi 561 23","categoryIds":["fish-tavernas"],"categories":["Fish Tavernas"]},{"id":"fishTavernasRestaurants_669c4e5a11b9","slug":"nisaki-669c","kind":"restaurant","name":"Nisaki","lat":40.656777734821844,"lng":22.92922500008805,"url":"https://maps.app.goo.gl/hvKpXiAYMeS5Y9za8?g_st=ipc","address":"Akriton 13, Ampelokipi 561 23","categoryIds":["fish-tavernas"],"categories":["Fish Tavernas"]},{"id":"fishTavernasRestaurants_a0a70eb01c99","slug":"ouzeri-kosmas-a0a7","kind":"restaurant","name":"Ouzeri \"Kosmas\"","lat":40.64801268123014,"lng":22.93043130003418,"url":"https://maps.app.goo.gl/vEURBm27mFZ4pGJfA?g_st=ipc","address":"Vasilikis Papathanasiou 74, Thessaloniki 546 29","categoryIds":["fish-tavernas"],"categories":["Fish Tavernas"]},{"id":"fishTavernasRestaurants_f7102e19ba0d","slug":"koukida-fun-seafood-f710","kind":"restaurant","name":"Koukida Fun-Seafood","lat":40.643445839214266,"lng":22.95570392041812,"url":"https://maps.app.goo.gl/B9KYRcx4RDrq1Zh48?g_st=ipc","address":"Agrafon 13, Thessaloniki 546 34","categoryIds":["fish-tavernas"],"categories":["Fish Tavernas"]},{"id":"fishTavernasRestaurants_ec7fddf4df43","slug":"mourga-ec7f","kind":"restaurant","name":"Mourga","lat":40.635412338789585,"lng":22.94963013274726,"url":"https://maps.app.goo.gl/u7q8zzuEjPhJ53mR7?g_st=ipc","address":"Christopoulou 12, Thessaloniki 546 35","categoryIds":["fish-tavernas"],"categories":["Fish Tavernas"]},{"id":"fishTavernasRestaurants_8db62faa099d","slug":"soyrtoyko-mezedopoleio-8db6","kind":"restaurant","name":"Σουρτουκω μεζεδοπωλειο","lat":40.63587084309679,"lng":22.93649033295163,"url":"https://maps.app.goo.gl/2gKngBbQebvZETCi6?g_st=ipc","address":"Likourgou 3, Thessaloniki 546 25","categoryIds":["fish-tavernas"],"categories":["Fish Tavernas"]},{"id":"fishTavernasRestaurants_8f9bed2e06ef","slug":"mezen-salonica-8f9b","kind":"restaurant","name":"Mezen Salonica","lat":40.634689809940646,"lng":22.93869474433628,"url":"https://maps.app.goo.gl/gwG2QG5GLKMHTAKd8?g_st=ipc","address":"Rogkoti 3, Thessaloniki 546 24","categoryIds":["fish-tavernas"],"categories":["Fish Tavernas"]},{"id":"fishTavernasRestaurants_34f5266090d9","slug":"frutti-di-mare-34f5","kind":"restaurant","name":"Frutti Di Mare","lat":40.63438694848729,"lng":22.940888460152426,"url":"https://maps.app.goo.gl/QXynDpqsYRkbv9EK8?g_st=ipc","address":"Komninon 20, Thessaloniki 546 24","categoryIds":["fish-tavernas"],"categories":["Fish Tavernas"]},{"id":"fishTavernasRestaurants_848f1aa03974","slug":"bakaliarakia-tou-aristou-848f","kind":"restaurant","name":"Bakaliarakia tou Aristou","lat":40.634280544207144,"lng":22.93689333971641,"url":"https://maps.app.goo.gl/Y3cfc1d6DqQAP2VX9?g_st=ipc","address":"Katouni 3, Thessaloniki 546 25","categoryIds":["fish-tavernas"],"categories":["Fish Tavernas"]},{"id":"fishTavernasRestaurants_d0a79fe35429","slug":"7-thalasses-d0a7","kind":"restaurant","name":"7 Thalasses","lat":40.63335235155445,"lng":22.93920259335502,"url":"https://maps.app.goo.gl/Y7xSN6vCv7jLy7oPA?g_st=ipc","address":"Kalapothaki 10, Thessaloniki 546 24","categoryIds":["fish-tavernas","luxury-dining"],"categories":["Fish Tavernas","Luxury Dining"],"legacySlugs":["7-thalasses-f9b8"]},{"id":"fishTavernasRestaurants_922d6e12caee","slug":"grada-nuevo-922d","kind":"restaurant","name":"Grada nuevo","lat":40.63326503370027,"lng":22.939389299837984,"url":"https://maps.app.goo.gl/rQ6F7EFgSPvzE7iK6?g_st=ipc","address":"Kalapothaki 14, Thessaloniki 546 24","categoryIds":["fish-tavernas","luxury-dining"],"categories":["Fish Tavernas","Luxury Dining"],"legacySlugs":["grada-nuevo-c78b"]}],"nearby":[{"id":"cheapEatsRestaurants_07b527cd1a8e","slug":"dia-xoiros-polixni-07b5","kind":"restaurant","name":"Dia Xoiros Polixni","lat":40.658685525095265,"lng":22.942609620515523,"url":"https://maps.app.goo.gl/4YvZLZyRTdLs8Tpz7?g_st=ipc","address":"Agnostou Stratiotou 13, Polichni 565 33","categoryIds":["cheap-eats"],"categories":["Gyros & Cheap Eats"],"distanceKm":0.24056525206495907},{"id":"cheapEatsRestaurants_30688d61885b","slug":"steakhouse-stelios-3068","kind":"restaurant","name":"Steakhouse \"Stelios\"","lat":40.65823566269056,"lng":22.942075529553357,"url":"https://maps.app.goo.gl/9ryfqmhFoEZjSBu89?g_st=ipc","address":"Agnostou Stratiotou 40, Polichni 565 33","categoryIds":["cheap-eats"],"categories":["Gyros & Cheap Eats"],"distanceKm":0.30732213098783423},{"id":"coffeeBrunchRestaurants_964653005e5d","slug":"maharaja-skg-heaven-of-shisha-9646","kind":"restaurant","name":"MAHARAJA SKG - Heaven of Shisha","lat":40.658033849704225,"lng":22.941967646222036,"url":"https://maps.app.goo.gl/Ct3Z2v1aCBYrtE5k9?g_st=ipc","address":"Agnostou Stratiotou 36, Polichni 565 33","categoryIds":["coffee-brunch"],"categories":["Coffee & Brunch Spots"],"distanceKm":0.3291729430519177},{"id":"familyFriendly_91fdc1b07999","slug":"parko-tzeni-karezi-91fd","kind":"restaurant","name":"Πάρκο Τζένη Καρέζη","lat":40.65858356268694,"lng":22.948886429553223,"url":"https://maps.app.goo.gl/GLfxf6LcGPn5DhUJA?g_st=ipc","address":"Polichni 565 32","categoryIds":["family-friendly"],"categories":["Kid Friendly Locations"],"distanceKm":0.3815012868885415},{"id":"fishTavernasRestaurants_bc4a7296f096","slug":"ouzo-jordan-bc4a","kind":"restaurant","name":"Ouzo Jordan","lat":40.66214244715697,"lng":22.949433655289134,"url":"https://maps.app.goo.gl/sSPrTBB7crBhtfLs6?g_st=ipc","address":"Stadiou 6, Thessaloniki 565 33","categoryIds":["fish-tavernas"],"categories":["Fish Tavernas"],"distanceKm":0.4535248019668068},{"id":"coffeeBrunchRestaurants_5e2abc98be89","slug":"ayli-open-air-coffee-bar-5e2a","kind":"restaurant","name":"Αυλή Open Air Coffee Bar","lat":40.65671676420057,"lng":22.939866059031072,"url":"https://maps.app.goo.gl/awEDoCCaNWaCXmC17?g_st=ipc","address":"Πάρκο, Davaki, Neapoli 567 27","categoryIds":["coffee-brunch"],"categories":["Coffee & Brunch Spots"],"distanceKm":0.558830153297039},{"id":"italianRestaurants_753fa8defec2","slug":"raffaele-pizza-pasta-753f","kind":"restaurant","name":"Raffaele Pizza & Pasta","lat":40.66556499607672,"lng":22.94711551769067,"url":"https://maps.app.goo.gl/EpFwtHWFaS5GMZ8C9?g_st=ipc","address":"40.6655613219397, 22.94711932792721","categoryIds":["italian"],"categories":["Italian Restaurants"],"distanceKm":0.6418534122115201},{"id":"italianRestaurants_8d018442e7f5","slug":"freskia-zymi-pizza-pasta-fresca-8d01","kind":"restaurant","name":"Freskia zymi,pizza ,pasta fresca","lat":40.654424928028824,"lng":22.93913723718484,"url":"https://maps.app.goo.gl/Nhxk1VKn5ej1EsSF6?g_st=ipc","address":"P. Tsaldari 29, Neapoli 567 27","categoryIds":["italian"],"categories":["Italian Restaurants"],"distanceKm":0.7886762076087453},{"id":"greekRestaurants_8b274eab2a6d","slug":"taverna-to-roloi-8b27","kind":"restaurant","name":"Ταβέρνα το Ρολόι","lat":40.652570939966324,"lng":22.941580979423406,"url":"https://maps.app.goo.gl/PNNn8uDapDZFBdjd6?g_st=ipc","address":"Ελ. Βενιζέλου 87, Νεάπολη 567 28","categoryIds":["greek-restaurants"],"categories":["Greek Restaurants"],"distanceKm":0.8765800761738839},{"id":"greekRestaurants_35929975107f","slug":"tandur-meze-bar-3592","kind":"restaurant","name":"Tandur meze-bar","lat":40.65350641836204,"lng":22.93893939189117,"url":"https://maps.app.goo.gl/i8gDRLqa1MtexdZ17?g_st=ipc","address":"Αγίου Γεωργίου 42, Νεάπολη 567 27","categoryIds":["greek-restaurants"],"categories":["Greek Restaurants"],"distanceKm":0.8813548967220576},{"id":"coffeeBrunchRestaurants_0052077d62fc","slug":"merenda-coffee-wine-more-0052","kind":"restaurant","name":"Merenda Coffee Wine & More","lat":40.651073348117436,"lng":22.945590441346173,"url":"https://maps.app.goo.gl/AiQwHhGbA2vVd8nH7?g_st=ipc","address":"Flogiton 2, Neapoli 567 28","categoryIds":["coffee-brunch"],"categories":["Coffee & Brunch Spots"],"distanceKm":1.001978593030251},{"id":"coffeeBrunchRestaurants_9f516ac09de5","slug":"tsitsanki-9f51","kind":"restaurant","name":"Tsitsanki","lat":40.65105910915655,"lng":22.93545214874879,"url":"https://maps.app.goo.gl/fcosc9VFnpPap1qs5?g_st=ipc","address":"Λαγκαδά 116, Neapoli 567 27","categoryIds":["coffee-brunch"],"categories":["Coffee & Brunch Spots"],"distanceKm":1.2749495744027954},{"id":"fishTavernasRestaurants_20b8b4ae6be5","slug":"karnagio-psarotaverna-20b8","kind":"restaurant","name":"Καρνάγιο ΨΑΡΟΤΑΒΕΡΝΑ","lat":40.65672226446403,"lng":22.929289665430808,"url":"https://maps.app.goo.gl/dET6AhcimdU74KXm7?g_st=ipc","address":"Akriton 15, Ampelokipi 561 23","categoryIds":["fish-tavernas"],"categories":["Fish Tavernas"],"distanceKm":1.3606723248728931},{"id":"fishTavernasRestaurants_669c4e5a11b9","slug":"nisaki-669c","kind":"restaurant","name":"Nisaki","lat":40.656777734821844,"lng":22.92922500008805,"url":"https://maps.app.goo.gl/hvKpXiAYMeS5Y9za8?g_st=ipc","address":"Akriton 13, Ampelokipi 561 23","categoryIds":["fish-tavernas"],"categories":["Fish Tavernas"],"distanceKm":1.3642545149885386},{"id":"cheapEatsRestaurants_d40ad575edd7","slug":"michelangelo-skg-d40a","kind":"restaurant","name":"Michelangelo.skg","lat":40.65053808833563,"lng":22.95671243903333,"url":"https://maps.app.goo.gl/nAwyYBALch1ybbQSA?g_st=ipc","address":"Riga Feraiou 162, Sikies 566 26","categoryIds":["cheap-eats","italian"],"categories":["Gyros & Cheap Eats","Italian Restaurants"],"legacySlugs":["michelangelo-skg-4e92"],"distanceKm":1.4597277904784558},{"id":"italianRestaurants_767d6c96919e","slug":"funghi-pizza-pasta-767d","kind":"restaurant","name":"Funghi Pizza & Pasta","lat":40.6605072820276,"lng":22.9274131044966,"url":"https://maps.app.goo.gl/SJNcMHpxLNtQxnKLA?g_st=ipc","address":"Iatrou Gogousi 25, κέντρο 564 30","categoryIds":["italian"],"categories":["Italian Restaurants"],"distanceKm":1.468006185185637},{"id":"asianRestaurants_4caa87d6e139","slug":"sushaki-greek-sushi-experience-4caa","kind":"restaurant","name":"Sushaki | Greek Sushi Experience","lat":40.650072445284856,"lng":22.958835229549017,"url":"https://maps.app.goo.gl/5vFVT9HMbgmQ6Erc6","address":"Eptapirgiou 75, Sikies 566 26","categoryIds":["asian"],"categories":["Asian Restaurants"],"distanceKm":1.6232535552859284},{"id":"cheapEatsRestaurants_2966a9f7f7df","slug":"karbouniariko-2966","kind":"restaurant","name":"Karbouniáriko","lat":40.65687885553669,"lng":22.9247874320993,"url":"https://maps.app.goo.gl/HehrRz31yKnDYNa49?g_st=ipc","address":"Nik. Plastira 11, Ampelokipi 561 23","categoryIds":["cheap-eats"],"categories":["Gyros & Cheap Eats"],"distanceKm":1.7254621981895268},{"id":"fishTavernasRestaurants_a0a70eb01c99","slug":"ouzeri-kosmas-a0a7","kind":"restaurant","name":"Ouzeri \"Kosmas\"","lat":40.64801268123014,"lng":22.93043130003418,"url":"https://maps.app.goo.gl/vEURBm27mFZ4pGJfA?g_st=ipc","address":"Vasilikis Papathanasiou 74, Thessaloniki 546 29","categoryIds":["fish-tavernas"],"categories":["Fish Tavernas"],"distanceKm":1.807373215496357},{"id":"greekRestaurants_284ab55d844a","slug":"drosia-284a","kind":"restaurant","name":"Δροσιά","lat":40.64461236646585,"lng":22.953803286668357,"url":"https://maps.app.goo.gl/APT3HJiqoZGsnyPs9?g_st=ipc","address":"Μεσολογγίου 44, Θεσσαλονίκη 566 25","categoryIds":["greek-restaurants"],"categories":["Greek Restaurants"],"distanceKm":1.878375246303586},{"id":"cheapEatsRestaurants_59e2b6d2677d","slug":"to-prytaneio-59e2","kind":"restaurant","name":"Το Πρυτανείο","lat":40.64303995879506,"lng":22.947630622213342,"url":"https://maps.app.goo.gl/p1mkurFCqsY7XC3w5?g_st=ipc","address":"Alexandras Papadopoulou 72, Thessaloniki 546 33","categoryIds":["cheap-eats"],"categories":["Gyros & Cheap Eats"],"distanceKm":1.907997396695127},{"id":"cheapEatsRestaurants_6688c0081a92","slug":"ta-babatsika-giro-6688","kind":"restaurant","name":"Ta Babatsika Giro","lat":40.647745410832044,"lng":22.928067747195957,"url":"https://maps.app.goo.gl/gB9jG1sW8aaCssEs7?g_st=ipc","address":"Αγίων Πάντων 28, Thessaloniki 561 23","categoryIds":["cheap-eats"],"categories":["Gyros & Cheap Eats"],"distanceKm":1.9673570788939083},{"id":"greekRestaurants_a8a1bbc57cf3","slug":"mezedopoleio-sto-dentro-a8a1","kind":"restaurant","name":"Μεζεδοπωλείο στο δέντρο","lat":40.673779680558496,"lng":22.92834851143696,"url":"https://maps.app.goo.gl/94LTg5t1pACd8qHWA?g_st=ipc","address":"Στρ. Μακρυγιάννη 39, Σταυρούπολη 564 31","categoryIds":["greek-restaurants"],"categories":["Greek Restaurants"],"distanceKm":2.0621978181443903},{"id":"fishTavernasRestaurants_f7102e19ba0d","slug":"koukida-fun-seafood-f710","kind":"restaurant","name":"Koukida Fun-Seafood","lat":40.643445839214266,"lng":22.95570392041812,"url":"https://maps.app.goo.gl/B9KYRcx4RDrq1Zh48?g_st=ipc","address":"Agrafon 13, Thessaloniki 546 34","categoryIds":["fish-tavernas"],"categories":["Fish Tavernas"],"distanceKm":2.0639690475192127}],"mentionedGuides":[],"canonicalSlug":"to-steki-tou-psara-bd98","enrichment":{"summary_en":"To steki tou psara is a curated restaurant in Polichni 565 33 in the Fish Tavernas collection. It is connected to 8 nearby Googlementor picks to help travelers build a stronger local route.","summary_el":"To steki tou psara είναι ένα επιλεγμένο σημείο φαγητού στην περιοχή Polichni 565 33 και ανήκει στη συλλογή Fish Tavernas. Συνδέεται με 8 κοντινές προτάσεις του Googlementor για πιο ολοκληρωμένη εμπειρία.","vibe_tags":["curated","seafood-local"],"best_for":["first-time visitors","food lovers"],"visit_moments":["lunch stop","dinner stop"],"practical_note":"Address and direct map link are available for easy turn-by-turn access.","nearby_walkable_count":8,"nearby_count_2km":27,"confidence":0.98},"areaContext":{"slug":"polichni","name":"Polichni","nameEl":"Πολίχνη"},"intentContexts":[{"href":"/fish-tavernas/polichni","label":"Fish Tavernas in Polichni","categorySlug":"fish-tavernas","categoryName":"Fish Tavernas","areaSlug":"polichni","areaName":"Polichni","areaNameEl":"Πολίχνη"}]},"__N_SSG":true}