{"pageProps":{"entity":{"id":"vegetarianRestaurants_9509b84d5e8c","slug":"v-for-vita-9509","kind":"restaurant","name":"V For Vita","lat":40.240211315315356,"lng":23.28368813091845,"url":"https://maps.app.goo.gl/5vCV3e8KbGqG5dav5?g_st=ipc","address":"Eligmon 3, Nea Moudania 632 00","categoryIds":["vegetarian"],"categories":["Vegetarian Friendly Restaurants"]},"sameCategory":[{"id":"coffeeBrunchRestaurants_cae5ad9a4492","slug":"join-juice-bars-cae5","kind":"restaurant","name":"JOIN juice bars","lat":40.555069982077164,"lng":22.99254169325442,"url":"https://maps.app.goo.gl/VvKcZzDAukezDVie8?g_st=ipc","address":"11ο χλμ εθνικής οδού, A/D Thessalonikis Neon Moudanion, Thessaloniki 570 01","categoryIds":["coffee-brunch","vegetarian"],"categories":["Coffee & Brunch Spots","Vegetarian Friendly Restaurants"],"legacySlugs":["join-juice-bars-7a1d"]},{"id":"vegetarianRestaurants_02c8bc386448","slug":"falafeleria-02c8","kind":"restaurant","name":"Falafeleria","lat":40.5988199696969,"lng":22.95250846403434,"url":"https://maps.app.goo.gl/snuFukejKVaEqQ597?g_st=ipc","address":"25is Martiou 14, Thessaloniki 546 46","categoryIds":["vegetarian"],"categories":["Vegetarian Friendly Restaurants"]},{"id":"vegetarianRestaurants_afbddf6d4612","slug":"falaifel-afbd","kind":"restaurant","name":"Falaifel","lat":40.605220221287475,"lng":22.958853196988702,"url":"https://maps.app.goo.gl/GhD8UrgWEeP9DmB59?g_st=ipc","address":"Geor. Drosini 12, Thessaloniki 546 44","categoryIds":["vegetarian"],"categories":["Vegetarian Friendly Restaurants"]},{"id":"coffeeBrunchRestaurants_b086083463ae","slug":"join-juice-bars-b086","kind":"restaurant","name":"JOIN juice bars","lat":40.60107511267006,"lng":22.949804539088774,"url":"https://maps.app.goo.gl/LQXcNjB3LwE4q56r7?g_st=ipc","address":"Marias Kallas 1, Thessaloniki 546 45","categoryIds":["coffee-brunch","vegetarian"],"categories":["Coffee & Brunch Spots","Vegetarian Friendly Restaurants"],"legacySlugs":["join-juice-bars-124c"]},{"id":"coffeeBrunchRestaurants_3f47d83b09c0","slug":"butterflies-and-hurricanes-3f47","kind":"restaurant","name":"Butterflies And Hurricanes","lat":40.61464844201882,"lng":22.960841697890658,"url":"https://maps.app.goo.gl/Gesp19RwCPBWQ9s58?g_st=ipc","address":"Pindarou 1, Thessaloniki 546 39","categoryIds":["coffee-brunch","vegetarian"],"categories":["Coffee & Brunch Spots","Vegetarian Friendly Restaurants"],"legacySlugs":["butterflies-and-hurricanes-37b6"]},{"id":"vegetarianRestaurants_40634af2ec79","slug":"falafel-taste-middle-east-4063","kind":"restaurant","name":"Falafel Taste Middle East","lat":40.62785484140031,"lng":22.949330420414434,"url":"https://maps.app.goo.gl/bHy6BTfdp9RBhdBt6?g_st=ipc","address":"Mitropoleos 106 &, Romanou, Thessaloniki 546 21","categoryIds":["vegetarian"],"categories":["Vegetarian Friendly Restaurants"]},{"id":"vegetarianRestaurants_b82222e81ca2","slug":"merry-berry-health-bar-b822","kind":"restaurant","name":"Merry Berry Health Bar","lat":40.62787788837935,"lng":22.947534537868144,"url":"https://maps.app.goo.gl/9NhW77pMY2C6xJxq8?g_st=ipc","address":"Dim. Gounari 5, Thessaloniki 546 22","categoryIds":["vegetarian"],"categories":["Vegetarian Friendly Restaurants"]},{"id":"coffeeBrunchRestaurants_459993a6b6f4","slug":"join-juice-bars-4599","kind":"restaurant","name":"JOIN juice bars","lat":40.62769069211422,"lng":22.947117280367095,"url":"https://maps.app.goo.gl/7fKny43wd3q96T1s5?g_st=ipc","address":"Leof. Nikis 73, Thessaloniki 546 22","categoryIds":["coffee-brunch","vegetarian"],"categories":["Coffee & Brunch Spots","Vegetarian Friendly Restaurants"],"legacySlugs":["join-juice-bars-c6f3"]},{"id":"vegetarianRestaurants_43af59721fc8","slug":"omg-in-skg-43af","kind":"restaurant","name":"OMG in SKG","lat":40.63186182844344,"lng":22.953097770969947,"url":"https://maps.app.goo.gl/b6twRtPbJbTuXUe26?g_st=ipc","address":"Episkopou Kitrous Nikolaou 1, Thessaloniki 546 35","categoryIds":["vegetarian"],"categories":["Vegetarian Friendly Restaurants"]},{"id":"vegetarianRestaurants_06643fab1947","slug":"the-heavy-melon-to-vari-peponi-0664","kind":"restaurant","name":"The Heavy Melon - To vari peponi","lat":40.6309548038653,"lng":22.94951618640559,"url":"https://maps.app.goo.gl/6ZPuKUN8mPNN6b4C9?g_st=ipc","address":"Apellou 4, Thessaloniki 546 22","categoryIds":["vegetarian"],"categories":["Vegetarian Friendly Restaurants"]},{"id":"coffeeBrunchRestaurants_1b425a72f2b5","slug":"join-juice-bars-1b42","kind":"restaurant","name":"JOIN Juice bars","lat":40.63111893989398,"lng":22.94663938125253,"url":"https://maps.app.goo.gl/N6nKzENHvyunx5Mi6?g_st=ipc","address":"Paleon Patron Germanou 10, Thessaloniki 546 22","categoryIds":["coffee-brunch","vegetarian"],"categories":["Coffee & Brunch Spots","Vegetarian Friendly Restaurants"],"legacySlugs":["join-juice-bars-6dea"]},{"id":"vegetarianRestaurants_ae93f5705c93","slug":"mushroom-skg-ae93","kind":"restaurant","name":"mushroom skg","lat":40.63168703304935,"lng":22.946978697189547,"url":"https://maps.app.goo.gl/F7WJFJ3rEhib4fX86?g_st=ipc","address":"Zefxidos 10, Thessaloniki 546 22","categoryIds":["vegetarian"],"categories":["Vegetarian Friendly Restaurants"]}],"nearby":[{"id":"fishTavernasRestaurants_360fe5857213","slug":"marina-360f","kind":"restaurant","name":"Marina","lat":40.19552411690556,"lng":23.323836693602985,"url":"https://maps.app.goo.gl/6oh9CPXimxwQ4vdG6?g_st=ipc","address":"POTIDAIA, Nea Potidea 632 00","categoryIds":["fish-tavernas"],"categories":["Fish Tavernas"],"distanceKm":6.0259148771409174},{"id":"greekRestaurants_5d95f90e24a6","slug":"ta-kastra-5d95","kind":"restaurant","name":"Τα Κάστρα","lat":40.19644489776472,"lng":23.325795895395796,"url":"https://maps.app.goo.gl/1jdDdXYAsWUehvoW8?g_st=ipc","address":"Κανάλι Νέας Ποτίδαιας, Νέα Ποτίδαια 632 00","categoryIds":["greek-restaurants"],"categories":["Greek Restaurants"],"distanceKm":6.03873182540098},{"id":"coffeeBrunchRestaurants_5784021e779f","slug":"lemonis-bakery-5784","kind":"restaurant","name":"Lemonis Bakery","lat":40.19513294653809,"lng":23.330689010754938,"url":"https://maps.app.goo.gl/K8vAnFPwrCRyavzCA?g_st=ipc","address":"Epar.Od. Poligirou - Neas Potideas, Nea Propontida 632 00","categoryIds":["coffee-brunch"],"categories":["Coffee & Brunch Spots"],"distanceKm":6.407116481837061},{"id":"greekRestaurants_e4db76cd737a","slug":"taverna-giannis-e4db","kind":"restaurant","name":"Ταβέρνα Γιάννης","lat":40.30643313313829,"lng":23.20731900101629,"url":"https://maps.app.goo.gl/uEtZqrvbUfiysQHn8?g_st=ipc","address":"Αγίας Παρασκευής 401, Νέα Τρίγλια 630 79","categoryIds":["greek-restaurants"],"categories":["Greek Restaurants"],"distanceKm":9.808128189186474},{"id":"greekRestaurants_4ed7350eaa50","slug":"massalia-nea-fokaia-4ed7","kind":"restaurant","name":"Μασσαλία - Νέα Φώκαια","lat":40.13302544916829,"lng":23.396518787610884,"url":"https://maps.app.goo.gl/uWerarGoWNG5Gpax8?g_st=ipc","address":"Πλατεια, Νέα Φώκαια 630 77","categoryIds":["greek-restaurants"],"categories":["Greek Restaurants"],"distanceKm":15.294318867684213},{"id":"familyFriendly_06f04540ae3b","slug":"sani-adventure-06f0","kind":"restaurant","name":"Sani Adventure","lat":40.10317902398793,"lng":23.309203578886024,"url":"https://maps.app.goo.gl/ZQzmktMRGdV4gQEMA?g_st=ipc","address":"Sani Resort, Sani 630 77","categoryIds":["family-friendly"],"categories":["Kid Friendly Locations"],"distanceKm":15.390747971191873},{"id":"coffeeBrunchRestaurants_f3e4019c450d","slug":"thokos-cafe-bar-bistro-f3e4","kind":"restaurant","name":"Thokos Cafe Bar Bistro","lat":40.13335777699941,"lng":23.402877403357074,"url":"https://maps.app.goo.gl/ek2Zc3cWzQTwhHRT9?g_st=ipc","address":"Nea. Fokea, Halkidiki, Nea Fokea 630 77","categoryIds":["coffee-brunch"],"categories":["Coffee & Brunch Spots"],"distanceKm":15.61032113281206},{"id":"fishTavernasRestaurants_713eeba74062","slug":"to-kyma-713e","kind":"restaurant","name":"To Kyma","lat":40.102311716094015,"lng":23.436768440109095,"url":"https://maps.app.goo.gl/AnRAQzdyuWf59ypc6?g_st=ipc","address":"Epar.Od. Paliouriou-Afitou, Afitos 630 77","categoryIds":["fish-tavernas"],"categories":["Fish Tavernas"],"distanceKm":20.1071202313523},{"id":"fishTavernasRestaurants_8245d15ce972","slug":"thea-thalassa-8245","kind":"restaurant","name":"Thea Thalassa","lat":40.100933443260715,"lng":23.43657383110183,"url":"https://maps.app.goo.gl/M9XGJaEeSqKPrPLY9?g_st=ipc","address":"Greece, Afitos 630 77","categoryIds":["fish-tavernas"],"categories":["Fish Tavernas"],"distanceKm":20.213691782646446},{"id":"fishTavernasRestaurants_fbb17c01a708","slug":"oceanides-seafood-restaurant-fbb1","kind":"restaurant","name":"Oceanides Seafood Restaurant","lat":40.10031320438252,"lng":23.437354189641624,"url":"https://maps.app.goo.gl/qubazwv6QdLJPnuv6?g_st=ipc","address":"Epar.Od. Paliouriou-Afitou, Afitos 630 77","categoryIds":["fish-tavernas"],"categories":["Fish Tavernas"],"distanceKm":20.309181873610044},{"id":"greekRestaurants_2313eb757566","slug":"to-palio-rementzo-2313","kind":"restaurant","name":"To Palio Rementzo","lat":40.09848139695357,"lng":23.43773202901174,"url":"https://maps.app.goo.gl/2T1nNQxZML5ZNxhC9?g_st=ipc","address":"Άφυτος 630 77","categoryIds":["greek-restaurants"],"categories":["Greek Restaurants"],"distanceKm":20.48622607474472},{"id":"greekRestaurants_d0d80608e58d","slug":"i-marigoyla-d0d8","kind":"restaurant","name":"Η Μαριγούλα","lat":40.38000488239708,"lng":23.441772367348097,"url":"https://maps.app.goo.gl/9UeaZ7pYurTaupV9A?g_st=ipc","address":"Κωνσταντινουπόλεως 7, Πολύγυρος 631 00","categoryIds":["greek-restaurants"],"categories":["Greek Restaurants"],"distanceKm":20.525627771486743},{"id":"greekRestaurants_9f92ac7d9fa1","slug":"kardamo-9f92","kind":"restaurant","name":"Kardamo","lat":40.097556175200374,"lng":23.437132587550042,"url":"https://maps.app.goo.gl/ePoWRBDG86ratDjz8?g_st=ipc","address":"Άφυτος 630 77","categoryIds":["greek-restaurants"],"categories":["Greek Restaurants"],"distanceKm":20.53315185669755},{"id":"greekRestaurants_5bb44ebf778d","slug":"metoxi-restaurant-5bb4","kind":"restaurant","name":"Metoxi restaurant","lat":40.065274134226456,"lng":23.39221583090552,"url":"https://maps.app.goo.gl/7wBDRqK9LUsGSLah7?g_st=ipc","address":"Κασσανδρεία 630 77","categoryIds":["greek-restaurants"],"categories":["Greek Restaurants"],"distanceKm":21.528162204776276},{"id":"dessertsRestaurants_3b5bf46add7e","slug":"terkenlis-3b5b","kind":"restaurant","name":"Terkenlis","lat":40.07236945700872,"lng":23.44461611117606,"url":"https://maps.app.goo.gl/HGnMQLpSqcLam8fR7?g_st=ipc","address":"Δημόσια, Θεσσαλονικής, Kallithea 630 77","categoryIds":["desserts"],"categories":["Dessert Shops"],"distanceKm":23.13782056442855},{"id":"cheapEatsRestaurants_c1994e1056ff","slug":"andoni-s-gyros-feed-c199","kind":"restaurant","name":"Andoni's Gyros Feed","lat":40.07464288630586,"lng":23.448992983256165,"url":"https://maps.app.goo.gl/L8R286xrXF2isCzv6?g_st=ipc","address":"Καλλιθέα 630 77","categoryIds":["cheap-eats"],"categories":["Gyros & Cheap Eats"],"distanceKm":23.15799942843106},{"id":"coffeeBrunchRestaurants_95ba17233631","slug":"almira-beach-bar-95ba","kind":"restaurant","name":"Almira beach bar","lat":40.072040605174976,"lng":23.452332342777385,"url":"https://maps.app.goo.gl/E5yFsVWCjLx3EVVM8?g_st=ipc","address":"Kassandra 630 77","categoryIds":["coffee-brunch"],"categories":["Coffee & Brunch Spots"],"distanceKm":23.560411631278438},{"id":"greekRestaurants_5f291c18ffbb","slug":"dias-restaurant-5f29","kind":"restaurant","name":"Dias Restaurant","lat":40.06967513248834,"lng":23.453446118410188,"url":"https://maps.app.goo.gl/CuNAkyg2DXjQVmd46?g_st=ipc","address":"Καλλιθέα Κασσανδρεια, Κασσανδρεία 630 77","categoryIds":["greek-restaurants"],"categories":["Greek Restaurants"],"distanceKm":23.827058530675643},{"id":"coffeeBrunchRestaurants_f566655a51a7","slug":"sahara-resort-f566","kind":"restaurant","name":"Sahara Resort","lat":40.3253593585324,"lng":23.020574138293206,"url":"https://maps.app.goo.gl/kqkoFkCe2U9nzS2E6?g_st=ipc","address":"Νέα Ηράκλεια 630 80","categoryIds":["coffee-brunch"],"categories":["Coffee & Brunch Spots"],"distanceKm":24.244213870324685},{"id":"wineriesVineyards_65599ab05a5f","slug":"tsantali-6559","kind":"restaurant","name":"Tsantali","lat":40.36907180251345,"lng":23.047266199347828,"url":"https://maps.app.goo.gl/yKNrVSuK1iy4L2Ls9?g_st=ipc","address":"Agios Pavlos 630 80","categoryIds":["wineries-vineyards"],"categories":["Wineries & Vineyards"],"distanceKm":24.642346036796834},{"id":"greekRestaurants_1af18cda6ed2","slug":"psistaria-maria-1af1","kind":"restaurant","name":"Ψησταριά Μαρία","lat":40.46502686116533,"lng":23.37663516986987,"url":"https://maps.app.goo.gl/Dc1U9WeYH3VBuPgz8?g_st=ipc","address":"Ε.Ο. Θεσσαλονίκης Ιερισσού, Πολύγυρος 630 73","categoryIds":["greek-restaurants"],"categories":["Greek Restaurants"],"distanceKm":26.20976819128923},{"id":"coffeeBrunchRestaurants_2451ebf0828a","slug":"agora-beach-greek-kouzina-beach-bar-2451","kind":"restaurant","name":"Agora Beach - Greek Kouzina & Beach Bar","lat":40.05004401134577,"lng":23.47152357517926,"url":"https://maps.app.goo.gl/cd42keBiiYDufY3k8?g_st=ipc","address":"Κρυοπηγη Χαλκιδική 630 77","categoryIds":["coffee-brunch"],"categories":["Coffee & Brunch Spots"],"distanceKm":26.496121330118243},{"id":"fishTavernasRestaurants_192fa7a5e6f3","slug":"trizoni-sea-treasures-192f","kind":"restaurant","name":"Trizoni Sea Treasures","lat":40.03314898834852,"lng":23.476924334583536,"url":"https://maps.app.goo.gl/TbVXDeBneUxZKZxp7?g_st=ipc","address":"Trizoni Sea Treasures, Kriopigi 630 77","categoryIds":["fish-tavernas"],"categories":["Fish Tavernas"],"distanceKm":28.283563880727932},{"id":"greekRestaurants_33e109e116ef","slug":"i-plateia-tis-anthoylas-33e1","kind":"restaurant","name":"Η Πλατεία της Ανθούλας","lat":40.03314783613042,"lng":23.477056436374422,"url":"https://maps.app.goo.gl/MZZAF1dJsdusePjd6?g_st=ipc","address":"Main road, Κρυοπηγή 630 77","categoryIds":["greek-restaurants"],"categories":["Greek Restaurants"],"distanceKm":28.290191943873086}],"mentionedGuides":[],"canonicalSlug":"v-for-vita-9509","enrichment":{"summary_en":"V For Vita is a curated restaurant in Nea Moudania 632 00 in the Vegetarian Friendly Restaurants collection. It is connected to 0 nearby Googlementor picks to help travelers build a stronger local route.","summary_el":"V For Vita είναι ένα επιλεγμένο σημείο φαγητού στην περιοχή Nea Moudania 632 00 και ανήκει στη συλλογή Vegetarian Friendly Restaurants. Συνδέεται με 0 κοντινές προτάσεις του Googlementor για πιο ολοκληρωμένη εμπειρία.","vibe_tags":["curated"],"best_for":["first-time visitors","food lovers"],"visit_moments":["lunch stop","dinner stop"],"practical_note":"Address and direct map link are available for easy turn-by-turn access.","nearby_walkable_count":0,"nearby_count_2km":0,"confidence":0.9},"areaContext":null,"intentContexts":[]},"__N_SSG":true}