{"pageProps":{"entity":{"id":"cheapEatsRestaurants_4dbaa21f0de9","slug":"yasouvlaki-4dba","kind":"restaurant","name":"Yasouvlaki!","lat":37.104045402591176,"lng":25.37553445494035,"url":"https://maps.app.goo.gl/B6fuRTJ3jQNZCZMJ8?g_st=ipc","address":"Naxos 843 00","categoryIds":["cheap-eats"],"categories":["Gyros & Cheap Eats"]},"sameCategory":[{"id":"cheapEatsRestaurants_666655654a40","slug":"souvlakia-kargas-6666","kind":"restaurant","name":"Souvlakia KARGAS","lat":37.124561868830334,"lng":25.238091044543676,"url":"https://maps.app.goo.gl/5vu438KzmoWTk1dRA?g_st=ipc","address":"Naousa 844 01","categoryIds":["cheap-eats"],"categories":["Gyros & Cheap Eats"]},{"id":"cheapEatsRestaurants_492ec545e3cb","slug":"fbi-food-truck-492e","kind":"restaurant","name":"FBI Food Truck","lat":36.98018032275085,"lng":25.38911877245444,"url":"https://maps.app.goo.gl/tVknNoCtf1VeNxVy7?g_st=ipc","address":"X9JQ+3J, Naxos 843 02","categoryIds":["cheap-eats"],"categories":["Gyros & Cheap Eats"]},{"id":"cheapEatsRestaurants_13f771b69476","slug":"kalotaritissa-beach-canteen-13f7","kind":"restaurant","name":"Kalotaritissa Beach canteen","lat":36.79366881646542,"lng":25.743376582113193,"url":"https://maps.app.goo.gl/r2Vfu2hZFXLEjrmk8?g_st=ipc","address":"Καλοταρίτισσα 840 08","categoryIds":["cheap-eats"],"categories":["Gyros & Cheap Eats"]},{"id":"cheapEatsRestaurants_45215b23c30d","slug":"bloom-brothers-canteen-4521","kind":"restaurant","name":"Bloom Brothers canteen","lat":36.90173482477818,"lng":25.977068594760553,"url":"https://maps.app.goo.gl/JYSXRpKjkMx7aNHS7?g_st=ipc","address":"Λιμάνι, Lagada 840 08","categoryIds":["cheap-eats"],"categories":["Gyros & Cheap Eats"]},{"id":"cheapEatsRestaurants_de78a5847b53","slug":"pitogyros-traditional-grill-house-gyros-souvlaki-kebab-de78","kind":"restaurant","name":"Pitogyros Traditional Grill House - Gyros, souvlaki, kebab.","lat":36.462570266691884,"lng":25.37797515114607,"url":"https://maps.app.goo.gl/Xyq1DhyUhw2mJaPq9?g_st=ipc","address":"Oia 847 02","categoryIds":["cheap-eats"],"categories":["Gyros & Cheap Eats"]},{"id":"cheapEatsRestaurants_598437c8481b","slug":"gyradiko-o-christos-5984","kind":"restaurant","name":"Γυραδικο \"Ο Χρήστος\"","lat":37.7173396733135,"lng":24.054314949086613,"url":"https://maps.app.goo.gl/Kg9SVim1DWH8Lytb6?g_st=ipc","address":"Λεωφ. Σουνίου 6, Λαύριο 195 00","categoryIds":["cheap-eats","greek-restaurants"],"categories":["Gyros & Cheap Eats","Greek Restaurants"],"legacySlugs":["gyradiko-o-christos-d71e"]},{"id":"cheapEatsRestaurants_d994fad95b5a","slug":"aroma-elladas-d994","kind":"restaurant","name":"Άρωμα Ελλάδας","lat":37.80578649121729,"lng":23.9833913286695,"url":"https://maps.app.goo.gl/cDRv243YonNg2qnB6?g_st=ipc","address":"Ευεργέτη Κωνσταντίνου Πρίφτη 57, Κερατέα 190 01","categoryIds":["cheap-eats"],"categories":["Gyros & Cheap Eats"]},{"id":"cheapEatsRestaurants_2fe91c5ec4e8","slug":"pita-lagonisi-2fe9","kind":"restaurant","name":"Πίτα Λαγονήσι","lat":37.787769077925994,"lng":23.886240321695578,"url":"https://maps.app.goo.gl/gnVwTeJ7a9GqoCGQ9?g_st=ipc","address":"Λεωφ. Καλυβίων 4, Σαρωνικός 190 10","categoryIds":["cheap-eats"],"categories":["Gyros & Cheap Eats"]},{"id":"cheapEatsRestaurants_34ddf07c2336","slug":"estiatorio-psistaria-sotiris-34dd","kind":"restaurant","name":"Εστιατόριο Ψησταριά Σωτήρης","lat":37.87939587296456,"lng":23.933984566615596,"url":"https://maps.app.goo.gl/U5qLZ6nCR7tW5r3u7?g_st=ipc","address":"Μυριννουντος 10, Μαρκόπουλο Μεσογαίας 190 03","categoryIds":["cheap-eats"],"categories":["Gyros & Cheap Eats"]},{"id":"cheapEatsRestaurants_0c78537a51b9","slug":"pitta-fan-grill-0c78","kind":"restaurant","name":"ΠΙΤΤΑ FAN grill","lat":37.84574550115403,"lng":23.82243212849934,"url":"https://maps.app.goo.gl/xQ5Aqm4jpK3KEQLx8?g_st=ipc","address":"Λεωφ. Ευελπίδων 364, Κίτσι 194 00","categoryIds":["cheap-eats"],"categories":["Gyros & Cheap Eats"]},{"id":"cheapEatsRestaurants_b59c9010c8a4","slug":"zachos-b59c","kind":"restaurant","name":"Ζάχος","lat":37.821251970598816,"lng":23.80344271241433,"url":"https://maps.app.goo.gl/DsP5tZnJxShfNf3H9?g_st=ipc","address":"Βασ. Κωνσταντίνου 94, Βάρη 166 72","categoryIds":["cheap-eats"],"categories":["Gyros & Cheap Eats"]},{"id":"cheapEatsRestaurants_cf5c14c0c783","slug":"zachos-gkril-cf5c","kind":"restaurant","name":"Ζάχος Γκριλ","lat":37.81320496162539,"lng":23.782770964184124,"url":"https://maps.app.goo.gl/bEtWEwaW2PfwcEhW9?g_st=ipc","address":"Ερμού 1, Βουλιαγμένη 166 71","categoryIds":["cheap-eats"],"categories":["Gyros & Cheap Eats"]}],"nearby":[{"id":"rooftopLoungesRestaurants_b11d5369fcab","slug":"swing-cocktail-bar-naxos-b11d","kind":"restaurant","name":"Swing Cocktail Bar Naxos","lat":37.10397730324002,"lng":25.375517434266428,"url":"https://maps.app.goo.gl/wrFubAW9MXvR6z5Y6?g_st=ipc","address":"Protopapadaki, Naxos 843 00","categoryIds":["rooftop-lounges"],"categories":["Rooftop Lounges"],"distanceKm":0.007721279971289679},{"id":"fishTavernasRestaurants_d7e3e1315391","slug":"sarris-tavern-d7e3","kind":"restaurant","name":"Sarris Tavern","lat":37.10364861622317,"lng":25.37580990635783,"url":"https://maps.app.goo.gl/AXzYwLeXrYvTjRri8?g_st=ipc","address":"Sarris Tavern 8, Naxos 843 00","categoryIds":["fish-tavernas"],"categories":["Fish Tavernas"],"distanceKm":0.050431611243679626},{"id":"dessertsRestaurants_394832dca619","slug":"waffle-house-3948","kind":"restaurant","name":"Waffle House","lat":37.10467061317303,"lng":25.375709513413007,"url":"https://maps.app.goo.gl/HYZR2GPUwwpWpFCz6?g_st=ipc","address":"Naxos 843 00","categoryIds":["desserts"],"categories":["Dessert Shops"],"distanceKm":0.07123255322859948},{"id":"italianRestaurants_7d6f32d35713","slug":"dal-professore-naxos-7d6f","kind":"restaurant","name":"Dal Professore Naxos","lat":37.10347764120069,"lng":25.374650593867482,"url":"https://maps.app.goo.gl/GLP6dYmT8CK2v8Rk9?g_st=ipc","address":"Sea front - Naxos town Naxos Town, 843 00","categoryIds":["italian"],"categories":["Italian Restaurants"],"distanceKm":0.10064602409556078},{"id":"greekRestaurants_7781d11d6267","slug":"musique-cafe-restaurant-7781","kind":"restaurant","name":"Musique Cafe - Restaurant","lat":37.103293290914934,"lng":25.374723030497336,"url":"https://maps.app.goo.gl/ShCS95qz2nMgxP8EA?g_st=ipc","address":"Αριάδνης, Νάξος 843 00","categoryIds":["greek-restaurants"],"categories":["Greek Restaurants"],"distanceKm":0.11032824171269848},{"id":"coffeeBrunchRestaurants_a5bfbc32c87f","slug":"hurmas-all-day-bistro-restaurant-a5bf","kind":"restaurant","name":"HURMAS | All Day Bistro & Restaurant","lat":37.105038240518304,"lng":25.37570759141786,"url":"https://maps.app.goo.gl/69BkMU2pWVao3FWX7?g_st=ipc","address":"Protopapadaki, Naxos 843 00","categoryIds":["coffee-brunch"],"categories":["Coffee & Brunch Spots"],"distanceKm":0.11146113954239963},{"id":"rooftopLoungesRestaurants_f44c78191d73","slug":"musique-cafe-restaurant-f44c","kind":"restaurant","name":"Musique Cafe - Restaurant","lat":37.10327388720912,"lng":25.374720099192075,"url":"https://maps.app.goo.gl/xGrZAJx1PKMWWCnU7?g_st=ipc","address":"Ariadnis, Naxos 843 00","categoryIds":["rooftop-lounges"],"categories":["Rooftop Lounges"],"distanceKm":0.1121398289937684},{"id":"dessertsRestaurants_fb9eb4b1bad8","slug":"chou-chouro-fb9e","kind":"restaurant","name":"Chou-Chouro","lat":37.10481340685538,"lng":25.376412266991043,"url":"https://maps.app.goo.gl/Phd5ZDeXAdM1ZXne8?g_st=ipc","address":"Castle Area, Naxos 843 00","categoryIds":["desserts"],"categories":["Dessert Shops"],"distanceKm":0.11555467212721826},{"id":"italianRestaurants_81fb3a3e7792","slug":"etere-ristorante-spritzeria-81fb","kind":"restaurant","name":"ETERE Ristorante•Spritzeria","lat":37.10293986337665,"lng":25.375171669884853,"url":"https://maps.app.goo.gl/hwE3v2eAEfeWwtVD6?g_st=ipc","address":"Σχοινούσας, Kiprou &, Naxos 843 00","categoryIds":["italian"],"categories":["Italian Restaurants"],"distanceKm":0.12707072596782945},{"id":"dessertsRestaurants_c2d46d4f052a","slug":"aktaion-pastry-ice-cream-downtown-c2d4","kind":"restaurant","name":"Aktaion Pastry & Ice Cream | Downtown","lat":37.105490385586045,"lng":25.375549550238706,"url":"https://maps.app.goo.gl/WWUz17HUPNByCsTf9?g_st=ipc","address":"Π. Πρωτοπαπαδάκη, Naxos 843 00","categoryIds":["desserts"],"categories":["Dessert Shops"],"distanceKm":0.16068035467510494},{"id":"coffeeBrunchRestaurants_e00fbc861ff8","slug":"avaton-1739-coffee-wine-roof-e00f","kind":"restaurant","name":"AVATON 1739 - Coffee & Wine Roof","lat":37.10529514165084,"lng":25.377380277769117,"url":"https://maps.app.goo.gl/31ofe6z6fLcDE8U48?g_st=ipc","address":"Kastro, Naxos 843 00","categoryIds":["coffee-brunch","rooftop-lounges"],"categories":["Coffee & Brunch Spots","Rooftop Lounges"],"legacySlugs":["avaton-1739-coffee-wine-roof-741d"],"distanceKm":0.21472282413123364},{"id":"fishTavernasRestaurants_78cb3f4380c2","slug":"cafe-ouzerie-barabbas-78cb","kind":"restaurant","name":"Café Ouzerie Barabbas","lat":37.10204187531306,"lng":25.37502616238965,"url":"https://maps.app.goo.gl/BH3za9tuZUwNeCz87?g_st=ipc","address":"Naxos 843 00","categoryIds":["fish-tavernas"],"categories":["Fish Tavernas"],"distanceKm":0.2272967464487726},{"id":"greekRestaurants_130710e212e4","slug":"mpoylamatsis-1307","kind":"restaurant","name":"Μπουλαμάτσης","lat":37.10647098604559,"lng":25.37521889326687,"url":"https://maps.app.goo.gl/HtLuBm5ry7CugcJL6?g_st=ipc","address":"Νάξος 843 00","categoryIds":["greek-restaurants"],"categories":["Greek Restaurants"],"distanceKm":0.27116046442094416},{"id":"greekRestaurants_e47501c318a2","slug":"maro-e475","kind":"restaurant","name":"Μάρω","lat":37.10154028987827,"lng":25.3766315671974,"url":"https://maps.app.goo.gl/zA4x53E8WYhDfBig6?g_st=ipc","address":"Πλ. Πέτρου Ευριπαίου, Νάξος 843 00","categoryIds":["greek-restaurants"],"categories":["Greek Restaurants"],"distanceKm":0.295059183106986},{"id":"greekRestaurants_3726510620ef","slug":"labyrinth-wine-restaurant-3726","kind":"restaurant","name":"Labyrinth Wine Restaurant","lat":37.10708136992931,"lng":25.375720724103953,"url":"https://maps.app.goo.gl/49MFdr1gPv2w4hQB7?g_st=ipc","address":"Παλιά Πόλη (Κάστρο), Χώρα, Νάξος 843 00","categoryIds":["greek-restaurants"],"categories":["Greek Restaurants"],"distanceKm":0.3379880610239419},{"id":"coffeeBrunchRestaurants_bcf369879144","slug":"melimilon-naxos-bcf3","kind":"restaurant","name":"Melimilon Naxos","lat":37.1012124273558,"lng":25.373816192509402,"url":"https://maps.app.goo.gl/24h3FMgmoD9y36B69?g_st=ipc","address":"Naxos 843 00","categoryIds":["coffee-brunch"],"categories":["Coffee & Brunch Spots"],"distanceKm":0.34993336390155466},{"id":"greekRestaurants_3b45d35e6fd1","slug":"irini-s-restaurant-3b45","kind":"restaurant","name":"Irini's Restaurant","lat":37.1071372692847,"lng":25.374640994171585,"url":"https://maps.app.goo.gl/YgF63yZMU9zTQLo56?g_st=ipc","address":"Protopapadaki, Hora, Naxos, Νάξος 843 00","categoryIds":["greek-restaurants"],"categories":["Greek Restaurants"],"distanceKm":0.352811841001942},{"id":"greekRestaurants_923afb8bf5e5","slug":"apostolis-923a","kind":"restaurant","name":"Apostolis","lat":37.107377181216485,"lng":25.375621551960272,"url":"https://maps.app.goo.gl/EyYs7kqSBq4Bh2H49?g_st=ipc","address":"Νάξος 843 00","categoryIds":["greek-restaurants"],"categories":["Greek Restaurants"],"distanceKm":0.3705573853363211},{"id":"greekRestaurants_e757ce4749fe","slug":"metaxy-mas-mezedopoleio-oinomageireio-e757","kind":"restaurant","name":"Μεταξύ μας - Μεζεδοπωλείο & Οινομαγειρείο","lat":37.107370778794554,"lng":25.37585827738081,"url":"https://maps.app.goo.gl/7Bd4cfVR6XtzcvaA8?g_st=ipc","address":"Παλιά αγορά, Νάξος 843 00","categoryIds":["greek-restaurants"],"categories":["Greek Restaurants"],"distanceKm":0.3708783907361682},{"id":"greekRestaurants_bcda551076e9","slug":"doukato-restaurant-bcda","kind":"restaurant","name":"Doukato Restaurant","lat":37.10738392862309,"lng":25.37527293602998,"url":"https://maps.app.goo.gl/FfYizYUeZLU2adeW9?g_st=ipc","address":"Νάξος 843 00","categoryIds":["greek-restaurants"],"categories":["Greek Restaurants"],"distanceKm":0.37195087715972597},{"id":"greekRestaurants_1d1d2978a995","slug":"nissaki-restaurant-since-1971-1d1d","kind":"restaurant","name":"Nissaki Restaurant since 1971","lat":37.1004793636916,"lng":25.373689522155757,"url":"https://maps.app.goo.gl/1p3SN2L3QLT24UKX8?g_st=ipc","address":"Αγίου Γεωργίου, Νάξος 843 00","categoryIds":["greek-restaurants"],"categories":["Greek Restaurants"],"distanceKm":0.42895571623027823},{"id":"greekRestaurants_533382eda428","slug":"to-elliniko-restaurant-5333","kind":"restaurant","name":"To Elliniko Restaurant","lat":37.10045212673621,"lng":25.377603556843287,"url":"https://maps.app.goo.gl/Xqt8tsmindBjCsXV8?g_st=ipc","address":"Ιωάννου Παπαρηγοπούλου, Νάξος 843 00","categoryIds":["greek-restaurants"],"categories":["Greek Restaurants"],"distanceKm":0.43967578853126077},{"id":"fishTavernasRestaurants_e056f191e63e","slug":"nissaki-restaurant-est-1971-e056","kind":"restaurant","name":"Nissaki Restaurant est. 1971","lat":37.10031334389294,"lng":25.37366043300574,"url":"https://maps.app.goo.gl/yMHNpMahUsVq7kRRA?g_st=ipc","address":"Agiou Georgiou, Naxos 843 00","categoryIds":["fish-tavernas"],"categories":["Fish Tavernas"],"distanceKm":0.44702892911829606},{"id":"greekRestaurants_c2a4f4abd498","slug":"kozi-restaurant-naxos-c2a4","kind":"restaurant","name":"Kozi Restaurant Naxos","lat":37.108151286347905,"lng":25.375903278628915,"url":"https://maps.app.goo.gl/ujEUxWHwE9XVVt4u9?g_st=ipc","address":"Λεωφ. Νάξου Εγγαρών, Νάξος 843 00","categoryIds":["greek-restaurants"],"categories":["Greek Restaurants"],"distanceKm":0.45772351530022826}],"mentionedGuides":[],"canonicalSlug":"yasouvlaki-4dba","enrichment":{"summary_en":"Yasouvlaki! is a curated restaurant in Greece in the Gyros & Cheap Eats collection. It is connected to 29 nearby Googlementor picks to help travelers build a stronger local route.","summary_el":"Yasouvlaki! είναι ένα επιλεγμένο σημείο φαγητού στην περιοχή Greece και ανήκει στη συλλογή Gyros & Cheap Eats. Συνδέεται με 29 κοντινές προτάσεις του Googlementor για πιο ολοκληρωμένη εμπειρία.","vibe_tags":["curated","budget-friendly"],"best_for":["first-time visitors","food lovers","budget travelers"],"visit_moments":["lunch stop","dinner stop"],"practical_note":"Address and direct map link are available for easy turn-by-turn access.","nearby_walkable_count":29,"nearby_count_2km":31,"confidence":0.98},"areaContext":{"slug":"naxos","name":"Naxos","nameEl":"Νάξος"},"intentContexts":[]},"__N_SSG":true}