{"pageProps":{"entity":{"id":"greekRestaurants_1f1aa19a1160","slug":"yazoo-summer-bliss-1f1a","kind":"restaurant","name":"Yazoo Summer Bliss","lat":37.05947332168921,"lng":25.35827570673648,"url":"https://maps.app.goo.gl/NhU86ckth6hj5Sat7?g_st=ipc","address":"Beach, Πλάκα 843 00","categoryIds":["greek-restaurants"],"categories":["Greek Restaurants"]},"sameCategory":[{"id":"greekRestaurants_e19d898df0e1","slug":"taverna-paradeisos-naxos-e19d","kind":"restaurant","name":"Ταβέρνα Παράδεισος | Νάξος","lat":37.06269869849226,"lng":25.355485426360563,"url":"https://maps.app.goo.gl/snSuBibKoHzbKRP3A?g_st=ipc","address":"Μαραγκας 843 00","categoryIds":["greek-restaurants"],"categories":["Greek Restaurants"]},{"id":"greekRestaurants_7b51b9a8d590","slug":"taverna-o-giannoylis-7b51","kind":"restaurant","name":"Ταβέρνα Ο Γιαννούλης","lat":37.07476079820257,"lng":25.35214595404142,"url":"https://maps.app.goo.gl/jk1SQcCbpGGpyJxP8?g_st=ipc","address":"Unnamed Road, Αγ. Προκόπιος 843 00","categoryIds":["greek-restaurants"],"categories":["Greek Restaurants"]},{"id":"greekRestaurants_1d1d2978a995","slug":"nissaki-restaurant-since-1971-1d1d","kind":"restaurant","name":"Nissaki Restaurant since 1971","lat":37.1004793636916,"lng":25.373689522155757,"url":"https://maps.app.goo.gl/1p3SN2L3QLT24UKX8?g_st=ipc","address":"Αγίου Γεωργίου, Νάξος 843 00","categoryIds":["greek-restaurants"],"categories":["Greek Restaurants"]},{"id":"greekRestaurants_533382eda428","slug":"to-elliniko-restaurant-5333","kind":"restaurant","name":"To Elliniko Restaurant","lat":37.10045212673621,"lng":25.377603556843287,"url":"https://maps.app.goo.gl/Xqt8tsmindBjCsXV8?g_st=ipc","address":"Ιωάννου Παπαρηγοπούλου, Νάξος 843 00","categoryIds":["greek-restaurants"],"categories":["Greek Restaurants"]},{"id":"greekRestaurants_e47501c318a2","slug":"maro-e475","kind":"restaurant","name":"Μάρω","lat":37.10154028987827,"lng":25.3766315671974,"url":"https://maps.app.goo.gl/zA4x53E8WYhDfBig6?g_st=ipc","address":"Πλ. Πέτρου Ευριπαίου, Νάξος 843 00","categoryIds":["greek-restaurants"],"categories":["Greek Restaurants"]},{"id":"greekRestaurants_7781d11d6267","slug":"musique-cafe-restaurant-7781","kind":"restaurant","name":"Musique Cafe - Restaurant","lat":37.103293290914934,"lng":25.374723030497336,"url":"https://maps.app.goo.gl/ShCS95qz2nMgxP8EA?g_st=ipc","address":"Αριάδνης, Νάξος 843 00","categoryIds":["greek-restaurants"],"categories":["Greek Restaurants"]},{"id":"greekRestaurants_130710e212e4","slug":"mpoylamatsis-1307","kind":"restaurant","name":"Μπουλαμάτσης","lat":37.10647098604559,"lng":25.37521889326687,"url":"https://maps.app.goo.gl/HtLuBm5ry7CugcJL6?g_st=ipc","address":"Νάξος 843 00","categoryIds":["greek-restaurants"],"categories":["Greek Restaurants"]},{"id":"greekRestaurants_3b45d35e6fd1","slug":"irini-s-restaurant-3b45","kind":"restaurant","name":"Irini's Restaurant","lat":37.1071372692847,"lng":25.374640994171585,"url":"https://maps.app.goo.gl/YgF63yZMU9zTQLo56?g_st=ipc","address":"Protopapadaki, Hora, Naxos, Νάξος 843 00","categoryIds":["greek-restaurants"],"categories":["Greek Restaurants"]},{"id":"greekRestaurants_3726510620ef","slug":"labyrinth-wine-restaurant-3726","kind":"restaurant","name":"Labyrinth Wine Restaurant","lat":37.10708136992931,"lng":25.375720724103953,"url":"https://maps.app.goo.gl/49MFdr1gPv2w4hQB7?g_st=ipc","address":"Παλιά Πόλη (Κάστρο), Χώρα, Νάξος 843 00","categoryIds":["greek-restaurants"],"categories":["Greek Restaurants"]},{"id":"greekRestaurants_bcda551076e9","slug":"doukato-restaurant-bcda","kind":"restaurant","name":"Doukato Restaurant","lat":37.10738392862309,"lng":25.37527293602998,"url":"https://maps.app.goo.gl/FfYizYUeZLU2adeW9?g_st=ipc","address":"Νάξος 843 00","categoryIds":["greek-restaurants"],"categories":["Greek Restaurants"]},{"id":"greekRestaurants_923afb8bf5e5","slug":"apostolis-923a","kind":"restaurant","name":"Apostolis","lat":37.107377181216485,"lng":25.375621551960272,"url":"https://maps.app.goo.gl/EyYs7kqSBq4Bh2H49?g_st=ipc","address":"Νάξος 843 00","categoryIds":["greek-restaurants"],"categories":["Greek Restaurants"]},{"id":"greekRestaurants_e757ce4749fe","slug":"metaxy-mas-mezedopoleio-oinomageireio-e757","kind":"restaurant","name":"Μεταξύ μας - Μεζεδοπωλείο & Οινομαγειρείο","lat":37.107370778794554,"lng":25.37585827738081,"url":"https://maps.app.goo.gl/7Bd4cfVR6XtzcvaA8?g_st=ipc","address":"Παλιά αγορά, Νάξος 843 00","categoryIds":["greek-restaurants"],"categories":["Greek Restaurants"]}],"nearby":[{"id":"coffeeBrunchRestaurants_06b43145276e","slug":"yazoo-summer-bliss-06b4","kind":"restaurant","name":"Yazoo Summer Bliss","lat":37.05936629317493,"lng":25.358292075823126,"url":"https://maps.app.goo.gl/6st7M6E2gAiTKTuK7?g_st=ipc","address":"Beach, Plaka 843 00","categoryIds":["coffee-brunch"],"categories":["Coffee & Brunch Spots"],"distanceKm":0.011989338577578956},{"id":"mexicanRestaurants_983dcb8a2e0a","slug":"picasso-on-the-beach-naxos-983d","kind":"restaurant","name":"Picasso on the beach - Naxos","lat":37.05943119973437,"lng":25.358989286042366,"url":"https://maps.app.goo.gl/dyPRjYQnHRARiSJ79?g_st=ipc","address":"Beach, Plaka, Ag. Anna 843 00","categoryIds":["mexican"],"categories":["Mexican Restaurants"],"distanceKm":0.06349226114945235},{"id":"coffeeBrunchRestaurants_3c0e0ba19c1e","slug":"cedar-naxos-3c0e","kind":"restaurant","name":"Cedar Naxos","lat":37.05894909734054,"lng":25.359010791260953,"url":"https://maps.app.goo.gl/sMRnKogU1qsVLy5N7?g_st=ipc","address":"Plaka beach island, Cyclades, Town 84300, 843 00","categoryIds":["coffee-brunch"],"categories":["Coffee & Brunch Spots"],"distanceKm":0.0874786167730558},{"id":"italianRestaurants_338afaa92d9f","slug":"caya-italian-cuisine-cocktail-bar-338a","kind":"restaurant","name":"Caya Italian Cuisine Cocktail Bar","lat":37.05775350559496,"lng":25.360162570769955,"url":"https://maps.app.goo.gl/aQBfn7JeavM87SvT6?g_st=ipc","address":"Πλάκα Ναξος Κυκλάδες, 843 00","categoryIds":["italian"],"categories":["Italian Restaurants"],"distanceKm":0.2541737752451176},{"id":"greekRestaurants_e19d898df0e1","slug":"taverna-paradeisos-naxos-e19d","kind":"restaurant","name":"Ταβέρνα Παράδεισος | Νάξος","lat":37.06269869849226,"lng":25.355485426360563,"url":"https://maps.app.goo.gl/snSuBibKoHzbKRP3A?g_st=ipc","address":"Μαραγκας 843 00","categoryIds":["greek-restaurants"],"categories":["Greek Restaurants"],"distanceKm":0.4358063289718979},{"id":"coffeeBrunchRestaurants_1ed3ff082f80","slug":"goat-in-a-boat-1ed3","kind":"restaurant","name":"goat in a boat","lat":37.06717854640464,"lng":25.356316886639643,"url":"https://maps.app.goo.gl/RjakHZ5s5a6HV2Rj8?g_st=ipc","address":"Αγ. Αννα 843 00","categoryIds":["coffee-brunch"],"categories":["Coffee & Brunch Spots"],"distanceKm":0.8742333319511},{"id":"fishTavernasRestaurants_e4bded96d41b","slug":"akrogiali-restaurant-studios-e4bd","kind":"restaurant","name":"Akrogiali Restaurant- Studios","lat":37.06850212174682,"lng":25.355709551048015,"url":"https://maps.app.goo.gl/f5SYBYZkLKJhZSov6?g_st=ipc","address":"Αγ. Αννα 843 00","categoryIds":["fish-tavernas"],"categories":["Fish Tavernas"],"distanceKm":1.0294530181452393},{"id":"coffeeBrunchRestaurants_a4f088033efd","slug":"petrino-beach-restaurant-a4f0","kind":"restaurant","name":"Petrino Beach Restaurant","lat":37.05234820744201,"lng":25.368775961363156,"url":"https://maps.app.goo.gl/zpHeyfTFhxTR1uEU8?g_st=ipc","address":"Μαραγκας 843 00","categoryIds":["coffee-brunch"],"categories":["Coffee & Brunch Spots"],"distanceKm":1.2230770768601245},{"id":"greekRestaurants_7b51b9a8d590","slug":"taverna-o-giannoylis-7b51","kind":"restaurant","name":"Ταβέρνα Ο Γιαννούλης","lat":37.07476079820257,"lng":25.35214595404142,"url":"https://maps.app.goo.gl/jk1SQcCbpGGpyJxP8?g_st=ipc","address":"Unnamed Road, Αγ. Προκόπιος 843 00","categoryIds":["greek-restaurants"],"categories":["Greek Restaurants"],"distanceKm":1.7847735844943031},{"id":"coffeeBrunchRestaurants_11b9ac0dc44e","slug":"macao-beach-naxos-11b9","kind":"restaurant","name":"Macao beach naxos","lat":37.07477452112851,"lng":25.350720849700185,"url":"https://maps.app.goo.gl/VMcfVNerQn3tSzED8?g_st=ipc","address":"Agios Prokopios 843 00","categoryIds":["coffee-brunch"],"categories":["Coffee & Brunch Spots"],"distanceKm":1.8286966954835908},{"id":"familyFriendly_2da660f5cea1","slug":"aqua-fun-2da6","kind":"restaurant","name":"Aqua Fun","lat":37.082347515027855,"lng":25.35405984069226,"url":"https://maps.app.goo.gl/kxZ4WVVMgAh5nHj19?g_st=ipc","address":"ΣΤΕΛΙΔΑ, Ag. Prokopios 843 00","categoryIds":["family-friendly"],"categories":["Kid Friendly Locations"],"distanceKm":2.570849441703443},{"id":"coffeeBrunchRestaurants_6269550b6464","slug":"naxaki-beach-lounge-bar-restaurant-6269","kind":"restaurant","name":"Naxaki Beach Lounge Bar & Restaurant","lat":37.096820663451155,"lng":25.37554032822482,"url":"https://maps.app.goo.gl/pycw7dvrTdi8yEicA?g_st=ipc","address":"Agios Georgios Beach - Naxos, Naxos 843 00","categoryIds":["coffee-brunch"],"categories":["Coffee & Brunch Spots"],"distanceKm":4.426264548583088},{"id":"fishTavernasRestaurants_e056f191e63e","slug":"nissaki-restaurant-est-1971-e056","kind":"restaurant","name":"Nissaki Restaurant est. 1971","lat":37.10031334389294,"lng":25.37366043300574,"url":"https://maps.app.goo.gl/yMHNpMahUsVq7kRRA?g_st=ipc","address":"Agiou Georgiou, Naxos 843 00","categoryIds":["fish-tavernas"],"categories":["Fish Tavernas"],"distanceKm":4.7418544099216815},{"id":"greekRestaurants_1d1d2978a995","slug":"nissaki-restaurant-since-1971-1d1d","kind":"restaurant","name":"Nissaki Restaurant since 1971","lat":37.1004793636916,"lng":25.373689522155757,"url":"https://maps.app.goo.gl/1p3SN2L3QLT24UKX8?g_st=ipc","address":"Αγίου Γεωργίου, Νάξος 843 00","categoryIds":["greek-restaurants"],"categories":["Greek Restaurants"],"distanceKm":4.760276951497514},{"id":"coffeeBrunchRestaurants_bcf369879144","slug":"melimilon-naxos-bcf3","kind":"restaurant","name":"Melimilon Naxos","lat":37.1012124273558,"lng":25.373816192509402,"url":"https://maps.app.goo.gl/24h3FMgmoD9y36B69?g_st=ipc","address":"Naxos 843 00","categoryIds":["coffee-brunch"],"categories":["Coffee & Brunch Spots"],"distanceKm":4.841597115994097},{"id":"greekRestaurants_533382eda428","slug":"to-elliniko-restaurant-5333","kind":"restaurant","name":"To Elliniko Restaurant","lat":37.10045212673621,"lng":25.377603556843287,"url":"https://maps.app.goo.gl/Xqt8tsmindBjCsXV8?g_st=ipc","address":"Ιωάννου Παπαρηγοπούλου, Νάξος 843 00","categoryIds":["greek-restaurants"],"categories":["Greek Restaurants"],"distanceKm":4.868545538479549},{"id":"greekRestaurants_e47501c318a2","slug":"maro-e475","kind":"restaurant","name":"Μάρω","lat":37.10154028987827,"lng":25.3766315671974,"url":"https://maps.app.goo.gl/zA4x53E8WYhDfBig6?g_st=ipc","address":"Πλ. Πέτρου Ευριπαίου, Νάξος 843 00","categoryIds":["greek-restaurants"],"categories":["Greek Restaurants"],"distanceKm":4.95295657000167},{"id":"fishTavernasRestaurants_78cb3f4380c2","slug":"cafe-ouzerie-barabbas-78cb","kind":"restaurant","name":"Café Ouzerie Barabbas","lat":37.10204187531306,"lng":25.37502616238965,"url":"https://maps.app.goo.gl/BH3za9tuZUwNeCz87?g_st=ipc","address":"Naxos 843 00","categoryIds":["fish-tavernas"],"categories":["Fish Tavernas"],"distanceKm":4.96116221156577},{"id":"italianRestaurants_81fb3a3e7792","slug":"etere-ristorante-spritzeria-81fb","kind":"restaurant","name":"ETERE Ristorante•Spritzeria","lat":37.10293986337665,"lng":25.375171669884853,"url":"https://maps.app.goo.gl/hwE3v2eAEfeWwtVD6?g_st=ipc","address":"Σχοινούσας, Kiprou &, Naxos 843 00","categoryIds":["italian"],"categories":["Italian Restaurants"],"distanceKm":5.060324011546125},{"id":"rooftopLoungesRestaurants_f44c78191d73","slug":"musique-cafe-restaurant-f44c","kind":"restaurant","name":"Musique Cafe - Restaurant","lat":37.10327388720912,"lng":25.374720099192075,"url":"https://maps.app.goo.gl/xGrZAJx1PKMWWCnU7?g_st=ipc","address":"Ariadnis, Naxos 843 00","categoryIds":["rooftop-lounges"],"categories":["Rooftop Lounges"],"distanceKm":5.084171876887627},{"id":"greekRestaurants_7781d11d6267","slug":"musique-cafe-restaurant-7781","kind":"restaurant","name":"Musique Cafe - Restaurant","lat":37.103293290914934,"lng":25.374723030497336,"url":"https://maps.app.goo.gl/ShCS95qz2nMgxP8EA?g_st=ipc","address":"Αριάδνης, Νάξος 843 00","categoryIds":["greek-restaurants"],"categories":["Greek Restaurants"],"distanceKm":5.0863133209384825},{"id":"italianRestaurants_7d6f32d35713","slug":"dal-professore-naxos-7d6f","kind":"restaurant","name":"Dal Professore Naxos","lat":37.10347764120069,"lng":25.374650593867482,"url":"https://maps.app.goo.gl/GLP6dYmT8CK2v8Rk9?g_st=ipc","address":"Sea front - Naxos town Naxos Town, 843 00","categoryIds":["italian"],"categories":["Italian Restaurants"],"distanceKm":5.1041210923241085},{"id":"fishTavernasRestaurants_d7e3e1315391","slug":"sarris-tavern-d7e3","kind":"restaurant","name":"Sarris Tavern","lat":37.10364861622317,"lng":25.37580990635783,"url":"https://maps.app.goo.gl/AXzYwLeXrYvTjRri8?g_st=ipc","address":"Sarris Tavern 8, Naxos 843 00","categoryIds":["fish-tavernas"],"categories":["Fish Tavernas"],"distanceKm":5.152456540981063},{"id":"rooftopLoungesRestaurants_b11d5369fcab","slug":"swing-cocktail-bar-naxos-b11d","kind":"restaurant","name":"Swing Cocktail Bar Naxos","lat":37.10397730324002,"lng":25.375517434266428,"url":"https://maps.app.goo.gl/wrFubAW9MXvR6z5Y6?g_st=ipc","address":"Protopapadaki, Naxos 843 00","categoryIds":["rooftop-lounges"],"categories":["Rooftop Lounges"],"distanceKm":5.179589912968849}],"mentionedGuides":[],"canonicalSlug":"yazoo-summer-bliss-1f1a","enrichment":{"summary_en":"Yazoo Summer Bliss is a curated restaurant in Πλάκα 843 00 in the Greek Restaurants collection. It is connected to 5 nearby Googlementor picks to help travelers build a stronger local route.","summary_el":"Yazoo Summer Bliss είναι ένα επιλεγμένο σημείο φαγητού στην περιοχή Πλάκα 843 00 και ανήκει στη συλλογή Greek Restaurants. Συνδέεται με 5 κοντινές προτάσεις του Googlementor για πιο ολοκληρωμένη εμπειρία.","vibe_tags":["curated"],"best_for":["first-time visitors","food lovers"],"visit_moments":["lunch stop","dinner stop"],"practical_note":"Address and direct map link are available for easy turn-by-turn access.","nearby_walkable_count":5,"nearby_count_2km":10,"confidence":0.98},"areaContext":{"slug":"naxos","name":"Naxos","nameEl":"Νάξος"},"intentContexts":[{"href":"/greek-restaurants/naxos","label":"Greek Restaurants in Naxos","categorySlug":"greek-restaurants","categoryName":"Greek Restaurants","areaSlug":"naxos","areaName":"Naxos","areaNameEl":"Νάξος"}]},"__N_SSG":true}