{"pageProps":{"entity":{"id":"coffeeBrunchRestaurants_24def4a9906d","slug":"ydroneta-24de","kind":"restaurant","name":"Υδρονέτα","lat":37.35156953668086,"lng":23.462454743451826,"url":"https://maps.app.goo.gl/JdZyRYb4EEJyr1MGA?g_st=ipc","address":"Επαρ.Οδ. Μανδρακίου-Μωλόυ, Ύδρα 180 40","categoryIds":["coffee-brunch"],"categories":["Coffee & Brunch Spots"]},"sameCategory":[{"id":"coffeeBrunchRestaurants_6a007e672d77","slug":"the-pirate-bar-6a00","kind":"restaurant","name":"The Pirate Bar","lat":37.34970734644238,"lng":23.46509825080948,"url":"https://maps.app.goo.gl/kHR9XPEtdhdttpmr9?g_st=ipc","address":"Βότση, Ύδρα 180 40","categoryIds":["coffee-brunch"],"categories":["Coffee & Brunch Spots"]},{"id":"coffeeBrunchRestaurants_52f2d70fc21e","slug":"to-mikro-cafe-52f2","kind":"restaurant","name":"Το Μικρό Cafe","lat":37.69190688153916,"lng":23.451237398771788,"url":"https://maps.app.goo.gl/KwgXY17CGsEWtAUX7?g_st=ipc","address":"Unnamed Road, Πέρδικα 180 10","categoryIds":["coffee-brunch"],"categories":["Coffee & Brunch Spots"]},{"id":"coffeeBrunchRestaurants_376f978cdcbd","slug":"leof-dimokratias-51-aigina-180-10-376f","kind":"restaurant","name":"Λεωφ. Δημοκρατίας 51, Αίγινα 180 10","lat":37.74458755004641,"lng":23.429733301742875,"url":"https://maps.app.goo.gl/iAGPEbpGe5cmBZmJ9?g_st=ipc","address":"Λεωφ. Δημοκρατίας 51, Αίγινα 180 10","categoryIds":["coffee-brunch"],"categories":["Coffee & Brunch Spots"]},{"id":"coffeeBrunchRestaurants_a0f98e1c2b12","slug":"aiakeion-a0f9","kind":"restaurant","name":"Αιάκειον","lat":37.746460271999695,"lng":23.42831871522419,"url":"https://maps.app.goo.gl/Qzj36fpjYDeGE7CdA?g_st=ipc","address":"Λεωφ. Δημοκρατίας 18, Αίγινα 180 10","categoryIds":["coffee-brunch"],"categories":["Coffee & Brunch Spots"]},{"id":"coffeeBrunchRestaurants_e72432c365d7","slug":"nisos-cafe-bar-e724","kind":"restaurant","name":"Nisos Café Bar","lat":37.71981320719648,"lng":23.912954314854076,"url":"https://maps.app.goo.gl/c8xgWYxc6QFikVut9?g_st=ipc","address":"Λεωφ. Αθηνών Σουνίου 48 5, Ανάβυσσος 190 13","categoryIds":["coffee-brunch"],"categories":["Coffee & Brunch Spots"]},{"id":"coffeeBrunchRestaurants_8b66a0a4f338","slug":"moorings-8b66","kind":"restaurant","name":"Moorings","lat":37.80205351483022,"lng":23.772631066760855,"url":"https://maps.app.goo.gl/YdREkVBev1UQTkqh6?g_st=ipc","address":"Μαρινα Βουλιαγμενης, Βουλιαγμένη 166 71","categoryIds":["coffee-brunch","luxury-dining"],"categories":["Coffee & Brunch Spots","Luxury Dining"],"legacySlugs":["moorings-e85b"]},{"id":"coffeeBrunchRestaurants_80a974b8dc70","slug":"estiatorio-limnis-80a9","kind":"restaurant","name":"Εστιατόριο Λίμνης","lat":37.80691600865377,"lng":23.785479129703763,"url":"https://maps.app.goo.gl/mDVVDSh15YWjZRdF9?g_st=ipc","address":"Λίμνη, Βουλιαγμένη 166 71","categoryIds":["coffee-brunch"],"categories":["Coffee & Brunch Spots"]},{"id":"coffeeBrunchRestaurants_0b20fa30dfc5","slug":"sofi-s-eatery-0b20","kind":"restaurant","name":"Sofi’s Eatery","lat":37.81302845785067,"lng":23.782463728500748,"url":"https://maps.app.goo.gl/Pa3TPAmcLCv6SJsw5?g_st=ipc","address":"Αγίου Παντελεήμονος 7, Βουλιαγμένη 166 71","categoryIds":["coffee-brunch"],"categories":["Coffee & Brunch Spots"]},{"id":"coffeeBrunchRestaurants_1e8b13cd507d","slug":"riviera-coast-1e8b","kind":"restaurant","name":"Riviera Coast","lat":37.8360364556755,"lng":23.766880988503196,"url":"https://maps.app.goo.gl/d8HG2cz27hm9ZC3r9?g_st=ipc","address":"Λεωφ. Κωνσταντίνου Καραμανλή 18, Βούλα 166 73","categoryIds":["coffee-brunch"],"categories":["Coffee & Brunch Spots"]},{"id":"coffeeBrunchRestaurants_264a40023d71","slug":"oven-264a","kind":"restaurant","name":"όβεν","lat":37.83821741108239,"lng":23.7685609654253,"url":"https://maps.app.goo.gl/gmek3DFpsqqbYYR49?g_st=ipc","address":"Λεωφ. Βασιλέως Παύλου 104, Βούλα 166 73","categoryIds":["coffee-brunch"],"categories":["Coffee & Brunch Spots"]},{"id":"coffeeBrunchRestaurants_8123cddfff42","slug":"rey-pablo-8123","kind":"restaurant","name":"Rey Pablo","lat":37.83850094604755,"lng":23.768770335582047,"url":"https://maps.app.goo.gl/x4TKdGZ4P6i8FcrE6?g_st=ipc","address":"91, Λεωφ. Βασιλέως Παύλου 89, Βούλα 166 73","categoryIds":["coffee-brunch"],"categories":["Coffee & Brunch Spots"]},{"id":"coffeeBrunchRestaurants_12111c54ea5b","slug":"bloom-projectgr-1211","kind":"restaurant","name":"bloom_projectgr","lat":37.84969738967142,"lng":23.751254153373072,"url":"https://maps.app.goo.gl/aVjkRWWznkDXoF5n6?g_st=ipc","address":"4, Λεωφ. Αλκυονίδων Ave, Βούλα 166 73","categoryIds":["coffee-brunch"],"categories":["Coffee & Brunch Spots"]}],"nearby":[{"id":"fishTavernasRestaurants_23eb511b3910","slug":"sunset-restaurant-23eb","kind":"restaurant","name":"Sunset Restaurant","lat":37.35168822648852,"lng":23.46274301702218,"url":"https://maps.app.goo.gl/24WnQ3Q4oomRkZm38?g_st=ipc","address":"Eparxiaki odos Hydra, 180 40","categoryIds":["fish-tavernas"],"categories":["Fish Tavernas"],"distanceKm":0.02869603928348375},{"id":"fishTavernasRestaurants_a1376fc53fb5","slug":"omilos-restaurant-bar-a137","kind":"restaurant","name":"Omilos Restaurant Bar","lat":37.35145736724594,"lng":23.46444594181709,"url":"https://maps.app.goo.gl/WChcxQZZeaRjrCgLA?g_st=ipc","address":"Epar.Od. Mandrakiou-Molou, Idra 180 40","categoryIds":["fish-tavernas"],"categories":["Fish Tavernas"],"distanceKm":0.17644738486129882},{"id":"fishTavernasRestaurants_d190706d0f4c","slug":"techne-restaurant-social-d190","kind":"restaurant","name":"Téchnē Restaurant & Social","lat":37.3499478063,"lng":23.461255663187938,"url":"https://maps.app.goo.gl/LkcL3YyhTtP2AGh39?g_st=ipc","address":"Epar.Od. Mandrakiou-Molou, Idra 180 40","categoryIds":["fish-tavernas"],"categories":["Fish Tavernas"],"distanceKm":0.20917019723616176},{"id":"greekRestaurants_957bfb0c0005","slug":"psaropoyla-g-mayrommatis-i-mayrommatis-g-eystathioy-oe-o-e-957b","kind":"restaurant","name":"ΨΑΡΟΠΟΥΛΑ Γ.ΜΑΥΡΟΜΜΑΤΗΣ-Η.ΜΑΥΡΟΜΜΑΤΗΣ-Γ.ΕΥΣΤΑΘΙΟΥ ΟΕ Ο.Ε","lat":37.34973982167689,"lng":23.46495374540123,"url":"https://maps.app.goo.gl/Xci6cmF7LRrnCad59?g_st=ipc","address":"Μιαούλη 454, Ύδρα 180 40","categoryIds":["greek-restaurants"],"categories":["Greek Restaurants"],"distanceKm":0.3003135680819865},{"id":"fishTavernasRestaurants_83ba819e5d0a","slug":"psaropoula-83ba","kind":"restaurant","name":"Psaropoula","lat":37.349711329596715,"lng":23.46495669234671,"url":"https://maps.app.goo.gl/iEjEefYGNPNwNDDy6?g_st=ipc","address":"Miaouli 454, Idra 180 40","categoryIds":["fish-tavernas"],"categories":["Fish Tavernas"],"distanceKm":0.3026592247313466},{"id":"coffeeBrunchRestaurants_6a007e672d77","slug":"the-pirate-bar-6a00","kind":"restaurant","name":"The Pirate Bar","lat":37.34970734644238,"lng":23.46509825080948,"url":"https://maps.app.goo.gl/kHR9XPEtdhdttpmr9?g_st=ipc","address":"Βότση, Ύδρα 180 40","categoryIds":["coffee-brunch"],"categories":["Coffee & Brunch Spots"],"distanceKm":0.31221295364390783},{"id":"greekRestaurants_2a52e887a9bb","slug":"i-oraia-ydra-2a52","kind":"restaurant","name":"Η Ωραία Ύδρα","lat":37.34994288805934,"lng":23.466175945881538,"url":"https://maps.app.goo.gl/rkvAbXZyRA6uxizH8?g_st=ipc","address":"Ύδρας, Ύδρα 180 40","categoryIds":["greek-restaurants"],"categories":["Greek Restaurants"],"distanceKm":0.37537889016930315},{"id":"greekRestaurants_37c38a309ff6","slug":"castello-hydra-37c3","kind":"restaurant","name":"Castello Hydra","lat":37.34652415693392,"lng":23.455436035571626,"url":"https://maps.app.goo.gl/ZWwvNsRtXjXrDC2j9?g_st=ipc","address":"Kamini Hydra Island Hydra Island, 180 40","categoryIds":["greek-restaurants"],"categories":["Greek Restaurants"],"distanceKm":0.8364583851115187},{"id":"greekRestaurants_5cc6a0ad45a2","slug":"dimitris-family-butcher-taverna-5cc6","kind":"restaurant","name":"DIMITRIS FAMILY BUTCHER TAVERNA","lat":37.49998863137907,"lng":23.454951269041434,"url":"https://maps.app.goo.gl/rVV7dw6UQwPvjHip9?g_st=ipc","address":"25 ΜΑΡΤΙΟΥ 12, Πόρος 180 20","categoryIds":["greek-restaurants"],"categories":["Greek Restaurants"],"distanceKm":16.516746009457435},{"id":"fishTavernasRestaurants_1990237d6026","slug":"poseidon-restaurant-1990","kind":"restaurant","name":"Poseidon Restaurant","lat":37.50071286982713,"lng":23.45417804690704,"url":"https://maps.app.goo.gl/1Th6rJgnvtfqZg6q7?g_st=ipc","address":"Πλατεία Βιρβίλη, Πόρος 180 20","categoryIds":["fish-tavernas"],"categories":["Fish Tavernas"],"distanceKm":16.600078995445163},{"id":"rooftopLoungesRestaurants_b9086fd9d613","slug":"oceanis-rooftop-garden-cocktails-b908","kind":"restaurant","name":"Oceanis Rooftop Garden Cocktails","lat":37.501996070488,"lng":23.45562913585347,"url":"https://maps.app.goo.gl/jsTmkoKprsWbmQrL7?g_st=ipc","address":"Πόρος 180 20","categoryIds":["rooftop-lounges"],"categories":["Rooftop Lounges"],"distanceKm":16.737523032499006},{"id":"greekRestaurants_194196a775f8","slug":"taverna-mpatzavalis-1941","kind":"restaurant","name":"Ταβέρνα Μπατζάβαλης","lat":37.538801302509206,"lng":23.20804103233561,"url":"https://maps.app.goo.gl/PctHkeeHVJEeQDux6?g_st=ipc","address":"Καρατζάς 180 20","categoryIds":["greek-restaurants"],"categories":["Greek Restaurants"],"distanceKm":30.625024743809664}],"mentionedGuides":[],"canonicalSlug":"ydroneta-24de","enrichment":{"summary_en":"Υδρονέτα is a curated restaurant in Ύδρα 180 40 in the Coffee & Brunch Spots collection. It is connected to 8 nearby Googlementor picks to help travelers build a stronger local route.","summary_el":"Υδρονέτα είναι ένα επιλεγμένο σημείο φαγητού στην περιοχή Ύδρα 180 40 και ανήκει στη συλλογή Coffee & Brunch Spots. Συνδέεται με 8 κοντινές προτάσεις του Googlementor για πιο ολοκληρωμένη εμπειρία.","vibe_tags":["curated","daytime-favorite"],"best_for":["first-time visitors","food lovers"],"visit_moments":["early morning","late brunch"],"practical_note":"Address and direct map link are available for easy turn-by-turn access.","nearby_walkable_count":8,"nearby_count_2km":9,"confidence":0.98},"areaContext":{"slug":"ydra","name":"Hydra","nameEl":"Ύδρα"},"intentContexts":[]},"__N_SSG":true}