{"pageProps":{"entity":{"id":"dessertsRestaurants_60263203c5ab","slug":"zacharoplasteio-loyx-6026","kind":"restaurant","name":"Ζαχαροπλαστείο Λουξ","lat":38.00559008775559,"lng":23.66029440436054,"url":"https://maps.app.goo.gl/QWGZuk9nzJoeC9xf6?g_st=ipc","address":"Αγωνιστών Στρατοπέδου Χαϊδαρίου 32, Χαϊδάρι 124 61","categoryIds":["desserts"],"categories":["Dessert Shops"]},"sameCategory":[{"id":"coffeeBrunchRestaurants_d00352ea6d8c","slug":"du-pain-boulangerie-patisserie-cafe-chaidari-d003","kind":"restaurant","name":"Du Pain - Boulangerie | Patisserie | Cafe - Χαϊδάρι","lat":38.01212694777047,"lng":23.65373933583571,"url":"https://maps.app.goo.gl/F7BPdSmhWeNtbKZVA?g_st=ipc","address":"Λεωφ. Αθηνών 308, Χαϊδάρι 124 62","categoryIds":["coffee-brunch","desserts"],"categories":["Coffee & Brunch Spots","Dessert Shops"],"legacySlugs":["du-pain-boulangerie-patisserie-cafe-chaidari-9c33"]},{"id":"dessertsRestaurants_785eeca94828","slug":"zacharoplasteia-kosmikon-ag-marina-iera-odos-335-785e","kind":"restaurant","name":"ΖΑΧΑΡΟΠΛΑΣΤΕΙΑ ΚΟΣΜΙΚΟΝ ΑΓ.ΜΑΡΙΝΑ ΙΕΡΑ ΟΔΟΣ 335","lat":37.997674954706554,"lng":23.667015535582053,"url":"https://maps.app.goo.gl/dYPUKHVLHxCx5BKd6?g_st=ipc","address":"Ιερά Οδός 335, Αγ. Βαρβάρα 123 51","categoryIds":["desserts"],"categories":["Dessert Shops"]},{"id":"dessertsRestaurants_1765ea0649e8","slug":"zacharoplasteio-andreadakis-dasos-chaidarioy-1765","kind":"restaurant","name":"Ζαχαροπλαστείο Ανδρεαδάκης Δάσος Χαϊδαρίου","lat":38.01441009164151,"lng":23.65246594622769,"url":"https://maps.app.goo.gl/vsbKYJMV6rWGy5Uc8?g_st=ipc","address":"Γεωρ. Παπανδρέου 33, Χαϊδάρι 124 63","categoryIds":["desserts"],"categories":["Dessert Shops"]},{"id":"coffeeBrunchRestaurants_44bd3c6a7140","slug":"theoria-tou-house-44bd","kind":"restaurant","name":"Theoria Tou House","lat":37.99483558716702,"lng":23.67242611231958,"url":"https://maps.app.goo.gl/xJYXm4QXBt9wx7wx5?g_st=ipc","address":"Πλ. Δαβάκη 1, Αιγάλεω 122 44","categoryIds":["coffee-brunch","desserts"],"categories":["Coffee & Brunch Spots","Dessert Shops"],"legacySlugs":["theoria-tou-house-74b7"]},{"id":"dessertsRestaurants_ba6234463276","slug":"maron-ba62","kind":"restaurant","name":"Μαρόν","lat":37.99449617488293,"lng":23.67314837817293,"url":"https://maps.app.goo.gl/V3oLNwTqi4An5qFb8?g_st=ipc","address":"Ιερά Οδός 287, Αιγάλεω 122 44","categoryIds":["desserts"],"categories":["Dessert Shops"]},{"id":"dessertsRestaurants_05b930fb8ac7","slug":"zacharoplasteio-andreadakis-peristeri-05b9","kind":"restaurant","name":"Ζαχαροπλαστείο Ανδρεαδάκης Περιστέρι","lat":38.01702641407976,"lng":23.675166561774304,"url":"https://maps.app.goo.gl/zRyi93GrVsyvFdqa8?g_st=ipc","address":"Πελοπίδα 172, Περιστέρι 121 37","categoryIds":["desserts"],"categories":["Dessert Shops"]},{"id":"dessertsRestaurants_0236d86220bb","slug":"zacharoplasteio-fouad-glyka-anatolis-0236","kind":"restaurant","name":"Ζαχαροπλαστείο Fouad Γλυκά Ανατολής","lat":37.99152497419196,"lng":23.67649706519698,"url":"https://maps.app.goo.gl/BtnzzxhnjQsHc3Ve9?g_st=ipc","address":"25ης Μαρτίου 18Α, Αιγάλεω 122 44","categoryIds":["desserts"],"categories":["Dessert Shops"]},{"id":"dessertsRestaurants_cb5513dd463f","slug":"galaktopoleio-stamoy-aigaleo-cb55","kind":"restaurant","name":"Γαλακτοπωλείο ΣΤΑΜΟΥ, Αιγάλεω","lat":37.990343839092134,"lng":23.676707151969765,"url":"https://maps.app.goo.gl/E7heRXWnWQRCBv4S7?g_st=ipc","address":"Θηβών 359, Αιγάλεω 122 44","categoryIds":["desserts"],"categories":["Dessert Shops"]},{"id":"dessertsRestaurants_3dbefba5d853","slug":"galaktopoleio-stamoy-3dbe","kind":"restaurant","name":"Γαλακτοπωλείο ΣΤΑΜΟΥ","lat":37.98009558422181,"lng":23.657555522495652,"url":"https://maps.app.goo.gl/39ZNM4A7nfLV7BTBA?g_st=ipc","address":"Γρ. Λαμπράκη 120, Κορυδαλλός 181 21","categoryIds":["desserts"],"categories":["Dessert Shops"]},{"id":"dessertsRestaurants_fe0eaa42452f","slug":"iceroll-peristeri-fe0e","kind":"restaurant","name":"Iceroll Peristeri","lat":38.01176430122643,"lng":23.693145391813818,"url":"https://maps.app.goo.gl/vjP8tAUnWK58Uq5x7?g_st=ipc","address":"Αιμιλίου Βεάκη 46, Περιστέρι 121 34","categoryIds":["desserts"],"categories":["Dessert Shops"]},{"id":"dessertsRestaurants_935fad998e8c","slug":"fraoylino-935f","kind":"restaurant","name":"Φραουλίνο","lat":38.02571847935665,"lng":23.682602344058107,"url":"https://maps.app.goo.gl/UsSfWkbfNh2ToQsu8?g_st=ipc","address":"Αγίου Ιεροθέου 110, Περιστέρι 121 35","categoryIds":["desserts"],"categories":["Dessert Shops"]},{"id":"dessertsRestaurants_2d68be5dbeef","slug":"cinnabon-river-west-2d68","kind":"restaurant","name":"Cinnabon River West","lat":37.98076958767386,"lng":23.67777033031343,"url":"https://maps.app.goo.gl/iys8A2TDdunHPN1i8?g_st=ic","address":"Par. Leoforou Kifisou 96-98, Egaleo 122 41","categoryIds":["desserts"],"categories":["Dessert Shops"]}],"nearby":[{"id":"greekRestaurants_9f4c1147cab2","slug":"ellinon-ta-xydia-9f4c","kind":"restaurant","name":"Ελλήνων Τα..ξυδια","lat":38.00596041944379,"lng":23.66399500584869,"url":"https://maps.app.goo.gl/oC72DF6MLMBssYjU7","address":"Νικ. Πλαστήρα 32, Χαϊδάρι 124 61","categoryIds":["greek-restaurants"],"categories":["Greek Restaurants"],"distanceKm":0.3268360268084349},{"id":"mexicanRestaurants_4fd2b517e59f","slug":"chicos-tequileria-mexicana-4fd2","kind":"restaurant","name":"Chicos Tequileria Mexicana","lat":38.00505726765837,"lng":23.664098826548518,"url":"https://maps.app.goo.gl/EqAGEAoJuRooejLJA?g_st=ipc","address":"Στρ. Καραϊσκάκη 49, Χαϊδάρι 124 61","categoryIds":["mexican"],"categories":["Mexican Restaurants"],"distanceKm":0.33855431902033756},{"id":"italianRestaurants_2e4b8b331a1f","slug":"trattoria-casa-bianca-2e4b","kind":"restaurant","name":"Trattoria Casa Bianca","lat":38.004704945340144,"lng":23.664059272009183,"url":"https://maps.app.goo.gl/akcP8bTGNqFh27cR9?g_st=ipc","address":"Στρ. Καραϊσκάκη 43, Χαϊδάρι 124 61","categoryIds":["italian"],"categories":["Italian Restaurants"],"distanceKm":0.3442355681451553},{"id":"greekRestaurants_741518abaa86","slug":"the-meaters-urban-beer-garden-7415","kind":"restaurant","name":"The Meaters Urban Beer Garden","lat":38.003598614109904,"lng":23.66346778642219,"url":"https://maps.app.goo.gl/zrm7vsMu18rMsZFJA","address":"Στρ. Καραϊσκάκη 25, Χαϊδάρι 124 61","categoryIds":["greek-restaurants"],"categories":["Greek Restaurants"],"distanceKm":0.3554496778813713},{"id":"cheapEatsRestaurants_eb9e5b7b1e69","slug":"nostimies-eb9e","kind":"restaurant","name":"Νοστιμιές","lat":38.006695342963845,"lng":23.664393083804136,"url":"https://maps.app.goo.gl/dWSfhPqcebsnfQNf9?g_st=ipc","address":"Γεωργίου Καραϊσκάκη 73 & Σάμου, Χαϊδάρι 124 61","categoryIds":["cheap-eats"],"categories":["Gyros & Cheap Eats"],"distanceKm":0.3795555709153619},{"id":"coffeeBrunchRestaurants_21280d2fc2ee","slug":"telescope-cafe-bar-restaurant-2128","kind":"restaurant","name":"Telescope Cafe Bar Restaurant","lat":38.00692418431941,"lng":23.65623593846488,"url":"https://maps.app.goo.gl/qq7xzW7bEsPcyJT1A?g_st=ipc","address":"Φιλικής Εταιρείας, Χαϊδάρι 124 61","categoryIds":["coffee-brunch","rooftop-lounges"],"categories":["Coffee & Brunch Spots","Rooftop Lounges"],"legacySlugs":["telescope-cafe-bar-restaurant-0981"],"distanceKm":0.38528691203736803},{"id":"greekRestaurants_2f9a21e4ef01","slug":"pesto-ki-egine-2f9a","kind":"restaurant","name":"Πέστο Κι Έγινε","lat":38.00286560260897,"lng":23.663110435533067,"url":"https://maps.app.goo.gl/xWbZXEXeN5pg16TG9","address":"Στρ. Καραϊσκάκη 17, Χαϊδάρι 124 61","categoryIds":["greek-restaurants"],"categories":["Greek Restaurants"],"distanceKm":0.3907120023075567},{"id":"greekRestaurants_b6bacb590b9a","slug":"to-yiasemi-food-wine-experience-b6ba","kind":"restaurant","name":"To Yiasemi Food & Wine Experience","lat":38.00142234618658,"lng":23.662754824513232,"url":"https://maps.app.goo.gl/72YzkYeb6xxkDt68A","address":"Στρ. Καραϊσκάκη 1, Β, Χαϊδάρι 124 61","categoryIds":["greek-restaurants"],"categories":["Greek Restaurants"],"distanceKm":0.511119443668787},{"id":"coffeeBrunchRestaurants_639c2aabee9d","slug":"qahwa-chaidari-639c","kind":"restaurant","name":"Qahwa Chaidari","lat":38.00126380773835,"lng":23.663252642859884,"url":"https://maps.app.goo.gl/vAwUeBwjnVB6oM6A7?g_st=ipc","address":"Στρ. Καραϊσκάκη 12, Χαϊδάρι 124 61","categoryIds":["coffee-brunch"],"categories":["Coffee & Brunch Spots"],"distanceKm":0.5464450508775958},{"id":"greekRestaurants_d0434bb7301e","slug":"ena-ena-d043","kind":"restaurant","name":"Ένα & Ένα","lat":38.008987140141066,"lng":23.65280105299395,"url":"https://maps.app.goo.gl/ndrwbvbypJGEEjum6","address":"Κύπρου 19, Χαϊδάρι 124 61","categoryIds":["greek-restaurants"],"categories":["Greek Restaurants"],"distanceKm":0.7574340697632939},{"id":"coffeeBrunchRestaurants_d00352ea6d8c","slug":"du-pain-boulangerie-patisserie-cafe-chaidari-d003","kind":"restaurant","name":"Du Pain - Boulangerie | Patisserie | Cafe - Χαϊδάρι","lat":38.01212694777047,"lng":23.65373933583571,"url":"https://maps.app.goo.gl/F7BPdSmhWeNtbKZVA?g_st=ipc","address":"Λεωφ. Αθηνών 308, Χαϊδάρι 124 62","categoryIds":["coffee-brunch","desserts"],"categories":["Coffee & Brunch Spots","Dessert Shops"],"legacySlugs":["du-pain-boulangerie-patisserie-cafe-chaidari-9c33"],"distanceKm":0.9263686363071177},{"id":"cheapEatsRestaurants_85d33bf344bd","slug":"psistaria-mparmpa-q-85d3","kind":"restaurant","name":"Ψησταριά ΜΠΑΡΜΠΑ-Q","lat":38.00370912884522,"lng":23.671659527057734,"url":"https://maps.app.goo.gl/hUJucEmJmMyQKCdo7?g_st=ipc","address":"Ηρακλείτου 68, Αιγάλεω 122 43","categoryIds":["cheap-eats"],"categories":["Gyros & Cheap Eats"],"distanceKm":1.0175088357560653},{"id":"familyFriendly_dd451e30d935","slug":"strike-kiddo-dd45","kind":"restaurant","name":"Strike Kiddo","lat":38.01119139287315,"lng":23.650703428601517,"url":"https://maps.app.goo.gl/zpYyze4k5z1xryNd8?g_st=ipc","address":"Λεωφ. Αθηνών 336, Χαϊδάρι 124 62","categoryIds":["family-friendly"],"categories":["Kid Friendly Locations"],"distanceKm":1.0459522735921392},{"id":"dessertsRestaurants_785eeca94828","slug":"zacharoplasteia-kosmikon-ag-marina-iera-odos-335-785e","kind":"restaurant","name":"ΖΑΧΑΡΟΠΛΑΣΤΕΙΑ ΚΟΣΜΙΚΟΝ ΑΓ.ΜΑΡΙΝΑ ΙΕΡΑ ΟΔΟΣ 335","lat":37.997674954706554,"lng":23.667015535582053,"url":"https://maps.app.goo.gl/dYPUKHVLHxCx5BKd6?g_st=ipc","address":"Ιερά Οδός 335, Αγ. Βαρβάρα 123 51","categoryIds":["desserts"],"categories":["Dessert Shops"],"distanceKm":1.0589769940554534},{"id":"dessertsRestaurants_1765ea0649e8","slug":"zacharoplasteio-andreadakis-dasos-chaidarioy-1765","kind":"restaurant","name":"Ζαχαροπλαστείο Ανδρεαδάκης Δάσος Χαϊδαρίου","lat":38.01441009164151,"lng":23.65246594622769,"url":"https://maps.app.goo.gl/vsbKYJMV6rWGy5Uc8?g_st=ipc","address":"Γεωρ. Παπανδρέου 33, Χαϊδάρι 124 63","categoryIds":["desserts"],"categories":["Dessert Shops"],"distanceKm":1.1967670315178784},{"id":"cheapEatsRestaurants_ff6ed582468d","slug":"kantina-mpoylis-ff6e","kind":"restaurant","name":"Καντίνα Μπούλης","lat":37.99687794724643,"lng":23.669076776828845,"url":"https://maps.app.goo.gl/xe2rY6uCMrsoqN6Z6?g_st=ipc","address":"Δελφών 1, Αιγάλεω 122 43","categoryIds":["cheap-eats"],"categories":["Gyros & Cheap Eats"],"distanceKm":1.237188049328745},{"id":"mexicanRestaurants_67556fc4ed45","slug":"foinikas-cocina-y-cocteleria-mexicana-6755","kind":"restaurant","name":"Foinikas Cocina Y Cocteleria Mexicana","lat":38.015441217507856,"lng":23.650413232343997,"url":"https://maps.app.goo.gl/opzLk9C1z99QsEwW7?g_st=ipc","address":"Ηρ. Πολυτεχνείου 76, Χαϊδάρι 124 62","categoryIds":["mexican"],"categories":["Mexican Restaurants"],"distanceKm":1.3961783094248037},{"id":"coffeeBrunchRestaurants_56346e942815","slug":"qahwa-roastery-5634","kind":"restaurant","name":"Qahwa Roastery","lat":38.00443805181344,"lng":23.67683735104457,"url":"https://maps.app.goo.gl/iwKrvWdDuhAmB8YHA?g_st=ipc","address":"Αγίου Σπυρίδωνος 48, Αιγάλεω 122 43","categoryIds":["coffee-brunch"],"categories":["Coffee & Brunch Spots"],"distanceKm":1.4550898690896759},{"id":"coffeeBrunchRestaurants_ed186b21821d","slug":"grand-cafe-ed18","kind":"restaurant","name":"Grand Cafe","lat":38.01669030501736,"lng":23.65067849733212,"url":"https://maps.app.goo.gl/4ikkZmtmj8GogkUe7?g_st=ipc","address":"Γεωρ. Παπανδρέου 53, Χαϊδάρι 124 62","categoryIds":["coffee-brunch"],"categories":["Coffee & Brunch Spots"],"distanceKm":1.4943826471701236},{"id":"cheapEatsRestaurants_e88cecd313d4","slug":"kempatzidiko-o-nikos-e88c","kind":"restaurant","name":"Κεμπατζίδικο ο Νίκος","lat":37.99463818746986,"lng":23.672052339400672,"url":"https://maps.app.goo.gl/aSgB8uZ7Vn2JHks67?g_st=ipc","address":"Πλ. Δαβάκη 2, Αιγάλεω 122 44","categoryIds":["cheap-eats"],"categories":["Gyros & Cheap Eats"],"distanceKm":1.5951380389011274},{"id":"coffeeBrunchRestaurants_44bd3c6a7140","slug":"theoria-tou-house-44bd","kind":"restaurant","name":"Theoria Tou House","lat":37.99483558716702,"lng":23.67242611231958,"url":"https://maps.app.goo.gl/xJYXm4QXBt9wx7wx5?g_st=ipc","address":"Πλ. Δαβάκη 1, Αιγάλεω 122 44","categoryIds":["coffee-brunch","desserts"],"categories":["Coffee & Brunch Spots","Dessert Shops"],"legacySlugs":["theoria-tou-house-74b7"],"distanceKm":1.600012510987016},{"id":"familyFriendly_7539abe09fd5","slug":"votanikos-kipos-diomidoys-7539","kind":"restaurant","name":"Βοτανικός Κήπος Διομήδους","lat":38.010895961889986,"lng":23.642935426625115,"url":"https://maps.app.goo.gl/WsLFbFUaXSS2rGMR6?g_st=ipc","address":"Ιερά Οδός 403, Χαϊδάρι 124 61","categoryIds":["family-friendly"],"categories":["Kid Friendly Locations"],"distanceKm":1.6312979670120484},{"id":"dessertsRestaurants_ba6234463276","slug":"maron-ba62","kind":"restaurant","name":"Μαρόν","lat":37.99449617488293,"lng":23.67314837817293,"url":"https://maps.app.goo.gl/V3oLNwTqi4An5qFb8?g_st=ipc","address":"Ιερά Οδός 287, Αιγάλεω 122 44","categoryIds":["desserts"],"categories":["Dessert Shops"],"distanceKm":1.6704158876627164},{"id":"coffeeBrunchRestaurants_7dd888878942","slug":"botanical-garden-bistrot-7dd8","kind":"restaurant","name":"Botanical Garden Bistrot","lat":38.01082910356087,"lng":23.64241923148242,"url":"https://maps.app.goo.gl/K8biwYq9RLoEXdZZA?g_st=ipc","address":"Βοτανικός Κήπος, Ιερά Οδός 403, Χαϊδάρι 124 61","categoryIds":["coffee-brunch"],"categories":["Coffee & Brunch Spots"],"distanceKm":1.6709361358681436}],"mentionedGuides":[],"canonicalSlug":"zacharoplasteio-loyx-6026","enrichment":{"summary_en":"Ζαχαροπλαστείο Λουξ is a curated restaurant in Χαϊδάρι 124 61 in the Dessert Shops collection. It is connected to 10 nearby Googlementor picks to help travelers build a stronger local route.","summary_el":"Ζαχαροπλαστείο Λουξ είναι ένα επιλεγμένο σημείο φαγητού στην περιοχή Χαϊδάρι 124 61 και ανήκει στη συλλογή Dessert Shops. Συνδέεται με 10 κοντινές προτάσεις του Googlementor για πιο ολοκληρωμένη εμπειρία.","vibe_tags":["curated","sweet-stop"],"best_for":["first-time visitors","food lovers"],"visit_moments":["afternoon break","after dinner"],"practical_note":"Address and direct map link are available for easy turn-by-turn access.","nearby_walkable_count":10,"nearby_count_2km":31,"confidence":0.98},"areaContext":{"slug":"agia-varvara","name":"Agia Varvara","nameEl":"Αγία Βαρβάρα"},"intentContexts":[{"href":"/desserts/agia-varvara","label":"Dessert Shops in Agia Varvara","categorySlug":"desserts","categoryName":"Dessert Shops","areaSlug":"agia-varvara","areaName":"Agia Varvara","areaNameEl":"Αγία Βαρβάρα"}]},"__N_SSG":true}