{"pageProps":{"entity":{"id":"greekRestaurants_31681c66c6ca","slug":"zoodochos-pigi-oinomageirion-3168","kind":"restaurant","name":"Ζωοδόχος Πηγή Οινομαγειρίον","lat":37.95501437395202,"lng":23.663299464502014,"url":"https://maps.app.goo.gl/Yhe2M5tujhjVHEAG6","address":"Κατσούλη 77, Πειραιάς 185 41","categoryIds":["greek-restaurants"],"categories":["Greek Restaurants"]},"sameCategory":[{"id":"greekRestaurants_77340ab1d76d","slug":"zachos-kaminia-7734","kind":"restaurant","name":"Ζάχος Καμίνια","lat":37.95283160176507,"lng":23.658993462418696,"url":"https://maps.app.goo.gl/24c8zd5zA2MCbP6f8","address":"185 41, Κομοτηνής 37, Πειραιάς 185 41","categoryIds":["greek-restaurants"],"categories":["Greek Restaurants"]},{"id":"greekRestaurants_16a49956bee9","slug":"mparmpalexis-anatolitikes-geyseis-16a4","kind":"restaurant","name":"Μπαρμπαλέξης Ανατολίτικες Γεύσεις","lat":37.95564763526353,"lng":23.669084735339375,"url":"https://maps.app.goo.gl/8iwKbcyFQg5iwckU9?g_st=ipc","address":"Flemingk 48, Ag. Ioannis Rentis 182 33","categoryIds":["greek-restaurants"],"categories":["Greek Restaurants"]},{"id":"greekRestaurants_a448ec3cfffd","slug":"to-koytoyki-toy-antoni-a448","kind":"restaurant","name":"Το κουτούκι του Αντώνη","lat":37.9618540673877,"lng":23.656289861821378,"url":"https://maps.app.goo.gl/SJ9Ya21w7zZToFhx8","address":"Αργυροκάστρου 26, Πειραιάς 185 42","categoryIds":["greek-restaurants"],"categories":["Greek Restaurants"]},{"id":"greekRestaurants_be3d05b1fe1e","slug":"to-zempereki-koytoyki-moschato-be3d","kind":"restaurant","name":"Το Ζεμπερέκι - Κουτούκι | Μοσχάτο","lat":37.95039414676294,"lng":23.681530575454058,"url":"https://maps.app.goo.gl/D3JyGs93dHL849c59","address":"Σολωμού 92, Μοσχάτο 183 45","categoryIds":["greek-restaurants"],"categories":["Greek Restaurants"]},{"id":"greekRestaurants_8e907eeb8136","slug":"fagopoteion-stoy-thoma-8e90","kind":"restaurant","name":"Φαγοποτείον στου Θωμά","lat":37.954509819048326,"lng":23.642613690114224,"url":"https://maps.app.goo.gl/jQSs2dndkMDG9Tsq7","address":"Μαυρομιχάλη 22-24, Πειραιάς 185 45","categoryIds":["greek-restaurants"],"categories":["Greek Restaurants"]},{"id":"greekRestaurants_7773207b8a15","slug":"little-ginger-7773","kind":"restaurant","name":"Little Ginger","lat":37.93943083536511,"lng":23.6501378633564,"url":"https://maps.app.goo.gl/ekwyDGT5qeED8gtk8","address":"Αγγέλου Μεταξά 13, Πειραιάς 185 34","categoryIds":["greek-restaurants"],"categories":["Greek Restaurants"]},{"id":"greekRestaurants_559e0d9ef868","slug":"marigo-edesmatopoleio-559e","kind":"restaurant","name":"Μαριγώ Εδεσματοπωλείο","lat":37.93961721991741,"lng":23.641779536091324,"url":"https://maps.app.goo.gl/4advyD22Ta7qiUEv7","address":"Φίλωνος 133, Πειραιάς 185 36","categoryIds":["greek-restaurants"],"categories":["Greek Restaurants"]},{"id":"greekRestaurants_e914468cc862","slug":"oinopantopoleio-to-eidikon-e914","kind":"restaurant","name":"Οινοπαντοπωλείο Tο Ειδικόν","lat":37.953880471733605,"lng":23.63384583394419,"url":"https://maps.app.goo.gl/PMXGHCEV52xT7G7w7","address":"Ψαρών 38, Πειραιάς 185 46","categoryIds":["greek-restaurants"],"categories":["Greek Restaurants"]},{"id":"greekRestaurants_9f70b553963a","slug":"mezeklikia-9f70","kind":"restaurant","name":"Μεζεκλίκια","lat":37.956254016920724,"lng":23.6929814615304,"url":"https://maps.app.goo.gl/SnbVYFRKtMTWopt79","address":"Π. Τσαλδάρη 277, Καλλιθέα 176 75","categoryIds":["greek-restaurants"],"categories":["Greek Restaurants"]},{"id":"greekRestaurants_f42ac62c3249","slug":"bounty-all-aboard-f42a","kind":"restaurant","name":"Bounty all aboard","lat":37.949723445369806,"lng":23.63332963263093,"url":"https://maps.app.goo.gl/2iShe5bzo7qg3ohc6","address":"Εθ. Αντιστάσεως 10, Δραπετσώνα 186 48","categoryIds":["greek-restaurants"],"categories":["Greek Restaurants"]},{"id":"greekRestaurants_9776b2d601ec","slug":"ladokolla-9776","kind":"restaurant","name":"Λαδόκολλα","lat":37.9520147160471,"lng":23.6947618008044,"url":"https://maps.app.goo.gl/R6yszu5SCxsZfVoCA","address":"Λεωφ. Ελ. Βενιζέλου 243, Καλλιθέα 176 73","categoryIds":["greek-restaurants"],"categories":["Greek Restaurants"]},{"id":"greekRestaurants_899916cf9819","slug":"izampela-armenikes-nostimies-8999","kind":"restaurant","name":"Ιζαμπέλα - Αρμένικες νοστιμιές","lat":37.95153993965958,"lng":23.631088706562064,"url":"https://maps.app.goo.gl/r3twrz7bwRr76j8n8","address":"Αναπαύσεως 36, Δραπετσώνα 185 46","categoryIds":["greek-restaurants"],"categories":["Greek Restaurants"]}],"nearby":[{"id":"italianRestaurants_161f75313435","slug":"incontro-via108-161f","kind":"restaurant","name":"Incontro Via108","lat":37.95597000000485,"lng":23.6616563361716,"url":"https://maps.app.goo.gl/PHAu91Gt4K1K24iZ8?g_st=ipc","address":"Αγ. Ελευθερίου 108, Πειραιάς 185 41","categoryIds":["italian"],"categories":["Italian Restaurants"],"distanceKm":0.17901243631782163},{"id":"greekRestaurants_77340ab1d76d","slug":"zachos-kaminia-7734","kind":"restaurant","name":"Ζάχος Καμίνια","lat":37.95283160176507,"lng":23.658993462418696,"url":"https://maps.app.goo.gl/24c8zd5zA2MCbP6f8","address":"185 41, Κομοτηνής 37, Πειραιάς 185 41","categoryIds":["greek-restaurants"],"categories":["Greek Restaurants"],"distanceKm":0.4488282727588336},{"id":"greekRestaurants_16a49956bee9","slug":"mparmpalexis-anatolitikes-geyseis-16a4","kind":"restaurant","name":"Μπαρμπαλέξης Ανατολίτικες Γεύσεις","lat":37.95564763526353,"lng":23.669084735339375,"url":"https://maps.app.goo.gl/8iwKbcyFQg5iwckU9?g_st=ipc","address":"Flemingk 48, Ag. Ioannis Rentis 182 33","categoryIds":["greek-restaurants"],"categories":["Greek Restaurants"],"distanceKm":0.512094565468293},{"id":"cheapEatsRestaurants_d6753e770498","slug":"o-aris-d675","kind":"restaurant","name":"Ο ΑΡΗΣ","lat":37.95672934899719,"lng":23.669396304305284,"url":"https://maps.app.goo.gl/UpknKH1CFKmC87ij6?g_st=ipc","address":"Π. Μελά 14, Αγ. Ιωάννης Ρέντης 182 33","categoryIds":["cheap-eats"],"categories":["Gyros & Cheap Eats"],"distanceKm":0.5675401986180398},{"id":"fishTavernasRestaurants_cfbde0cf6e1b","slug":"psaraki-meze-cfbd","kind":"restaurant","name":"Ψαράκι μεζέ","lat":37.954110812866894,"lng":23.653950848247767,"url":"https://maps.app.goo.gl/xP92x5imjgkE5bYk8?g_st=ipc","address":"Αραχώβης 21, Πειραιάς 185 40","categoryIds":["fish-tavernas"],"categories":["Fish Tavernas"],"distanceKm":0.8257939756861629},{"id":"greekRestaurants_a448ec3cfffd","slug":"to-koytoyki-toy-antoni-a448","kind":"restaurant","name":"Το κουτούκι του Αντώνη","lat":37.9618540673877,"lng":23.656289861821378,"url":"https://maps.app.goo.gl/SJ9Ya21w7zZToFhx8","address":"Αργυροκάστρου 26, Πειραιάς 185 42","categoryIds":["greek-restaurants"],"categories":["Greek Restaurants"],"distanceKm":0.9777987084646337},{"id":"cheapEatsRestaurants_2f84b1901b79","slug":"soyvlakia-o-serkos-2f84","kind":"restaurant","name":"Σουβλάκια ο Σέρκος","lat":37.96321249323642,"lng":23.6546161405587,"url":"https://maps.app.goo.gl/g55ZF34fH7dzCpi29?g_st=ipc","address":"Ίωνος Δραγούμη 39-41, Πειραιάς 185 42","categoryIds":["cheap-eats"],"categories":["Gyros & Cheap Eats"],"distanceKm":1.1876632441533757},{"id":"cheapEatsRestaurants_b825154bd7ab","slug":"systimatiko-soyvlatzidiko-o-karampelas-b825","kind":"restaurant","name":"Συστηματικό Σουβλατζίδικο Ο Καράμπελας","lat":37.94518871094833,"lng":23.654274337068934,"url":"https://maps.app.goo.gl/DkaV9CriKcsiVg296?g_st=ipc","address":"Πύλης 53, Πειραιάς 185 34","categoryIds":["cheap-eats"],"categories":["Gyros & Cheap Eats"],"distanceKm":1.3490449386770127},{"id":"coffeeBrunchRestaurants_a7d2f7f99d61","slug":"flaked-croissanterie-moschato-a7d2","kind":"restaurant","name":"Flaked Croissanterie Moschato","lat":37.950290767501926,"lng":23.678176231264157,"url":"https://maps.app.goo.gl/dnEf78CD1KTT1Ewu8?g_st=ipc","address":"Ομήρου 67, Μοσχάτο 183 45","categoryIds":["coffee-brunch"],"categories":["Coffee & Brunch Spots"],"distanceKm":1.4061645140068997},{"id":"cheapEatsRestaurants_06d5422f5e7f","slug":"o-mitsos-06d5","kind":"restaurant","name":"Ο Μήτσος","lat":37.951501915719206,"lng":23.678968163051703,"url":"https://maps.app.goo.gl/dt9dXWs5vWdhfFah6?g_st=ipc","address":"Στρ. Μακρυγιάννη 92, Μοσχάτο 183 45","categoryIds":["cheap-eats"],"categories":["Gyros & Cheap Eats"],"distanceKm":1.4282494241652948},{"id":"dessertsRestaurants_bfa57b4eb085","slug":"little-bear-piraeus-vegan-patisserie-bistro-bfa5","kind":"restaurant","name":"Little Bear Piraeus - Vegan Patisserie & Bistro","lat":37.946303720961154,"lng":23.647731238367324,"url":"https://maps.app.goo.gl/u2qFa1uh9dMczD9G6?g_st=ipc","address":"Ελ. Βενιζέλου 14, Πειραιάς 185 31","categoryIds":["desserts"],"categories":["Dessert Shops"],"distanceKm":1.673770095666817},{"id":"vegetarianRestaurants_8b929e1b12ca","slug":"little-bear-piraeus-vegan-patisserie-bistro-8b92","kind":"restaurant","name":"Little Bear Piraeus - Vegan Patisserie & Bistro","lat":37.94629157937497,"lng":23.647726020498503,"url":"https://maps.app.goo.gl/JNBSLzAJfWz7F5zV6?g_st=ipc","address":"Little Bear Piraeus - Vegan Patisserie & Bistro","categoryIds":["vegetarian"],"categories":["Vegetarian Friendly Restaurants"],"distanceKm":1.6749247900911841},{"id":"greekRestaurants_be3d05b1fe1e","slug":"to-zempereki-koytoyki-moschato-be3d","kind":"restaurant","name":"Το Ζεμπερέκι - Κουτούκι | Μοσχάτο","lat":37.95039414676294,"lng":23.681530575454058,"url":"https://maps.app.goo.gl/D3JyGs93dHL849c59","address":"Σολωμού 92, Μοσχάτο 183 45","categoryIds":["greek-restaurants"],"categories":["Greek Restaurants"],"distanceKm":1.6790196887235977},{"id":"luxuryDiningRestaurants_223cae9767cf","slug":"nest-rooftop-monte-kastella-223c","kind":"restaurant","name":"ΝΕΣΤ Rooftop - Monte Kastella","lat":37.93966255701075,"lng":23.661584217897186,"url":"https://maps.app.goo.gl/KrWjCjHhBZcKtAsU9?g_st=ipc","address":"Λεωφ. Αλ. Παπαναστασίου 109, Πειραιάς 185 33","categoryIds":["luxury-dining","rooftop-lounges"],"categories":["Luxury Dining","Rooftop Lounges"],"legacySlugs":["nest-rooftop-monte-kastella-d731"],"distanceKm":1.7136571103552607},{"id":"cheapEatsRestaurants_9166d63b45f7","slug":"enty-9166","kind":"restaurant","name":"ΕΝΤΥ","lat":37.96700050503918,"lng":23.65031239624474,"url":"https://maps.app.goo.gl/TJbtwJ75EUsRPcRt8?g_st=ipc","address":"Δημ. Καρακουλουξή 4, Νίκαια 184 54","categoryIds":["cheap-eats"],"categories":["Gyros & Cheap Eats"],"distanceKm":1.752907570253659},{"id":"cheapEatsRestaurants_e1efa6cc4eb9","slug":"kebab-hub-e1ef","kind":"restaurant","name":"KEBAB HUB","lat":37.96544893408382,"lng":23.64762675898248,"url":"https://maps.app.goo.gl/1jU1MDHhWUfkjuNTA?g_st=ipc","address":"Εφέσου 49, Νίκαια 184 50","categoryIds":["cheap-eats"],"categories":["Gyros & Cheap Eats"],"distanceKm":1.7983845872096909},{"id":"greekRestaurants_8e907eeb8136","slug":"fagopoteion-stoy-thoma-8e90","kind":"restaurant","name":"Φαγοποτείον στου Θωμά","lat":37.954509819048326,"lng":23.642613690114224,"url":"https://maps.app.goo.gl/jQSs2dndkMDG9Tsq7","address":"Μαυρομιχάλη 22-24, Πειραιάς 185 45","categoryIds":["greek-restaurants"],"categories":["Greek Restaurants"],"distanceKm":1.8145305090120067},{"id":"fishTavernasRestaurants_ae0677e73373","slug":"zarkadoylas-ta-kavoyrakia-ae06","kind":"restaurant","name":"ΖΑΡΚΑΔΟΥΛΑΣ - ΤΑ ΚΑΒΟΥΡΑΚΙΑ","lat":37.966878654895595,"lng":23.649066817348377,"url":"https://maps.app.goo.gl/NBfwV1GcmoeRk6M28?g_st=ipc","address":"Βιθυνίας 32, Νίκαια 184 50","categoryIds":["fish-tavernas"],"categories":["Fish Tavernas"],"distanceKm":1.8158580209289352},{"id":"rooftopLoungesRestaurants_70a332fffcc8","slug":"horizon-rooftop-of-senses-70a3","kind":"restaurant","name":"Horizon Rooftop Of Senses","lat":37.93866165468551,"lng":23.659642211558037,"url":"https://maps.app.goo.gl/viDajdxAvyspFBBt6?g_st=ipc","address":"Ακτή Κουμουνδούρου 24, Πειραιάς 185 33","categoryIds":["rooftop-lounges"],"categories":["Rooftop Lounges"],"distanceKm":1.8464021494514258},{"id":"fishTavernasRestaurants_948960a20968","slug":"piscis-mikrolimano-9489","kind":"restaurant","name":"PISCIS (Mikrolimano)","lat":37.938490522505944,"lng":23.659032074228165,"url":"https://maps.app.goo.gl/MsZEdpRYJ8p1nqmj9?g_st=ipc","address":"Ακτή Κουμουνδούρου 30, Πειραιάς 185 33","categoryIds":["fish-tavernas"],"categories":["Fish Tavernas"],"distanceKm":1.8750846589013739},{"id":"asianRestaurants_cb2b61b87e3c","slug":"toukta-thai-food-cb2b","kind":"restaurant","name":"Toukta Thai food","lat":37.96875566688742,"lng":23.650805513802922,"url":"https://maps.app.goo.gl/U33KjMR5URvuLe1m6?g_st=ipc","address":"Ιωνίας 3, Νίκαια 184 50","categoryIds":["asian"],"categories":["Asian Restaurants"],"distanceKm":1.8800005203639132},{"id":"cheapEatsRestaurants_44069571c770","slug":"o-giorgos-4406","kind":"restaurant","name":"Ο Γιώργος","lat":37.94626514113319,"lng":23.644321784628165,"url":"https://maps.app.goo.gl/41PfRyTP8uJ6c3uy9?g_st=ipc","address":"Γούναρη 18 και, Νικήτα, Πειραιάς 185 31","categoryIds":["cheap-eats"],"categories":["Gyros & Cheap Eats"],"distanceKm":1.9275267586679357},{"id":"cheapEatsRestaurants_5cd53c0e6d00","slug":"la-jacka-5cd5","kind":"restaurant","name":"La Jacka","lat":37.9421277470468,"lng":23.647527719022438,"url":"https://maps.app.goo.gl/4aXg5d6SUN73hXDt8?g_st=ic","address":"Καραΐσκου 117, Pireas 185 32","categoryIds":["cheap-eats"],"categories":["Gyros & Cheap Eats"],"distanceKm":1.9914279154765497},{"id":"italianRestaurants_4128f283696a","slug":"santa-pasta-cucina-italiana-4128","kind":"restaurant","name":"SANTA PASTA Cucina Italiana","lat":37.94068201075252,"lng":23.64952027321399,"url":"https://maps.app.goo.gl/s3jT1Jfm88nb6Y8f8?g_st=ipc","address":"Γρ. Λαμπράκη 144, Πειραιάς 185 35","categoryIds":["italian"],"categories":["Italian Restaurants"],"distanceKm":1.9999133929776898}],"mentionedGuides":[],"canonicalSlug":"zoodochos-pigi-oinomageirion-3168","enrichment":{"summary_en":"Ζωοδόχος Πηγή Οινομαγειρίον is a curated restaurant in Πειραιάς 185 41 in the Greek Restaurants collection. It is connected to 4 nearby Googlementor picks to help travelers build a stronger local route.","summary_el":"Ζωοδόχος Πηγή Οινομαγειρίον είναι ένα επιλεγμένο σημείο φαγητού στην περιοχή Πειραιάς 185 41 και ανήκει στη συλλογή Greek Restaurants. Συνδέεται με 4 κοντινές προτάσεις του Googlementor για πιο ολοκληρωμένη εμπειρία.","vibe_tags":["curated"],"best_for":["first-time visitors","food lovers"],"visit_moments":["lunch stop","dinner stop"],"practical_note":"Address and direct map link are available for easy turn-by-turn access.","nearby_walkable_count":4,"nearby_count_2km":25,"confidence":0.98},"areaContext":{"slug":"nikaia","name":"Nikaia","nameEl":"Νίκαια"},"intentContexts":[{"href":"/greek-restaurants/nikaia","label":"Greek Restaurants in Nikaia","categorySlug":"greek-restaurants","categoryName":"Greek Restaurants","areaSlug":"nikaia","areaName":"Nikaia","areaNameEl":"Νίκαια"}]},"__N_SSG":true}