{"pageProps":{"payload":{"area":{"id":"municipalities_1760d194c086","name":"Αμπελόκηποι","nameEn":"Ambelokipi","region":"Κέντρο Αθήνας","regionEn":"Athens Center","lat":38.002,"lng":23.753,"urlSlug":"ampelokipoi","aliases":["Αμπελόκηποι","Ambelokipi","Αμπελόκηποι Athens Center","Ambelokipi Athens Center","Ampelopoi","Ampelokipoi","Ampelokipi","Αμπελοκηποι","Αμπελοκηπι","ampelokipoi-1760","ampelokipoi"]},"category":{"id":"desserts","name":"Dessert Shops","urlSlug":"desserts","aliases":["desserts","Dessert Shops","dessert-shops"]},"entities":[{"entity":{"id":"dessertsRestaurants_55ea1e7f1b68","slug":"cremona-55ea","kind":"restaurant","name":"CREMONA","lat":37.999276434608944,"lng":23.746794928014506,"url":"https://maps.app.goo.gl/88H4UALJy3RpJMnJA?g_st=ipc","address":"58, Δοϊράνης 56, Αθήνα 113 63","categoryIds":["desserts"],"categories":["Dessert Shops"]},"distanceKm":0.6223559376867215},{"entity":{"id":"dessertsRestaurants_500065b70e96","slug":"mpozas-5000","kind":"restaurant","name":"Μπόζας","lat":37.99742038031428,"lng":23.73986164387991,"url":"https://maps.app.goo.gl/zSMSytPeL1fEn7U3A?g_st=ipc","address":"Κερκύρας 39 &, Παξών, Αθήνα 113 62","categoryIds":["desserts"],"categories":["Dessert Shops"]},"distanceKm":1.2588218852658997},{"entity":{"id":"dessertsRestaurants_6128b9a38565","slug":"zante-6128","kind":"restaurant","name":"Zante","lat":38.01329808317404,"lng":23.75625779357789,"url":"https://maps.app.goo.gl/vdA9XUPFa7M3vbdi7?g_st=ipc","address":"Ελ. Βενιζέλου 21, Γαλάτσι 111 47","categoryIds":["desserts"],"categories":["Dessert Shops"]},"distanceKm":1.2883058934886282},{"entity":{"id":"dessertsRestaurants_82392100ef3d","slug":"galaktopoleio-stamoy-8239","kind":"restaurant","name":"Γαλακτοπωλείο ΣΤΑΜΟΥ","lat":37.99247877904618,"lng":23.761668631710492,"url":"https://maps.app.goo.gl/118TMc1zY2E2HRzEA?g_st=ipc","address":"Πανόρμου 62, Αθήνα 115 23","categoryIds":["desserts"],"categories":["Dessert Shops"]},"distanceKm":1.303019426920303},{"entity":{"id":"dessertsRestaurants_3c1566b87f0f","slug":"galaktopoleio-stamoy-galatsi-attikis-3c15","kind":"restaurant","name":"Γαλακτοπωλείο ΣΤΑΜΟΥ, Γαλάτσι Αττικής","lat":38.01421938915903,"lng":23.75342305374386,"url":"https://maps.app.goo.gl/n8JWXhCzyJJxjNQv5?g_st=ipc","address":"Λεωφ. Βεΐκου 9, Γαλάτσι 111 46","categoryIds":["desserts"],"categories":["Dessert Shops"]},"distanceKm":1.359239537942061},{"entity":{"id":"dessertsRestaurants_1567b57f0462","slug":"santo-belto-1567","kind":"restaurant","name":"Santo Belto","lat":38.00296833258449,"lng":23.737420985475723,"url":"https://maps.app.goo.gl/ww6MiD3roMGdunrc7?g_st=ipc","address":"Αγίας Ζώνης 21, Αθήνα 113 61","categoryIds":["desserts"],"categories":["Dessert Shops"]},"distanceKm":1.3692706646840969},{"entity":{"id":"dessertsRestaurants_9a1aa3339c46","slug":"eva-9a1a","kind":"restaurant","name":"Eva","lat":38.015131929032286,"lng":23.750456340002337,"url":"https://maps.app.goo.gl/GBYXZRmRKUPq81F8A?g_st=ic","address":"Karaiskaki 16, Galatsi 111 46","categoryIds":["desserts"],"categories":["Dessert Shops"]},"distanceKm":1.477112195151297},{"entity":{"id":"dessertsRestaurants_12623fbd2b22","slug":"the-cookie-spot-1262","kind":"restaurant","name":"The Cookie Spot","lat":37.99444679765089,"lng":23.767246870295605,"url":"https://maps.app.goo.gl/RvKCNW6xRcbro6To7?g_st=ipc","address":"Λεωφ. Κηφισίας 129, Αθήνα 115 24","categoryIds":["desserts"],"categories":["Dessert Shops"]},"distanceKm":1.5046094165914337},{"entity":{"id":"dessertsRestaurants_d3301ebc9d06","slug":"portatif-ippokratous-d330","kind":"restaurant","name":"Portatif - ippokratous","lat":37.98880796872772,"lng":23.747928642094816,"url":"https://maps.app.goo.gl/Hjds2t3JrKoqCot39?g_st=ipc","address":"Ιπποκράτους 206, Αθήνα 114 72","categoryIds":["desserts"],"categories":["Dessert Shops"]},"distanceKm":1.5327242798211627},{"entity":{"id":"dessertsRestaurants_98b6e615d276","slug":"chunky-cookie-bar-98b6","kind":"restaurant","name":"Chunky Cookie Bar","lat":37.990432042632165,"lng":23.743378760155576,"url":"https://maps.app.goo.gl/RyoKAVU7gY9FtBng6?g_st=ipc","address":"Πέτρου Καλλιγά 6, Αθήνα 114 74","categoryIds":["desserts"],"categories":["Dessert Shops"]},"distanceKm":1.537970313418437},{"entity":{"id":"dessertsRestaurants_0c24728d84f7","slug":"zacharoplasteia-konstantinidis-0c24","kind":"restaurant","name":"Ζαχαροπλαστεία Κωνσταντινίδης","lat":37.994489109318636,"lng":23.768109247569534,"url":"https://maps.app.goo.gl/KRDBFxECZQJmykCB8?g_st=ipc","address":"Λεωφ. Κηφισίας 116, Αθήνα 115 26","categoryIds":["desserts"],"categories":["Dessert Shops"]},"distanceKm":1.5653585738658609},{"entity":{"id":"dessertsRestaurants_b17cae58055b","slug":"solo-gelato-kypseli-b17c","kind":"restaurant","name":"SOLO GELATO ΚΥΨΕΛΗ","lat":37.997495076308105,"lng":23.735075284705523,"url":"https://maps.app.goo.gl/xy8KGbP1LQZJCmxX7?g_st=ipc","address":"Ιθάκης 9, Αθήνα 112 57","categoryIds":["desserts"],"categories":["Dessert Shops"]},"distanceKm":1.6485660139880027},{"entity":{"id":"dessertsRestaurants_33a56f7d2cf2","slug":"andrias-33a5","kind":"restaurant","name":"Ανδριάς","lat":37.98955326408805,"lng":23.76607876362105,"url":"https://maps.app.goo.gl/dtVWFaCoXcBCwpmEA?g_st=ipc","address":"Σεβαστουπόλεως 64, Αθήνα 115 26","categoryIds":["desserts"],"categories":["Dessert Shops"]},"distanceKm":1.7969298221643084},{"entity":{"id":"dessertsRestaurants_69d8bc325b59","slug":"the-sweet-spot-69d8","kind":"restaurant","name":"The Sweet Spot","lat":38.000116106882906,"lng":23.77349448800709,"url":"https://maps.app.goo.gl/CH4eLFxcoxyVn5pM9?g_st=ipc","address":"Αδριανείου 46, Αθήνα 115 25","categoryIds":["desserts"],"categories":["Dessert Shops"]},"distanceKm":1.8079353080875804},{"entity":{"id":"dessertsRestaurants_b43c17b9e94d","slug":"le-greche-neo-psychiko-b43c","kind":"restaurant","name":"Le Greche NEO Psychiko","lat":38.00380450511544,"lng":23.775289515752554,"url":"https://maps.app.goo.gl/hRu6XR8fQTV8oMCF6?g_st=ipc","address":"Λυκούργου 2, Νέο Ψυχικό 154 51","categoryIds":["desserts"],"categories":["Dessert Shops"]},"distanceKm":1.9632729306233458},{"entity":{"id":"dessertsRestaurants_b83e09929158","slug":"zacharoplasteia-konstantinidis-b83e","kind":"restaurant","name":"ΖΑΧΑΡΟΠΛΑΣΤΕΙΑ ΚΩΝΣΤΑΝΤΙΝΙΔΗΣ","lat":37.989007700389564,"lng":23.768816133618305,"url":"https://maps.app.goo.gl/kiKCSDG9JX1cLwVf9?g_st=ipc","address":"Λεωφ. Μεσογείων 86, Αθήνα 115 27","categoryIds":["desserts"],"categories":["Dessert Shops"]},"distanceKm":2.001979120254353},{"entity":{"id":"dessertsRestaurants_c351ea4104d5","slug":"carpo-psychiko-c351","kind":"restaurant","name":"carpo psychiko","lat":38.004332008333996,"lng":23.775883928805627,"url":"https://maps.app.goo.gl/ipvrg2WYGAj3yFzR6?g_st=ipc","address":"Dim. Vasiliou 1, Neo Psichiko 154 51","categoryIds":["desserts"],"categories":["Dessert Shops"]},"distanceKm":2.021765376342608},{"entity":{"id":"dessertsRestaurants_c99ab06196ae","slug":"carpo-psychiko-c99a","kind":"restaurant","name":"carpo psychiko","lat":38.00433299399579,"lng":23.77588410102084,"url":"https://maps.app.goo.gl/cHiF8braV8253FBP6?g_st=ipc","address":"Dim. Vasiliou 1, Neo Psichiko 154 51","categoryIds":["desserts"],"categories":["Dessert Shops"]},"distanceKm":2.0217943876460374},{"entity":{"id":"dessertsRestaurants_44539c96154c","slug":"katamaya-sweet-savory-4453","kind":"restaurant","name":"Katamaya Sweet & Savory","lat":38.001728655646296,"lng":23.776605222448108,"url":"https://maps.app.goo.gl/d4khgseTBK8h5W1MA?g_st=ipc","address":"Δημ. Βασιλείου 20, Ψυχικό 154 51","categoryIds":["desserts"],"categories":["Dessert Shops"]},"distanceKm":2.068523110195078},{"entity":{"id":"dessertsRestaurants_50c92ff86d1d","slug":"portatif-factory-50c9","kind":"restaurant","name":"Πορτατίφ - Factory","lat":37.98547841789868,"lng":23.739345621810312,"url":"https://maps.app.goo.gl/Q5VYitKyncAmC1Wn8?g_st=ipc","address":"Μαυρομιχάλη 81, Αθήνα 114 72","categoryIds":["desserts"],"categories":["Dessert Shops"]},"distanceKm":2.1924179022180703},{"entity":{"id":"dessertsRestaurants_903707df6326","slug":"papliber-9037","kind":"restaurant","name":"PapLiber","lat":38.021403205203185,"lng":23.74592719548837,"url":"https://maps.app.goo.gl/3KG3eWHdUB7oyaGD7?g_st=ipc","address":"Γεωργούλια Αγησιλάου 10, Αθήνα 111 42","categoryIds":["desserts"],"categories":["Dessert Shops"]},"distanceKm":2.24475474738519},{"entity":{"id":"dessertsRestaurants_be636dabd487","slug":"afoi-asimakopoyloi-be63","kind":"restaurant","name":"Αφοι Ασημακόπουλοι","lat":37.98543510745225,"lng":23.738217370820664,"url":"https://maps.app.goo.gl/zhMqHSFRswEjySMi9?g_st=ipc","address":"Χαρ. Τρικούπη 82, Αθήνα 106 80","categoryIds":["desserts"],"categories":["Dessert Shops"]},"distanceKm":2.25184167880372},{"entity":{"id":"dessertsRestaurants_27cc6726185a","slug":"zacharoplasteia-kosmikon-ag-nikolaos-27cc","kind":"restaurant","name":"ΖΑΧΑΡΟΠΛΑΣΤΕΙΑ ΚΟΣΜΙΚΟΝ ΑΓ.ΝΙΚΟΛΑΟΣ","lat":38.00667700680062,"lng":23.72782119868635,"url":"https://maps.app.goo.gl/qDYpfn8xkLTr164U7?g_st=ipc","address":"Λεωφ. Ιωνίας 104, Αθήνα 104 46","categoryIds":["desserts"],"categories":["Dessert Shops"]},"distanceKm":2.2665761909993742},{"entity":{"id":"dessertsRestaurants_6380c13ce6fb","slug":"petek-zacharoplasteio-6380","kind":"restaurant","name":"Πετέκ - Ζαχαροπλαστείο","lat":37.992161285064114,"lng":23.729868228783843,"url":"https://maps.app.goo.gl/bya8rkC9eSnHKYnU9?g_st=ipc","address":"3ης Σεπτεμβρίου 81, Αθήνα 104 34","categoryIds":["desserts"],"categories":["Dessert Shops"]},"distanceKm":2.303345466956056},{"entity":{"id":"dessertsRestaurants_0a4575669b20","slug":"sorolop-0a45","kind":"restaurant","name":"Sorolop","lat":37.98564970745245,"lng":23.73486137468713,"url":"https://maps.app.goo.gl/JHNfHtwZtaTRv5c86?g_st=ipc","address":"Ανδρέα Μεταξά 17, Αθήνα 106 81","categoryIds":["desserts"],"categories":["Dessert Shops"]},"distanceKm":2.414924084683152},{"entity":{"id":"dessertsRestaurants_1784b9fa852d","slug":"baklamania-1784","kind":"restaurant","name":"Baklamania","lat":37.985982058793134,"lng":23.733879471082627,"url":"https://maps.app.goo.gl/dVejuM8qJpCUsYq38?g_st=ipc","address":"Θεμιστοκλέους 49, Αθήνα 106 83","categoryIds":["desserts"],"categories":["Dessert Shops"]},"distanceKm":2.4453572632206573},{"entity":{"id":"dessertsRestaurants_578f4bf4ed9c","slug":"dimitris-economides-athens-578f","kind":"restaurant","name":"Dimitris Economides Athens","lat":38.008931143721306,"lng":23.779615664170734,"url":"https://maps.app.goo.gl/wRvmhWMFJRUQ21b49?g_st=ipc","address":"Λεωφ. Κηφισίας 340, Νέο Ψυχικό 154 51","categoryIds":["desserts"],"categories":["Dessert Shops"]},"distanceKm":2.4560236596472773},{"entity":{"id":"dessertsRestaurants_ba20d8faff31","slug":"craquelin-ba20","kind":"restaurant","name":"Craquelin","lat":37.9865815151158,"lng":23.732749024802267,"url":"https://maps.app.goo.gl/m9Z1VRpp25owhfSz8?g_st=ipc","address":"Σολωμού 23, Αθήνα 106 82","categoryIds":["desserts"],"categories":["Dessert Shops"]},"distanceKm":2.467491952105682},{"entity":{"id":"dessertsRestaurants_b21d96062bcb","slug":"pap-liber-patisia-b21d","kind":"restaurant","name":"Pap-Liber (Πατήσια)","lat":38.01877416845803,"lng":23.734552478722144,"url":"https://maps.app.goo.gl/fgNMoYsGZV8mdkn37?g_st=ipc","address":"Ιακωβίδου 10 &, Τσίλλερ, Αθήνα 111 44","categoryIds":["desserts"],"categories":["Dessert Shops"]},"distanceKm":2.4680082182890226},{"entity":{"id":"dessertsRestaurants_bdb87120c3b8","slug":"athina-kon-bdb8","kind":"restaurant","name":"ΑΘΗΝΑΪΚΟΝ","lat":38.00959872140439,"lng":23.78101021168435,"url":"https://maps.app.goo.gl/ACrYfvjmkufL8q3g9?g_st=ipc","address":"Νικολάου Μάντζαρου 1 &, Εθ. Αντιστάσεως, Νέο Ψυχικό 154 51","categoryIds":["desserts"],"categories":["Dessert Shops"]},"distanceKm":2.5955193341363882}],"counts":{"totalEntities":4118,"totalInArea":463,"totalInCategory":379,"totalCategoryArea":56},"relatedCategories":[{"categoryId":"cheap-eats","categorySlug":"cheap-eats","categoryName":"Gyros & Cheap Eats","count":70,"passesThreshold":true},{"categoryId":"coffee-brunch","categorySlug":"brunch","categoryName":"Coffee & Brunch Spots","count":63,"passesThreshold":true},{"categoryId":"greek-restaurants","categorySlug":"greek-restaurants","categoryName":"Greek Restaurants","count":56,"passesThreshold":true},{"categoryId":"luxury-dining","categorySlug":"luxury-dining","categoryName":"Luxury Dining","count":44,"passesThreshold":true},{"categoryId":"vegetarian","categorySlug":"vegetarian","categoryName":"Vegetarian Friendly Restaurants","count":40,"passesThreshold":true},{"categoryId":"italian","categorySlug":"italian","categoryName":"Italian Restaurants","count":32,"passesThreshold":true},{"categoryId":"asian","categorySlug":"asian-restaurants","categoryName":"Asian Restaurants","count":22,"passesThreshold":true},{"categoryId":"burgers","categorySlug":"burgers","categoryName":"Burger Spots","count":22,"passesThreshold":true},{"categoryId":"rooftop-lounges","categorySlug":"rooftops","categoryName":"Rooftop Lounges","count":18,"passesThreshold":true},{"categoryId":"fish-tavernas","categorySlug":"fish-tavernas","categoryName":"Fish Tavernas","count":12,"passesThreshold":true}],"relatedAreas":[{"areaId":"municipalities_75ddb64a42fd","areaName":"Γύζη","areaSlug":"gyzi","count":93,"passesThreshold":true,"nearestDistanceKm":0.32215698371358104},{"areaId":"municipalities_61eaea5bd3d9","areaName":"Ιλίσια","areaSlug":"ilisia","count":86,"passesThreshold":true,"nearestDistanceKm":0.37498482525216587},{"areaId":"municipalities_0fd1d03201a0","areaName":"Μετς","areaSlug":"mets","count":85,"passesThreshold":true,"nearestDistanceKm":0.1314938402817187},{"areaId":"municipalities_af1f7d07cb18","areaName":"Γκάζι","areaSlug":"gkazi","count":85,"passesThreshold":true,"nearestDistanceKm":0.18651008458205726},{"areaId":"municipalities_2f324ee27306","areaName":"Εξάρχεια","areaSlug":"exarcheia","count":85,"passesThreshold":true,"nearestDistanceKm":0.2193595957859492},{"areaId":"municipalities_0cae2c00b932","areaName":"Κολωνάκι","areaSlug":"kolonaki","count":84,"passesThreshold":true,"nearestDistanceKm":0.09888651704551905},{"areaId":"municipalities_f73663b8f738","areaName":"Αττική","areaSlug":"attiki","count":84,"passesThreshold":true,"nearestDistanceKm":0.4088220172465194},{"areaId":"municipalities_5bc013791cf8","areaName":"Πλάκα","areaSlug":"plaka","count":83,"passesThreshold":true,"nearestDistanceKm":0.027062667032199905},{"areaId":"municipalities_2bcfcb8b899f","areaName":"Ψυρρή","areaSlug":"psyrri","count":83,"passesThreshold":true,"nearestDistanceKm":0.047074153549061026},{"areaId":"municipalities_877c3bc81df5","areaName":"Σύνταγμα","areaSlug":"syntagma","count":83,"passesThreshold":true,"nearestDistanceKm":0.14239808242892413}],"passesThreshold":true},"hasAreaGuidePage":true},"__N_SSG":true}