{"pageProps":{"payload":{"area":{"id":"municipalities_b643a309d451","name":"Γουδί","nameEn":"Goudi","region":"Κέντρο Αθήνας","regionEn":"Athens Center","lat":37.9833,"lng":23.765,"urlSlug":"goydi","aliases":["Γουδί","Goudi","Γουδί Athens Center","Goudi Athens Center","Gudi","goydi-b643","goydi"]},"category":{"id":"rooftop-lounges","name":"Rooftop Lounges","urlSlug":"rooftops","aliases":["rooftop-lounges","Rooftop Lounges","rooftop","roof-top"]},"entities":[{"entity":{"id":"rooftopLoungesRestaurants_f7a32b8c6926","slug":"deos-f7a3","kind":"restaurant","name":"Deos","lat":37.99283916898427,"lng":23.76419184118261,"url":"https://maps.app.goo.gl/XiQsBWs7XeVDvyW1A?g_st=ipc","address":"Λουίζης Ριανκούρ 64, Αθήνα 115 23","categoryIds":["rooftop-lounges"],"categories":["Rooftop Lounges"]},"distanceKm":1.0630690881886862},{"entity":{"id":"rooftopLoungesRestaurants_f9c73dde5ada","slug":"sensimilia-cafe-bar-f9c7","kind":"restaurant","name":"Sensimilia Cafe Bar","lat":37.993035889378,"lng":23.76531520450526,"url":"https://maps.app.goo.gl/s89v4aAfgSswW1qy7?g_st=ipc","address":"Δουκίσσης Πλακεντίας 129, Αθήνα 115 23","categoryIds":["rooftop-lounges"],"categories":["Rooftop Lounges"]},"distanceKm":1.0829338743740815},{"entity":{"id":"rooftopLoungesRestaurants_8f5c828bae94","slug":"hytra-restaurant-bar-8f5c","kind":"restaurant","name":"Hytra Restaurant & Bar","lat":37.981676643088775,"lng":23.752727386838163,"url":"https://maps.app.goo.gl/kSyacHZLkt7m28Ay9?g_st=ipc","address":"1, Πέτρου Κόκκαλη STR, Αθήνα 115 21","categoryIds":["rooftop-lounges"],"categories":["Rooftop Lounges"]},"distanceKm":1.0906586948429595},{"entity":{"id":"rooftopLoungesRestaurants_88400a681851","slug":"orizontes-lycabettus-8840","kind":"restaurant","name":"Orizontes Lycabettus","lat":37.981808231992176,"lng":23.74354492669247,"url":"https://maps.app.goo.gl/AnZze357jk6bNwtn9?g_st=ipc","address":"Αριστίππου 1, Αθήνα 106 76","categoryIds":["rooftop-lounges"],"categories":["Rooftop Lounges"]},"distanceKm":1.8877028204018413},{"entity":{"id":"rooftopLoungesRestaurants_3190136be5f2","slug":"prasini-tenta-lykavittos-3190","kind":"restaurant","name":"Πράσινη Τέντα, Λυκαβηττός","lat":37.9808487584985,"lng":23.743118035028875,"url":"https://maps.app.goo.gl/C2dzGLRSQSsDvbFF8?g_st=ipc","address":"Μονοπάτι Λυκαβηττού, Αθήνα 114 71","categoryIds":["rooftop-lounges"],"categories":["Rooftop Lounges"]},"distanceKm":1.937099528204604},{"entity":{"id":"rooftopLoungesRestaurants_971677828a79","slug":"rooftop-terrace-on-top-of-st-george-hotel-9716","kind":"restaurant","name":"Rooftop Terrace on top of St. George Hotel","lat":37.97925398876864,"lng":23.742145217920367,"url":"https://maps.app.goo.gl/Es9VywoRiqnCUCTM9?g_st=ipc","address":"Αθήνα 106 75","categoryIds":["rooftop-lounges"],"categories":["Rooftop Lounges"]},"distanceKm":2.0530125394859513},{"entity":{"id":"rooftopLoungesRestaurants_f14ebba0617a","slug":"nyx-japanese-rooftop-gastrobar-f14e","kind":"restaurant","name":"NYX Japanese Rooftop Gastrobar","lat":37.979694011195086,"lng":23.736122213234587,"url":"https://maps.app.goo.gl/KtiRSvuVXyUpBSTu8?g_st=ipc","address":"Ομήρου 19, Αθήνα 106 19","categoryIds":["rooftop-lounges"],"categories":["Rooftop Lounges"]},"distanceKm":2.5625552241776712},{"entity":{"id":"rooftopLoungesRestaurants_a1dcf63cc152","slug":"mappemonde-restaurant-bar-lounge-a1dc","kind":"restaurant","name":"MAPPEMONDE RESTAURANT BAR-LOUNGE","lat":37.9769632268169,"lng":23.736169719080895,"url":"https://maps.app.goo.gl/kv9XJjTv2Ssa7DxA6?g_st=ipc","address":"4 Eleftheriou Venizelou Avenue and, Κριεζώτου 2, Αθήνα 106 71","categoryIds":["rooftop-lounges"],"categories":["Rooftop Lounges"]},"distanceKm":2.623276194355099},{"entity":{"id":"rooftopLoungesRestaurants_c34049f74a4c","slug":"gb-roof-garden-restaurant-bar-c340","kind":"restaurant","name":"GB Roof Garden Restaurant & Bar","lat":37.97622491152129,"lng":23.73551130501855,"url":"https://maps.app.goo.gl/dd7gZSbVftPp5h3y8?g_st=ipc","address":"GB Roof Garden Restaurant & Bar","categoryIds":["rooftop-lounges"],"categories":["Rooftop Lounges"]},"distanceKm":2.7016752716503114},{"entity":{"id":"rooftopLoungesRestaurants_611d43a0bb40","slug":"tudor-hall-611d","kind":"restaurant","name":"Tudor Hall","lat":37.976268352095765,"lng":23.7349212835823,"url":"https://maps.app.goo.gl/m71roWoTizDjiDpo9?g_st=ipc","address":"Γεωρ. Α' 3, Αθήνα 105 64","categoryIds":["rooftop-lounges"],"categories":["Rooftop Lounges"]},"distanceKm":2.7498108865856508},{"entity":{"id":"rooftopLoungesRestaurants_a85e8793b95e","slug":"galaxy-bar-a85e","kind":"restaurant","name":"Galaxy Bar","lat":37.97799760915879,"lng":23.73380131955468,"url":"https://maps.app.goo.gl/onyhWrgj9TNpbXLX8?g_st=ipc","address":"Σταδίου 10, Αθήνα 105 62","categoryIds":["rooftop-lounges"],"categories":["Rooftop Lounges"]},"distanceKm":2.7972793655240977},{"entity":{"id":"rooftopLoungesRestaurants_f22b7c0a1efd","slug":"art-lounge-rooftop-f22b","kind":"restaurant","name":"Art Lounge Rooftop","lat":37.97343228721452,"lng":23.733497513314063,"url":"https://maps.app.goo.gl/CrXGtb53B5ftpJTg6?g_st=ipc","address":"Ναυάρχου Νικοδήμου 1, Αθήνα 105 57","categoryIds":["rooftop-lounges"],"categories":["Rooftop Lounges"]},"distanceKm":2.971175631315698},{"entity":{"id":"rooftopLoungesRestaurants_bda24dde9bba","slug":"titania-hotel-athens-bda2","kind":"restaurant","name":"Titania Hotel Athens","lat":37.98298183652686,"lng":23.731011710839574,"url":"https://maps.app.goo.gl/xqLuVZ72UNxG6j6w5?g_st=ipc","address":"Πανεπιστημίου 52, Αθήνα 106 78","categoryIds":["rooftop-lounges"],"categories":["Rooftop Lounges"]},"distanceKm":2.9790435735926963},{"entity":{"id":"rooftopLoungesRestaurants_986af6d41f8f","slug":"ermou-18-beyond-the-horizon-986a","kind":"restaurant","name":"Ermou 18 Beyond the Horizon","lat":37.97612467035227,"lng":23.731892472806617,"url":"https://maps.app.goo.gl/29x8TUkS1Zi5ckeK6?g_st=ipc","address":"Ermou 18 Beyond the Horizon","categoryIds":["rooftop-lounges"],"categories":["Rooftop Lounges"]},"distanceKm":3.00946636805375},{"entity":{"id":"rooftopLoungesRestaurants_fb4de5c9639b","slug":"elysium-athens-rooftop-dining-cocktails-fb4d","kind":"restaurant","name":"Elysium Athens Rooftop | Dining & Cocktails","lat":37.97568079594514,"lng":23.731930908514958,"url":"https://maps.app.goo.gl/XadarqG8B9MPBT9e7?g_st=ipc","address":"15-17, Ερμού 105 63, Αθήνα","categoryIds":["rooftop-lounges"],"categories":["Rooftop Lounges"]},"distanceKm":3.0197010595694875},{"entity":{"id":"rooftopLoungesRestaurants_f3d7923bdece","slug":"metropolis-roof-garden-f3d7","kind":"restaurant","name":"Metropolis Roof Garden","lat":37.97522089278689,"lng":23.732019228567697,"url":"https://maps.app.goo.gl/AzbgD3qbjVmSu6L77?g_st=ipc","address":"Μητροπόλεως 15, Αθήνα 105 57","categoryIds":["rooftop-lounges"],"categories":["Rooftop Lounges"]},"distanceKm":3.027061291968086},{"entity":{"id":"rooftopLoungesRestaurants_a01decd3b001","slug":"ergon-house-athens-a01d","kind":"restaurant","name":"ERGON House Athens","lat":37.975246808550054,"lng":23.73151614516128,"url":"https://maps.app.goo.gl/B5dVNDQK9SeSRhFZ9?g_st=ipc","address":"23, Μητροπόλεως Street, Αθήνα 105 57","categoryIds":["rooftop-lounges"],"categories":["Rooftop Lounges"]},"distanceKm":3.0683539457056987},{"entity":{"id":"rooftopLoungesRestaurants_e53024397065","slug":"electra-roof-garden-e530","kind":"restaurant","name":"Electra Roof Garden","lat":37.973799293487446,"lng":23.731619153637734,"url":"https://maps.app.goo.gl/ieHySBRUu73ccrv99?g_st=ipc","address":"Ναυάρχου Νικοδήμου 18-20, Αθήνα 105 57","categoryIds":["rooftop-lounges"],"categories":["Rooftop Lounges"]},"distanceKm":3.110663063697979},{"entity":{"id":"rooftopLoungesRestaurants_ffccd88e3b0f","slug":"thea-terrace-bar-ffcc","kind":"restaurant","name":"Thea Terrace Bar","lat":37.97456272302777,"lng":23.731138501787182,"url":"https://maps.app.goo.gl/KVbnoHN86FaFe6Ch8?g_st=ipc","address":"Απόλλωνος 21, Αθήνα 105 57","categoryIds":["rooftop-lounges"],"categories":["Rooftop Lounges"]},"distanceKm":3.1228626314161536},{"entity":{"id":"rooftopLoungesRestaurants_e13e9020f860","slug":"horostasio-e13e","kind":"restaurant","name":"Horostasio","lat":37.979148709346994,"lng":23.729708422545425,"url":"https://maps.app.goo.gl/z4BDM28nzQm5DRAz5?g_st=ipc","address":"Σκουλενίου 2B, Αθήνα 105 61","categoryIds":["rooftop-lounges"],"categories":["Rooftop Lounges"]},"distanceKm":3.1273920957574783},{"entity":{"id":"rooftopLoungesRestaurants_62315092aa2e","slug":"theathine-6231","kind":"restaurant","name":"Theathine","lat":37.976366087632414,"lng":23.72946341912717,"url":"https://maps.app.goo.gl/5zX4VEAQCzogaiPF9?g_st=ipc","address":"Ερμού 46, Αθήνα 105 63","categoryIds":["rooftop-lounges"],"categories":["Rooftop Lounges"]},"distanceKm":3.208681841294266},{"entity":{"id":"rooftopLoungesRestaurants_deda42ca6a1c","slug":"the-zillers-rooftop-gastronomy-deda","kind":"restaurant","name":"The Zillers Rooftop Gastronomy","lat":37.975610918169195,"lng":23.729618662596703,"url":"https://maps.app.goo.gl/ewydNFU5RP3inTPF7?g_st=ipc","address":"Μητροπόλεως 54, Αθήνα 105 63","categoryIds":["rooftop-lounges"],"categories":["Rooftop Lounges"]},"distanceKm":3.2167841310545375},{"entity":{"id":"rooftopLoungesRestaurants_dccec8a54ab2","slug":"taratsa-athens-dcce","kind":"restaurant","name":"Taratsa Athens","lat":37.97577225088555,"lng":23.729185158634564,"url":"https://maps.app.goo.gl/jwnF2SS5G6PYqRPf9?g_st=ipc","address":"Μητροπόλεως 60, Αθήνα 105 63","categoryIds":["rooftop-lounges"],"categories":["Rooftop Lounges"]},"distanceKm":3.248757004097865},{"entity":{"id":"rooftopLoungesRestaurants_f8aeb4ce5c33","slug":"olympias-athinas-f8ae","kind":"restaurant","name":"Olympias Athinas","lat":37.98091887904227,"lng":23.72707749971783,"url":"https://maps.app.goo.gl/GanjxfuK53HVBugq8?g_st=ipc","address":"Αθηνάς 57, Αθήνα 105 51","categoryIds":["rooftop-lounges"],"categories":["Rooftop Lounges"]},"distanceKm":3.3342152320895027},{"entity":{"id":"rooftopLoungesRestaurants_6749bcabe1a1","slug":"dolli-s-6749","kind":"restaurant","name":"DOLLI•S","lat":37.975812516804545,"lng":23.72812700621026,"url":"https://maps.app.goo.gl/zGocv2wEa4M7oU8NA?g_st=ipc","address":"Μητροπόλεως 49, Αθήνα 105 56","categoryIds":["rooftop-lounges"],"categories":["Rooftop Lounges"]},"distanceKm":3.3373347771052804},{"entity":{"id":"rooftopLoungesRestaurants_f8cacb8baac7","slug":"athens-gate-rooftop-bar-restaurant-f8ca","kind":"restaurant","name":"Athens Gate Rooftop Bar & Restaurant","lat":37.968775997362016,"lng":23.73145032913701,"url":"https://maps.app.goo.gl/q9X7pZzbyKPo8wEb6?g_st=ipc","address":"Leof. Andrea Siggrou 10, Athina 117 41","categoryIds":["rooftop-lounges"],"categories":["Rooftop Lounges"]},"distanceKm":3.35496454963502},{"entity":{"id":"rooftopLoungesRestaurants_ffb0768cb43f","slug":"sense-modern-greek-cuisine-ffb0","kind":"restaurant","name":"SENSE Modern Greek Cuisine","lat":37.969502770972106,"lng":23.73085864462358,"url":"https://maps.app.goo.gl/oqEScqUBomYigxGZ7?g_st=ipc","address":"Διονυσίου Αρεοπαγίτου 5, Αθήνα 117 42","categoryIds":["rooftop-lounges"],"categories":["Rooftop Lounges"]},"distanceKm":3.362872374323367},{"entity":{"id":"rooftopLoungesRestaurants_f5cf87cae9d4","slug":"city-zen-all-day-bar-restaurant-f5cf","kind":"restaurant","name":"City ZEN All Day Bar Restaurant","lat":37.97627508580123,"lng":23.72741558524515,"url":"https://maps.app.goo.gl/jqRmCH3g4tS3Er5o8?g_st=ipc","address":"Αιόλου 11, Αθήνα 105 55","categoryIds":["rooftop-lounges"],"categories":["Rooftop Lounges"]},"distanceKm":3.3855066500367443},{"entity":{"id":"rooftopLoungesRestaurants_6bc9125d2c6e","slug":"odos-lysioy-6bc9","kind":"restaurant","name":"Οδος Λυσιου","lat":37.97368556896764,"lng":23.727989877138466,"url":"https://maps.app.goo.gl/QFStwG4KRSZkG2Em7?g_st=ipc","address":"Mnisikleous 22 and, Lisiou corner, Athina 105 56","categoryIds":["rooftop-lounges"],"categories":["Rooftop Lounges"]},"distanceKm":3.41550719613097},{"entity":{"id":"rooftopLoungesRestaurants_912cd994ade6","slug":"okra-912c","kind":"restaurant","name":"Okra","lat":37.97626609583597,"lng":23.72702294452752,"url":"https://maps.app.goo.gl/ZPqVVmebDU5mua9w9?g_st=ipc","address":"Μητροπόλεως 82, Αθήνα 105 55","categoryIds":["rooftop-lounges"],"categories":["Rooftop Lounges"]},"distanceKm":3.4192298002355597}],"counts":{"totalEntities":4118,"totalInArea":635,"totalInCategory":76,"totalCategoryArea":35},"relatedCategories":[{"categoryId":"coffee-brunch","categorySlug":"brunch","categoryName":"Coffee & Brunch Spots","count":92,"passesThreshold":true},{"categoryId":"cheap-eats","categorySlug":"cheap-eats","categoryName":"Gyros & Cheap Eats","count":87,"passesThreshold":true},{"categoryId":"desserts","categorySlug":"desserts","categoryName":"Dessert Shops","count":69,"passesThreshold":true},{"categoryId":"luxury-dining","categorySlug":"luxury-dining","categoryName":"Luxury Dining","count":61,"passesThreshold":true},{"categoryId":"greek-restaurants","categorySlug":"greek-restaurants","categoryName":"Greek Restaurants","count":60,"passesThreshold":true},{"categoryId":"vegetarian","categorySlug":"vegetarian","categoryName":"Vegetarian Friendly Restaurants","count":54,"passesThreshold":true},{"categoryId":"italian","categorySlug":"italian","categoryName":"Italian Restaurants","count":42,"passesThreshold":true},{"categoryId":"asian","categorySlug":"asian-restaurants","categoryName":"Asian Restaurants","count":35,"passesThreshold":true},{"categoryId":"burgers","categorySlug":"burgers","categoryName":"Burger Spots","count":34,"passesThreshold":true},{"categoryId":"attractions","categorySlug":"attractions","categoryName":"Must-See Attractions","count":24,"passesThreshold":true}],"relatedAreas":[{"areaId":"municipalities_877c3bc81df5","areaName":"Σύνταγμα","areaSlug":"syntagma","count":54,"nearestDistanceKm":0.08609569079999148},{"areaId":"municipalities_0cae2c00b932","areaName":"Κολωνάκι","areaSlug":"kolonaki","count":54,"nearestDistanceKm":0.29115760149699993},{"areaId":"municipalities_2f324ee27306","areaName":"Εξάρχεια","areaSlug":"exarcheia","count":54,"nearestDistanceKm":0.47994761014554205},{"areaId":"municipalities_0fd1d03201a0","areaName":"Μετς","areaSlug":"mets","count":54,"nearestDistanceKm":1.1709569532469846},{"areaId":"municipalities_61eaea5bd3d9","areaName":"Ιλίσια","areaSlug":"ilisia","count":53,"nearestDistanceKm":0.4989951283806969},{"areaId":"municipalities_75ddb64a42fd","areaName":"Γύζη","areaSlug":"gyzi","count":53,"nearestDistanceKm":1.2782051368418632},{"areaId":"municipalities_f73663b8f738","areaName":"Αττική","areaSlug":"attiki","count":53,"nearestDistanceKm":1.4341304277923237},{"areaId":"municipalities_d7e1aaaed4f9","areaName":"Μοναστηράκι","areaSlug":"monastiraki","count":52,"nearestDistanceKm":0.03133410583524247},{"areaId":"municipalities_2bcfcb8b899f","areaName":"Ψυρρή","areaSlug":"psyrri","count":52,"nearestDistanceKm":0.06256608932486563},{"areaId":"municipalities_b85b54408d92","areaName":"Θησείο","areaSlug":"thiseio","count":52,"nearestDistanceKm":0.08292401975417248}],"passesThreshold":true}},"__N_SSG":true}