{"pageProps":{"entity":{"id":"municipalities_e380923f57a8","slug":"alimos-e380","kind":"municipality","name":"Άλιμος","lat":37.9105,"lng":23.7239,"region":"Νότια Προάστια","name_en":"Alimos","region_en":"Southern Suburbs"},"sameCategory":[],"nearby":[{"id":"familyFriendly_09f0644c9732","slug":"lofos-politismoy-09f0","kind":"restaurant","name":"Λόφος πολιτισμού","lat":37.91111626951665,"lng":23.722999637224824,"url":"https://maps.app.goo.gl/MWLNyH93oknhhPcz9?g_st=ipc","address":"Άλιμος 174 55","categoryIds":["family-friendly"],"categories":["Kid Friendly Locations"],"distanceKm":0.10457030239125022},{"id":"italianRestaurants_e0eab8c43067","slug":"il-tinello-athens-e0ea","kind":"restaurant","name":"Il Tinello Athens","lat":37.9164984895058,"lng":23.723486074483993,"url":"https://maps.app.goo.gl/BQxFwm6nKx3uhqa9A?g_st=ipc","address":"Κνωσού 54, Άλιμος 174 55","categoryIds":["italian"],"categories":["Italian Restaurants"],"distanceKm":0.6679892964852956},{"id":"coffeeBrunchRestaurants_11333324ec7e","slug":"cheiropoiito-peinirli-alimos-1133","kind":"restaurant","name":"Χειροποίητο Πεϊνιρλί - Άλιμος","lat":37.915620511365894,"lng":23.717157875434445,"url":"https://maps.app.goo.gl/t1zARdBkZ8TDso696?g_st=ipc","address":"Λεωφ. Καλαμακίου 65, Άλιμος 174 55","categoryIds":["coffee-brunch"],"categories":["Coffee & Brunch Spots"],"distanceKm":0.8209852773995419},{"id":"burgersRestaurants_0f3559803382","slug":"street-burger-0f35","kind":"restaurant","name":"Street Burger","lat":37.907177869982185,"lng":23.732883953097378,"url":"https://maps.app.goo.gl/hySSSjtTD5s23KKdA?g_st=ipc","address":"Λεωφ. Αλίμου 56, Άλιμος 174 55","categoryIds":["burgers"],"categories":["Burger Spots"],"distanceKm":0.8704491702877826},{"id":"cheapEatsRestaurants_9e38740e23c2","slug":"o-proedros-alimos-9e38","kind":"restaurant","name":"ο Πρόεδρος (Άλιμος)","lat":37.912881112573395,"lng":23.714106306735346,"url":"https://maps.app.goo.gl/nwzgkAPXAUQ2k7tQ7?g_st=ipc","address":"Άλιμος, Λεωφ. Καλαμακίου 26, Αθήνα 174 55","categoryIds":["cheap-eats","greek-restaurants"],"categories":["Gyros & Cheap Eats","Greek Restaurants"],"legacySlugs":["o-proedros-alimos-797f"],"distanceKm":0.8990537280332296},{"id":"dessertsRestaurants_1ece1efe7fc8","slug":"palet-zacharoplasteio-1ece","kind":"restaurant","name":"Palet - Ζαχαροπλαστείο","lat":37.91207733136549,"lng":23.71327552843966,"url":"https://maps.app.goo.gl/tMT6hK9STA8aQXbB8?g_st=ipc","address":"Λεωφ. Καλαμακίου 16, Άλιμος 174 55","categoryIds":["desserts"],"categories":["Dessert Shops"],"distanceKm":0.9484294033153572},{"id":"monasteriesChurches_1a2f185631bd","slug":"ieros-naos-metamorfoseos-toy-sotiros-alimoy-1a2f","kind":"restaurant","name":"Ιερός Ναός Μεταμορφώσεως του Σωτήρος Αλίμου","lat":37.91489271664002,"lng":23.713901119345575,"url":"https://maps.app.goo.gl/iaAnNdKjb6eDxhaq5?g_st=ipc","address":"Νίκης 51, Άλιμος 174 55","categoryIds":["monasteries-churches"],"categories":["Monasteries & Spiritual Sites"],"distanceKm":1.0039978993594276},{"id":"coffeeBrunchRestaurants_a61757d67613","slug":"diakopes-kafe-mpar-a617","kind":"restaurant","name":"ΔΙΑΚΟΠΕΣ καφέ-μπαρ","lat":37.915984200989875,"lng":23.73311841263129,"url":"https://maps.app.goo.gl/NHUYpdxhhi6EStZD7?g_st=ipc","address":"Λεωφ. Ιωνίας 125, Άλιμος 174 56","categoryIds":["coffee-brunch"],"categories":["Coffee & Brunch Spots"],"distanceKm":1.0128508321078293},{"id":"cheapEatsRestaurants_63d0e3b20b8c","slug":"piri-piri-63d0","kind":"restaurant","name":"PIRI PIRI","lat":37.912346556684334,"lng":23.711975122237995,"url":"https://maps.app.goo.gl/17t7fwK6X8WCDXvC6?g_st=ipc","address":"Π. Τσαλδάρη 13, Άλιμος 174 55","categoryIds":["cheap-eats"],"categories":["Gyros & Cheap Eats"],"distanceKm":1.066111344507411},{"id":"dessertsRestaurants_cd6c99db0548","slug":"royal-pastry-cd6c","kind":"restaurant","name":"ROYAL PASTRY","lat":37.9185478292188,"lng":23.73065461612568,"url":"https://maps.app.goo.gl/kD7yYZ1zi5KhZ3iT9?g_st=ipc","address":"Θεομήτορος 24, Άλιμος 173 42","categoryIds":["desserts"],"categories":["Dessert Shops"],"distanceKm":1.0732748176622948},{"id":"cheapEatsRestaurants_915a9e4540d2","slug":"o-paris-915a","kind":"restaurant","name":"Ο ΠΑΡΗΣ","lat":37.91316923922901,"lng":23.71168356971965,"url":"https://maps.app.goo.gl/B9kA2bDqRddMECB19?g_st=ipc","address":"Θουκυδίδου 38, Άλιμος 174 55","categoryIds":["cheap-eats"],"categories":["Gyros & Cheap Eats"],"distanceKm":1.1120633291916755},{"id":"familyFriendly_b7e14b13fc56","slug":"paramythoypoli-ellinikoy-argyroypolis-b7e1","kind":"restaurant","name":"Παραμυθούπολη Ελληνικού Αργυρούπολης","lat":37.90960009979719,"lng":23.737312819815322,"url":"https://maps.app.goo.gl/MGgTCv28KmDG4VgK8?g_st=ipc","address":"Αλ. Παπαναστασίου, Αργυρούπολη 164 52","categoryIds":["family-friendly"],"categories":["Kid Friendly Locations"],"distanceKm":1.180955830685282},{"id":"fishTavernasRestaurants_5ca9e8498c91","slug":"porto-spyros-psarotaverna-5ca9","kind":"restaurant","name":"Porto Spyros Ψαροταβέρνα","lat":37.912061800224556,"lng":23.708912866162887,"url":"https://maps.app.goo.gl/DbA3c4zjWgt9uetk7?g_st=ipc","address":"Μαρίνα, Άλιμος 174 55","categoryIds":["fish-tavernas"],"categories":["Fish Tavernas"],"distanceKm":1.3262212597294485},{"id":"municipalities_4ce899ab5232","slug":"argyroypoli-4ce8","kind":"municipality","name":"Αργυρούπολη","lat":37.905,"lng":23.738,"region":"Νότια Προάστια","name_en":"Argyroupoli","region_en":"Southern Suburbs","distanceKm":1.379954169491749},{"id":"dessertsRestaurants_60d1fcac742b","slug":"galaktopoleio-stamoy-60d1","kind":"restaurant","name":"Γαλακτοπωλείο ΣΤΑΜΟΥ","lat":37.92337769116455,"lng":23.723512288009644,"url":"https://maps.app.goo.gl/bn7iuhhPxPAJJeX38?g_st=ipc","address":"Λεωφ. Αγίου Δημητρίου 305, Αγ. Δημήτριος Αττικής 173 42","categoryIds":["desserts"],"categories":["Dessert Shops"],"distanceKm":1.4323377750525517},{"id":"dessertsRestaurants_0682819026f8","slug":"katsioylis-artopoieio-0682","kind":"restaurant","name":"Κατσιούλης αρτοποιείο","lat":37.90633812907658,"lng":23.743452517791024,"url":"https://maps.app.goo.gl/4juH7NkhLbAnB7vd7?g_st=ipc","address":"Τιτάνων 4, Ελληνικό 167 77","categoryIds":["desserts"],"categories":["Dessert Shops"],"distanceKm":1.7767119370076148},{"id":"cheapEatsRestaurants_99a7957def3b","slug":"corner-grill-99a7","kind":"restaurant","name":"corner grill","lat":37.92177506928485,"lng":23.73847692927626,"url":"https://maps.app.goo.gl/9DM3hLLcVtKfPYJg8?g_st=ipc","address":"Λεωφ. Ιωνίας 47, Άλιμος 174 56","categoryIds":["cheap-eats"],"categories":["Gyros & Cheap Eats"],"distanceKm":1.7908076546423957},{"id":"coffeeBrunchRestaurants_34ea25393225","slug":"hidden-alimos-34ea","kind":"restaurant","name":"Hidden Άλιμος","lat":37.9207925281224,"lng":23.706355320081276,"url":"https://maps.app.goo.gl/tNnv5bivZJzwGSak7?g_st=ipc","address":"Λεωφ. Ελευθερίας 45, Άλιμος 174 55","categoryIds":["coffee-brunch"],"categories":["Coffee & Brunch Spots"],"distanceKm":1.9179667280893717},{"id":"familyFriendly_ae632d4e248a","slug":"protypo-oikogeneiako-parko-ae63","kind":"restaurant","name":"Πρότυπο Οικογενειακό Πάρκο","lat":37.904103805227116,"lng":23.74422997348302,"url":"https://maps.app.goo.gl/kUkHYYpwWmY27cqm9?g_st=ipc","address":"Δραγατσανίου, Ελληνικό 167 77","categoryIds":["family-friendly"],"categories":["Kid Friendly Locations"],"distanceKm":1.920191451665669},{"id":"cheapEatsRestaurants_c226e99422f7","slug":"montagu-c226","kind":"restaurant","name":"Montagu","lat":37.90768059040179,"lng":23.745954563287732,"url":"https://maps.app.goo.gl/5VP4Qk8ng1M1pARWA?g_st=ipc","address":"Παρ. Λεωφ. Βουλιαγμένης 66, Αργυρούπολη 164 52","categoryIds":["cheap-eats"],"categories":["Gyros & Cheap Eats"],"distanceKm":1.9601093714895663},{"id":"familyFriendly_9f066a9c3f09","slug":"dei-chocolate-ice-cream-experience-9f06","kind":"restaurant","name":"ΔΕΗ Chocolate & Ice Cream Experience","lat":37.89648025729673,"lng":23.737725296668952,"url":"https://maps.app.goo.gl/u7nRPPFnbvtVeLEQ7?g_st=ipc","address":"The Ellinikon Expérience Park, Ελληνικό 167 77","categoryIds":["family-friendly"],"categories":["Kid Friendly Locations"],"distanceKm":1.9752525840256814},{"id":"coffeeBrunchRestaurants_5db780e34d2a","slug":"braxton-5db7","kind":"restaurant","name":"Braxton","lat":37.92816326326879,"lng":23.728060610716135,"url":"https://maps.app.goo.gl/DjcEWh3JQVQokVoj7?g_st=ipc","address":"Πόντου 20, Αγ. Δημήτριος Αττικής 173 42","categoryIds":["coffee-brunch"],"categories":["Coffee & Brunch Spots"],"distanceKm":1.9976866156309971},{"id":"cheapEatsRestaurants_1229f76d436a","slug":"to-mpifteki-tis-sofias-1229","kind":"restaurant","name":"Το μπιφτέκι της Σοφίας","lat":37.90862324079437,"lng":23.747616716476674,"url":"https://maps.app.goo.gl/81gG3aHCeD1heo749?g_st=ipc","address":"Μαρίνου Γερουλάνου 42, Αργυρούπολη 164 52","categoryIds":["cheap-eats"],"categories":["Gyros & Cheap Eats"],"distanceKm":2.0911243303506244},{"id":"dessertsRestaurants_daa8389af0d5","slug":"zacharoplasteia-konstantinidis-daa8","kind":"restaurant","name":"Ζαχαροπλαστεία Κωνσταντινίδης","lat":37.92117733712683,"lng":23.74398997445251,"url":"https://maps.app.goo.gl/gfQPbYfHSNZUpXX47?g_st=ipc","address":"Παρ. Λεωφ. Βουλιαγμένης 534, Άλιμος 174 56","categoryIds":["desserts"],"categories":["Dessert Shops"],"distanceKm":2.1249719658992148}],"mentionedGuides":[],"canonicalSlug":"alimos-e380","enrichment":{"summary_en":"Άλιμος is a curated neighborhood area in Νότια Προάστια. It is connected to 2 nearby Googlementor picks to help travelers build a stronger local route.","summary_el":"Άλιμος είναι ένα επιλεγμένο σημείο ενδιαφέροντος στην περιοχή Νότια Προάστια. Συνδέεται με 2 κοντινές προτάσεις του Googlementor για πιο ολοκληρωμένη εμπειρία.","vibe_tags":["local-neighborhood","base-for-exploring"],"best_for":["first-time visitors","walk-and-explore days","return visitors"],"visit_moments":["late morning walks","sunset exploration"],"practical_note":"2 curated places are within walkable distance from this area center.","nearby_walkable_count":2,"nearby_count_2km":22,"confidence":0.55},"areaContext":{"slug":"alimos","name":"Alimos","nameEl":"Άλιμος"},"intentContexts":[]},"__N_SSG":true}