{"pageProps":{"entity":{"id":"municipalities_db0db54979fe","slug":"arachova-db0d","kind":"municipality","name":"Αράχωβα","lat":38.4794,"lng":22.5883,"aliases":["Αραχοβα"],"region":"Στερεά Ελλάδα","name_en":"Arachova","region_en":"Central Greece"},"sameCategory":[],"nearby":[{"id":"greekRestaurants_9658cb6cf229","slug":"zachos-9658","kind":"restaurant","name":"Ζάχος","lat":38.50365426255549,"lng":22.552427564425326,"url":"https://maps.app.goo.gl/om4EpQMDS1ZtkZht6?g_st=ipc","address":"Αράχωβα 320 04","categoryIds":["greek-restaurants"],"categories":["Greek Restaurants"],"distanceKm":4.125627743972642},{"id":"mustSeeAttractions_b6d15c09de42","slug":"tholos-tis-athinas-pronaias-b6d1","kind":"restaurant","name":"Θόλος της Αθηνάς Προναίας","lat":38.480181188125016,"lng":22.507891151559672,"url":"https://maps.app.goo.gl/sWU36E9QQXcW8jCP7?g_st=ipc","address":"Δελφοί 330 54","categoryIds":["attractions"],"categories":["Must-See Attractions"],"distanceKm":6.999844911661196},{"id":"mustSeeAttractions_52aa3e292f9c","slug":"archaiologikos-choros-delfon-52aa","kind":"restaurant","name":"Αρχαιολογικός Χώρος Δελφών","lat":38.48256715110526,"lng":22.501447020510593,"url":"https://maps.app.goo.gl/ZFhK1WzED1X3rqNX7?g_st=ipc","address":"Δελφοί 330 54","categoryIds":["attractions"],"categories":["Must-See Attractions"],"distanceKm":7.56831768082289},{"id":"mustSeeAttractions_e4dddc25789f","slug":"temple-of-apollo-e4dd","kind":"restaurant","name":"Temple of Apollo","lat":38.48229738005722,"lng":22.501176584203076,"url":"https://maps.app.goo.gl/AA1yv1yq8fC6CPEt8?g_st=ipc","address":"Delphi 330 54","categoryIds":["attractions"],"categories":["Must-See Attractions"],"distanceKm":7.590514205405359},{"id":"municipalities_f337a98c2278","slug":"delfoi-f337","kind":"municipality","name":"Δελφοί","lat":38.48,"lng":22.5,"aliases":["Δελφοι"],"region":"Στερεά Ελλάδα","name_en":"Delphi","region_en":"Central Greece","distanceKm":7.6865019212328605},{"id":"mustSeeAttractions_ff9d3d24c86f","slug":"ancient-stadium-of-delphi-ff9d","kind":"restaurant","name":"Ancient Stadium of Delphi","lat":38.48261130916093,"lng":22.497897087851854,"url":"https://maps.app.goo.gl/gV2Li4kSvE78UFFC9?g_st=ipc","address":"Delphi 330 54","categoryIds":["attractions"],"categories":["Must-See Attractions"],"distanceKm":7.877218677889983},{"id":"greekRestaurants_887ceedbc8b5","slug":"taverna-gialas-887c","kind":"restaurant","name":"Ταβέρνα Γιαλάς","lat":38.58424756320904,"lng":22.667510801054007,"url":"https://maps.app.goo.gl/FYg1yW88cAUUpZn36?g_st=ipc","address":"Τιθορέα 350 15","categoryIds":["greek-restaurants"],"categories":["Greek Restaurants"],"distanceKm":13.542290619796221},{"id":"wineriesVineyards_cc81df8a9ab1","slug":"argyriou-winery-cc81","kind":"restaurant","name":"Argyriou Winery","lat":38.639456665967444,"lng":22.535200421052764,"url":"https://maps.app.goo.gl/PAYKP7CHeiCivtki7?g_st=ipc","address":"Polydroso Parnassus, Parnassus 330 51","categoryIds":["wineries-vineyards"],"categories":["Wineries & Vineyards"],"distanceKm":18.3866106971765},{"id":"municipalities_c523f08f4501","slug":"amfissa-c523","kind":"municipality","name":"Άμφισσα","lat":38.53,"lng":22.38,"aliases":["Amfissa"],"region":"Στερεά Ελλάδα","name_en":"Amfissa","region_en":"Central Greece","distanceKm":18.97870006922195},{"id":"municipalities_658c27b3c4d6","slug":"galaxeidi-658c","kind":"municipality","name":"Γαλαξείδι","lat":38.3769,"lng":22.3889,"aliases":["Γαλαξειδι","Galaxeidi"],"region":"Στερεά Ελλάδα","name_en":"Galaxidi","region_en":"Central Greece","distanceKm":20.775020838392894},{"id":"greekRestaurants_558f00c20625","slug":"taverna-mpoyrmpoyla-558f","kind":"restaurant","name":"Ταβέρνα ΜΠΟΥΡΜΠΟΥΛΑ","lat":38.64166772644801,"lng":22.425003728419785,"url":"https://maps.app.goo.gl/nkNHCXouUQANn5seA?g_st=ipc","address":"Βάργιανη 330 57","categoryIds":["greek-restaurants"],"categories":["Greek Restaurants"],"distanceKm":22.959906251249517},{"id":"greekRestaurants_d3685b05ffab","slug":"taverna-zervas-d368","kind":"restaurant","name":"ΤΑΒΕΡΝΑ \"ΖΕΡΒΑΣ\"","lat":38.64256169225036,"lng":22.42390515366265,"url":"https://maps.app.goo.gl/BsRcvJE1WFwg6Vgm8?g_st=ipc","address":"Βάργιανη 330 57","categoryIds":["greek-restaurants"],"categories":["Greek Restaurants"],"distanceKm":23.097042874262268},{"id":"familyFriendly_adaa2f8a1e5a","slug":"vagonetto-adaa","kind":"restaurant","name":"Vagonetto","lat":38.63219190812368,"lng":22.37159554223315,"url":"https://maps.app.goo.gl/FxXNY1FFj7tEZcaq9?g_st=ipc","address":"51 km National Road Lamia-Amfissa, Amfissa 331 00","categoryIds":["family-friendly"],"categories":["Kid Friendly Locations"],"distanceKm":25.37172173713599},{"id":"municipalities_a3f2108a0447","slug":"livadeia-a3f2","kind":"municipality","name":"Λιβαδειά","lat":38.435,"lng":22.875,"aliases":["Livadia"],"region":"Στερεά Ελλάδα","name_en":"Livadeia","region_en":"Central Greece","distanceKm":25.447539629381666},{"id":"greekRestaurants_a83c17abd172","slug":"taverna-miranta-a83c","kind":"restaurant","name":"Ταβέρνα Μιράντα","lat":38.691904194500104,"lng":22.417082522146003,"url":"https://maps.app.goo.gl/yqPUT4JgvDKGBsEQ6?g_st=ipc","address":"Καστέλλια 330 57","categoryIds":["greek-restaurants"],"categories":["Greek Restaurants"],"distanceKm":27.92525764934574},{"id":"municipalities_2a5550d7f6f9","slug":"kamena-voyrla-2a55","kind":"municipality","name":"Καμένα Βούρλα","lat":38.7833,"lng":22.7833,"region":"Στερεά Ελλάδα","name_en":"Kamena Vourla","region_en":"Central Greece","distanceKm":37.79964238278806},{"id":"municipalities_a7ebe9625d32","slug":"aliartos-a7eb","kind":"municipality","name":"Αλίαρτος","lat":38.3833,"lng":23.1,"region":"Στερεά Ελλάδα","name_en":"Aliartos","region_en":"Central Greece","distanceKm":45.83456696301576},{"id":"municipalities_b881ef8f885c","slug":"atalanti-b881","kind":"municipality","name":"Αταλάντη","lat":38.65,"lng":23.0833,"region":"Στερεά Ελλάδα","name_en":"Atalanti","region_en":"Central Greece","distanceKm":47.03240778582399},{"id":"municipalities_c0997f05bd92","slug":"lamia-c099","kind":"municipality","name":"Λαμία","lat":38.9,"lng":22.4333,"region":"Στερεά Ελλάδα","name_en":"Lamia","region_en":"Central Greece","distanceKm":48.66494266871319},{"id":"municipalities_f523a4be73e1","slug":"thiva-f523","kind":"municipality","name":"Θήβα","lat":38.325,"lng":23.318,"region":"Στερεά Ελλάδα","name_en":"Thebes","region_en":"Central Greece","distanceKm":65.86291624040378},{"id":"municipalities_30068cb262bd","slug":"istiaia-3006","kind":"municipality","name":"Ιστιαία","lat":38.95,"lng":23.15,"aliases":["Ιστιαίων"],"region":"Στερεά Ελλάδα","name_en":"Istiaia","region_en":"Central Greece","distanceKm":71.50688766039166},{"id":"municipalities_1d4b51456d77","slug":"karpenisi-1d4b","kind":"municipality","name":"Καρπενήσι","lat":38.9167,"lng":21.7833,"region":"Στερεά Ελλάδα","name_en":"Karpenisi","region_en":"Central Greece","distanceKm":85.11594371887732},{"id":"municipalities_e657fbc0371a","slug":"chalkida-e657","kind":"municipality","name":"Χαλκίδα","lat":38.4639,"lng":23.6022,"aliases":["Χαλκιδα","Xalkida"],"region":"Στερεά Ελλάδα","name_en":"Chalkida","region_en":"Central Greece","distanceKm":88.28275780386315},{"id":"municipalities_6af6e7b2b379","slug":"eretria-6af6","kind":"municipality","name":"Ερέτρια","lat":38.39,"lng":23.8,"region":"Στερεά Ελλάδα","name_en":"Eretria","region_en":"Central Greece","distanceKm":106.00649115615532}],"mentionedGuides":[],"canonicalSlug":"arachova-db0d","enrichment":{"summary_en":"Αράχωβα is a curated neighborhood area in Στερεά Ελλάδα. It is connected to 0 nearby Googlementor picks to help travelers build a stronger local route.","summary_el":"Αράχωβα είναι ένα επιλεγμένο σημείο ενδιαφέροντος στην περιοχή Στερεά Ελλάδα. Συνδέεται με 0 κοντινές προτάσεις του Googlementor για πιο ολοκληρωμένη εμπειρία.","vibe_tags":["local-neighborhood","base-for-exploring"],"best_for":["first-time visitors","walk-and-explore days","return visitors"],"visit_moments":["late morning walks","sunset exploration"],"practical_note":"0 curated places are within walkable distance from this area center.","nearby_walkable_count":0,"nearby_count_2km":0,"confidence":0.55},"areaContext":null,"intentContexts":[]},"__N_SSG":true}