{"pageProps":{"entity":{"id":"municipalities_f73663b8f738","slug":"attiki-f736","kind":"municipality","name":"Αττική","lat":37.9958,"lng":23.7292,"aliases":["Αττικη","Victoria"],"region":"Κέντρο Αθήνας","name_en":"Attiki","region_en":"Athens Center"},"sameCategory":[],"nearby":[{"id":"vegetarianRestaurants_6e333d15393d","slug":"enjoy-just-falafel-6e33","kind":"restaurant","name":"Enjoy Just Falafel","lat":37.99432372166888,"lng":23.729461045155038,"url":"https://maps.app.goo.gl/BjUbMf9auTnRzi956?g_st=ipc","address":"Greece, Αριστοτέλους 98, Αθήνα 104 34","categoryIds":["vegetarian"],"categories":["Vegetarian Friendly Restaurants"],"distanceKm":0.16574082302547036},{"id":"cheapEatsRestaurants_b1a42490e7cb","slug":"gyros-soyvlaki-viktoria-tylixe-to-b1a4","kind":"restaurant","name":"Γύρος σουβλάκι Βικτώρια ΤΥΛΙΞΕ ΤΟ","lat":37.99350120718295,"lng":23.729835255916253,"url":"https://maps.app.goo.gl/eKw6YctPXBvBSifU7?g_st=ipc","address":"Πλ. Βικτώριας 6, Αθήνα 104 34","categoryIds":["cheap-eats"],"categories":["Gyros & Cheap Eats"],"distanceKm":0.26160538596131144},{"id":"dessertsRestaurants_6380c13ce6fb","slug":"petek-zacharoplasteio-6380","kind":"restaurant","name":"Πετέκ - Ζαχαροπλαστείο","lat":37.992161285064114,"lng":23.729868228783843,"url":"https://maps.app.goo.gl/bya8rkC9eSnHKYnU9?g_st=ipc","address":"3ης Σεπτεμβρίου 81, Αθήνα 104 34","categoryIds":["desserts"],"categories":["Dessert Shops"],"distanceKm":0.4088220172465194},{"id":"coffeeBrunchRestaurants_f2fc2f9837eb","slug":"green-park-f2fc","kind":"restaurant","name":"Green Park","lat":37.99268098251898,"lng":23.733030655681027,"url":"https://maps.app.goo.gl/YVmf7NaJKpFKqFvw6?g_st=ipc","address":"Μαυρομματαίων 22, Αθήνα 104 34","categoryIds":["coffee-brunch"],"categories":["Coffee & Brunch Spots"],"distanceKm":0.4826632782947976},{"id":"dessertsRestaurants_b17cae58055b","slug":"solo-gelato-kypseli-b17c","kind":"restaurant","name":"SOLO GELATO ΚΥΨΕΛΗ","lat":37.997495076308105,"lng":23.735075284705523,"url":"https://maps.app.goo.gl/xy8KGbP1LQZJCmxX7?g_st=ipc","address":"Ιθάκης 9, Αθήνα 112 57","categoryIds":["desserts"],"categories":["Dessert Shops"],"distanceKm":0.5482504842263934},{"id":"vegetarianRestaurants_83307181ea44","slug":"gknoy-8330","kind":"restaurant","name":"ΓΚΝΟΥ","lat":37.99747301743944,"lng":23.73513103670901,"url":"https://maps.app.goo.gl/9hv6BgvR3DARK8469?g_st=ipc","address":"Επτανήσου 13, Αθήνα 112 57","categoryIds":["vegetarian"],"categories":["Vegetarian Friendly Restaurants"],"distanceKm":0.552009249914673},{"id":"cheapEatsRestaurants_a3dfa66f0ec8","slug":"green-kebab-a3df","kind":"restaurant","name":"Green Kebab","lat":37.99197488379709,"lng":23.725139444636163,"url":"https://maps.app.goo.gl/tAkTZ6x1vZQez7uq5?g_st=ipc","address":"Ιουλιανού 81, Αθήνα 104 39","categoryIds":["cheap-eats"],"categories":["Gyros & Cheap Eats"],"distanceKm":0.5545460892779321},{"id":"cheapEatsRestaurants_ec6036039639","slug":"dionysos-ec60","kind":"restaurant","name":"Διόνυσος","lat":37.99776607364749,"lng":23.735031186199688,"url":"https://maps.app.goo.gl/f7GyH9GtFQKGQmmS9?g_st=ipc","address":"Ιθάκης 12 12, Αθήνα 112 57","categoryIds":["cheap-eats"],"categories":["Gyros & Cheap Eats"],"distanceKm":0.5557707418999118},{"id":"greekRestaurants_bfb413275b7f","slug":"kyveli-bfb4","kind":"restaurant","name":"Κυβέλη","lat":37.99805749284101,"lng":23.73519064835316,"url":"https://maps.app.goo.gl/GZkR3yG4uYF9Asep6","address":"Επτανήσου 15, Αθήνα 112 57","categoryIds":["greek-restaurants"],"categories":["Greek Restaurants"],"distanceKm":0.5818704695299529},{"id":"luxuryDiningRestaurants_4ac28de916c7","slug":"10-urban-roof-4ac2","kind":"restaurant","name":"10 Urban Roof","lat":37.99116171206528,"lng":23.733113789092354,"url":"https://maps.app.goo.gl/EwoNbTNDX9bmfSgf9?g_st=ipc","address":"Λεωφ. Αλεξάνδρας 10, Αθήνα 106 82","categoryIds":["luxury-dining"],"categories":["Luxury Dining"],"distanceKm":0.6193779748285788},{"id":"cheapEatsRestaurants_d1e6c2dac993","slug":"o-thomas-d1e6","kind":"restaurant","name":"\"Ο Θωμάς\"","lat":37.990509282943826,"lng":23.72671200338313,"url":"https://maps.app.goo.gl/sNkqRi8WyMgYec9D6?g_st=ipc","address":"Αχαρνών 33, Αθήνα 104 39","categoryIds":["cheap-eats"],"categories":["Gyros & Cheap Eats"],"distanceKm":0.627401859440052},{"id":"vegetarianRestaurants_f70f4a4d0192","slug":"association-of-greeks-from-egypt-f70f","kind":"restaurant","name":"Association of Greeks from Egypt","lat":37.98962955327748,"lng":23.72952334118187,"url":"https://maps.app.goo.gl/gBkB6qncPWJhE1pC8?g_st=ipc","address":"3ης Σεπτεμβρίου 56, Αθήνα 104 33","categoryIds":["vegetarian"],"categories":["Vegetarian Friendly Restaurants"],"distanceKm":0.686707195671325},{"id":"vegetarianRestaurants_35af3a72d872","slug":"leik-kafe-35af","kind":"restaurant","name":"λέικ καφέ","lat":37.99570532128052,"lng":23.737094528681606,"url":"https://maps.app.goo.gl/c3DSV5tXT2pKELDL8?g_st=ipc","address":"Αιγίνης 1, Αθήνα 113 62","categoryIds":["vegetarian"],"categories":["Vegetarian Friendly Restaurants"],"distanceKm":0.6918608562062339},{"id":"greekRestaurants_013c7ee68bf7","slug":"to-rini-013c","kind":"restaurant","name":"Το Ρίνι","lat":37.99027878775376,"lng":23.732870988899485,"url":"https://maps.app.goo.gl/RRByVB3HqZfDcnkK7","address":"Ρεθύμνου 8, Αθήνα 106 82","categoryIds":["greek-restaurants"],"categories":["Greek Restaurants"],"distanceKm":0.6931069926017476},{"id":"familyFriendly_8133c93f98d4","slug":"pedion-areos-8133","kind":"restaurant","name":"Πεδίον Άρεως","lat":37.99296743190719,"lng":23.73662502583579,"url":"https://maps.app.goo.gl/qo4PWWenK9kDd9qC7?g_st=ipc","address":"Λεωφ. Αλεξάνδρας, Αθήνα 114 74","categoryIds":["family-friendly"],"categories":["Kid Friendly Locations"],"distanceKm":0.7228772584742766},{"id":"coffeeBrunchRestaurants_76650a6337b0","slug":"o-foyrnos-toy-remoyndoy-7665","kind":"restaurant","name":"Ο Φούρνος του Ρεμούνδου","lat":37.99778393444846,"lng":23.737266306236258,"url":"https://maps.app.goo.gl/6mpkX4B7SCACHFyy6?g_st=ipc","address":"Κυψέλης 37, Αθήνα 113 61","categoryIds":["coffee-brunch"],"categories":["Coffee & Brunch Spots"],"distanceKm":0.740449168173028},{"id":"cheapEatsRestaurants_fcf206bb8bf8","slug":"jackaroo-fcf2","kind":"restaurant","name":"Jackaroo","lat":38.00066185886443,"lng":23.735523749834027,"url":"https://maps.app.goo.gl/bKD82egRLvDN81sG9?g_st=ipc","address":"Φωκίωνος Νέγρη 18, Αθήνα 112 57","categoryIds":["cheap-eats"],"categories":["Gyros & Cheap Eats"],"distanceKm":0.7741513546357789},{"id":"cheapEatsRestaurants_51111124208f","slug":"soyvlakopoleion-rigani-5111","kind":"restaurant","name":"Σουβλακοπωλείον Ρίγανη","lat":38.00099448703569,"lng":23.73511231778499,"url":"https://maps.app.goo.gl/fCW1TYPSHgUdCft78?g_st=ipc","address":"Φωκίωνος Νέγρη 15, Αθήνα 112 57","categoryIds":["cheap-eats"],"categories":["Gyros & Cheap Eats"],"distanceKm":0.7758955834157436},{"id":"italianRestaurants_a2a46beb60d1","slug":"mamas-pizza-a2a4","kind":"restaurant","name":"mamas pizza","lat":38.00286067766126,"lng":23.729687108811326,"url":"https://maps.app.goo.gl/GBCYCeq3F77e7FqH8?g_st=ipc","address":"Φυλής 197, Αθήνα 112 52","categoryIds":["italian"],"categories":["Italian Restaurants"],"distanceKm":0.7862708784116673},{"id":"coffeeBrunchRestaurants_5e77841cb06d","slug":"flake-5e77","kind":"restaurant","name":"Flake","lat":37.99900849338742,"lng":23.737419912416144,"url":"https://maps.app.goo.gl/Xk1A8oDNqWipGzYL6?g_st=ipc","address":"Σποράδων 24, Αθήνα 113 61","categoryIds":["coffee-brunch"],"categories":["Coffee & Brunch Spots"],"distanceKm":0.8037927649266748},{"id":"vegetarianRestaurants_ac24d91fc2b5","slug":"geyseis-tis-damaskoy-ac24","kind":"restaurant","name":"Γεύσεις της Δαμασκού","lat":38.00104187111536,"lng":23.735527497819955,"url":"https://maps.app.goo.gl/CBgjw3FjXKsmZLqP9?g_st=ipc","address":"Φωκίωνος Νέγρη 19, Αθήνα 112 57","categoryIds":["vegetarian"],"categories":["Vegetarian Friendly Restaurants"],"distanceKm":0.804453903072713},{"id":"coffeeBrunchRestaurants_ce89cd6aa5d7","slug":"kick-ce89","kind":"restaurant","name":"KICK","lat":37.99916132656893,"lng":23.737461252467714,"url":"https://maps.app.goo.gl/72fZq7DBsWg8jnSR8?g_st=ipc","address":"Σποράδων 26, Αθήνα 113 61","categoryIds":["coffee-brunch"],"categories":["Coffee & Brunch Spots"],"distanceKm":0.8146950515836723},{"id":"mustSeeAttractions_5d23953463e8","slug":"ethniko-archaiologiko-moyseio-5d23","kind":"restaurant","name":"Εθνικό Αρχαιολογικό Μουσείο","lat":37.989024298697544,"lng":23.73276057362421,"url":"https://maps.app.goo.gl/yMXMdhRrheqLTtjc9?g_st=ipc","address":"28ης Οκτωβρίου 44, Αθήνα 106 82","categoryIds":["attractions"],"categories":["Must-See Attractions"],"distanceKm":0.8154774237506088},{"id":"cheapEatsRestaurants_b098fa4e8c79","slug":"kaproys-b098","kind":"restaurant","name":"Κάπρους","lat":37.997892215729216,"lng":23.738708713405035,"url":"https://maps.app.goo.gl/zmZ9p1KuXBfmeQTP9?g_st=ipc","address":"Σπετσών 49, Αθήνα 113 62","categoryIds":["cheap-eats"],"categories":["Gyros & Cheap Eats"],"distanceKm":0.865084890713913}],"mentionedGuides":[{"slug":"american-college-of-greece-agia-paraskevi-guide-el","title":"American College of Greece: Οδηγός Αγίας Παρασκευής"}],"canonicalSlug":"attiki-f736","enrichment":{"summary_en":"Αττική is a curated neighborhood area in Κέντρο Αθήνας. It is connected to 19 nearby Googlementor picks to help travelers build a stronger local route.","summary_el":"Αττική είναι ένα επιλεγμένο σημείο ενδιαφέροντος στην περιοχή Κέντρο Αθήνας. Συνδέεται με 19 κοντινές προτάσεις του Googlementor για πιο ολοκληρωμένη εμπειρία.","vibe_tags":["local-neighborhood","base-for-exploring"],"best_for":["first-time visitors","walk-and-explore days","return visitors"],"visit_moments":["late morning walks","sunset exploration"],"practical_note":"19 curated places are within walkable distance from this area center.","nearby_walkable_count":19,"nearby_count_2km":224,"confidence":0.6},"areaContext":{"slug":"attiki","name":"Attiki","nameEl":"Αττική"},"intentContexts":[]},"__N_SSG":true}