{"pageProps":{"entity":{"id":"familyFriendly_a0024b80ee95","slug":"block-games-a002","kind":"restaurant","name":"Block Games","lat":38.05634420757886,"lng":23.803830698656842,"url":"https://maps.app.goo.gl/KumHXE484XwJxn489?g_st=ipc","address":"Περικλέους 1, Μαρούσι 151 22","categoryIds":["family-friendly"],"categories":["Kid Friendly Locations"]},"sameCategory":[{"id":"familyFriendly_dcb80555b0c4","slug":"hakuna-matata-family-park-dcb8","kind":"restaurant","name":"Hakuna Matata Family Park","lat":38.07414614693604,"lng":23.79446488393812,"url":"https://maps.app.goo.gl/wTSkxqJ3qSwLG4aJA?g_st=ipc","address":"Αχαρνών 53, Κηφισιά 145 61","categoryIds":["family-friendly"],"categories":["Kid Friendly Locations"]},{"id":"familyFriendly_ad68bde06d5c","slug":"replayce-ad68","kind":"restaurant","name":"Replayce","lat":38.04114619526046,"lng":23.788356717778257,"url":"https://maps.app.goo.gl/ByfaE3CKqvW9hrLv6?g_st=ipc","address":"OAKA Gate Z, Αμαρυσίας Αρτέμιδος, Μαρούσι 151 22","categoryIds":["family-friendly"],"categories":["Kid Friendly Locations"]},{"id":"familyFriendly_d45bb5296460","slug":"maroussi-tennis-club-d45b","kind":"restaurant","name":"Maroussi Tennis Club","lat":38.04651986209008,"lng":23.825630520397997,"url":"https://maps.app.goo.gl/pF3h6gGnqMiku8Wg9?g_st=ic","address":"Sismanogliou 74, Marousi 151 26","categoryIds":["family-friendly"],"categories":["Kid Friendly Locations"]},{"id":"familyFriendly_84e8f16ae20b","slug":"ethniko-moyseio-fysikis-istorias-goylandri-84e8","kind":"restaurant","name":"Εθνικό Μουσείο Φυσικής Ιστορίας Γουλανδρή","lat":38.07463041368346,"lng":23.814406620087777,"url":"https://maps.app.goo.gl/3kET1gVajc9wtcHj9?g_st=ipc","address":"Όθωνος 100, Κηφισιά 145 62","categoryIds":["family-friendly"],"categories":["Kid Friendly Locations"]},{"id":"familyFriendly_a9b8fd64bf88","slug":"funmily-eat-drink-play-a9b8","kind":"restaurant","name":"FUNMILY eat-drink-play","lat":38.051902735451634,"lng":23.82889440448781,"url":"https://maps.app.goo.gl/5ypCQjX1CzhhmDWMA?g_st=ipc","address":"Οδός Πεντέλης 114, Μαρούσι 151 26","categoryIds":["family-friendly"],"categories":["Kid Friendly Locations"]},{"id":"familyFriendly_20cf4ac4b119","slug":"freeline-athens-inline-skating-school-20cf","kind":"restaurant","name":"Freeline - Athens Inline Skating School","lat":38.04178979504894,"lng":23.783943829723313,"url":"https://maps.app.goo.gl/eikiyDUe7JH1ESeMA?g_st=ipc","address":"Μαρούσι 151 23","categoryIds":["family-friendly"],"categories":["Kid Friendly Locations"]},{"id":"familyFriendly_814843d50658","slug":"k9-arena-8148","kind":"restaurant","name":"K9 Arena","lat":38.07105818937244,"lng":23.783776935008227,"url":"https://maps.app.goo.gl/x9xASynDZReucwX5A?g_st=ipc","address":"Χαλκίδος 15, Λυκόβρυση 141 23","categoryIds":["family-friendly"],"categories":["Kid Friendly Locations"]},{"id":"familyFriendly_bdbc58481ced","slug":"enydreio-xplore-oceans-bdbc","kind":"restaurant","name":"Ενυδρείο XPLORE Oceans","lat":38.03457407087024,"lng":23.791982125171685,"url":"https://maps.app.goo.gl/qibAD4W4gNvVSf698?g_st=ipc","address":"Αγησιλάου, Μαρούσι 151 23","categoryIds":["family-friendly"],"categories":["Kid Friendly Locations"]},{"id":"familyFriendly_714cd57583c7","slug":"xplore-714c","kind":"restaurant","name":"XPLORE","lat":38.034636437257035,"lng":23.79103363842638,"url":"https://maps.app.goo.gl/TKKhEa5LN1Dy53v36?g_st=ipc","address":"Λεωφ. Κηφισίας 37Α, Μαρούσι 151 23","categoryIds":["family-friendly"],"categories":["Kid Friendly Locations"]},{"id":"familyFriendly_ca1b21e5d960","slug":"planet-physics-ca1b","kind":"restaurant","name":"Planet Physics","lat":38.03717219186782,"lng":23.78478282955737,"url":"https://maps.app.goo.gl/zXVMtXNDFGQx4jhn7?g_st=ipc","address":"Located in: Olympic Indoor Hall Nikos Galis, Leof. Olimpionikou Spirou Loui, Marousi 151 23","categoryIds":["family-friendly"],"categories":["Kid Friendly Locations"]},{"id":"familyFriendly_afe86b0c0ea7","slug":"game-project-afe8","kind":"restaurant","name":"GAME Project","lat":38.057383703991036,"lng":23.772780317559956,"url":"https://maps.app.goo.gl/XsjBK4zMnNMj3Syf6?g_st=ipc","address":"204, ELeftheriou Venizelou Str N, Αθήνα 141 22","categoryIds":["family-friendly"],"categories":["Kid Friendly Locations"]},{"id":"familyFriendly_a06976665fe3","slug":"dentrospito-a069","kind":"restaurant","name":"Δεντρόσπιτο","lat":38.04193059212469,"lng":23.83336989792643,"url":"https://maps.app.goo.gl/xX4rv5hpzm2R55iv8?g_st=ipc","address":"Λεωφ. Πεντέλης 102, Βριλήσσια 152 35","categoryIds":["family-friendly"],"categories":["Kid Friendly Locations"]}],"nearby":[{"id":"burgersRestaurants_6d610eb79dbd","slug":"taz-smash-burger-6d61","kind":"restaurant","name":"Taz Smash Burger","lat":38.05644521597169,"lng":23.804667787562405,"url":"https://maps.app.goo.gl/tj3ojXGmrnTvMA9c7?g_st=ipc","address":"Περικλέους 2, Μαρούσι 151 22","categoryIds":["burgers"],"categories":["Burger Spots"],"distanceKm":0.07414723608623625},{"id":"cheapEatsRestaurants_484ec346fe11","slug":"souzi-tros-street-food-484e","kind":"restaurant","name":"SOUZI TROS street food","lat":38.0550996125921,"lng":23.804743752516742,"url":"https://maps.app.goo.gl/Q2YtxKh8LosNGyHJ6?g_st=ipc","address":"Σπύρου Λέκκα 9, Μαρούσι 151 24","categoryIds":["cheap-eats"],"categories":["Gyros & Cheap Eats"],"distanceKm":0.159823306722104},{"id":"cheapEatsRestaurants_8e2845b1b79c","slug":"to-elliniko-soyvlaki-8e28","kind":"restaurant","name":"Το Ελληνικό Σουβλάκι","lat":38.055611201936195,"lng":23.805858315965597,"url":"https://maps.app.goo.gl/GjgUbFCMPcughxPW6?g_st=ipc","address":"Διονύσου 19, Μαρούσι 151 24","categoryIds":["cheap-eats"],"categories":["Gyros & Cheap Eats"],"distanceKm":0.19534621010303446},{"id":"asianRestaurants_02d0f232a272","slug":"new-great-wall-marousi-02d0","kind":"restaurant","name":"New Great Wall Marousi","lat":38.05713122309269,"lng":23.805863056780513,"url":"https://maps.app.goo.gl/UXfhhMjtr2rYJfNW7?g_st=ipc","address":"Βασ. Αμαλίας 1, Μαρούσι 151 22","categoryIds":["asian"],"categories":["Asian Restaurants"],"distanceKm":0.19829800592086563},{"id":"coffeeBrunchRestaurants_7046edfbce5c","slug":"janet-craig-7046","kind":"restaurant","name":"Janet Craig","lat":38.05641063632366,"lng":23.806182036715274,"url":"https://maps.app.goo.gl/o5wNnYy8d5rdfCBx5?g_st=ipc","address":"28ης Οκτωβρίου 5, Μαρούσι 151 24","categoryIds":["coffee-brunch"],"categories":["Coffee & Brunch Spots"],"distanceKm":0.20600480004998795},{"id":"dessertsRestaurants_f3991d5c3e79","slug":"smyrni-baklava-f399","kind":"restaurant","name":"Smyrni Baklava","lat":38.05518643071446,"lng":23.80748099367396,"url":"https://maps.app.goo.gl/FMXAiNt1SKKDggh88?g_st=ipc","address":"Βασ. Σοφίας 55, Μαρούσι 151 24","categoryIds":["desserts"],"categories":["Dessert Shops"],"distanceKm":0.34455987392341775},{"id":"italianRestaurants_c5639b50090e","slug":"the-italians-c563","kind":"restaurant","name":"The italians","lat":38.05489203613415,"lng":23.80737502626759,"url":"https://maps.app.goo.gl/JMrxX5Rq7Q7HgR487?g_st=ipc","address":"Βασ. Σοφίας 47, Μαρούσι 151 24","categoryIds":["italian"],"categories":["Italian Restaurants"],"distanceKm":0.349824940513663},{"id":"burgersRestaurants_3d23e4017c79","slug":"f-smashing-marousi-delivery-take-away-only-3d23","kind":"restaurant","name":"F* Smashing Marousi (Delivery & Take away Only!)","lat":38.05659414043942,"lng":23.807978426457023,"url":"https://maps.app.goo.gl/YDf78cc6DThEFAdSA?g_st=ipc","address":"Π. Κυριακού 18, Μαρούσι 151 24","categoryIds":["burgers"],"categories":["Burger Spots"],"distanceKm":0.3642173292758811},{"id":"municipalities_cb47d94cb6da","slug":"maroysi-cb47","kind":"municipality","name":"Μαρούσι","lat":38.0543,"lng":23.808,"aliases":["Marousi","Maroussi","Μαρουσι","Αμαρουσιο","Αμαρούσιο","Marusi","Amarousion"],"region":"Βόρεια Προάστια","name_en":"Marousi","region_en":"Northern Suburbs","distanceKm":0.430034140172387},{"id":"greekRestaurants_cd7bd8c142b3","slug":"ta-peyka-cd7b","kind":"restaurant","name":"Τα Πεύκα","lat":38.060680665394344,"lng":23.798177860938093,"url":"https://maps.app.goo.gl/47TqLWgDNWfa9U2QA","address":"Χαϊμαντά Δημητρίου 34, Μαρούσι 151 22","categoryIds":["greek-restaurants"],"categories":["Greek Restaurants"],"distanceKm":0.6909826426938563},{"id":"coffeeBrunchRestaurants_37b671b3632a","slug":"alepou-37b6","kind":"restaurant","name":"Alepou","lat":38.060273733807854,"lng":23.79751630322254,"url":"https://maps.app.goo.gl/heYFVvSaJ4P8dDiS6?g_st=ipc","address":"Βαρβαρεσου, Πεύκη 151 21","categoryIds":["coffee-brunch"],"categories":["Coffee & Brunch Spots"],"distanceKm":0.7046679222114578},{"id":"burgersRestaurants_ceb67d2517dd","slug":"godgilla-umami-street-food-ceb6","kind":"restaurant","name":"Godgilla umami street food","lat":38.056565975998105,"lng":23.814008768575892,"url":"https://maps.app.goo.gl/WyovvCKHo17WtrPb8?g_st=ipc","address":"Γεωρ. Κοτζιά 2, Μαρούσι 151 26","categoryIds":["burgers","cheap-eats"],"categories":["Burger Spots","Gyros & Cheap Eats"],"legacySlugs":["godgilla-umami-street-food-784d"],"distanceKm":0.8914851005246411},{"id":"dessertsRestaurants_11d8eb3a5116","slug":"solo-gelato-pefki-11d8","kind":"restaurant","name":"Solo Gelato Pefki","lat":38.058776038280556,"lng":23.79284350703131,"url":"https://maps.app.goo.gl/SjAsiViMGast8vsf9?g_st=ipc","address":"Σοφούλη 3, Πεύκη 151 21","categoryIds":["desserts"],"categories":["Dessert Shops"],"distanceKm":0.9992551596406152},{"id":"dessertsRestaurants_953419857ace","slug":"zacharoplasteia-konstantinidis-9534","kind":"restaurant","name":"Ζαχαροπλαστεία ΚΩΝΣΤΑΝΤΙΝΙΔΗΣ","lat":38.04797259669027,"lng":23.808277250620737,"url":"https://maps.app.goo.gl/gRUZcBRcbiTVtWhq7?g_st=ipc","address":"Λεωφ. Κηφισίας 86, Μαρούσι 151 25","categoryIds":["desserts"],"categories":["Dessert Shops"],"distanceKm":1.009022315961097},{"id":"italianRestaurants_602b491bd8e4","slug":"puff-daddy-pizzeria-602b","kind":"restaurant","name":"Puff Daddy Pizzeria","lat":38.06473867888921,"lng":23.799010812565253,"url":"https://maps.app.goo.gl/kgXB1etikXQDGo7k6?g_st=ipc","address":"Σκρα 16, Πεύκη 151 21","categoryIds":["italian"],"categories":["Italian Restaurants"],"distanceKm":1.0243766179235338},{"id":"asianRestaurants_a10e769c77cd","slug":"shisan-sushi-bar-a10e","kind":"restaurant","name":"Shisan Sushi Bar","lat":38.04672189810274,"lng":23.805795459456142,"url":"https://maps.app.goo.gl/7Qc86HdEYaZECDNi6?g_st=ipc","address":"Αγίου Κωνσταντίνου 48, Μαρούσι 151 24","categoryIds":["asian"],"categories":["Asian Restaurants"],"distanceKm":1.0836945752110578},{"id":"greekRestaurants_b3a06913c0a6","slug":"striggla-b3a0","kind":"restaurant","name":"Striggla","lat":38.046725624480935,"lng":23.806442690864635,"url":"https://maps.app.goo.gl/zrq9BbB4MU8m8xEA7","address":"Αγίου Κωνσταντίνου 56, Μαρούσι 151 24","categoryIds":["greek-restaurants"],"categories":["Greek Restaurants"],"distanceKm":1.0937178052533831},{"id":"luxuryDiningRestaurants_33b374a8814d","slug":"burntbone-33b3","kind":"restaurant","name":"BurntBone","lat":38.04658414578802,"lng":23.806088897851588,"url":"https://maps.app.goo.gl/iFowB3Xks7e5KZr67?g_st=ipc","address":"Αγίου Κωνσταντίνου 50, Μαρούσι 151 24","categoryIds":["luxury-dining"],"categories":["Luxury Dining"],"distanceKm":1.1031350956068247},{"id":"municipalities_3dd9311bd3cf","slug":"peyki-3dd9","kind":"municipality","name":"Πεύκη","lat":38.06,"lng":23.792,"aliases":["Pefki","Pefkakia","Πευκη","Peuki","Pefka"],"region":"Βόρεια Προάστια","name_en":"Pefki","region_en":"Northern Suburbs","distanceKm":1.1127271626992528},{"id":"burgersRestaurants_264306258d6e","slug":"busty-s-burger-2643","kind":"restaurant","name":"Busty's Burger","lat":38.05283037769694,"lng":23.815776704443905,"url":"https://maps.app.goo.gl/ZPYfcdYHMWXyKwF16?g_st=ipc","address":"Οδός Πεντέλης, Μαρούσι 151 26","categoryIds":["burgers"],"categories":["Burger Spots"],"distanceKm":1.1165573890673934},{"id":"cheapEatsRestaurants_843263490ea4","slug":"jackaroo-8432","kind":"restaurant","name":"Jackaroo","lat":38.04618103563096,"lng":23.807668129553196,"url":"https://maps.app.goo.gl/PgrDAEWAFbwF6go48?g_st=ipc","address":"Leof. Kifisias 70, Marousi 151 25","categoryIds":["cheap-eats"],"categories":["Gyros & Cheap Eats"],"distanceKm":1.1789885968094511},{"id":"fishTavernasRestaurants_b5ecf6b7087f","slug":"psaromania-b5ec","kind":"restaurant","name":"Ψαρομανία","lat":38.048408639606166,"lng":23.81356249118105,"url":"https://maps.app.goo.gl/h2KMfix1JBmXpQQB9?g_st=ipc","address":"Δάφνης 57, Μαρούσι 151 25","categoryIds":["fish-tavernas"],"categories":["Fish Tavernas"],"distanceKm":1.2266723307096816},{"id":"greekRestaurants_1ff9a64c2696","slug":"kempaptzidikon-mparmpalias-maroysi-1ff9","kind":"restaurant","name":"Κεμπαπτζιδικον Μπαρμπαλιάς Μαρούσι","lat":38.05149931311812,"lng":23.790028540438847,"url":"https://maps.app.goo.gl/NL3SuAhkVPXxocnF9","address":"Βύρωνος 19, Μαρούσι 151 22","categoryIds":["greek-restaurants"],"categories":["Greek Restaurants"],"distanceKm":1.3231345910850483},{"id":"greekRestaurants_81215dd76f6b","slug":"artisanal-8121","kind":"restaurant","name":"Artisanal","lat":38.067981010642875,"lng":23.811453792339574,"url":"https://maps.app.goo.gl/WsfMSGTo3b3Mq3hS6","address":"Ζηρίνη 2, Κηφισιά 145 62","categoryIds":["greek-restaurants"],"categories":["Greek Restaurants"],"distanceKm":1.4559276265677155}],"mentionedGuides":[],"canonicalSlug":"block-games-a002","enrichment":{"summary_en":"Block Games is a curated restaurant in Μαρούσι 151 22 in the Kid Friendly Locations collection. It is connected to 11 nearby Googlementor picks to help travelers build a stronger local route.","summary_el":"Block Games είναι ένα επιλεγμένο σημείο φαγητού στην περιοχή Μαρούσι 151 22 και ανήκει στη συλλογή Kid Friendly Locations. Συνδέεται με 11 κοντινές προτάσεις του Googlementor για πιο ολοκληρωμένη εμπειρία.","vibe_tags":["curated","family-ready"],"best_for":["first-time visitors","food lovers","families"],"visit_moments":["lunch stop","dinner stop"],"practical_note":"Address and direct map link are available for easy turn-by-turn access.","nearby_walkable_count":11,"nearby_count_2km":39,"confidence":0.98},"areaContext":{"slug":"maroysi","name":"Marousi","nameEl":"Μαρούσι"},"intentContexts":[{"href":"/family-friendly/maroysi","label":"Kid Friendly Locations in Marousi","categorySlug":"family-friendly","categoryName":"Kid Friendly Locations","areaSlug":"maroysi","areaName":"Marousi","areaNameEl":"Μαρούσι"}]},"__N_SSG":true}