{"pageProps":{"entity":{"id":"familyFriendly_5f4d4e2afff8","slug":"bowling-city-club-5f4d","kind":"restaurant","name":"Bowling City Club","lat":40.49775337927069,"lng":22.17239983558456,"url":"https://maps.app.goo.gl/KgPCpfULKMp7KhMJ7?g_st=ipc","address":"Bowling City Club, Veria 591 32","categoryIds":["family-friendly"],"categories":["Kid Friendly Locations"]},"sameCategory":[{"id":"familyFriendly_9fb0caab5b5a","slug":"parko-elafion-agioy-panteleimonos-agios-dimitrios-kozanis-9fb0","kind":"restaurant","name":"Πάρκο Ελαφιών Αγίου Παντελεήμονος,Άγιος Δημήτριος Κοζάνης","lat":40.43077407157342,"lng":21.94672871822924,"url":"https://maps.app.goo.gl/RuwhJYNYLe2JU3NZA?g_st=ipc","address":"Agios Dimitrios 501 50","categoryIds":["family-friendly"],"categories":["Kid Friendly Locations"]},{"id":"familyFriendly_20ce7f662369","slug":"waterfalls-of-edessa-20ce","kind":"restaurant","name":"Waterfalls of Edessa","lat":40.80389706859676,"lng":22.056027729555048,"url":"https://maps.app.goo.gl/jGXWJC6i6KeqGJ128?g_st=ipc","address":"Tsimiski 2, Edessa 582 00","categoryIds":["family-friendly"],"categories":["Kid Friendly Locations"]},{"id":"familyFriendly_6d37527d6031","slug":"aravissos-6d37","kind":"restaurant","name":"Aravissos","lat":40.84372836252556,"lng":22.29977887392331,"url":"https://maps.app.goo.gl/hexPdMp2cuZPUgmA8?g_st=ic","address":"Αραβησσος 581 00","categoryIds":["family-friendly"],"categories":["Kid Friendly Locations"]},{"id":"familyFriendly_0fe2b96ad54c","slug":"paramythochora-powered-by-unboxholics-0fe2","kind":"restaurant","name":"Παραμυθοχώρα powered by Unboxholics","lat":40.96985491269367,"lng":21.914553567562834,"url":"https://maps.app.goo.gl/38dNg4YHr7NMSpqy8?g_st=ipc","address":"Pozar Baths 584 00","categoryIds":["family-friendly"],"categories":["Kid Friendly Locations"]},{"id":"familyFriendly_d122f87f1fed","slug":"kapsalas-tennis-club-d122","kind":"restaurant","name":"Καψάλας tennis club","lat":40.49945923504331,"lng":22.848750088608462,"url":"https://maps.app.goo.gl/yZyZ8YKUDg7Ac4pY7?g_st=ipc","address":"Θέση Επτάρια, Nea Michaniona 570 04","categoryIds":["family-friendly"],"categories":["Kid Friendly Locations"]},{"id":"familyFriendly_d1a47ca0dedf","slug":"freedom-interactive-playzone-d1a4","kind":"restaurant","name":"Freedom Interactive Playzone","lat":40.70867369830318,"lng":22.911054983573504,"url":"https://maps.app.goo.gl/GummsjTvyttusdP46?g_st=ipc","address":"Μακεδονικού Αγώνα, Zappa &, Oreokastro 570 13","categoryIds":["family-friendly"],"categories":["Kid Friendly Locations"]},{"id":"familyFriendly_87307641acf6","slug":"r-mote-8730","kind":"restaurant","name":"R'MOTE","lat":40.68581196268978,"lng":22.922356233082034,"url":"https://maps.app.goo.gl/y5U3WvSQGqnkW6KY7?g_st=ipc","address":"Palaiokomis 22, Evosmos 562 24","categoryIds":["family-friendly"],"categories":["Kid Friendly Locations"]},{"id":"familyFriendly_42d6652d0a87","slug":"garden-of-roses-playground-42d6","kind":"restaurant","name":"Garden of Roses Playground","lat":40.60699253708574,"lng":22.950719648023778,"url":"https://maps.app.goo.gl/cAbkipq3qupUHj1v7?g_st=ipc","address":"Leof. Meg. Alexandrou 14, Thessaloniki 546 43","categoryIds":["family-friendly"],"categories":["Kid Friendly Locations"]},{"id":"familyFriendly_70d9d42feecb","slug":"odysseas-fokas-park-70d9","kind":"restaurant","name":"Odysseas Fokas Park","lat":40.612796604966135,"lng":22.95168040124591,"url":"https://maps.app.goo.gl/yMHqMAgG61irWESX9?g_st=ipc","address":"Επιθεωρητού Δημητρίου Μισυρλή 26, Thessaloniki 542 50","categoryIds":["family-friendly"],"categories":["Kid Friendly Locations"]},{"id":"familyFriendly_220ccb0fa158","slug":"road-safety-park-220c","kind":"restaurant","name":"Road Safety Park","lat":40.61702068861312,"lng":22.952313879309372,"url":"https://maps.app.goo.gl/dvUGTVktdMviyjRy9?g_st=ic","address":"Leof. Meg. Alexandrou 6, Thessaloniki 546 41","categoryIds":["family-friendly"],"categories":["Kid Friendly Locations"]},{"id":"familyFriendly_7f25af87c856","slug":"bikeit-7f25","kind":"restaurant","name":"BikeIT","lat":40.61873680277816,"lng":22.95194585489908,"url":"https://maps.app.goo.gl/JgmdrRTYY3tBNz6y8?g_st=ic","address":"Leof. Meg. Alexandrou 2, Thessaloniki 546 40","categoryIds":["family-friendly"],"categories":["Kid Friendly Locations"]},{"id":"familyFriendly_a5c1b620864c","slug":"pedion-areos-a5c1","kind":"restaurant","name":"Pedion Areos","lat":40.62247582832067,"lng":22.955391871168274,"url":"https://maps.app.goo.gl/hVHTxMywZzbL2Rr26?g_st=ic","address":"Eth. Aminis 28, Thessaloniki 546 21","categoryIds":["family-friendly"],"categories":["Kid Friendly Locations"]}],"nearby":[{"id":"greekRestaurants_be297b509b05","slug":"vergiotiko-be29","kind":"restaurant","name":"Βεργιώτικο","lat":40.51968475945456,"lng":22.2039284722324,"url":"https://maps.app.goo.gl/wi8AuWq5DENoFUXG9?g_st=ipc","address":"thomaidoy 2, Βέροια 591 32","categoryIds":["greek-restaurants"],"categories":["Greek Restaurants"],"distanceKm":3.6127498363505848},{"id":"greekRestaurants_0981b7de54f0","slug":"to-palio-podilato-0981","kind":"restaurant","name":"Το Παλιό Ποδήλατο","lat":40.488027534727074,"lng":22.213478399857028,"url":"https://maps.app.goo.gl/ceUirhjtqEWPKLQM6?g_st=ipc","address":"Ράχη 591 32","categoryIds":["greek-restaurants"],"categories":["Greek Restaurants"],"distanceKm":3.638148808812918},{"id":"dessertsRestaurants_f5ba55d72f24","slug":"sarai-f5ba","kind":"restaurant","name":"Saráï","lat":40.50964221813708,"lng":22.21709810148732,"url":"https://maps.app.goo.gl/8r6UrDNn4r78Tkat6?g_st=ipc","address":"Pierion 204, Veria 591 00","categoryIds":["desserts"],"categories":["Dessert Shops"],"distanceKm":4.003723887270311},{"id":"dessertsRestaurants_cd0cca61f129","slug":"hochliourou-traditional-revani-cd0c","kind":"restaurant","name":"Hochliourou Traditional Revani","lat":40.52579895116516,"lng":22.20253231030905,"url":"https://maps.app.goo.gl/KeFfiyDrYEvNSjAv8?g_st=ipc","address":"Agiou Antoniou, Kentrikis 134, Veria 591 32","categoryIds":["desserts"],"categories":["Dessert Shops"],"distanceKm":4.026686490192523},{"id":"greekRestaurants_a1e0b45c2175","slug":"opos-palia-a1e0","kind":"restaurant","name":"Όπως Παλιά","lat":40.516459246402064,"lng":22.091097986857875,"url":"https://maps.app.goo.gl/N33JSjsamCUmz8TN7?g_st=ipc","address":"Κεντρικός δρόμος Κουμαριάς -Σελιου, Κουμαριά 591 32","categoryIds":["greek-restaurants"],"categories":["Greek Restaurants"],"distanceKm":7.1814275666413625},{"id":"coffeeBrunchRestaurants_843447e20995","slug":"peinirli-kastanias-8434","kind":"restaurant","name":"Πεϊνιρλί Καστανιάς","lat":40.40779656305863,"lng":22.118956878515576,"url":"https://maps.app.goo.gl/tFoh177Q4oimL9Ny7?g_st=ipc","address":"Kastania 591 32","categoryIds":["coffee-brunch"],"categories":["Coffee & Brunch Spots"],"distanceKm":10.977382260898827},{"id":"wineriesVineyards_1a8430108b4e","slug":"boutari-winery-s-a-1a84","kind":"restaurant","name":"Boutari Winery S.A.","lat":40.604954538648315,"lng":22.130368216830174,"url":"https://maps.app.goo.gl/faa8usVkmkz6Gxog6?g_st=ipc","address":"592 00, Epar.Od. Naousas-Kato Vermiou, Stenimachos","categoryIds":["wineries-vineyards"],"categories":["Wineries & Vineyards"],"distanceKm":12.437954015174789},{"id":"mustSeeAttractions_2ba6bcb8ac97","slug":"palace-of-aigai-aegae-2ba6","kind":"restaurant","name":"Palace of Aigai (Aegae)","lat":40.47783656530058,"lng":22.32233617700311,"url":"https://maps.app.goo.gl/jFwKES4CcpviH3818?g_st=ipc","address":"Vergina 590 31","categoryIds":["attractions"],"categories":["Must-See Attractions"],"distanceKm":12.871864951044794},{"id":"municipalities_68933443b9ec","slug":"naoysa-6893","kind":"municipality","name":"Νάουσα","lat":40.624,"lng":22.144,"region":"Κεντρική Μακεδονία","name_en":"Naousa","region_en":"Central Macedonia","distanceKm":14.24151507303644},{"id":"wineriesVineyards_a36d8bf4fc67","slug":"kir-yianni-winery-a36d","kind":"restaurant","name":"Kir-Yianni Winery","lat":40.65941086004422,"lng":22.071160405925678,"url":"https://maps.app.goo.gl/J5SjPASnL6fBMV2DA?g_st=ipc","address":"Γιαννακοχώρι 592 00","categoryIds":["wineries-vineyards"],"categories":["Wineries & Vineyards"],"distanceKm":19.90533088881314},{"id":"familyFriendly_9fb0caab5b5a","slug":"parko-elafion-agioy-panteleimonos-agios-dimitrios-kozanis-9fb0","kind":"restaurant","name":"Πάρκο Ελαφιών Αγίου Παντελεήμονος,Άγιος Δημήτριος Κοζάνης","lat":40.43077407157342,"lng":21.94672871822924,"url":"https://maps.app.goo.gl/RuwhJYNYLe2JU3NZA?g_st=ipc","address":"Agios Dimitrios 501 50","categoryIds":["family-friendly"],"categories":["Kid Friendly Locations"],"distanceKm":20.492685605526745},{"id":"greekRestaurants_83a8e7a17218","slug":"tsi-tsi-soyvla-mpar-83a8","kind":"restaurant","name":"Tsi Tsi Σουβla Mπαr","lat":40.62759907137701,"lng":22.441073335584885,"url":"https://maps.app.goo.gl/8Ekwg8Pc5gmDyw82A?g_st=ipc","address":"Eth. Antistasis 50, Alexandria 593 00","categoryIds":["greek-restaurants"],"categories":["Greek Restaurants"],"distanceKm":26.8992179896984}],"mentionedGuides":[],"canonicalSlug":"bowling-city-club-5f4d","enrichment":{"summary_en":"Bowling City Club is a curated restaurant in Veria 591 32 in the Kid Friendly Locations collection. It is connected to 0 nearby Googlementor picks to help travelers build a stronger local route.","summary_el":"Bowling City Club είναι ένα επιλεγμένο σημείο φαγητού στην περιοχή Veria 591 32 και ανήκει στη συλλογή Kid Friendly Locations. Συνδέεται με 0 κοντινές προτάσεις του Googlementor για πιο ολοκληρωμένη εμπειρία.","vibe_tags":["curated","family-ready"],"best_for":["first-time visitors","food lovers","families"],"visit_moments":["lunch stop","dinner stop"],"practical_note":"Address and direct map link are available for easy turn-by-turn access.","nearby_walkable_count":0,"nearby_count_2km":0,"confidence":0.9},"areaContext":null,"intentContexts":[]},"__N_SSG":true}