{"pageProps":{"entity":{"id":"italianRestaurants_73a45e6520a2","slug":"caton-l-anziano-73a4","kind":"restaurant","name":"Caton L'anziano","lat":37.90721241896495,"lng":23.748209011580894,"url":"https://maps.app.goo.gl/myFgmXovKb5x7zc9A?g_st=ipc","address":"Δωδεκανήσου 1, Αργυρούπολη 164 52","categoryIds":["italian"],"categories":["Italian Restaurants"]},"sameCategory":[{"id":"italianRestaurants_55bf8f0c114f","slug":"the-eatalians-mario-luigi-55bf","kind":"restaurant","name":"The Eatalians - Mario & Luigi","lat":37.92539688479538,"lng":23.751855920363795,"url":"https://maps.app.goo.gl/hmtXEzz7XFvKtEnG6?g_st=ipc","address":"Λεωφ. Ελ. Βενιζέλου 190, Ηλιούπολη 163 41","categoryIds":["italian"],"categories":["Italian Restaurants"]},{"id":"italianRestaurants_e0eab8c43067","slug":"il-tinello-athens-e0ea","kind":"restaurant","name":"Il Tinello Athens","lat":37.9164984895058,"lng":23.723486074483993,"url":"https://maps.app.goo.gl/BQxFwm6nKx3uhqa9A?g_st=ipc","address":"Κνωσού 54, Άλιμος 174 55","categoryIds":["italian"],"categories":["Italian Restaurants"]},{"id":"italianRestaurants_18486d8f87b6","slug":"mamy-blue-pizza-napoletana-glyfada-1848","kind":"restaurant","name":"Mamy Blue - Pizza Napoletana Glyfada","lat":37.8796152626329,"lng":23.758507788324675,"url":"https://maps.app.goo.gl/Viv8JcHoZX8wKXaV9?g_st=ipc","address":"Ανδρέα Παπανδρέου 126, Γλυφάδα 165 61","categoryIds":["italian"],"categories":["Italian Restaurants"]},{"id":"italianRestaurants_e396fe74ff9a","slug":"le-pizze-di-san-gennaro-e396","kind":"restaurant","name":"LE PIZZE DI SAN GENNARO","lat":37.93395718694605,"lng":23.71495698828565,"url":"https://maps.app.goo.gl/BW3pXFd1SVKpBcai6?g_st=ipc","address":"Ευξείνου Πόντου 172, Νέα Σμύρνη 171 23","categoryIds":["italian"],"categories":["Italian Restaurants"]},{"id":"italianRestaurants_22324beef805","slug":"pizza-days-agioy-dimitrioy-2232","kind":"restaurant","name":"Pizza Days - Αγίου Δημητρίου","lat":37.9436201391912,"lng":23.733022003629234,"url":"https://maps.app.goo.gl/mj45NkH8L5jqeHD58?g_st=ipc","address":"Ανδρέα Παπανδρέου 2, Αγ. Δημήτριος Αττικής 173 41","categoryIds":["italian"],"categories":["Italian Restaurants"]},{"id":"familyFriendly_bba3af84c3c6","slug":"bella-vespa-bba3","kind":"restaurant","name":"Bella Vespa","lat":37.86706675735918,"lng":23.747387332761612,"url":"https://maps.app.goo.gl/dpip4AngfBL8xv2M8?g_st=ipc","address":"Κύπρου 11, Γλυφάδα 166 75","categoryIds":["family-friendly","italian"],"categories":["Kid Friendly Locations","Italian Restaurants"],"legacySlugs":["bella-vespa-976a"]},{"id":"italianRestaurants_7df507160f43","slug":"de-michelle-7df5","kind":"restaurant","name":"DE MICHELLE","lat":37.94606996265572,"lng":23.727087729280314,"url":"https://maps.app.goo.gl/iqvRwdhG4FanUzaEA?g_st=ipc","address":"Μητροπολίτου Ευθυβούλη 17, Νέα Σμύρνη 171 24","categoryIds":["italian"],"categories":["Italian Restaurants"]},{"id":"italianRestaurants_dd5b148ca8d7","slug":"peccati-di-gola-dd5b","kind":"restaurant","name":"Peccati Di Gola","lat":37.86427445144013,"lng":23.751331713919253,"url":"https://maps.app.goo.gl/o1MzXXTU18xSPfb69?g_st=ipc","address":"Κύπρου 50, Γλυφάδα 166 75","categoryIds":["italian"],"categories":["Italian Restaurants"]},{"id":"italianRestaurants_a0a70f822848","slug":"il-trovatore-a0a7","kind":"restaurant","name":"Il Trovatore","lat":37.93426882606043,"lng":23.704929709402517,"url":"https://maps.app.goo.gl/VEjqHzj7oG8PDciG7?g_st=ipc","address":"Γοργοποτάμου 14, Παλαιό Φάληρο 175 64","categoryIds":["italian"],"categories":["Italian Restaurants"]},{"id":"italianRestaurants_c1362c021208","slug":"itali-co-c136","kind":"restaurant","name":"ITALI.CO","lat":37.86253909414944,"lng":23.747999477664532,"url":"https://maps.app.goo.gl/pCnDdDLDMjkN2CGv6?g_st=ipc","address":"Ανδρέα Παπανδρέου 3, Γλυφάδα 166 75","categoryIds":["italian"],"categories":["Italian Restaurants"]},{"id":"italianRestaurants_da11e2c73563","slug":"cavaliere-ristorante-concettuale-da11","kind":"restaurant","name":"Cavaliere Ristorante Concettuale","lat":37.944619471140975,"lng":23.71414682617668,"url":"https://maps.app.goo.gl/WcUWRBUhr7SBrvaw8?g_st=ipc","address":"Λεωφ. Ελ. Βενιζέλου 42, Νέα Σμύρνη 171 22","categoryIds":["italian"],"categories":["Italian Restaurants"]},{"id":"italianRestaurants_fb4db3d6df69","slug":"akakios-makaronadiko-fb4d","kind":"restaurant","name":"Ακάκιος μακαρονάδικο","lat":37.932532942991465,"lng":23.699425438393305,"url":"https://maps.app.goo.gl/Mjwxjxeqf2KWt2Hq5?g_st=ipc","address":"Αγίας Τριάδος 1, Παλαιό Φάληρο 175 64","categoryIds":["italian"],"categories":["Italian Restaurants"]}],"nearby":[{"id":"mexicanRestaurants_0b6a5cff52ce","slug":"mejico-restaurant-bar-0b6a","kind":"restaurant","name":"MEJICO RESTAURANT BAR","lat":37.90692111551084,"lng":23.74832700746784,"url":"https://maps.app.goo.gl/opTPE24vtAteYNRS9?g_st=ipc","address":"Θράκης 10 Και 28ης Οκτωβρίου 36, Αργυρούπολη 164 52","categoryIds":["mexican"],"categories":["Mexican Restaurants"],"distanceKm":0.03400552171219902},{"id":"cheapEatsRestaurants_1d0eb7258382","slug":"zahoulis-argyroupoli-soyvlaki-1d0e","kind":"restaurant","name":"ZAHOULIS ARGYROUPOLI Σουβλάκι","lat":37.90791549793596,"lng":23.748232505140976,"url":"https://maps.app.goo.gl/kKDkkSTXoQK8Uh328?g_st=ipc","address":"Μαρίνου Γερουλάνου 54, Αργυρούπολη 164 52","categoryIds":["cheap-eats"],"categories":["Gyros & Cheap Eats"],"distanceKm":0.07820598089902213},{"id":"mexicanRestaurants_0c73152ab27f","slug":"abrazo-0c73","kind":"restaurant","name":"ABRAZO","lat":37.90764040669511,"lng":23.748959602183852,"url":"https://maps.app.goo.gl/aK9BaFV3WgpvSdWJ7?g_st=ipc","address":"Μαρίνου Γερουλάνου 55, Αργυρούπολη 164 52","categoryIds":["mexican"],"categories":["Mexican Restaurants"],"distanceKm":0.08124821117427149},{"id":"dessertsRestaurants_9589925a188d","slug":"sweet-spoon-by-dimitris-drakos-9589","kind":"restaurant","name":"Sweet Spoon by Dimitris Drakos","lat":37.90709513956235,"lng":23.74948764110418,"url":"https://maps.app.goo.gl/QU5RbkRc2rsgbL2s5?g_st=ipc","address":"Μαρίνου Γερουλάνου 59, Αργυρούπολη 164 52","categoryIds":["desserts"],"categories":["Dessert Shops"],"distanceKm":0.11293425619405373},{"id":"cheapEatsRestaurants_1229f76d436a","slug":"to-mpifteki-tis-sofias-1229","kind":"restaurant","name":"Το μπιφτέκι της Σοφίας","lat":37.90862324079437,"lng":23.747616716476674,"url":"https://maps.app.goo.gl/81gG3aHCeD1heo749?g_st=ipc","address":"Μαρίνου Γερουλάνου 42, Αργυρούπολη 164 52","categoryIds":["cheap-eats"],"categories":["Gyros & Cheap Eats"],"distanceKm":0.16525850262648187},{"id":"cheapEatsRestaurants_c226e99422f7","slug":"montagu-c226","kind":"restaurant","name":"Montagu","lat":37.90768059040179,"lng":23.745954563287732,"url":"https://maps.app.goo.gl/5VP4Qk8ng1M1pARWA?g_st=ipc","address":"Παρ. Λεωφ. Βουλιαγμένης 66, Αργυρούπολη 164 52","categoryIds":["cheap-eats"],"categories":["Gyros & Cheap Eats"],"distanceKm":0.20452627271715507},{"id":"cheapEatsRestaurants_38d81d943048","slug":"oi-pites-toy-nteni-38d8","kind":"restaurant","name":"Οι Πίτες του Ντένη","lat":37.90525389875436,"lng":23.75051113822582,"url":"https://maps.app.goo.gl/LT4SpnfnfY3JNg1K7?g_st=ipc","address":"Μαρίνου Γερουλάνου 81, Αργυρούπολη 164 52","categoryIds":["cheap-eats"],"categories":["Gyros & Cheap Eats"],"distanceKm":0.2970210785912004},{"id":"dessertsRestaurants_0682819026f8","slug":"katsioylis-artopoieio-0682","kind":"restaurant","name":"Κατσιούλης αρτοποιείο","lat":37.90633812907658,"lng":23.743452517791024,"url":"https://maps.app.goo.gl/4juH7NkhLbAnB7vd7?g_st=ipc","address":"Τιτάνων 4, Ελληνικό 167 77","categoryIds":["desserts"],"categories":["Dessert Shops"],"distanceKm":0.42848083756133143},{"id":"cheapEatsRestaurants_04e6a1e9ffd2","slug":"to-kalamaki-toy-aggeloy-04e6","kind":"restaurant","name":"Το Καλαμάκι του Αγγέλου","lat":37.90324456071206,"lng":23.748792260475668,"url":"https://maps.app.goo.gl/qgszesYeGs45UoHG6?g_st=ipc","address":"Πόντου 16, Αργυρούπολη 164 52","categoryIds":["cheap-eats"],"categories":["Gyros & Cheap Eats"],"distanceKm":0.4441632998703913},{"id":"familyFriendly_ae632d4e248a","slug":"protypo-oikogeneiako-parko-ae63","kind":"restaurant","name":"Πρότυπο Οικογενειακό Πάρκο","lat":37.904103805227116,"lng":23.74422997348302,"url":"https://maps.app.goo.gl/kUkHYYpwWmY27cqm9?g_st=ipc","address":"Δραγατσανίου, Ελληνικό 167 77","categoryIds":["family-friendly"],"categories":["Kid Friendly Locations"],"distanceKm":0.491278769317932},{"id":"cheapEatsRestaurants_833c862346f4","slug":"virtuoso-enjoyment-833c","kind":"restaurant","name":"Virtuoso_enjoyment","lat":37.90017783194547,"lng":23.749997183633212,"url":"https://maps.app.goo.gl/7nLwDeMLLVCCJGGAA?g_st=ipc","address":"Μαρίνου Γερουλάνου 126, Αργυρούπολη 164 52","categoryIds":["cheap-eats"],"categories":["Gyros & Cheap Eats"],"distanceKm":0.7977892066007841},{"id":"cheapEatsRestaurants_e2c4bf1641e7","slug":"ta-adelfia-e2c4","kind":"restaurant","name":"ΤΑ ΑΔΕΛΦΙΑ","lat":37.91448793009678,"lng":23.75034852466272,"url":"https://maps.app.goo.gl/uDT8aKPKixRUsUYz7?g_st=ipc","address":"Ολυμπίας 52, Αργυρούπολη 164 51","categoryIds":["cheap-eats"],"categories":["Gyros & Cheap Eats"],"distanceKm":0.8304886167953011},{"id":"municipalities_4ce899ab5232","slug":"argyroypoli-4ce8","kind":"municipality","name":"Αργυρούπολη","lat":37.905,"lng":23.738,"region":"Νότια Προάστια","name_en":"Argyroupoli","region_en":"Southern Suburbs","distanceKm":0.9288566634362801},{"id":"familyFriendly_b7e14b13fc56","slug":"paramythoypoli-ellinikoy-argyroypolis-b7e1","kind":"restaurant","name":"Παραμυθούπολη Ελληνικού Αργυρούπολης","lat":37.90960009979719,"lng":23.737312819815322,"url":"https://maps.app.goo.gl/MGgTCv28KmDG4VgK8?g_st=ipc","address":"Αλ. Παπαναστασίου, Αργυρούπολη 164 52","categoryIds":["family-friendly"],"categories":["Kid Friendly Locations"],"distanceKm":0.9921300508701026},{"id":"dessertsRestaurants_1f8a84ec27ef","slug":"zacharoplasteio-melina-1f8a","kind":"restaurant","name":"Ζαχαροπλαστείο Μελίνα","lat":37.89634457510765,"lng":23.75272103741247,"url":"https://maps.app.goo.gl/q1hfQmUdAxU7F42R6?g_st=ipc","address":"Τριπόλεως 65, Ελληνικό 167 77","categoryIds":["desserts"],"categories":["Dessert Shops"],"distanceKm":1.271642391364967},{"id":"burgersRestaurants_0f3559803382","slug":"street-burger-0f35","kind":"restaurant","name":"Street Burger","lat":37.907177869982185,"lng":23.732883953097378,"url":"https://maps.app.goo.gl/hySSSjtTD5s23KKdA?g_st=ipc","address":"Λεωφ. Αλίμου 56, Άλιμος 174 55","categoryIds":["burgers"],"categories":["Burger Spots"],"distanceKm":1.3445275553236842},{"id":"cheapEatsRestaurants_55ef34aff14a","slug":"aigyptios-55ef","kind":"restaurant","name":"ΑΙΓΥΠΤΙΟΣ","lat":37.919220373285064,"lng":23.75457772556386,"url":"https://maps.app.goo.gl/kKDBtgyh24ez28CR7?g_st=ipc","address":"Θράκης 58, Ηλιούπολη 163 41","categoryIds":["cheap-eats"],"categories":["Gyros & Cheap Eats"],"distanceKm":1.4474019925849262},{"id":"familyFriendly_9f066a9c3f09","slug":"dei-chocolate-ice-cream-experience-9f06","kind":"restaurant","name":"ΔΕΗ Chocolate & Ice Cream Experience","lat":37.89648025729673,"lng":23.737725296668952,"url":"https://maps.app.goo.gl/u7nRPPFnbvtVeLEQ7?g_st=ipc","address":"The Ellinikon Expérience Park, Ελληνικό 167 77","categoryIds":["family-friendly"],"categories":["Kid Friendly Locations"],"distanceKm":1.5067247178238095},{"id":"dessertsRestaurants_daa8389af0d5","slug":"zacharoplasteia-konstantinidis-daa8","kind":"restaurant","name":"Ζαχαροπλαστεία Κωνσταντινίδης","lat":37.92117733712683,"lng":23.74398997445251,"url":"https://maps.app.goo.gl/gfQPbYfHSNZUpXX47?g_st=ipc","address":"Παρ. Λεωφ. Βουλιαγμένης 534, Άλιμος 174 56","categoryIds":["desserts"],"categories":["Dessert Shops"],"distanceKm":1.5963272792094187},{"id":"greekRestaurants_4c001bebcf5a","slug":"kyria-oyrania-taverna-4c00","kind":"restaurant","name":"Κυρία Ουρανία Ταβέρνα","lat":37.92057877935982,"lng":23.755542263928948,"url":"https://maps.app.goo.gl/ps7BDEvG27yAVuTL8","address":"Ηρ. Πολυτεχνείου 85, Ηλιούπολη 163 42","categoryIds":["greek-restaurants"],"categories":["Greek Restaurants"],"distanceKm":1.6195232355790128},{"id":"coffeeBrunchRestaurants_a61757d67613","slug":"diakopes-kafe-mpar-a617","kind":"restaurant","name":"ΔΙΑΚΟΠΕΣ καφέ-μπαρ","lat":37.915984200989875,"lng":23.73311841263129,"url":"https://maps.app.goo.gl/NHUYpdxhhi6EStZD7?g_st=ipc","address":"Λεωφ. Ιωνίας 125, Άλιμος 174 56","categoryIds":["coffee-brunch"],"categories":["Coffee & Brunch Spots"],"distanceKm":1.6443846657001955},{"id":"burgersRestaurants_797126963f1f","slug":"amam-estiatorio-glyfada-7971","kind":"restaurant","name":"ΑΜΑΜ - ΕΣΤΙΑΤΟΡΙΟ - ΓΛΥΦΑΔΑ","lat":37.895880681449796,"lng":23.761095559330744,"url":"https://maps.app.goo.gl/fAsTx4mwCTHC78t86?g_st=ipc","address":"Γεωρ. Γεννηματά 11, Γλυφάδα 165 62","categoryIds":["burgers","cheap-eats"],"categories":["Burger Spots","Gyros & Cheap Eats"],"legacySlugs":["amam-estiatorio-glyfada-af98"],"distanceKm":1.6929541295899515},{"id":"cheapEatsRestaurants_25ffd4c0ef7f","slug":"elliniko-soyvlaki-ap-to1990-25ff","kind":"restaurant","name":"Ελληνικό Σουβλάκι (απ'το1990)","lat":37.892191582868755,"lng":23.75361437896675,"url":"https://maps.app.goo.gl/RAbojGiNVh4trirv7?g_st=ipc","address":"Λεωφ. Ιασωνίδου 40, Ελληνικό 167 77","categoryIds":["cheap-eats"],"categories":["Gyros & Cheap Eats"],"distanceKm":1.7362736458743535},{"id":"municipalities_4714f1907ab8","slug":"elliniko-4714","kind":"municipality","name":"Ελληνικό","lat":37.892,"lng":23.743,"region":"Νότια Προάστια","name_en":"Elliniko","region_en":"Southern Suburbs","distanceKm":1.7522035469861958}],"mentionedGuides":[],"canonicalSlug":"caton-l-anziano-73a4","enrichment":{"summary_en":"Caton L'anziano is a curated restaurant in Αργυρούπολη 164 52 in the Italian Restaurants collection. It is connected to 11 nearby Googlementor picks to help travelers build a stronger local route.","summary_el":"Caton L'anziano είναι ένα επιλεγμένο σημείο φαγητού στην περιοχή Αργυρούπολη 164 52 και ανήκει στη συλλογή Italian Restaurants. Συνδέεται με 11 κοντινές προτάσεις του Googlementor για πιο ολοκληρωμένη εμπειρία.","vibe_tags":["curated"],"best_for":["first-time visitors","food lovers"],"visit_moments":["lunch stop","dinner stop"],"practical_note":"Address and direct map link are available for easy turn-by-turn access.","nearby_walkable_count":11,"nearby_count_2km":28,"confidence":0.98},"areaContext":{"slug":"argyroypoli","name":"Argyroupoli","nameEl":"Αργυρούπολη"},"intentContexts":[]},"__N_SSG":true}