{"pageProps":{"entity":{"id":"luxuryDiningRestaurants_c1ae11688e19","slug":"drakoulis-dry-raw-butcheries-voula-c1ae","kind":"restaurant","name":"Drakoulis Dry & Raw - Butcheries Voula","lat":37.837831960071576,"lng":23.769665916102717,"url":"https://maps.app.goo.gl/uMQc68wzQ6KRLhmv6?g_st=ipc","address":"Λεωφ. Βασιλέως Παύλου 103, Βούλα 166 73","categoryIds":["luxury-dining"],"categories":["Luxury Dining"]},"sameCategory":[{"id":"luxuryDiningRestaurants_9dba478c9326","slug":"faidon-s-athens-9dba","kind":"restaurant","name":"FAIDON'S Athens","lat":37.841556503840984,"lng":23.766513107501794,"url":"https://maps.app.goo.gl/keaSEXUAsA2Tk34x9?g_st=ipc","address":"Αγίου Ιωάννου 28, Βούλα 166 73","categoryIds":["luxury-dining"],"categories":["Luxury Dining"]},{"id":"fishTavernasRestaurants_eb690c18b7db","slug":"sea-satin-athens-riviera-eb69","kind":"restaurant","name":"Sea Satin Athens Riviera","lat":37.840376863615674,"lng":23.760387360489776,"url":"https://maps.app.goo.gl/1QEDPDZdZC7GT8ne9?g_st=ipc","address":"Λεωφ. Κωνσταντίνου Καραμανλή 14, Βούλα 166 73","categoryIds":["fish-tavernas","luxury-dining"],"categories":["Fish Tavernas","Luxury Dining"],"legacySlugs":["sea-satin-athens-riviera-daf4"]},{"id":"luxuryDiningRestaurants_d4685ec9fc7a","slug":"barbarossa-athens-d468","kind":"restaurant","name":"Barbarossa Athens","lat":37.85088920250088,"lng":23.748814418850717,"url":"https://maps.app.goo.gl/oUiPt5pCahzP963D8?g_st=ipc","address":"Λεωφ. Αλκυονίδων 4, Βούλα 166 73","categoryIds":["luxury-dining"],"categories":["Luxury Dining"]},{"id":"coffeeBrunchRestaurants_f000d793a460","slug":"bungalow7-athens-f000","kind":"restaurant","name":"Bungalow7 Athens","lat":37.858739347203105,"lng":23.751507417801406,"url":"https://maps.app.goo.gl/46sTr1wF8Q2Bajpu7?g_st=ipc","address":"Λεωφ. Ποσειδώνος 110, Γλυφάδα 166 75","categoryIds":["coffee-brunch","luxury-dining"],"categories":["Coffee & Brunch Spots","Luxury Dining"],"legacySlugs":["bungalow7-athens-3c7a"]},{"id":"greekRestaurants_2c46fb9be459","slug":"basegrill-2c46","kind":"restaurant","name":"Basegrill","lat":37.860629906056765,"lng":23.752227328267114,"url":"https://maps.app.goo.gl/Mg499qYpRgDUfYMg9","address":"Ζησιμοπούλου 5, Γλυφάδα 166 74","categoryIds":["greek-restaurants","luxury-dining"],"categories":["Greek Restaurants","Luxury Dining"],"legacySlugs":["basegrill-e825"]},{"id":"luxuryDiningRestaurants_cf5e588a6dce","slug":"estiatorio-ithaki-cf5e","kind":"restaurant","name":"Εστιατόριο Ιθάκη","lat":37.811063360560766,"lng":23.773264732265726,"url":"https://maps.app.goo.gl/bgcHWrkEN1tinWgK8?g_st=ipc","address":"Apollonos, Αθήνας 28, Βουλιαγμένη 166 71","categoryIds":["luxury-dining"],"categories":["Luxury Dining"]},{"id":"luxuryDiningRestaurants_7d36e4ca660e","slug":"ark-7d36","kind":"restaurant","name":"Ark","lat":37.85971913916164,"lng":23.74981043696894,"url":"https://maps.app.goo.gl/Dx4oajrWFGZwwetZ9?g_st=ipc","address":"Γρ. Λαμπράκη 2, Γλυφάδα 166 74","categoryIds":["luxury-dining"],"categories":["Luxury Dining"]},{"id":"fishTavernasRestaurants_a752a7fe8192","slug":"matsuhisa-athens-a752","kind":"restaurant","name":"Matsuhisa Athens","lat":37.806991167366505,"lng":23.7721702530857,"url":"https://maps.app.goo.gl/kX1Hohg5k4FcqjgeA?g_st=ipc","address":"40, Απόλλωνος street, Βουλιαγμένη 166 71","categoryIds":["fish-tavernas","luxury-dining"],"categories":["Fish Tavernas","Luxury Dining"],"legacySlugs":["matsuhisa-athens-c10d"]},{"id":"luxuryDiningRestaurants_08bbcc5a4dd6","slug":"labros-restaurant-08bb","kind":"restaurant","name":"Labros Restaurant","lat":37.8081975831625,"lng":23.78348018457994,"url":"https://maps.app.goo.gl/H6wg8L7hEhDJU9C38?g_st=ipc","address":"Λεωφ. Ποσειδώνος 20, Βουλιαγμένη 166 71","categoryIds":["luxury-dining"],"categories":["Luxury Dining"]},{"id":"luxuryDiningRestaurants_72f0c7381e5c","slug":"caretta-athens-72f0","kind":"restaurant","name":"Caretta Athens","lat":37.8628471518072,"lng":23.74485660521178,"url":"https://maps.app.goo.gl/Uw1vLRNczCvaVvgf8?g_st=ipc","address":"Διαδόχου Παύλου 46, Γλυφάδα 166 75","categoryIds":["luxury-dining"],"categories":["Luxury Dining"]},{"id":"luxuryDiningRestaurants_6dc5534d9406","slug":"taverna-37-6dc5","kind":"restaurant","name":"Taverna 37","lat":37.80595380281949,"lng":23.772585533663307,"url":"https://maps.app.goo.gl/xaizfkEuwTxWbciw7?g_st=ipc","address":"Απόλλωνος 40, Βουλιαγμένη 166 71","categoryIds":["luxury-dining"],"categories":["Luxury Dining"]},{"id":"luxuryDiningRestaurants_5ce4a2badf9b","slug":"pelagos-5ce4","kind":"restaurant","name":"Pelagos","lat":37.805275140067316,"lng":23.77164308843121,"url":"https://maps.app.goo.gl/QTPENP7kfSJRAMQTA?g_st=ipc","address":"Απόλλωνος 40, Βουλιαγμένη 166 71","categoryIds":["luxury-dining"],"categories":["Luxury Dining"]}],"nearby":[{"id":"coffeeBrunchRestaurants_264a40023d71","slug":"oven-264a","kind":"restaurant","name":"όβεν","lat":37.83821741108239,"lng":23.7685609654253,"url":"https://maps.app.goo.gl/gmek3DFpsqqbYYR49?g_st=ipc","address":"Λεωφ. Βασιλέως Παύλου 104, Βούλα 166 73","categoryIds":["coffee-brunch"],"categories":["Coffee & Brunch Spots"],"distanceKm":0.10607671194355157},{"id":"coffeeBrunchRestaurants_8123cddfff42","slug":"rey-pablo-8123","kind":"restaurant","name":"Rey Pablo","lat":37.83850094604755,"lng":23.768770335582047,"url":"https://maps.app.goo.gl/x4TKdGZ4P6i8FcrE6?g_st=ipc","address":"91, Λεωφ. Βασιλέως Παύλου 89, Βούλα 166 73","categoryIds":["coffee-brunch"],"categories":["Coffee & Brunch Spots"],"distanceKm":0.10825324671417384},{"id":"vegetarianRestaurants_5e82930d8565","slug":"coconuts-nuts-specialties-5e82","kind":"restaurant","name":"COCONUTS Nuts & Specialties","lat":37.83974545115199,"lng":23.767343337140883,"url":"https://maps.app.goo.gl/C155rgfingteegQn8?g_st=ipc","address":"Λεωφ. Βασιλέως Παύλου 67, Βούλα 166 73","categoryIds":["vegetarian"],"categories":["Vegetarian Friendly Restaurants"],"distanceKm":0.29473703678988405},{"id":"coffeeBrunchRestaurants_1e8b13cd507d","slug":"riviera-coast-1e8b","kind":"restaurant","name":"Riviera Coast","lat":37.8360364556755,"lng":23.766880988503196,"url":"https://maps.app.goo.gl/d8HG2cz27hm9ZC3r9?g_st=ipc","address":"Λεωφ. Κωνσταντίνου Καραμανλή 18, Βούλα 166 73","categoryIds":["coffee-brunch"],"categories":["Coffee & Brunch Spots"],"distanceKm":0.3157094169333271},{"id":"asianRestaurants_5169dc5ccfbd","slug":"koyasan-in-voula-5169","kind":"restaurant","name":"KoYaSan In Voula","lat":37.84038966721299,"lng":23.76668605741755,"url":"https://maps.app.goo.gl/hRUmgmxtpReyJ54h7?g_st=ipc","address":"KoYaSan In Voula","categoryIds":["asian"],"categories":["Asian Restaurants"],"distanceKm":0.386470775703352},{"id":"luxuryDiningRestaurants_9dba478c9326","slug":"faidon-s-athens-9dba","kind":"restaurant","name":"FAIDON'S Athens","lat":37.841556503840984,"lng":23.766513107501794,"url":"https://maps.app.goo.gl/keaSEXUAsA2Tk34x9?g_st=ipc","address":"Αγίου Ιωάννου 28, Βούλα 166 73","categoryIds":["luxury-dining"],"categories":["Luxury Dining"],"distanceKm":0.4981690299258453},{"id":"familyFriendly_b360cd975d06","slug":"voula-park-b360","kind":"restaurant","name":"Voula Park","lat":37.839630282199295,"lng":23.762193155062445,"url":"https://maps.app.goo.gl/V4oZWgECkqhJFkK46?g_st=ipc","address":"Nireos, Voula, Athens 166 73","categoryIds":["family-friendly"],"categories":["Kid Friendly Locations"],"distanceKm":0.6860119814944764},{"id":"municipalities_a5772562f784","slug":"voyla-a577","kind":"municipality","name":"Βούλα","lat":37.8427,"lng":23.7763,"aliases":["Voula","Voyla","Βουλα"],"region":"Νότια Προάστια","name_en":"Voula","region_en":"Southern Suburbs","distanceKm":0.7952259528444124},{"id":"fishTavernasRestaurants_eb690c18b7db","slug":"sea-satin-athens-riviera-eb69","kind":"restaurant","name":"Sea Satin Athens Riviera","lat":37.840376863615674,"lng":23.760387360489776,"url":"https://maps.app.goo.gl/1QEDPDZdZC7GT8ne9?g_st=ipc","address":"Λεωφ. Κωνσταντίνου Καραμανλή 14, Βούλα 166 73","categoryIds":["fish-tavernas","luxury-dining"],"categories":["Fish Tavernas","Luxury Dining"],"legacySlugs":["sea-satin-athens-riviera-daf4"],"distanceKm":0.8625348529598159},{"id":"burgersRestaurants_d078b3ea9f88","slug":"burgerilla-voulas-d078","kind":"restaurant","name":"BURGERILLA.VOULAS","lat":37.84784984477906,"lng":23.754080911973716,"url":"https://maps.app.goo.gl/eGL3Mk2KpVNgRAzn6?g_st=ipc","address":"Λεωφ. Βασιλέως Παύλου 0, Βούλα 166 73","categoryIds":["burgers"],"categories":["Burger Spots"],"distanceKm":1.7645716382544319},{"id":"familyFriendly_784064c3c628","slug":"parko-aixonis-7840","kind":"restaurant","name":"Πάρκο Αιξωνής","lat":37.85436759031945,"lng":23.767620410773823,"url":"https://maps.app.goo.gl/D43jUtfBGCJtvXoNA?g_st=ipc","address":"Δημ. Γούναρη, Γλυφάδα 166 74","categoryIds":["family-friendly"],"categories":["Kid Friendly Locations"],"distanceKm":1.8474297464076201},{"id":"greekRestaurants_d87acafe326d","slug":"ta-vlachika-d87a","kind":"restaurant","name":"Ta Vlachika","lat":37.834890045838,"lng":23.791941775154488,"url":"https://maps.app.goo.gl/VC2HFhV1wgWoJ7Ev7","address":"Leoforos Evelpidon, Πρεβέζης, Βάρη 166 72","categoryIds":["greek-restaurants"],"categories":["Greek Restaurants"],"distanceKm":1.9833834788968678},{"id":"municipalities_79c2791cab2a","slug":"vari-79c2","kind":"municipality","name":"Βάρη","lat":37.8333,"lng":23.7917,"region":"Νότια Προάστια","name_en":"Vari","region_en":"Southern Suburbs","distanceKm":1.9995516596912564},{"id":"coffeeBrunchRestaurants_12111c54ea5b","slug":"bloom-projectgr-1211","kind":"restaurant","name":"bloom_projectgr","lat":37.84969738967142,"lng":23.751254153373072,"url":"https://maps.app.goo.gl/aVjkRWWznkDXoF5n6?g_st=ipc","address":"4, Λεωφ. Αλκυονίδων Ave, Βούλα 166 73","categoryIds":["coffee-brunch"],"categories":["Coffee & Brunch Spots"],"distanceKm":2.0867532615997693},{"id":"greekRestaurants_2f171b46e48c","slug":"taverna-tsolias-2f17","kind":"restaurant","name":"Ταβέρνα Τσολιάς","lat":37.834865053335534,"lng":23.79315959403436,"url":"https://maps.app.goo.gl/Pp2npdeDX3kaQbgD6","address":"Λεωφ. Βάρης 45, Βάρη 166 72","categoryIds":["greek-restaurants"],"categories":["Greek Restaurants"],"distanceKm":2.089377004478073},{"id":"monasteriesChurches_adc6b19412ee","slug":"parekklisi-agioy-georgioy-adc6","kind":"restaurant","name":"Παρεκκλήσι Αγίου Γεωργίου","lat":37.81919273575849,"lng":23.773228906832582,"url":"https://maps.app.goo.gl/WhtDbBx2hvZfm5mb9?g_st=ipc","address":"Βουλιαγμένη 166 71","categoryIds":["monasteries-churches"],"categories":["Monasteries & Spiritual Sites"],"distanceKm":2.0960776384686057},{"id":"luxuryDiningRestaurants_d4685ec9fc7a","slug":"barbarossa-athens-d468","kind":"restaurant","name":"Barbarossa Athens","lat":37.85088920250088,"lng":23.748814418850717,"url":"https://maps.app.goo.gl/oUiPt5pCahzP963D8?g_st=ipc","address":"Λεωφ. Αλκυονίδων 4, Βούλα 166 73","categoryIds":["luxury-dining"],"categories":["Luxury Dining"],"distanceKm":2.336737603967148},{"id":"cheapEatsRestaurants_9085d6dbdfe8","slug":"street-food-park-9085","kind":"restaurant","name":"Street Food Park","lat":37.85905594962557,"lng":23.764660793565383,"url":"https://maps.app.goo.gl/8bfdGPL68FsznR1SA?g_st=ipc","address":"Παρ. Λεωφ. Βουλιαγμένης 153, Γλυφάδα 166 74","categoryIds":["cheap-eats"],"categories":["Gyros & Cheap Eats"],"distanceKm":2.4005690212548667},{"id":"coffeeBrunchRestaurants_798042ad21e8","slug":"opus-inner-pleasure-7980","kind":"restaurant","name":"OPUS Inner Pleasure","lat":37.85815683883427,"lng":23.754579101528986,"url":"https://maps.app.goo.gl/s6FvEiAwBwBVBs2t9?g_st=ipc","address":"Πανδώρας 9, Γλυφάδα 166 74","categoryIds":["coffee-brunch"],"categories":["Coffee & Brunch Spots"],"distanceKm":2.6196362858512323},{"id":"greekRestaurants_fd7a28a0649b","slug":"pasiphae-fd7a","kind":"restaurant","name":"PASIPHAE","lat":37.85781169380274,"lng":23.753685400099858,"url":"https://maps.app.goo.gl/w2UaAYT95xemDfAx9?g_st=ipc","address":"Lazaraki 63, Glifada 166 74","categoryIds":["greek-restaurants"],"categories":["Greek Restaurants"],"distanceKm":2.6276528817389537},{"id":"fishTavernasRestaurants_a989c7b64d77","slug":"mparmpoynaki-glyfada-a989","kind":"restaurant","name":"Μπαρμπουνάκι Γλυφάδα","lat":37.85833613514832,"lng":23.75466359649667,"url":"https://maps.app.goo.gl/KZucjQ49PpF8K1GL7?g_st=ipc","address":"Λεωφ. Δημάρχου Αγγέλου Μεταξά 48, Γλυφάδα 166 74","categoryIds":["fish-tavernas"],"categories":["Fish Tavernas"],"distanceKm":2.6331354583352042},{"id":"mexicanRestaurants_bc074466ce69","slug":"amigos-bc07","kind":"restaurant","name":"Amigos","lat":37.85929715781572,"lng":23.756229404432254,"url":"https://maps.app.goo.gl/CeHzLQv4LTsb7j5RA?g_st=ipc","address":"Κύπρου 65, Γλυφάδα 166 74","categoryIds":["mexican"],"categories":["Mexican Restaurants"],"distanceKm":2.662475616012864},{"id":"burgersRestaurants_aaf9b8df7638","slug":"the-burger-joint-aaf9","kind":"restaurant","name":"the burger joint","lat":37.85975416543059,"lng":23.75632935360373,"url":"https://maps.app.goo.gl/4ebsLmRmHgQAtXCy5?g_st=ipc","address":"Πλ. Νυμφών 1, Γλυφάδα 166 74","categoryIds":["burgers"],"categories":["Burger Spots"],"distanceKm":2.704311750128377},{"id":"coffeeBrunchRestaurants_296c68e50c96","slug":"blends-mix-match-296c","kind":"restaurant","name":"Blends Mix & Match","lat":37.86035282429643,"lng":23.756257632105665,"url":"https://maps.app.goo.gl/VgzGwQBJonZ2HWs87?g_st=ic","address":"Pl. Nimfon, Glifada 166 74","categoryIds":["coffee-brunch"],"categories":["Coffee & Brunch Spots"],"distanceKm":2.767136897826004}],"mentionedGuides":[],"canonicalSlug":"drakoulis-dry-raw-butcheries-voula-c1ae","enrichment":{"summary_en":"Drakoulis Dry & Raw - Butcheries Voula is a curated restaurant in Βούλα 166 73 in the Luxury Dining collection. It is connected to 8 nearby Googlementor picks to help travelers build a stronger local route.","summary_el":"Drakoulis Dry & Raw - Butcheries Voula είναι ένα επιλεγμένο σημείο φαγητού στην περιοχή Βούλα 166 73 και ανήκει στη συλλογή Luxury Dining. Συνδέεται με 8 κοντινές προτάσεις του Googlementor για πιο ολοκληρωμένη εμπειρία.","vibe_tags":["curated","premium-dining"],"best_for":["first-time visitors","food lovers","special occasions"],"visit_moments":["lunch stop","dinner stop"],"practical_note":"Address and direct map link are available for easy turn-by-turn access.","nearby_walkable_count":8,"nearby_count_2km":13,"confidence":0.98},"areaContext":{"slug":"voyla","name":"Voula","nameEl":"Βούλα"},"intentContexts":[{"href":"/luxury-dining/voyla","label":"Luxury Dining in Voula","categorySlug":"luxury-dining","categoryName":"Luxury Dining","areaSlug":"voyla","areaName":"Voula","areaNameEl":"Βούλα"}]},"__N_SSG":true}