{"pageProps":{"entity":{"id":"municipalities_4714f1907ab8","slug":"elliniko-4714","kind":"municipality","name":"Ελληνικό","lat":37.892,"lng":23.743,"region":"Νότια Προάστια","name_en":"Elliniko","region_en":"Southern Suburbs"},"sameCategory":[],"nearby":[{"id":"familyFriendly_824dcd75a264","slug":"the-ellinikon-experience-park-824d","kind":"restaurant","name":"The Ellinikon Experience Park","lat":37.889532923626724,"lng":23.741777435195917,"url":"https://maps.app.goo.gl/sqeFJaUrDmxw1UqF7?g_st=ipc","address":"Ελληνικό 167 77","categoryIds":["family-friendly"],"categories":["Kid Friendly Locations"],"distanceKm":0.29455865224185496},{"id":"familyFriendly_9f066a9c3f09","slug":"dei-chocolate-ice-cream-experience-9f06","kind":"restaurant","name":"ΔΕΗ Chocolate & Ice Cream Experience","lat":37.89648025729673,"lng":23.737725296668952,"url":"https://maps.app.goo.gl/u7nRPPFnbvtVeLEQ7?g_st=ipc","address":"The Ellinikon Expérience Park, Ελληνικό 167 77","categoryIds":["family-friendly"],"categories":["Kid Friendly Locations"],"distanceKm":0.6800112647387907},{"id":"cheapEatsRestaurants_25ffd4c0ef7f","slug":"elliniko-soyvlaki-ap-to1990-25ff","kind":"restaurant","name":"Ελληνικό Σουβλάκι (απ'το1990)","lat":37.892191582868755,"lng":23.75361437896675,"url":"https://maps.app.goo.gl/RAbojGiNVh4trirv7?g_st=ipc","address":"Λεωφ. Ιασωνίδου 40, Ελληνικό 167 77","categoryIds":["cheap-eats"],"categories":["Gyros & Cheap Eats"],"distanceKm":0.9316719921912828},{"id":"dessertsRestaurants_1f8a84ec27ef","slug":"zacharoplasteio-melina-1f8a","kind":"restaurant","name":"Ζαχαροπλαστείο Μελίνα","lat":37.89634457510765,"lng":23.75272103741247,"url":"https://maps.app.goo.gl/q1hfQmUdAxU7F42R6?g_st=ipc","address":"Τριπόλεως 65, Ελληνικό 167 77","categoryIds":["desserts"],"categories":["Dessert Shops"],"distanceKm":0.9803113560773548},{"id":"cheapEatsRestaurants_833c862346f4","slug":"virtuoso-enjoyment-833c","kind":"restaurant","name":"Virtuoso_enjoyment","lat":37.90017783194547,"lng":23.749997183633212,"url":"https://maps.app.goo.gl/7nLwDeMLLVCCJGGAA?g_st=ipc","address":"Μαρίνου Γερουλάνου 126, Αργυρούπολη 164 52","categoryIds":["cheap-eats"],"categories":["Gyros & Cheap Eats"],"distanceKm":1.097205256090444},{"id":"greekRestaurants_f28bb3ae0783","slug":"gioyvetsakia-f28b","kind":"restaurant","name":"Γιουβετσάκια","lat":37.88563428778149,"lng":23.75438021161349,"url":"https://maps.app.goo.gl/tvw66LvtdqTpBCKw9","address":"Moreos 45 & Ithomis 20, Γλυφάδα 165 61","categoryIds":["greek-restaurants"],"categories":["Greek Restaurants"],"distanceKm":1.2240848806560654},{"id":"fishTavernasRestaurants_3cf7850d662e","slug":"to-agkistri-3cf7","kind":"restaurant","name":"Το Αγκίστρι","lat":37.88417743586951,"lng":23.75467629204283,"url":"https://maps.app.goo.gl/tT9ydwBCoa2EgT5d7?g_st=ipc","address":"Παλμύρας 2, Γλυφάδα 165 61","categoryIds":["fish-tavernas"],"categories":["Fish Tavernas"],"distanceKm":1.344079324554214},{"id":"cheapEatsRestaurants_04e6a1e9ffd2","slug":"to-kalamaki-toy-aggeloy-04e6","kind":"restaurant","name":"Το Καλαμάκι του Αγγέλου","lat":37.90324456071206,"lng":23.748792260475668,"url":"https://maps.app.goo.gl/qgszesYeGs45UoHG6?g_st=ipc","address":"Πόντου 16, Αργυρούπολη 164 52","categoryIds":["cheap-eats"],"categories":["Gyros & Cheap Eats"],"distanceKm":1.34968703255461},{"id":"familyFriendly_ae632d4e248a","slug":"protypo-oikogeneiako-parko-ae63","kind":"restaurant","name":"Πρότυπο Οικογενειακό Πάρκο","lat":37.904103805227116,"lng":23.74422997348302,"url":"https://maps.app.goo.gl/kUkHYYpwWmY27cqm9?g_st=ipc","address":"Δραγατσανίου, Ελληνικό 167 77","categoryIds":["family-friendly"],"categories":["Kid Friendly Locations"],"distanceKm":1.3502018725506288},{"id":"municipalities_4ce899ab5232","slug":"argyroypoli-4ce8","kind":"municipality","name":"Αργυρούπολη","lat":37.905,"lng":23.738,"region":"Νότια Προάστια","name_en":"Argyroupoli","region_en":"Southern Suburbs","distanceKm":1.5106434492206664},{"id":"municipalities_3d9dbd89e718","slug":"glyfada-3d9d","kind":"municipality","name":"Γλυφάδα","lat":37.8782,"lng":23.743,"aliases":["Glyfada","Gliphada","Γλυφαδα","Glifada"],"region":"Νότια Προάστια","name_en":"Glyfada","region_en":"Southern Suburbs","distanceKm":1.5344899876952849},{"id":"cheapEatsRestaurants_14277405021c","slug":"aristofanis-geyseis-estiatoria-psitopoleia-ano-glyfada-1427","kind":"restaurant","name":"Αριστοφάνης Γεύσεις | Εστιατόρια | Ψητοπωλεία Άνω Γλυφάδα","lat":37.890796486374335,"lng":23.76076987782631,"url":"https://maps.app.goo.gl/vR5rdW1p8psGAbRc7?g_st=ipc","address":"Δημ. Γούναρη 46, Ελληνικό 167 77","categoryIds":["cheap-eats"],"categories":["Gyros & Cheap Eats"],"distanceKm":1.5650813668576473},{"id":"dessertsRestaurants_0682819026f8","slug":"katsioylis-artopoieio-0682","kind":"restaurant","name":"Κατσιούλης αρτοποιείο","lat":37.90633812907658,"lng":23.743452517791024,"url":"https://maps.app.goo.gl/4juH7NkhLbAnB7vd7?g_st=ipc","address":"Τιτάνων 4, Ελληνικό 167 77","categoryIds":["desserts"],"categories":["Dessert Shops"],"distanceKm":1.5948215475887546},{"id":"cheapEatsRestaurants_38d81d943048","slug":"oi-pites-toy-nteni-38d8","kind":"restaurant","name":"Οι Πίτες του Ντένη","lat":37.90525389875436,"lng":23.75051113822582,"url":"https://maps.app.goo.gl/LT4SpnfnfY3JNg1K7?g_st=ipc","address":"Μαρίνου Γερουλάνου 81, Αργυρούπολη 164 52","categoryIds":["cheap-eats"],"categories":["Gyros & Cheap Eats"],"distanceKm":1.6144167681064292},{"id":"burgersRestaurants_797126963f1f","slug":"amam-estiatorio-glyfada-7971","kind":"restaurant","name":"ΑΜΑΜ - ΕΣΤΙΑΤΟΡΙΟ - ΓΛΥΦΑΔΑ","lat":37.895880681449796,"lng":23.761095559330744,"url":"https://maps.app.goo.gl/fAsTx4mwCTHC78t86?g_st=ipc","address":"Γεωρ. Γεννηματά 11, Γλυφάδα 165 62","categoryIds":["burgers","cheap-eats"],"categories":["Burger Spots","Gyros & Cheap Eats"],"legacySlugs":["amam-estiatorio-glyfada-af98"],"distanceKm":1.6454623427413544},{"id":"mexicanRestaurants_0b6a5cff52ce","slug":"mejico-restaurant-bar-0b6a","kind":"restaurant","name":"MEJICO RESTAURANT BAR","lat":37.90692111551084,"lng":23.74832700746784,"url":"https://maps.app.goo.gl/opTPE24vtAteYNRS9?g_st=ipc","address":"Θράκης 10 Και 28ης Οκτωβρίου 36, Αργυρούπολη 164 52","categoryIds":["mexican"],"categories":["Mexican Restaurants"],"distanceKm":1.7237329646512682},{"id":"italianRestaurants_73a45e6520a2","slug":"caton-l-anziano-73a4","kind":"restaurant","name":"Caton L'anziano","lat":37.90721241896495,"lng":23.748209011580894,"url":"https://maps.app.goo.gl/myFgmXovKb5x7zc9A?g_st=ipc","address":"Δωδεκανήσου 1, Αργυρούπολη 164 52","categoryIds":["italian"],"categories":["Italian Restaurants"],"distanceKm":1.7522035469861958},{"id":"cheapEatsRestaurants_c226e99422f7","slug":"montagu-c226","kind":"restaurant","name":"Montagu","lat":37.90768059040179,"lng":23.745954563287732,"url":"https://maps.app.goo.gl/5VP4Qk8ng1M1pARWA?g_st=ipc","address":"Παρ. Λεωφ. Βουλιαγμένης 66, Αργυρούπολη 164 52","categoryIds":["cheap-eats"],"categories":["Gyros & Cheap Eats"],"distanceKm":1.76276879009642},{"id":"dessertsRestaurants_9589925a188d","slug":"sweet-spoon-by-dimitris-drakos-9589","kind":"restaurant","name":"Sweet Spoon by Dimitris Drakos","lat":37.90709513956235,"lng":23.74948764110418,"url":"https://maps.app.goo.gl/QU5RbkRc2rsgbL2s5?g_st=ipc","address":"Μαρίνου Γερουλάνου 59, Αργυρούπολη 164 52","categoryIds":["desserts"],"categories":["Dessert Shops"],"distanceKm":1.7724022571452678},{"id":"burgersRestaurants_9c2f22b0606b","slug":"hashtag-burger-9c2f","kind":"restaurant","name":"Hashtag#Burger","lat":37.89371001882756,"lng":23.763217485797266,"url":"https://maps.app.goo.gl/BsuHdbYYc8dsSTwn8?g_st=ipc","address":"Γεωρ. Γεννηματά 26, Γλυφάδα 165 62","categoryIds":["burgers","cheap-eats"],"categories":["Burger Spots","Gyros & Cheap Eats"],"legacySlugs":["hashtag-burger-30dc"],"distanceKm":1.7842584719661811},{"id":"cheapEatsRestaurants_685be47e5df7","slug":"to-ariston-685b","kind":"restaurant","name":"Το Άριστον","lat":37.88039754118748,"lng":23.75713413104173,"url":"https://maps.app.goo.gl/4zqMC4Phrwrov3rL6?g_st=ipc","address":"Σοφίας Βέμπο 22, Γλυφάδα 166 75","categoryIds":["cheap-eats"],"categories":["Gyros & Cheap Eats"],"distanceKm":1.7896978165702824},{"id":"mexicanRestaurants_0c73152ab27f","slug":"abrazo-0c73","kind":"restaurant","name":"ABRAZO","lat":37.90764040669511,"lng":23.748959602183852,"url":"https://maps.app.goo.gl/aK9BaFV3WgpvSdWJ7?g_st=ipc","address":"Μαρίνου Γερουλάνου 55, Αργυρούπολη 164 52","categoryIds":["mexican"],"categories":["Mexican Restaurants"],"distanceKm":1.816045441886169},{"id":"dessertsRestaurants_b4416b6328f3","slug":"sovolos-zacharoplasteio-foyrnos-b441","kind":"restaurant","name":"Sovolos - Ζαχαροπλαστείο - Φούρνος","lat":37.88041660741069,"lng":23.757712624330377,"url":"https://maps.app.goo.gl/P3uyZ1oH1pSEfex39?g_st=ipc","address":"Σοφίας Βέμπο 29, Γλυφάδα 165 61","categoryIds":["desserts"],"categories":["Dessert Shops"],"distanceKm":1.8237524926250792},{"id":"cheapEatsRestaurants_1d0eb7258382","slug":"zahoulis-argyroupoli-soyvlaki-1d0e","kind":"restaurant","name":"ZAHOULIS ARGYROUPOLI Σουβλάκι","lat":37.90791549793596,"lng":23.748232505140976,"url":"https://maps.app.goo.gl/kKDkkSTXoQK8Uh328?g_st=ipc","address":"Μαρίνου Γερουλάνου 54, Αργυρούπολη 164 52","categoryIds":["cheap-eats"],"categories":["Gyros & Cheap Eats"],"distanceKm":1.8283056460399234}],"mentionedGuides":[{"slug":"choose-perfect-greek-island-el","title":"Πώς να Επιλέξετε το Ιδανικό Ελληνικό Νησί"},{"slug":"athens-layover-6-hours-guide-el","title":"Πώς να Αξιοποιήσετε 6 Ώρες Αναμονής στην Αθήνα"},{"slug":"athens-day-trips-guide-el","title":"Καλύτερες Ημερήσιες Εκδρομές από την Αθήνα"},{"slug":"best-greek-souvenirs-athens-el","title":"Καλύτερα Ελληνικά Σουβενίρ στην Αθήνα: Οδηγός Αγορών"},{"slug":"greece-2026-holidays-guide-el","title":"Ελλάδα 2026: Αργίες & Εκδηλώσεις"},{"slug":"greek-bakeries-brunch-coffee-guide-el","title":"Ελληνική Αρτοποιία, Brunch & Κουλτούρα Καφέ"}],"canonicalSlug":"elliniko-4714","enrichment":{"summary_en":"Ελληνικό is a curated neighborhood area in Νότια Προάστια. It is connected to 2 nearby Googlementor picks to help travelers build a stronger local route.","summary_el":"Ελληνικό είναι ένα επιλεγμένο σημείο ενδιαφέροντος στην περιοχή Νότια Προάστια. Συνδέεται με 2 κοντινές προτάσεις του Googlementor για πιο ολοκληρωμένη εμπειρία.","vibe_tags":["local-neighborhood","base-for-exploring"],"best_for":["first-time visitors","walk-and-explore days","return visitors"],"visit_moments":["late morning walks","sunset exploration"],"practical_note":"2 curated places are within walkable distance from this area center.","nearby_walkable_count":2,"nearby_count_2km":28,"confidence":0.55},"areaContext":{"slug":"elliniko","name":"Elliniko","nameEl":"Ελληνικό"},"intentContexts":[]},"__N_SSG":true}