{"pageProps":{"entity":{"id":"familyFriendly_52cd4997ee89","slug":"farma-ampelos-vochaikou-52cd","kind":"restaurant","name":"FARMA AMPELOS VOCHAIKOU","lat":37.932680344972496,"lng":22.771047365230917,"url":"https://maps.app.goo.gl/cQ3vrm4TKeMAyCsq6?g_st=ipc","address":"ΑΓΡΟΤΙΚΗ ΟΔΟΣ, Βοχαϊκό 200 06","categoryIds":["family-friendly"],"categories":["Kid Friendly Locations"]},"sameCategory":[{"id":"familyFriendly_382b225783e0","slug":"athloypoli-382b","kind":"restaurant","name":"Αθλούπολη","lat":37.92596676764985,"lng":22.950761882031436,"url":"https://maps.app.goo.gl/1hz4bXK4e1zKMcW19?g_st=ipc","address":"Θέση Μπαθαρίστρα, Δήμος Κορινθίων 201 00","categoryIds":["family-friendly"],"categories":["Kid Friendly Locations"]},{"id":"familyFriendly_8b9ba7b9f729","slug":"splash-waterpark-isthmos-8b9b","kind":"restaurant","name":"Splash Waterpark Isthmos","lat":37.92495583561113,"lng":22.991604427588854,"url":"https://maps.app.goo.gl/eqCZacM2mh9hh5mi8?g_st=ipc","address":"Ισθμού, Λουτράκι 203 00","categoryIds":["family-friendly"],"categories":["Kid Friendly Locations"]},{"id":"familyFriendly_81af9329fc37","slug":"kentro-eleytheris-ippasias-81af","kind":"restaurant","name":"Κεντρο Ελεύθερης Ιππασίας","lat":38.01371091852879,"lng":22.49660964449245,"url":"https://maps.app.goo.gl/Jk42DbsK7YsoCuVL6?g_st=ipc","address":"Epar.Od. Xilokastrou - Trikalon - Mannas, Ξυλόκαστρο 204 00","categoryIds":["family-friendly"],"categories":["Kid Friendly Locations"]},{"id":"familyFriendly_32cb5d544c31","slug":"area-synest-32cb","kind":"restaurant","name":"Area Synest","lat":38.06576851291907,"lng":22.340295581454182,"url":"https://maps.app.goo.gl/o23ir2rREaRUFiwK9?g_st=ipc","address":"Epar.Od. Agorianis-Koronias, Sinevro 250 10","categoryIds":["family-friendly"],"categories":["Kid Friendly Locations"]},{"id":"familyFriendly_9b2bda8df9e3","slug":"nymfes-9b2b","kind":"restaurant","name":"Νύμφες","lat":37.99541884225497,"lng":22.275355626093795,"url":"https://maps.app.goo.gl/V3SkPjW9XHfNjwvSA?g_st=ipc","address":"Ζαρούχλα - Φενεός, Zarouchla 250 06","categoryIds":["family-friendly"],"categories":["Kid Friendly Locations"]},{"id":"familyFriendly_f5a054e30c6e","slug":"cherryland-ktima-fokaeon-f5a0","kind":"restaurant","name":"CHERRYLAND - ΚΤΗΜΑ ΦΩΚΑΕΩΝ","lat":38.12752130997816,"lng":22.216601874987493,"url":"https://maps.app.goo.gl/Lr7uMbC7sLXRLEP9A?g_st=ipc","address":"Epar.Od. Pountas - Kalavriton, Kernitsa 250 03","categoryIds":["family-friendly"],"categories":["Kid Friendly Locations"]},{"id":"familyFriendly_a59e646924f0","slug":"parko-arkopolis-a59e","kind":"restaurant","name":"Πάρκο ARKOPOLIS","lat":38.04423565223715,"lng":23.533199733095568,"url":"https://maps.app.goo.gl/x7x4Lu9B5vabrAyJ7?g_st=ipc","address":"Μαρίας Κιουρί, Ελευσίνα 192 00","categoryIds":["family-friendly"],"categories":["Kid Friendly Locations"]},{"id":"familyFriendly_7539abe09fd5","slug":"votanikos-kipos-diomidoys-7539","kind":"restaurant","name":"Βοτανικός Κήπος Διομήδους","lat":38.010895961889986,"lng":23.642935426625115,"url":"https://maps.app.goo.gl/WsLFbFUaXSS2rGMR6?g_st=ipc","address":"Ιερά Οδός 403, Χαϊδάρι 124 61","categoryIds":["family-friendly"],"categories":["Kid Friendly Locations"]},{"id":"familyFriendly_dd451e30d935","slug":"strike-kiddo-dd45","kind":"restaurant","name":"Strike Kiddo","lat":38.01119139287315,"lng":23.650703428601517,"url":"https://maps.app.goo.gl/zpYyze4k5z1xryNd8?g_st=ipc","address":"Λεωφ. Αθηνών 336, Χαϊδάρι 124 62","categoryIds":["family-friendly"],"categories":["Kid Friendly Locations"]},{"id":"familyFriendly_bfc72d329d31","slug":"hado-agia-varvara-bfc7","kind":"restaurant","name":"HADO AGIA VARVARA","lat":37.98824441492673,"lng":23.659086481003886,"url":"https://maps.app.goo.gl/aP4Lewjodvss5zHY9?g_st=ipc","address":"Λεωφ. Ελ. Βενιζέλου 73, Αγ. Βαρβάρα 123 51","categoryIds":["family-friendly"],"categories":["Kid Friendly Locations"]},{"id":"familyFriendly_115602a04920","slug":"thorikou-saronikos-190-10-1156","kind":"restaurant","name":"Thorikou, Saronikos 190 10","lat":37.973400347629344,"lng":23.672836485418895,"url":"https://maps.app.goo.gl/ekLuaxykkE5KT2Ee6?g_st=ipc","address":"Λεωφ. Κηφισού, Πέτρου Ράλλη και, Αγ. Ιωάννης Ρέντης 182 33","categoryIds":["family-friendly"],"categories":["Kid Friendly Locations"]},{"id":"familyFriendly_98c2e7261cb9","slug":"river-west-98c2","kind":"restaurant","name":"RΙVER WEST","lat":37.98032396745312,"lng":23.679187542082428,"url":"https://maps.app.goo.gl/f3b5sDipJZCcLSLC7?g_st=ipc","address":"Par. Leoforou Kifisou 98, Egaleo 122 41","categoryIds":["family-friendly"],"categories":["Kid Friendly Locations"]}],"nearby":[{"id":"greekRestaurants_f0875a0de3a8","slug":"eviva-taverna-f087","kind":"restaurant","name":"Εβίβα Ταβέρνα","lat":37.94826596142861,"lng":22.791019779670105,"url":"https://maps.app.goo.gl/D8Mr8bUZPttfMux47?g_st=ipc","address":"Επαρ.Οδ. Βραχατίου - Νεμέας 255, Βοχαϊκό 200 06","categoryIds":["greek-restaurants"],"categories":["Greek Restaurants"],"distanceKm":2.4639479028987483},{"id":"municipalities_5f8e38dfed51","slug":"sikyonion-5f8e","kind":"municipality","name":"Σικυωνίων","lat":37.95,"lng":22.75,"region":"Κορινθία","name_en":"Sikyonion","region_en":"Corinthia","distanceKm":2.667498547601482},{"id":"greekRestaurants_b760cd0c2463","slug":"chavon-restobar-b760","kind":"restaurant","name":"Chavon Restobar","lat":37.96210160412795,"lng":22.806527700162825,"url":"https://maps.app.goo.gl/gHNgPE2wUtHLY6F1A?g_st=ipc","address":"Parodos Andrea Lazana 101, Βραχάτι 200 06","categoryIds":["greek-restaurants"],"categories":["Greek Restaurants"],"distanceKm":4.514611244609967},{"id":"municipalities_f416e3da4569","slug":"kiato-f416","kind":"municipality","name":"Κιάτο","lat":37.974,"lng":22.751,"region":"Κορινθία","name_en":"Kiato","region_en":"Corinthia","distanceKm":4.91928368215298},{"id":"fishTavernasRestaurants_bedd9566b385","slug":"thealos-thealos-bedd","kind":"restaurant","name":"Θέαλος - Thealos","lat":37.94991846803997,"lng":22.83722013675207,"url":"https://maps.app.goo.gl/Aaq7XhnhCgZUhsH29?g_st=ipc","address":"Unnamed Rd, Kato Assos 200 06","categoryIds":["fish-tavernas"],"categories":["Fish Tavernas"],"distanceKm":6.111261939379686},{"id":"greekRestaurants_7e187d76eed9","slug":"taverna-agiannis-goyrnopoyla-7e18","kind":"restaurant","name":"ΤΑΒΕΡΝΑ ΑΓΙΑΝΝΗΣ ΓΟΥΡΝΟΠΟΥΛΑ","lat":37.99600590320037,"lng":22.763769354956416,"url":"https://maps.app.goo.gl/TAEgeZnnDvDXP5b27?g_st=ipc","address":"Αθηνών 190, Κιάτο 202 00","categoryIds":["greek-restaurants"],"categories":["Greek Restaurants"],"distanceKm":7.070327679729053},{"id":"mustSeeAttractions_6f7525d9828a","slug":"naos-toy-apollona-6f75","kind":"restaurant","name":"Ναός του Απόλλωνα","lat":37.905934819191934,"lng":22.879090197503242,"url":"https://maps.app.goo.gl/8vWipRURHj9oGwSj8?g_st=ipc","address":"Άργους 105, Αρχαία Κόρινθος 200 07","categoryIds":["attractions"],"categories":["Must-See Attractions"],"distanceKm":9.933076240106082},{"id":"mustSeeAttractions_10ed76689ca7","slug":"archaia-korinthos-10ed","kind":"restaurant","name":"Αρχαία Κόρινθος","lat":37.90716292407013,"lng":22.881429703730713,"url":"https://maps.app.goo.gl/Wa4GWgjzXVLMVAyZ7?g_st=ipc","address":"Αρχαία Κόρινθος 200 07","categoryIds":["attractions"],"categories":["Must-See Attractions"],"distanceKm":10.089740306792637},{"id":"wineriesVineyards_b00a536153f6","slug":"semeli-estate-ktima-semeli-b00a","kind":"restaurant","name":"Semeli Estate | Κτήμα Σεμέλη","lat":37.87119800007677,"lng":22.67941642720224,"url":"https://maps.app.goo.gl/zETqXnjPfU3pMwmA8?g_st=ipc","address":"Επαρ.Οδ. Κιάτου - Νεμέας, Κούτσι 205 00","categoryIds":["wineries-vineyards"],"categories":["Wineries & Vineyards"],"distanceKm":10.553414524027572},{"id":"greekRestaurants_7e3395541ef7","slug":"ellas-7e33","kind":"restaurant","name":"Ελλάς","lat":38.025725060862264,"lng":22.73285830482763,"url":"https://maps.app.goo.gl/1U76XKVBxExMEULE7?g_st=ipc","address":"Παλαιά Ε.Ο. Κορίνθου Πατρών 16, Κάτω Διμηνιό, Κιάτο 202 00","categoryIds":["greek-restaurants"],"categories":["Greek Restaurants"],"distanceKm":10.87407037857003},{"id":"greekRestaurants_cb449644830d","slug":"taverna-mpekos-cb44","kind":"restaurant","name":"ΤΑΒΕΡΝΑ ΜΠΕΚΟΣ","lat":37.882103671834614,"lng":22.89083633129398,"url":"https://maps.app.goo.gl/WFqWdQskbVXwmo339?g_st=ipc","address":"ΕΟ Κορίνθου Άργους 36, Σολομός 201 00","categoryIds":["greek-restaurants"],"categories":["Greek Restaurants"],"distanceKm":11.919612178205897},{"id":"wineriesVineyards_542024b64466","slug":"ktima-papargyrioy-5420","kind":"restaurant","name":"Κτήμα Παπαργυρίου","lat":38.018936342010846,"lng":22.689015035366058,"url":"https://maps.app.goo.gl/CGseBU489tpRFbra7?g_st=ipc","address":"Lalioti Corinthias, Κιάτο 202 00","categoryIds":["wineries-vineyards"],"categories":["Wineries & Vineyards"],"distanceKm":11.987146035069987},{"id":"wineriesVineyards_44279fa455a5","slug":"gaia-winery-nemea-4427","kind":"restaurant","name":"Gaia Winery Nemea","lat":37.85612300690931,"lng":22.670580052988402,"url":"https://maps.app.goo.gl/ZgmCy9JQ7Vrkbz1r9?g_st=ipc","address":"Κούτσι 205 00","categoryIds":["wineries-vineyards"],"categories":["Wineries & Vineyards"],"distanceKm":12.255096753449678},{"id":"fishTavernasRestaurants_f33d801592a8","slug":"fanis-f33d","kind":"restaurant","name":"Φάνης","lat":37.93929883889628,"lng":22.920388237170222,"url":"https://maps.app.goo.gl/fTiUsZtuT7FzXx5m8?g_st=ipc","address":"Γεωρ. Παπανδρέου 87, Κόρινθος 201 00","categoryIds":["fish-tavernas"],"categories":["Fish Tavernas"],"distanceKm":13.11773776284184},{"id":"wineriesVineyards_02d00923574f","slug":"lafazanis-winery-02d0","kind":"restaurant","name":"Lafazanis Winery","lat":37.81366330913366,"lng":22.765441857507405,"url":"https://maps.app.goo.gl/A2t4w3k9kTA2cB6j9?g_st=ipc","address":"Θέση Κεφαλάρι, Αρχαίες Κλεωνές 205 00","categoryIds":["wineries-vineyards"],"categories":["Wineries & Vineyards"],"distanceKm":13.243233561834403},{"id":"mustSeeAttractions_bf66b7fd059d","slug":"archaiologikos-choros-nemeas-bf66","kind":"restaurant","name":"Αρχαιολογικός Χώρος Νεμέας","lat":37.808169165276894,"lng":22.71117627010056,"url":"https://maps.app.goo.gl/PrH4BXCt62jqPBys9?g_st=ipc","address":"Koutsomidi, Nemea 205 00","categoryIds":["attractions"],"categories":["Must-See Attractions"],"distanceKm":14.808875419433669},{"id":"greekRestaurants_2229596e0e1c","slug":"sofos-2229","kind":"restaurant","name":"Sofos","lat":37.8214332020111,"lng":22.663718153863066,"url":"https://maps.app.goo.gl/dwiyoJBZoJnwyzi76?g_st=ipc","address":"Δερβενακίων, Νεμέα 205 00","categoryIds":["greek-restaurants"],"categories":["Greek Restaurants"],"distanceKm":15.548648434340464},{"id":"wineriesVineyards_239a4e029aee","slug":"venikos-wine-window-wine-tours-tastings-239a","kind":"restaurant","name":"Venikos Wine Window, Wine Tours & Tastings","lat":37.821663923892565,"lng":22.663321715457876,"url":"https://maps.app.goo.gl/ZMmJXxpaMciuZeCj6?g_st=ipc","address":"Plateia Iroon 3, Νεμέα 205 00","categoryIds":["wineries-vineyards"],"categories":["Wineries & Vineyards"],"distanceKm":15.54936979008435},{"id":"greekRestaurants_999a38347b72","slug":"17-choria-999a","kind":"restaurant","name":"17 Χωριά","lat":37.821379737670235,"lng":22.662966793394837,"url":"https://maps.app.goo.gl/JMfmZXakmTgFrEhd7?g_st=ipc","address":"Δερβενακίων 12, Νεμέα 205 00","categoryIds":["greek-restaurants"],"categories":["Greek Restaurants"],"distanceKm":15.593410756323545},{"id":"municipalities_ef70ef6cd5fd","slug":"nemea-ef70","kind":"municipality","name":"Νεμέα","lat":37.817,"lng":22.667,"region":"Κορινθία","name_en":"Nemea","region_en":"Corinthia","distanceKm":15.775304334208943},{"id":"familyFriendly_382b225783e0","slug":"athloypoli-382b","kind":"restaurant","name":"Αθλούπολη","lat":37.92596676764985,"lng":22.950761882031436,"url":"https://maps.app.goo.gl/1hz4bXK4e1zKMcW19?g_st=ipc","address":"Θέση Μπαθαρίστρα, Δήμος Κορινθίων 201 00","categoryIds":["family-friendly"],"categories":["Kid Friendly Locations"],"distanceKm":15.77991847015693},{"id":"municipalities_27d87fc31abf","slug":"korinthos-27d8","kind":"municipality","name":"Κόρινθος","lat":37.9401,"lng":22.9513,"aliases":["Κορινθος"],"region":"Κορινθία","name_en":"Corinth","region_en":"Corinthia","distanceKm":15.829442419497967},{"id":"wineriesVineyards_b1e6778656c1","slug":"ktima-bairaktaris-b1e6","kind":"restaurant","name":"Ktima Bairaktaris","lat":37.809706199473894,"lng":22.66496992803815,"url":"https://maps.app.goo.gl/DHUmZNYmY1jciDqK9?g_st=ipc","address":"Ελ. Βενιζέλου 83, Νεμέα 205 00","categoryIds":["wineries-vineyards"],"categories":["Wineries & Vineyards"],"distanceKm":16.54320379888834},{"id":"greekRestaurants_95a7c55fd3b7","slug":"panorama-95a7","kind":"restaurant","name":"PANORAMA","lat":38.00713857434971,"lng":22.938193442340463,"url":"https://maps.app.goo.gl/iZ1dcxAEfMtNzWnJ6?g_st=ipc","address":"Λουτράκι 203 00","categoryIds":["greek-restaurants"],"categories":["Greek Restaurants"],"distanceKm":16.829248615880807}],"mentionedGuides":[],"canonicalSlug":"farma-ampelos-vochaikou-52cd","enrichment":{"summary_en":"FARMA AMPELOS VOCHAIKOU is a curated restaurant in Βοχαϊκό 200 06 in the Kid Friendly Locations collection. It is connected to 0 nearby Googlementor picks to help travelers build a stronger local route.","summary_el":"FARMA AMPELOS VOCHAIKOU είναι ένα επιλεγμένο σημείο φαγητού στην περιοχή Βοχαϊκό 200 06 και ανήκει στη συλλογή Kid Friendly Locations. Συνδέεται με 0 κοντινές προτάσεις του Googlementor για πιο ολοκληρωμένη εμπειρία.","vibe_tags":["curated","family-ready"],"best_for":["first-time visitors","food lovers","families"],"visit_moments":["lunch stop","dinner stop"],"practical_note":"Address and direct map link are available for easy turn-by-turn access.","nearby_walkable_count":0,"nearby_count_2km":0,"confidence":0.9},"areaContext":null,"intentContexts":[]},"__N_SSG":true}