{"pageProps":{"entity":{"id":"dessertsRestaurants_8a872edfde79","slug":"galaktopoleio-stamoy-8a87","kind":"restaurant","name":"Γαλακτοπωλείο ΣΤΑΜΟΥ","lat":38.06113010578425,"lng":23.71402739614515,"url":"https://maps.app.goo.gl/yspbknaZbJ3DjmUr6?g_st=ipc","address":"Λ, Φυλής 70, Καματερό 134 51","categoryIds":["desserts"],"categories":["Dessert Shops"]},"sameCategory":[{"id":"dessertsRestaurants_48328c9fc5f0","slug":"galaktopoleio-stamoy-4832","kind":"restaurant","name":"Γαλακτοπωλείο ΣΤΑΜΟΥ","lat":38.07926600844486,"lng":23.73816605072715,"url":"https://maps.app.goo.gl/kVZvesD6UgeQooPB9?g_st=ipc","address":"Κωνσταντινουπόλεως 307, Αχαρνές 136 74","categoryIds":["desserts"],"categories":["Dessert Shops"]},{"id":"dessertsRestaurants_4eb0f195642c","slug":"the-twins-inspiration-4eb0","kind":"restaurant","name":"The Twins Inspiration","lat":38.03397180922058,"lng":23.706833795528777,"url":"https://maps.app.goo.gl/yUZVBieRsMh4Pe6P8?g_st=ipc","address":"Αίαντος 103, Ίλιον 131 22","categoryIds":["desserts"],"categories":["Dessert Shops"]},{"id":"coffeeBrunchRestaurants_9257bf81b3ff","slug":"fairytale-to-paramythopoleio-tis-n-filadelfeias-9257","kind":"restaurant","name":"Fairytale – Το Παραμυθοπωλείο της Ν. Φιλαδέλφειας","lat":38.03555224332492,"lng":23.73629276954315,"url":"https://maps.app.goo.gl/GoWf19SFoVJNYBHP9?g_st=ipc","address":"Νικ. Τρυρια 48, Νέα Φιλαδέλφεια Αττικής 143 41","categoryIds":["coffee-brunch","desserts"],"categories":["Coffee & Brunch Spots","Dessert Shops"],"legacySlugs":["fairytale-to-paramythopoleio-tis-n-filadelfeias-db46"]},{"id":"dessertsRestaurants_ba91e534476f","slug":"zacharoplasteio-andreadakis-petroypoli-ba91","kind":"restaurant","name":"Ζαχαροπλαστείο Ανδρεαδάκης Πετρούπολη","lat":38.03612210316234,"lng":23.688342676106394,"url":"https://maps.app.goo.gl/YRfC48ExzTQfDLe69?g_st=ipc","address":"Ανατολικής Ρωμυλίας 152, Πετρούπολη 131 21","categoryIds":["desserts"],"categories":["Dessert Shops"]},{"id":"dessertsRestaurants_4ba5b007aaee","slug":"san-zachari-4ba5","kind":"restaurant","name":"Σαν Ζάχαρη","lat":38.0467822413905,"lng":23.750604774962436,"url":"https://maps.app.goo.gl/hEf4BAiafjzg3vVT6?g_st=ipc","address":"Ελ. Βενιζέλου 119, Νέα Ιωνία 142 31","categoryIds":["desserts"],"categories":["Dessert Shops"]},{"id":"dessertsRestaurants_72c80ba8b348","slug":"galaktopoleio-stamoy-72c8","kind":"restaurant","name":"Γαλακτοπωλείο ΣΤΑΜΟΥ","lat":38.03443491475164,"lng":23.737764183814345,"url":"https://maps.app.goo.gl/37pG5QPiULEUHnjT8?g_st=ipc","address":"Λεωφ. Δεκελείας 87, Δήμος Νέας Φιλαδέλφειας - Νέας Χαλκηδόνας 143 41","categoryIds":["desserts"],"categories":["Dessert Shops"]},{"id":"dessertsRestaurants_f5dcbd5d6956","slug":"tillas-f5dc","kind":"restaurant","name":"ΤΙΛΛΑΣ","lat":38.03389726212368,"lng":23.738299411081684,"url":"https://maps.app.goo.gl/KvFWhV1Ew2To6kLKA?g_st=ipc","address":"Αγίας Τριάδος 2, Νέα Φιλαδέλφεια Αττικής 143 41","categoryIds":["desserts"],"categories":["Dessert Shops"]},{"id":"dessertsRestaurants_278027c93e69","slug":"zacharoplasteio-syntrivani-2780","kind":"restaurant","name":"Ζαχαροπλαστείο Συντριβάνι","lat":38.031171993923905,"lng":23.736947011882947,"url":"https://maps.app.goo.gl/qd2j8WUJHdAta1mY9?g_st=ipc","address":"Ειρήνης 4, Νέα Φιλαδέλφεια Αττικής 143 41","categoryIds":["desserts"],"categories":["Dessert Shops"]},{"id":"dessertsRestaurants_265283fa47ed","slug":"zacharoplasteio-ta-gioylia-2652","kind":"restaurant","name":"Ζαχαροπλαστείο Τα Γιούλια","lat":38.04320708683717,"lng":23.75268041981327,"url":"https://maps.app.goo.gl/yT8dXGYHeqfAeL4K8?g_st=ipc","address":"Μεσολογγίου 24, Νέα Ιωνία 142 31","categoryIds":["desserts"],"categories":["Dessert Shops"]},{"id":"dessertsRestaurants_ee67f4c4f773","slug":"galaktopoleio-stamoy-ee67","kind":"restaurant","name":"Γαλακτοπωλείο ΣΤΑΜΟΥ","lat":38.050308447326216,"lng":23.764543130470138,"url":"https://maps.app.goo.gl/ct5eAdJBTvtvp5Kb6?g_st=ipc","address":"Λεωφ. Ηρακλείου 388, Ηράκλειο 141 22","categoryIds":["desserts"],"categories":["Dessert Shops"]},{"id":"dessertsRestaurants_935fad998e8c","slug":"fraoylino-935f","kind":"restaurant","name":"Φραουλίνο","lat":38.02571847935665,"lng":23.682602344058107,"url":"https://maps.app.goo.gl/UsSfWkbfNh2ToQsu8?g_st=ipc","address":"Αγίου Ιεροθέου 110, Περιστέρι 121 35","categoryIds":["desserts"],"categories":["Dessert Shops"]},{"id":"dessertsRestaurants_f7f9c93c456d","slug":"zacharoplasteio-ta-gioylia-f7f9","kind":"restaurant","name":"Ζαχαροπλαστείο Τα Γιούλια","lat":38.04173959626081,"lng":23.76335652551234,"url":"https://maps.app.goo.gl/7AogHoPypPVPFN8p7?g_st=ipc","address":"Αλέκου Παναγούλη 74, Νέα Ιωνία 141 21","categoryIds":["desserts"],"categories":["Dessert Shops"]}],"nearby":[{"id":"municipalities_88064bcfc221","slug":"kamatero-8806","kind":"municipality","name":"Καματερό","lat":38.05,"lng":23.72,"region":"Δυτικά Προάστια","name_en":"Kamatero","region_en":"Western Suburbs","distanceKm":1.3435577504163934},{"id":"cheapEatsRestaurants_372f0ee727b9","slug":"rigani-thymari-372f","kind":"restaurant","name":"Ρίγανη θυμάρι","lat":38.06157357464134,"lng":23.72960229805207,"url":"https://maps.app.goo.gl/Up1hU92hpZRnvgdJ8?g_st=ipc","address":"Αγίας Άννης 37, Αχαρνές 136 75","categoryIds":["cheap-eats"],"categories":["Gyros & Cheap Eats"],"distanceKm":1.3644653297031464},{"id":"familyFriendly_901096bfa3e5","slug":"mitropolitiko-parko-antonis-tritsis-9010","kind":"restaurant","name":"Μητροπολιτικό Πάρκο Αντώνης Τρίτσης","lat":38.04448272470426,"lng":23.721863541204524,"url":"https://maps.app.goo.gl/ruiCqSWVCT4XLQ6T7?g_st=ipc","address":"Σπύρου Μουστακλή 23, Ίλιον 131 22","categoryIds":["family-friendly"],"categories":["Kid Friendly Locations"],"distanceKm":1.9741737263262404},{"id":"italianRestaurants_c7fad2a2b587","slug":"parco-pizza-c7fa","kind":"restaurant","name":"PARCO PIZZA","lat":38.04774854674856,"lng":23.728958951505486,"url":"https://maps.app.goo.gl/UiJhpTwk6oBuPXFx9?g_st=ipc","address":"Λεωφ. Δημοκρατίας 9, Καματερό 134 51","categoryIds":["italian"],"categories":["Italian Restaurants"],"distanceKm":1.9807203395589241},{"id":"greekRestaurants_9919fac2ca6c","slug":"mezedopoleio-aney-oron-9919","kind":"restaurant","name":"Μεζεδοπωλείο Άνευ Όρων","lat":38.07817620964211,"lng":23.702197123618852,"url":"https://maps.app.goo.gl/hQsQJwctvni6scyCA","address":"Δημαρχείου 8, Άνω Λιόσια 133 41","categoryIds":["greek-restaurants"],"categories":["Greek Restaurants"],"distanceKm":2.159906206540727},{"id":"familyFriendly_ee34f2b0b4d6","slug":"luna-park-aidonakia-s-a-ee34","kind":"restaurant","name":"Luna Park Aidonakia S.A.","lat":38.04298329114164,"lng":23.72412165922102,"url":"https://maps.app.goo.gl/7i1TWYeF8ZyU3Vq47?g_st=ipc","address":"Leof. Dimokratias, Agii Anargiri 131 22","categoryIds":["family-friendly"],"categories":["Kid Friendly Locations"],"distanceKm":2.2029208523283312},{"id":"cheapEatsRestaurants_84f34ec821dd","slug":"o-stefanos-soyvlakia-84f3","kind":"restaurant","name":"Ο ΣΤΕΦΑΝΟΣ ΣΟΥΒΛΑΚΙΑ","lat":38.045163297484955,"lng":23.729228755056532,"url":"https://maps.app.goo.gl/Uog41UVXEyuZaDfdA?g_st=ipc","address":"Δεληγιάννη 71, Άγιοι Ανάργυροι 135 62","categoryIds":["cheap-eats"],"categories":["Gyros & Cheap Eats"],"distanceKm":2.218954333164672},{"id":"cheapEatsRestaurants_23208072a530","slug":"o-mparmpas-choriatiki-kantina-2320","kind":"restaurant","name":"Ο Μπάρμπας Χωριάτικη Καντίνα","lat":38.03834405515059,"lng":23.705313931462435,"url":"https://maps.app.goo.gl/rw8Py2VR6j9NeDLn6?g_st=ipc","address":"Αγίου Νικολάου 2, Ίλιον 131 23","categoryIds":["cheap-eats"],"categories":["Gyros & Cheap Eats"],"distanceKm":2.646080103534395},{"id":"municipalities_2d28cc1df46e","slug":"agioi-anargyroi-2d28","kind":"municipality","name":"Άγιοι Ανάργυροι","lat":38.04,"lng":23.73,"region":"Δυτικά Προάστια","name_en":"Agioi Anargyroi","region_en":"Western Suburbs","distanceKm":2.7343213162590247},{"id":"municipalities_ef8568a05e9e","slug":"ilion-ef85","kind":"municipality","name":"Ίλιον","lat":38.038,"lng":23.703,"region":"Δυτικά Προάστια","name_en":"Ilion","region_en":"Western Suburbs","distanceKm":2.7472364617938103},{"id":"cheapEatsRestaurants_7db196676e19","slug":"karaflas-7db1","kind":"restaurant","name":"Καράφλας","lat":38.07655628972639,"lng":23.739456286868005,"url":"https://maps.app.goo.gl/DzK7LaFGANeLebDQ7?g_st=ipc","address":"Φιλαδέλφειας 56-58, Αχαρνές 136 71","categoryIds":["cheap-eats"],"categories":["Gyros & Cheap Eats"],"distanceKm":2.8102723925085042},{"id":"greekRestaurants_ecad8f17d794","slug":"taverna-kitsaronas-ecad","kind":"restaurant","name":"Ταβέρνα Κιτσαρώνας","lat":38.081090797205825,"lng":23.73517147403274,"url":"https://maps.app.goo.gl/CdrwzhJ6AF8GwRvr7","address":"Π. Μελά 8, Αχαρνές 136 75","categoryIds":["greek-restaurants"],"categories":["Greek Restaurants"],"distanceKm":2.890009224331545},{"id":"dessertsRestaurants_48328c9fc5f0","slug":"galaktopoleio-stamoy-4832","kind":"restaurant","name":"Γαλακτοπωλείο ΣΤΑΜΟΥ","lat":38.07926600844486,"lng":23.73816605072715,"url":"https://maps.app.goo.gl/kVZvesD6UgeQooPB9?g_st=ipc","address":"Κωνσταντινουπόλεως 307, Αχαρνές 136 74","categoryIds":["desserts"],"categories":["Dessert Shops"],"distanceKm":2.9209285261802207},{"id":"cheapEatsRestaurants_158ee5dd1d4f","slug":"cocorico-158e","kind":"restaurant","name":"Cocorico","lat":38.03523380190847,"lng":23.705868008544936,"url":"https://maps.app.goo.gl/4u4xPrqXGjRF9V9cA?g_st=ipc","address":"Ιφιγένειας 31, Ίλιον 131 22","categoryIds":["cheap-eats","mexican"],"categories":["Gyros & Cheap Eats","Mexican Restaurants"],"legacySlugs":["cocorico-35c4"],"distanceKm":2.9668529103897825},{"id":"municipalities_f5c02f2a2ecc","slug":"acharnes-f5c0","kind":"municipality","name":"Αχαρνές","lat":38.0833,"lng":23.7333,"region":"Βόρεια/Ανατολικά","name_en":"Acharnes","region_en":"North/East","distanceKm":2.9871836935629985},{"id":"italianRestaurants_764eadc47084","slug":"pizza-days-ano-liosion-764e","kind":"restaurant","name":"Pizza Days - Άνω Λιοσίων","lat":38.08738762293733,"lng":23.705019354443774,"url":"https://maps.app.goo.gl/j8oAF5aTcAufPq229?g_st=ipc","address":"Πηνειού 38, Άνω Λιόσια 133 41","categoryIds":["italian"],"categories":["Italian Restaurants"],"distanceKm":3.024303499598052},{"id":"dessertsRestaurants_4eb0f195642c","slug":"the-twins-inspiration-4eb0","kind":"restaurant","name":"The Twins Inspiration","lat":38.03397180922058,"lng":23.706833795528777,"url":"https://maps.app.goo.gl/yUZVBieRsMh4Pe6P8?g_st=ipc","address":"Αίαντος 103, Ίλιον 131 22","categoryIds":["desserts"],"categories":["Dessert Shops"],"distanceKm":3.0848623340841304},{"id":"greekRestaurants_977106c0152b","slug":"familokal-fagadiko-9771","kind":"restaurant","name":"Φαμιλόκαλ Φαγάδικο","lat":38.045110031748486,"lng":23.742897004373283,"url":"https://maps.app.goo.gl/cQhPg66yiWYq8LYP6","address":"Στρατάρχου Αλεξάνδρου Παπάγου 12, Νέα Φιλαδέλφεια Αττικής 143 42","categoryIds":["greek-restaurants"],"categories":["Greek Restaurants"],"distanceKm":3.092409447849247},{"id":"greekRestaurants_9c1516b8d16d","slug":"mister-loykidelis-9c15","kind":"restaurant","name":"Μίστερ Λουκιδέλης","lat":38.03885909725717,"lng":23.736070793481,"url":"https://maps.app.goo.gl/CMKSzphqRyS8ewpNA","address":"Γεωρ. Παπανδρέου 81, Νέα Φιλαδέλφεια Αττικής 143 41","categoryIds":["greek-restaurants"],"categories":["Greek Restaurants"],"distanceKm":3.1397917203825796},{"id":"cheapEatsRestaurants_9bf1f7743a87","slug":"dekapentalepto-9bf1","kind":"restaurant","name":"Δεκαπενταλεπτο","lat":38.0332432504206,"lng":23.708153853689517,"url":"https://maps.app.goo.gl/pgrPE8JqcHDwR95q6?g_st=ipc","address":"Πάριδος 90, Ίλιον 131 22","categoryIds":["cheap-eats"],"categories":["Gyros & Cheap Eats"],"distanceKm":3.1432415184099054},{"id":"greekRestaurants_32d9fbbeb9ef","slug":"to-karagatsi-32d9","kind":"restaurant","name":"Το Καραγάτσι","lat":38.039818289814335,"lng":23.738940522044075,"url":"https://maps.app.goo.gl/8aQhSfNrT1Z9qqEm7","address":"Αγίου Ιωάννου 1, Νέα Φιλαδέλφεια Αττικής 143 42","categoryIds":["greek-restaurants"],"categories":["Greek Restaurants"],"distanceKm":3.2209522710244847},{"id":"coffeeBrunchRestaurants_51893d66518d","slug":"mimosa-neighborhood-bistrot-5189","kind":"restaurant","name":"mimosa neighborhood bistrot","lat":38.03853139699867,"lng":23.737753049309227,"url":"https://maps.app.goo.gl/KBvxE1xtgNdKgvxY8?g_st=ipc","address":"Efesou, Μουδανιών &, Νέα Φιλαδέλφεια Αττικής 143 41","categoryIds":["coffee-brunch"],"categories":["Coffee & Brunch Spots"],"distanceKm":3.260438375862332},{"id":"italianRestaurants_f98d171cbc3e","slug":"la-greca-ilion-f98d","kind":"restaurant","name":"La Greca Ίλιον","lat":38.033370068810264,"lng":23.70123370557317,"url":"https://maps.app.goo.gl/Btmva8rtUGkuoUtX6?g_st=ipc","address":"Έκτορος 140, Ίλιον 131 23","categoryIds":["italian"],"categories":["Italian Restaurants"],"distanceKm":3.283785215741745},{"id":"coffeeBrunchRestaurants_6a4b180ed5c1","slug":"le-pain-du-chef-6a4b","kind":"restaurant","name":"LE PAIN - Du chef","lat":38.03133472316872,"lng":23.707950598464468,"url":"https://maps.app.goo.gl/qm2cf1KQg3gUAF9QA?g_st=ipc","address":"Idomeneos, Nestoros 41, Ilion 131 22","categoryIds":["coffee-brunch"],"categories":["Coffee & Brunch Spots"],"distanceKm":3.355557109673528}],"mentionedGuides":[],"canonicalSlug":"galaktopoleio-stamoy-8a87","enrichment":{"summary_en":"Γαλακτοπωλείο ΣΤΑΜΟΥ is a curated restaurant in Καματερό 134 51 in the Dessert Shops collection. It is connected to 0 nearby Googlementor picks to help travelers build a stronger local route.","summary_el":"Γαλακτοπωλείο ΣΤΑΜΟΥ είναι ένα επιλεγμένο σημείο φαγητού στην περιοχή Καματερό 134 51 και ανήκει στη συλλογή Dessert Shops. Συνδέεται με 0 κοντινές προτάσεις του Googlementor για πιο ολοκληρωμένη εμπειρία.","vibe_tags":["curated","sweet-stop"],"best_for":["first-time visitors","food lovers"],"visit_moments":["afternoon break","after dinner"],"practical_note":"Address and direct map link are available for easy turn-by-turn access.","nearby_walkable_count":0,"nearby_count_2km":4,"confidence":0.9},"areaContext":{"slug":"kamatero","name":"Kamatero","nameEl":"Καματερό"},"intentContexts":[{"href":"/desserts/kamatero","label":"Dessert Shops in Kamatero","categorySlug":"desserts","categoryName":"Dessert Shops","areaSlug":"kamatero","areaName":"Kamatero","areaNameEl":"Καματερό"}]},"__N_SSG":true}