{"pageProps":{"entity":{"id":"asianRestaurants_4ecd6c075c4e","slug":"huang-4ecd","kind":"restaurant","name":"Huang","lat":40.62746881479162,"lng":22.95210600219236,"url":"https://maps.app.goo.gl/GNVEYmU2FT2611vx5?g_st=ipc","address":"Geor. Theotoka 1, Thessaloniki 546 21","categoryIds":["asian"],"categories":["Asian Restaurants"]},"sameCategory":[{"id":"asianRestaurants_aa56878cf133","slug":"nagomi-jpn-aa56","kind":"restaurant","name":"Nagomi Jpn","lat":40.63061239454344,"lng":22.951225233616498,"url":"https://maps.app.goo.gl/8UyTpuy2ncGK15GJ6?g_st=ic","address":"Al. Svolou 41, Thessaloniki 546 22","categoryIds":["asian","desserts"],"categories":["Asian Restaurants","Dessert Shops"],"legacySlugs":["nagomi-jpn-eccd"]},{"id":"asianRestaurants_41c1b197a672","slug":"wen-zhou-specialties-41c1","kind":"restaurant","name":"Wen Zhou Specialties","lat":40.63090950249029,"lng":22.94800772208168,"url":"https://maps.app.goo.gl/6cq2gTB2UTEdBKux5?g_st=ipc","address":"Grigoriou Palama 16, Thessaloniki 546 22","categoryIds":["asian"],"categories":["Asian Restaurants"]},{"id":"asianRestaurants_5ace71fa56ea","slug":"ramen-tales-5ace","kind":"restaurant","name":"Ramen Tales","lat":40.63194421660545,"lng":22.948458874656616,"url":"https://maps.app.goo.gl/3FZQEKYHJjXKCNKcA?g_st=ipc","address":"Al. Svolou 16, Thessaloniki 546 22","categoryIds":["asian"],"categories":["Asian Restaurants"]},{"id":"asianRestaurants_829415263030","slug":"mongo-asian-food-8294","kind":"restaurant","name":"Mongo Asian Food","lat":40.63082745054034,"lng":22.945340872957278,"url":"https://maps.app.goo.gl/sb6JL78bVoxjZHir9","address":"John Kouskoura 6, Thessaloniki 546 22","categoryIds":["asian"],"categories":["Asian Restaurants"]},{"id":"asianRestaurants_788113ad98ac","slug":"sushaki-greek-sushi-experience-7881","kind":"restaurant","name":"Sushaki | Greek Sushi Experience","lat":40.63309136297845,"lng":22.939152229553493,"url":"https://maps.app.goo.gl/ggCr6zagpbao1wwt9","address":"Komninon 3, Thessaloniki 546 24","categoryIds":["asian"],"categories":["Asian Restaurants"]},{"id":"asianRestaurants_169207d89dbd","slug":"sushi-city-1692","kind":"restaurant","name":"Sushi City","lat":40.633479553417104,"lng":22.939350429758118,"url":"https://maps.app.goo.gl/zBAUew3tfQKdJ3yX9","address":"Kalapothaki 7, Thessaloniki 546 45","categoryIds":["asian"],"categories":["Asian Restaurants"]},{"id":"asianRestaurants_7b20ac80bba4","slug":"hanaya-sushi-7b20","kind":"restaurant","name":"Hanaya Sushi","lat":40.6345384090758,"lng":22.93892478438703,"url":"https://maps.app.goo.gl/QoHkvVMWp7YGca2T8?g_st=ipc","address":"Rogkoti 4, Thessaloniki 546 24 (Bourla-Levi Building)","categoryIds":["asian"],"categories":["Asian Restaurants"]},{"id":"asianRestaurants_50e903fa0513","slug":"empire-sushi-bar-50e9","kind":"restaurant","name":"Εmpire Sushi Bar","lat":40.63454338249302,"lng":22.937599876944155,"url":"https://maps.app.goo.gl/xtgjstGFH9sAG6Ya7?g_st=ipc","address":"Oplopiou 3, Thessaloniki 546 25","categoryIds":["asian"],"categories":["Asian Restaurants"]},{"id":"asianRestaurants_694015c62c4a","slug":"asian-house-6940","kind":"restaurant","name":"Asian House","lat":40.63703399499959,"lng":22.939883592923085,"url":"https://maps.app.goo.gl/uTVSPYHZ31yXdaY57?g_st=ipc","address":"Καποδιστρίου 7 &, Paikou, Thessaloniki 546 25","categoryIds":["asian"],"categories":["Asian Restaurants"]},{"id":"asianRestaurants_8419e93bcb2d","slug":"ikigai-the-dumpling-experience-8419","kind":"restaurant","name":"Ikigai - The Dumpling Experience","lat":40.637093410026516,"lng":22.93763984161015,"url":"https://maps.app.goo.gl/zEYfCsMm5fXf8Dd78?g_st=ipc","address":"Veroias 5, Thessaloniki 546 25","categoryIds":["asian"],"categories":["Asian Restaurants"]},{"id":"asianRestaurants_fa15bba13e7a","slug":"asian-house-fa15","kind":"restaurant","name":"Asian House","lat":40.61406863205144,"lng":22.96925982276085,"url":"https://maps.app.goo.gl/RZUt6eATfNjJBVMW9?g_st=ipc","address":"Kleanthous 49, Thessaloniki 544 53","categoryIds":["asian"],"categories":["Asian Restaurants"]},{"id":"asianRestaurants_4caa87d6e139","slug":"sushaki-greek-sushi-experience-4caa","kind":"restaurant","name":"Sushaki | Greek Sushi Experience","lat":40.650072445284856,"lng":22.958835229549017,"url":"https://maps.app.goo.gl/5vFVT9HMbgmQ6Erc6","address":"Eptapirgiou 75, Sikies 566 26","categoryIds":["asian"],"categories":["Asian Restaurants"]}],"nearby":[{"id":"coffeeBrunchRestaurants_535d5a114e1a","slug":"titania-535d","kind":"restaurant","name":"ΤΙΤΑΝΙΑ","lat":40.62745635041655,"lng":22.95172436992036,"url":"https://maps.app.goo.gl/6d8e2D2YLjsqGz9H8?g_st=ipc","address":"Tsimiski 139, Thessaloniki 546 21","categoryIds":["coffee-brunch"],"categories":["Coffee & Brunch Spots"],"distanceKm":0.032236680126652664},{"id":"burgersRestaurants_83b3a5ac6b77","slug":"parco-83b3","kind":"restaurant","name":"Parco","lat":40.62746957872299,"lng":22.95260526619064,"url":"https://maps.app.goo.gl/XvoKi6u2LSYH1F6o7?g_st=ipc","address":"D' Esperey 1, Thessaloniki 546 21","categoryIds":["burgers","coffee-brunch"],"categories":["Burger Spots","Coffee & Brunch Spots"],"legacySlugs":["parco-b30e"],"distanceKm":0.04213418010434655},{"id":"cheapEatsRestaurants_360afa6ead29","slug":"salu-deli-bar-360a","kind":"restaurant","name":"Salu Deli Bar","lat":40.62815289802217,"lng":22.952006929781376,"url":"https://maps.app.goo.gl/Mew4X3m69PgK4Y2TA?g_st=ipc","address":"Manousagiannaki 20, Thessaloniki 546 21","categoryIds":["cheap-eats","coffee-brunch"],"categories":["Gyros & Cheap Eats","Coffee & Brunch Spots"],"legacySlugs":["salu-deli-bar-e516"],"distanceKm":0.07652470343514539},{"id":"cheapEatsRestaurants_88cea0f97a36","slug":"mantri-ae-88ce","kind":"restaurant","name":"ΜΑΝΤΡΙ ΑΕ","lat":40.62840905411716,"lng":22.95104812955137,"url":"https://maps.app.goo.gl/fo4Tf9Q9F4pnn1rn9?g_st=ipc","address":"Eth. Aminis 18, Thessaloniki 546 21","categoryIds":["cheap-eats"],"categories":["Gyros & Cheap Eats"],"distanceKm":0.1374803182150004},{"id":"greekRestaurants_028889ec4c7c","slug":"kafeneion-giasemi-0288","kind":"restaurant","name":"Καφενείον Γιασεμί","lat":40.62700271205112,"lng":22.950250188903894,"url":"https://maps.app.goo.gl/igCkYjicpsFhyKi79?g_st=ipc","address":"Τσόπελα 4, Θεσσαλονίκη 546 21","categoryIds":["greek-restaurants"],"categories":["Greek Restaurants"],"distanceKm":0.164969962226066},{"id":"greekRestaurants_96300d908e41","slug":"massalia-9630","kind":"restaurant","name":"Μασσαλία","lat":40.62879227637267,"lng":22.950820456091158,"url":"https://maps.app.goo.gl/Woet67mPUQvmRPAY6?g_st=ipc","address":"Μανουσογιαννάκη 6, Θεσσαλονίκη 546 21","categoryIds":["greek-restaurants"],"categories":["Greek Restaurants"],"distanceKm":0.18282953206428543},{"id":"coffeeBrunchRestaurants_553ce2fa7675","slug":"plateia-theatroy-kafe-mpar-estiatorio-553c","kind":"restaurant","name":"Πλατεία Θεάτρου, Καφέ / Μπαρ/Εστιατόριο","lat":40.62692292313497,"lng":22.94981349501023,"url":"https://maps.app.goo.gl/bFpP1KB6naw1VbYr7?g_st=ipc","address":"Eth. Aminis 4, Thessaloniki 546 21","categoryIds":["coffee-brunch"],"categories":["Coffee & Brunch Spots"],"distanceKm":0.20276974084279456},{"id":"vegetarianRestaurants_40634af2ec79","slug":"falafel-taste-middle-east-4063","kind":"restaurant","name":"Falafel Taste Middle East","lat":40.62785484140031,"lng":22.949330420414434,"url":"https://maps.app.goo.gl/bHy6BTfdp9RBhdBt6?g_st=ipc","address":"Mitropoleos 106 &, Romanou, Thessaloniki 546 21","categoryIds":["vegetarian"],"categories":["Vegetarian Friendly Restaurants"],"distanceKm":0.23813784668198046},{"id":"mustSeeAttractions_10253cdb4884","slug":"archaeological-museum-of-thessaloniki-1025","kind":"restaurant","name":"Archaeological Museum of Thessaloniki","lat":40.625561586478966,"lng":22.953718318827413,"url":"https://maps.app.goo.gl/MFq7CxhtGP7Gi8k59?g_st=ipc","address":"Manoli Andronikou 6, Thessaloniki 546 21","categoryIds":["attractions"],"categories":["Must-See Attractions"],"distanceKm":0.25197274983759316},{"id":"cheapEatsRestaurants_76d0caaa7f9f","slug":"giok-balik-76d0","kind":"restaurant","name":"Giok Balik","lat":40.62972191102995,"lng":22.952456612586893,"url":"https://maps.app.goo.gl/1CjK5eGEVn2bdjxz8?g_st=ipc","address":"Eth. Aminis 34, Thessaloniki 546 21","categoryIds":["cheap-eats"],"categories":["Gyros & Cheap Eats"],"distanceKm":0.2522740383120062},{"id":"dessertsRestaurants_d6293efcb0d5","slug":"sugarela-d629","kind":"restaurant","name":"Sugarela","lat":40.628286349246984,"lng":22.94919276720608,"url":"https://maps.app.goo.gl/BWRmuMRqDoq6N7MH8?g_st=ipc","address":"Nikiforou Foka 12, Thessaloniki 546 21","categoryIds":["desserts"],"categories":["Dessert Shops"],"distanceKm":0.2621216386471702},{"id":"cheapEatsRestaurants_f03e4dc68c8d","slug":"feyrouz-skg-f03e","kind":"restaurant","name":"Feyrouz SKG","lat":40.62813032194449,"lng":22.94911089919006,"url":"https://maps.app.goo.gl/pedu5yTx6WHSFd5MA?g_st=ipc","address":"Mitropoleos 125, Nikiforou Foka 8, Thessaloniki 546 21","categoryIds":["cheap-eats"],"categories":["Gyros & Cheap Eats"],"distanceKm":0.263248011137316},{"id":"cheapEatsRestaurants_1133d517c2b8","slug":"sun-do-each-1133","kind":"restaurant","name":"SUN DO EACH","lat":40.629855288469905,"lng":22.95097907140209,"url":"https://maps.app.goo.gl/ZU1we2eajmmkHarSA?g_st=ipc","address":"Pl. Ippodromiou 12, Thessaloniki 546 21","categoryIds":["cheap-eats"],"categories":["Gyros & Cheap Eats"],"distanceKm":0.2818908546360595},{"id":"cheapEatsRestaurants_4326011ed54c","slug":"to-etsi-4326","kind":"restaurant","name":"Το Έτση","lat":40.627697688934035,"lng":22.94868143840882,"url":"https://maps.app.goo.gl/82yxHEuuzhZ7bD1T9?g_st=ipc","address":"Nikiforou Foka 2, Thessaloniki 546 21","categoryIds":["cheap-eats"],"categories":["Gyros & Cheap Eats"],"distanceKm":0.29012508524732367},{"id":"dessertsRestaurants_509c5344d793","slug":"armenonville-509c","kind":"restaurant","name":"Armenonville","lat":40.62813210913547,"lng":22.94876500137915,"url":"https://maps.app.goo.gl/3MMykvcTvkcMNqrA6?g_st=ipc","address":"Mitropoleos 102, Thessaloniki 546 21","categoryIds":["desserts"],"categories":["Dessert Shops"],"distanceKm":0.2914407311975073},{"id":"dessertsRestaurants_9d142e026cde","slug":"gelati-e-amore-9d14","kind":"restaurant","name":"Gelati e Amore","lat":40.63013548543496,"lng":22.951618020186764,"url":"https://maps.app.goo.gl/vMrAJXJCUj5tn2mDA?g_st=ipc","address":"Al. Svolou 44, Thessaloniki 546 21","categoryIds":["desserts"],"categories":["Dessert Shops"],"distanceKm":0.2993662378947228},{"id":"mustSeeAttractions_43897b8cc3d5","slug":"white-tower-of-thessaloniki-4389","kind":"restaurant","name":"White Tower of Thessaloniki","lat":40.62644387532891,"lng":22.948379384273697,"url":"https://maps.app.goo.gl/Rpx9LHfqRzCfvkCh8?g_st=ipc","address":"Thessaloniki 546 21","categoryIds":["attractions"],"categories":["Must-See Attractions"],"distanceKm":0.334513693694321},{"id":"dessertsRestaurants_28a0c1dca6b8","slug":"trigona-elenidi-28a0","kind":"restaurant","name":"Trigona Elenidi","lat":40.62886737433407,"lng":22.948457330769024,"url":"https://maps.app.goo.gl/CrarZvo5GUHnGW4C7?g_st=ipc","address":"Dim. Gounari 13, Thessaloniki 546 22","categoryIds":["desserts"],"categories":["Dessert Shops"],"distanceKm":0.34495951687632687},{"id":"cheapEatsRestaurants_14153fc76d40","slug":"because-bagel-1415","kind":"restaurant","name":"Because Bagel","lat":40.63057520882739,"lng":22.951254328665513,"url":"https://maps.app.goo.gl/F867e4fDb8YFQcHN9?g_st=ipc","address":"Al. Svolou 41, Thessaloniki 546 21","categoryIds":["cheap-eats","coffee-brunch"],"categories":["Gyros & Cheap Eats","Coffee & Brunch Spots"],"legacySlugs":["because-bagel-f384"],"distanceKm":0.3528136112633717},{"id":"asianRestaurants_aa56878cf133","slug":"nagomi-jpn-aa56","kind":"restaurant","name":"Nagomi Jpn","lat":40.63061239454344,"lng":22.951225233616498,"url":"https://maps.app.goo.gl/8UyTpuy2ncGK15GJ6?g_st=ic","address":"Al. Svolou 41, Thessaloniki 546 22","categoryIds":["asian","desserts"],"categories":["Asian Restaurants","Dessert Shops"],"legacySlugs":["nagomi-jpn-eccd"],"distanceKm":0.3573653634929043},{"id":"coffeeBrunchRestaurants_9305c93ce682","slug":"canteen-all-day-bar-restaurant-9305","kind":"restaurant","name":"Canteen All day Bar Restaurant","lat":40.62803673619556,"lng":22.94769963358214,"url":"https://maps.app.goo.gl/M7potW66EBLTEfRx7?g_st=ipc","address":"Dim. Gounari 7, Thessaloniki 546 22","categoryIds":["coffee-brunch"],"categories":["Coffee & Brunch Spots"],"distanceKm":0.3771864860601728},{"id":"greekRestaurants_bc2682007b45","slug":"canteen-all-day-bar-restaurant-bc26","kind":"restaurant","name":"Canteen All day Bar Restaurant","lat":40.628045759253304,"lng":22.94769823250704,"url":"https://maps.app.goo.gl/4PvAxWQTpkBWbzxZ6?g_st=ipc","address":"Δημ. Γούναρη 7, Θεσσαλονίκη 546 22","categoryIds":["greek-restaurants"],"categories":["Greek Restaurants"],"distanceKm":0.3774722559422985},{"id":"greekRestaurants_9ca9bccdb731","slug":"diagonios-1977-9ca9","kind":"restaurant","name":"Διαγώνιος 1977","lat":40.628424051093205,"lng":22.94777702854618,"url":"https://maps.app.goo.gl/NGT8FMWUaiPpBxYGA?g_st=ipc","address":"Πλ. Φαναριωτῶν 2, Θεσσαλονίκη 546 22","categoryIds":["greek-restaurants"],"categories":["Greek Restaurants"],"distanceKm":0.380457750226701},{"id":"dessertsRestaurants_8263a8db76c8","slug":"valentino-crepes-8263","kind":"restaurant","name":"Valentino Crepes","lat":40.63057112442913,"lng":22.950154633509246,"url":"https://maps.app.goo.gl/nwvSZePQvBQzGocJ6?g_st=ipc","address":"Dim. Gounari 25, Thessaloniki 546 22","categoryIds":["desserts"],"categories":["Dessert Shops"],"distanceKm":0.38225205548231495}],"mentionedGuides":[],"canonicalSlug":"huang-4ecd","enrichment":{"summary_en":"Huang is a curated restaurant in Thessaloniki 546 21 in the Asian Restaurants collection. It is connected to 101 nearby Googlementor picks to help travelers build a stronger local route.","summary_el":"Huang είναι ένα επιλεγμένο σημείο φαγητού στην περιοχή Thessaloniki 546 21 και ανήκει στη συλλογή Asian Restaurants. Συνδέεται με 101 κοντινές προτάσεις του Googlementor για πιο ολοκληρωμένη εμπειρία.","vibe_tags":["curated"],"best_for":["first-time visitors","food lovers"],"visit_moments":["lunch stop","dinner stop"],"practical_note":"Address and direct map link are available for easy turn-by-turn access.","nearby_walkable_count":101,"nearby_count_2km":271,"confidence":0.98},"areaContext":{"slug":"triandria","name":"Triandria","nameEl":"Τριανδρία"},"intentContexts":[{"href":"/asian-restaurants/triandria","label":"Asian Restaurants in Triandria","categorySlug":"asian-restaurants","categoryName":"Asian Restaurants","areaSlug":"triandria","areaName":"Triandria","areaNameEl":"Τριανδρία"}]},"__N_SSG":true}