{"pageProps":{"entity":{"id":"italianRestaurants_74b63c612882","slug":"il-porto-74b6","kind":"restaurant","name":"Il Porto","lat":37.56732416244355,"lng":22.800888651268885,"url":"https://maps.app.goo.gl/vWaWFumGBn6ey64P6?g_st=ipc","address":"Μπουμπουλίνας 43, Ναύπλιο 211 00","categoryIds":["italian"],"categories":["Italian Restaurants"]},"sameCategory":[{"id":"italianRestaurants_0d133bb8af27","slug":"itria-cucina-italiana-restaurant-0d13","kind":"restaurant","name":"ITRIA Cucina Italiana Restaurant","lat":37.567386909343334,"lng":22.797290266729004,"url":"https://maps.app.goo.gl/HHmGQxRgnuihmTyY7?g_st=ipc","address":"Boumpoulinas 81, Nafplio 211 00","categoryIds":["italian"],"categories":["Italian Restaurants"]},{"id":"italianRestaurants_62cf2e5c270d","slug":"la-gratella-62cf","kind":"restaurant","name":"La Gratella","lat":37.56708420040735,"lng":22.796775177187325,"url":"https://maps.app.goo.gl/wA9xzqnbmvvq1Bqo8?g_st=ipc","address":"Vasilissis Olgas, Nafplio 211 00","categoryIds":["italian"],"categories":["Italian Restaurants"]},{"id":"italianRestaurants_cea069598e2c","slug":"avli-pizzeria-italian-restaurant-cea0","kind":"restaurant","name":"Avli Pizzeria Italian Restaurant","lat":37.70852668969966,"lng":23.364217806517935,"url":"https://maps.app.goo.gl/CQiwfGN8vkcQtv7x8?g_st=ipc","address":"Σκάλα 180 10","categoryIds":["italian"],"categories":["Italian Restaurants"]},{"id":"italianRestaurants_c67f741fc9ba","slug":"pitsaria-achilleion-c67f","kind":"restaurant","name":"ΠΙΤΣΑΡΙΑ ΑΧΙΛΛΕΙΟΝ","lat":37.96332108068363,"lng":23.493487796737526,"url":"https://maps.app.goo.gl/xb88QciDkgCY4ycv8?g_st=ipc","address":"Λεωφ. Ακτή Καραϊσκάκη 24, Σαλαμίνα 189 00","categoryIds":["italian"],"categories":["Italian Restaurants"]},{"id":"italianRestaurants_245a69e4c28d","slug":"italida-restaurant-245a","kind":"restaurant","name":"Italida Restaurant","lat":37.939531794803344,"lng":23.64139153468878,"url":"https://maps.app.goo.gl/vJFoPpuhcPupJ3ju7?g_st=ipc","address":"Φιλελλήνων 9, Πειραιάς 185 36","categoryIds":["italian"],"categories":["Italian Restaurants"]},{"id":"italianRestaurants_5ab192a29154","slug":"pizza-tros-5ab1","kind":"restaurant","name":"Pizza Tros","lat":37.93310764502524,"lng":23.647126189869965,"url":"https://maps.app.goo.gl/R29dtEiZf13f8My98?g_st=ipc","address":"Μαρίνα Ζέας, Πειραιάς 185 36","categoryIds":["italian"],"categories":["Italian Restaurants"]},{"id":"italianRestaurants_5214577033fb","slug":"portofino-cucina-italiana-5214","kind":"restaurant","name":"Portofino Cucina Italiana","lat":37.933560056703215,"lng":23.64800969933006,"url":"https://maps.app.goo.gl/V1DfNbY33j2yeRfy7?g_st=ipc","address":"Μαρίνα Ζέας, Πειραιάς 185 36","categoryIds":["italian"],"categories":["Italian Restaurants"]},{"id":"italianRestaurants_4128f283696a","slug":"santa-pasta-cucina-italiana-4128","kind":"restaurant","name":"SANTA PASTA Cucina Italiana","lat":37.94068201075252,"lng":23.64952027321399,"url":"https://maps.app.goo.gl/s3jT1Jfm88nb6Y8f8?g_st=ipc","address":"Γρ. Λαμπράκη 144, Πειραιάς 185 35","categoryIds":["italian"],"categories":["Italian Restaurants"]},{"id":"italianRestaurants_deede59c2ee6","slug":"la-greca-nikaia-deed","kind":"restaurant","name":"La Greca Νίκαια","lat":37.96989287630008,"lng":23.649375358414368,"url":"https://maps.app.goo.gl/TRUJmqRbfNqYTojR9?g_st=ipc","address":"Ανακρέοντος 5, Νίκαια 184 53","categoryIds":["italian"],"categories":["Italian Restaurants"]},{"id":"italianRestaurants_161f75313435","slug":"incontro-via108-161f","kind":"restaurant","name":"Incontro Via108","lat":37.95597000000485,"lng":23.6616563361716,"url":"https://maps.app.goo.gl/PHAu91Gt4K1K24iZ8?g_st=ipc","address":"Αγ. Ελευθερίου 108, Πειραιάς 185 41","categoryIds":["italian"],"categories":["Italian Restaurants"]},{"id":"italianRestaurants_a8f55f60daad","slug":"napolitivo-a8f5","kind":"restaurant","name":"Napolitivo","lat":37.931139363113324,"lng":23.68556698847028,"url":"https://maps.app.goo.gl/iJWXQzLD79YWLeji9?g_st=ipc","address":"Λεωφ. Ποσειδώνος 702, Παλαιό Φάληρο 175 61","categoryIds":["italian"],"categories":["Italian Restaurants"]},{"id":"italianRestaurants_c97c0ccdbf8c","slug":"o-italos-c97c","kind":"restaurant","name":"Ο Ιταλός","lat":37.926673536986776,"lng":23.69220389211545,"url":"https://maps.app.goo.gl/up3EpvmXnu7L2VC67?g_st=ipc","address":"Αλκυόνης 16, Παλαιό Φάληρο 175 61","categoryIds":["italian"],"categories":["Italian Restaurants"]}],"nearby":[{"id":"cheapEatsRestaurants_2ea89cfd165d","slug":"stavropoulos-meat-grill-nafplio-2ea8","kind":"restaurant","name":"Stavropoulos Meat & Grill Nafplio","lat":37.56729472413989,"lng":22.801012947686594,"url":"https://maps.app.goo.gl/iaJ7WLVkfAWX8uMY7?g_st=ipc","address":"Μπουμπουλίνας 43, Ναύπλιο 211 00","categoryIds":["cheap-eats"],"categories":["Gyros & Cheap Eats"],"distanceKm":0.011433737989374514},{"id":"cheapEatsRestaurants_af2ed2b481d6","slug":"trendy-grill-limani-nayplioy-af2e","kind":"restaurant","name":"Trendy Grill Λιμάνι Ναυπλίου","lat":37.56727361524451,"lng":22.801083825814366,"url":"https://maps.app.goo.gl/9EusCQot9r26ZXTs5?g_st=ipc","address":"Μπουμπουλίνας 41, Ναύπλιο 211 00","categoryIds":["cheap-eats"],"categories":["Gyros & Cheap Eats"],"distanceKm":0.018097106207779233},{"id":"municipalities_6a56a10792f1","slug":"nayplio-6a56","kind":"municipality","name":"Ναύπλιο","lat":37.567,"lng":22.801,"aliases":["Nafplio","Nauplia","Ναυπλία","Ναυπλίων","Ναυπλιο","Ναυπλια"],"region":"Αργολίδα","name_en":"Nafplio","region_en":"Argolis","distanceKm":0.03735735942681385},{"id":"coffeeBrunchRestaurants_4eafd9c8fe54","slug":"ar-ko-4eaf","kind":"restaurant","name":"Ar&Ko","lat":37.565832099209665,"lng":22.80288803557191,"url":"https://maps.app.goo.gl/VsqimzGRSLvrL3FN7?g_st=ipc","address":"Πάρκο Κολοκοτρώνη, Vasileos Pavlou, Nafplio 211 00","categoryIds":["coffee-brunch"],"categories":["Coffee & Brunch Spots"],"distanceKm":0.24203364820514775},{"id":"luxuryDiningRestaurants_e6807e074ed0","slug":"wild-duck-e680","kind":"restaurant","name":"Wild Duck","lat":37.56734308437463,"lng":22.797850601824372,"url":"https://maps.app.goo.gl/3WVLVVZ3Za8oDxQz6?g_st=ipc","address":"Boumpoulinas 67, Nafplio 211 00","categoryIds":["luxury-dining"],"categories":["Luxury Dining"],"distanceKm":0.2677736059052434},{"id":"greekRestaurants_7230005d3481","slug":"skarpeta-skarpeta-7230","kind":"restaurant","name":"Σκαρπέτα | Skarpeta","lat":37.56454091062987,"lng":22.80102416836778,"url":"https://maps.app.goo.gl/y1tbJ7Ka9yN8RJXn7?g_st=ipc","address":"Πάρκο, Σταϊκοπούλου, Ναύπλιο 211 00","categoryIds":["greek-restaurants"],"categories":["Greek Restaurants"],"distanceKm":0.30971388761914137},{"id":"italianRestaurants_0d133bb8af27","slug":"itria-cucina-italiana-restaurant-0d13","kind":"restaurant","name":"ITRIA Cucina Italiana Restaurant","lat":37.567386909343334,"lng":22.797290266729004,"url":"https://maps.app.goo.gl/HHmGQxRgnuihmTyY7?g_st=ipc","address":"Boumpoulinas 81, Nafplio 211 00","categoryIds":["italian"],"categories":["Italian Restaurants"],"distanceKm":0.31722838073571874},{"id":"greekRestaurants_742eabdb9109","slug":"to-teloneio-742e","kind":"restaurant","name":"Το Τελωνείο","lat":37.56743155679151,"lng":22.79708632929498,"url":"https://maps.app.goo.gl/nh7yb45ifREfXwro7?g_st=ipc","address":"Ακτής Μιαούλη 83, Ναύπλιο 211 00","categoryIds":["greek-restaurants"],"categories":["Greek Restaurants"],"distanceKm":0.3353387184644645},{"id":"italianRestaurants_62cf2e5c270d","slug":"la-gratella-62cf","kind":"restaurant","name":"La Gratella","lat":37.56708420040735,"lng":22.796775177187325,"url":"https://maps.app.goo.gl/wA9xzqnbmvvq1Bqo8?g_st=ipc","address":"Vasilissis Olgas, Nafplio 211 00","categoryIds":["italian"],"categories":["Italian Restaurants"],"distanceKm":0.3635314939983712},{"id":"dessertsRestaurants_b80c1e7de6b5","slug":"antica-gelateria-di-roma-b80c","kind":"restaurant","name":"Antica Gelateria di Roma","lat":37.566618037126396,"lng":22.79578874005151,"url":"https://maps.app.goo.gl/VdKWZXmCT7JTwu2Z8?g_st=ipc","address":"3 Pharmakopoulou and Komninou, Ναύπλιο 211 00","categoryIds":["desserts"],"categories":["Dessert Shops"],"distanceKm":0.45630054794224467},{"id":"rooftopLoungesRestaurants_3af9241259c9","slug":"liberty-view-of-nafplio-3af9","kind":"restaurant","name":"Liberty View Of Nafplio","lat":37.56620313105519,"lng":22.806200235013893,"url":"https://maps.app.goo.gl/rQCJ25nGMgqPtznc9?g_st=ipc","address":"Σιδηράς Μεραρχίας 39, Ναύπλιο 211 00","categoryIds":["rooftop-lounges"],"categories":["Rooftop Lounges"],"distanceKm":0.4844632716094955},{"id":"coffeeBrunchRestaurants_1d9f7f941901","slug":"liberty-view-of-nafplio-1d9f","kind":"restaurant","name":"Liberty View Of Nafplio","lat":37.56620305969031,"lng":22.806201213990434,"url":"https://maps.app.goo.gl/ZB4UYRxyx55zXBkS9?g_st=ipc","address":"Sidiras Merarchias 39, Nafplio 211 00","categoryIds":["coffee-brunch"],"categories":["Coffee & Brunch Spots"],"distanceKm":0.4845486936936546},{"id":"greekRestaurants_0e937f9c9d72","slug":"pidalio-restaurant-0e93","kind":"restaurant","name":"Πηδάλιο -Restaurant","lat":37.56488349870354,"lng":22.8061371647206,"url":"https://maps.app.goo.gl/gpipbAd1f2YeqATv9?g_st=ipc","address":"25ης Μαρτίου 5, Ναύπλιο 211 00","categoryIds":["greek-restaurants"],"categories":["Greek Restaurants"],"distanceKm":0.5363286273755301},{"id":"mustSeeAttractions_17b8ded02742","slug":"froyrio-palamidioy-17b8","kind":"restaurant","name":"Φρούριο Παλαμηδίου","lat":37.562018953170636,"lng":22.803816386211206,"url":"https://maps.app.goo.gl/JVvCKFqv1vyzhKAP7?g_st=ipc","address":"Παλαμηδίου, Ναύπλιο 211 00","categoryIds":["attractions"],"categories":["Must-See Attractions"],"distanceKm":0.6438845316338919},{"id":"luxuryDiningRestaurants_23db0e41115a","slug":"valaora-resto-nafplio-23db","kind":"restaurant","name":"Valaora Resto Nafplio","lat":37.56519719151896,"lng":22.793079460983854,"url":"https://maps.app.goo.gl/9jUDwjniZiSHynrk9?g_st=ipc","address":"Mpanieres, Boumpoulinas, Nafplio 211 00","categoryIds":["luxury-dining"],"categories":["Luxury Dining"],"distanceKm":0.7277912068388612},{"id":"mustSeeAttractions_c7dd65dae274","slug":"kastro-akronayplias-c7dd","kind":"restaurant","name":"Κάστρο Ακροναυπλίας","lat":37.56407670573787,"lng":22.793195253729316,"url":"https://maps.app.goo.gl/DkbZi8R48n8E7Qu76?g_st=ipc","address":"Άγγελου Τερζάκη 25, Ναύπλιο 211 00","categoryIds":["attractions"],"categories":["Must-See Attractions"],"distanceKm":0.7682444358053938},{"id":"greekRestaurants_22138bcb321f","slug":"taverna-kokoromytis-2213","kind":"restaurant","name":"Ταβέρνα Κοκορομύτης","lat":37.57233337813603,"lng":22.83006926532932,"url":"https://maps.app.goo.gl/BSHNHo6Xw2QuP8Kw5?g_st=ipc","address":"Μουσών, Άρια 211 00","categoryIds":["greek-restaurants"],"categories":["Greek Restaurants"],"distanceKm":2.631438911492011},{"id":"mustSeeAttractions_280c2fbdfcc2","slug":"tiryntha-280c","kind":"restaurant","name":"Τίρυνθα","lat":37.596581091934894,"lng":22.800009234306064,"url":"https://maps.app.goo.gl/qq546eKqcWFHVGyWA?g_st=ipc","address":"Tirintha 211 00","categoryIds":["attractions"],"categories":["Must-See Attractions"],"distanceKm":3.2541449823663706},{"id":"greekRestaurants_730d57299d9e","slug":"t-alonia-paradosiaki-elliniki-taverna-730d","kind":"restaurant","name":"«Τ' ΑΛΩΝΙΑ» Παραδοσιακή Ελληνική Ταβέρνα","lat":37.5821792332292,"lng":22.878688681857938,"url":"https://maps.app.goo.gl/NA8tRJoQnezLcqzT6?g_st=ipc","address":"Γεωρ. Γεννηματά 8, Πυργιώτικα 211 00","categoryIds":["greek-restaurants"],"categories":["Greek Restaurants"],"distanceKm":7.052564393811337},{"id":"municipalities_7a743f4f2d77","slug":"tolo-7a74","kind":"municipality","name":"Τολό","lat":37.5211,"lng":22.8583,"region":"Αργολίδα","name_en":"Tolo","region_en":"Argolis","distanceKm":7.213790894518237},{"id":"greekRestaurants_3deccfb243c6","slug":"maria-s-restaurant-3dec","kind":"restaurant","name":"Maria's Restaurant","lat":37.52164513322119,"lng":22.86050581823376,"url":"https://maps.app.goo.gl/QbgkBU617RxRPjsA9?g_st=ipc","address":"Μπουμπουλίνας 48, Τολό 210 56","categoryIds":["greek-restaurants"],"categories":["Greek Restaurants"],"distanceKm":7.309287311842208},{"id":"greekRestaurants_456e04c6f039","slug":"taverna-akrogiali-456e","kind":"restaurant","name":"Ταβέρνα Ακρογιάλι","lat":37.52046536124531,"lng":22.859758080550037,"url":"https://maps.app.goo.gl/ozgqdAjUGP2zDfVP7?g_st=ipc","address":"Ακτης 10, Τολό 210 56","categoryIds":["greek-restaurants"],"categories":["Greek Restaurants"],"distanceKm":7.3544071476389155},{"id":"greekRestaurants_2ba865e52e42","slug":"romvi-restaurant-2ba8","kind":"restaurant","name":"Romvi Restaurant","lat":37.51773326708392,"lng":22.85851725425822,"url":"https://maps.app.goo.gl/e71iANV4U9yZU48u9?g_st=ipc","address":"Τολό 210 56","categoryIds":["greek-restaurants"],"categories":["Greek Restaurants"],"distanceKm":7.498182424782622},{"id":"fishTavernasRestaurants_772314841aeb","slug":"tripia-sayionara-tavern-7723","kind":"restaurant","name":"Tripia Sayionara Tavern","lat":37.51747745166334,"lng":22.85839744503769,"url":"https://maps.app.goo.gl/EEU9XawrL4yhTEhm7?g_st=ipc","address":"εισοδος απο παραλια, Elevtheriou Veniavelou 4, Tolo 210 56","categoryIds":["fish-tavernas"],"categories":["Fish Tavernas"],"distanceKm":7.511998239819423}],"mentionedGuides":[],"canonicalSlug":"il-porto-74b6","enrichment":{"summary_en":"Il Porto is a curated restaurant in Ναύπλιο 211 00 in the Italian Restaurants collection. It is connected to 16 nearby Googlementor picks to help travelers build a stronger local route.","summary_el":"Il Porto είναι ένα επιλεγμένο σημείο φαγητού στην περιοχή Ναύπλιο 211 00 και ανήκει στη συλλογή Italian Restaurants. Συνδέεται με 16 κοντινές προτάσεις του Googlementor για πιο ολοκληρωμένη εμπειρία.","vibe_tags":["curated"],"best_for":["first-time visitors","food lovers"],"visit_moments":["lunch stop","dinner stop"],"practical_note":"Address and direct map link are available for easy turn-by-turn access.","nearby_walkable_count":16,"nearby_count_2km":16,"confidence":0.98},"areaContext":{"slug":"nayplio","name":"Nafplio","nameEl":"Ναύπλιο"},"intentContexts":[]},"__N_SSG":true}