{"pageProps":{"entity":{"id":"municipalities_a9dfbd3c4048","slug":"kolympia-a9df","kind":"municipality","name":"Κολύμπια","lat":36.2943,"lng":28.2011,"region":"Ρόδος","name_en":"Kolympia","region_en":"Rhodes"},"sameCategory":[],"nearby":[{"id":"municipalities_a670e0839011","slug":"faliraki-a670","kind":"municipality","name":"Φαληράκι","lat":36.339,"lng":28.199,"region":"Ρόδος","name_en":"Faliraki","region_en":"Rhodes","distanceKm":4.973973121123252},{"id":"familyFriendly_569351c660b6","slug":"waterpark-5693","kind":"restaurant","name":"WaterPark","lat":36.36437213652793,"lng":28.212294371159473,"url":"https://maps.app.goo.gl/6wgTeh9tgUC2bD1a8?g_st=ipc","address":"Athanaton, Rodos 851 05","categoryIds":["family-friendly"],"categories":["Kid Friendly Locations"],"distanceKm":7.855932992764415},{"id":"luxuryDiningRestaurants_f925bc8a8505","slug":"noble-gourmet-restaurant-f925","kind":"restaurant","name":"Noble Gourmet Restaurant","lat":36.37247796232997,"lng":28.224879049367335,"url":"https://maps.app.goo.gl/ymJ2kfjKBHsihXtt9?g_st=ipc","address":"Elysium Resort & Spa | 5 star hotel in Rhodes, Leoforos Rodou - Kallitheas, Ammoudes 851 00","categoryIds":["luxury-dining"],"categories":["Luxury Dining"],"distanceKm":8.950152820081854},{"id":"municipalities_00d2375b94d4","slug":"kallithea-rodoy-00d2","kind":"municipality","name":"Καλλιθέα Ρόδου","lat":36.3856,"lng":28.2236,"aliases":["Καλλιθεα Ροδου","Kallithea Springs","Kalithea Springs"],"region":"Ρόδος","name_en":"Kalithea Rhodes","region_en":"Rhodes","distanceKm":10.35019472534425},{"id":"fishTavernasRestaurants_3329c5f3ac04","slug":"perigiali-sea-food-restaurant-3329","kind":"restaurant","name":"Perigiali Sea Food Restaurant","lat":36.20335875535593,"lng":28.1401896188144,"url":"https://maps.app.goo.gl/BQHAxew1vaRjgSqj8?g_st=ipc","address":"Archangelos 851 02","categoryIds":["fish-tavernas"],"categories":["Fish Tavernas"],"distanceKm":11.493080184916753},{"id":"greekRestaurants_091086b3e4f0","slug":"taverna-to-steki-0910","kind":"restaurant","name":"Taverna To Steki","lat":36.214820215510855,"lng":28.116222906463367,"url":"https://maps.app.goo.gl/whsyEjKzT1J9MqBz8?g_st=ipc","address":"Mezedopwleio To steki, Αρχάγγελος 851 02","categoryIds":["greek-restaurants"],"categories":["Greek Restaurants"],"distanceKm":11.66312768283556},{"id":"fishTavernasRestaurants_5c524a0645d5","slug":"taverna-to-steki-5c52","kind":"restaurant","name":"Taverna To Steki","lat":36.21481289800798,"lng":28.116223331846093,"url":"https://maps.app.goo.gl/uGAqX7jPtUdH564r6?g_st=ipc","address":"Mezedopwleio To steki, Archaggelos 851 02","categoryIds":["fish-tavernas"],"categories":["Fish Tavernas"],"distanceKm":11.663719597519398},{"id":"familyFriendly_79cc8da6366f","slug":"butterflies-valley-79cc","kind":"restaurant","name":"Butterflies Valley","lat":36.33937370008562,"lng":28.059689128523214,"url":"https://maps.app.goo.gl/VV66xLTvU3w6LKzy9?g_st=ipc","address":"Επάνω Καλαμωνας 851 06","categoryIds":["family-friendly"],"categories":["Kid Friendly Locations"],"distanceKm":13.625126072112543},{"id":"municipalities_f04269be7e15","slug":"ialysos-f042","kind":"municipality","name":"Ιαλυσός","lat":36.4149,"lng":28.1588,"region":"Ρόδος","name_en":"Ialysos","region_en":"Rhodes","distanceKm":13.934863578530807},{"id":"municipalities_949baf66ab53","slug":"ixia-949b","kind":"municipality","name":"Ίξια","lat":36.4328,"lng":28.2056,"aliases":["Ιξια"],"region":"Ρόδος","name_en":"Ixia","region_en":"Rhodes","distanceKm":15.405767692629023},{"id":"municipalities_0334126572d2","slug":"rodos-0334","kind":"municipality","name":"Ρόδος","lat":36.434,"lng":28.217,"aliases":["Rodos","Rhodos","Ρόδη","Ροδος"],"region":"Δωδεκάνησα","name_en":"Rhodes","region_en":"Dodecanese","distanceKm":15.599037202309054},{"id":"coffeeBrunchRestaurants_e533a6bcb85f","slug":"naval-cafe-bar-restaurant-e533","kind":"restaurant","name":"NAVAL Cafe Bar Restaurant","lat":36.43323816273261,"lng":28.237832164715215,"url":"https://maps.app.goo.gl/LEtJZTyLhqkrZEGE7?g_st=ipc","address":"Rhodes","categoryIds":["coffee-brunch"],"categories":["Coffee & Brunch Spots"],"distanceKm":15.795451698147819},{"id":"dessertsRestaurants_ebbd52b2670e","slug":"hatzifotiou-ebbd","kind":"restaurant","name":"Hatzifotiou","lat":36.436204834104664,"lng":28.23364904254758,"url":"https://maps.app.goo.gl/KUPjw8WfQrcXZbYA6?g_st=ipc","address":"Kanada 69, Rodos 851 32","categoryIds":["desserts"],"categories":["Dessert Shops"],"distanceKm":16.04599322307792},{"id":"fishTavernasRestaurants_21b0c4363779","slug":"pizanias-the-sea-star-21b0","kind":"restaurant","name":"Pizanias The Sea Star","lat":36.44219184483265,"lng":28.227392660524885,"url":"https://maps.app.goo.gl/bmjrpg6PxNfVuRyLA?g_st=ipc","address":"Sofokleous 24, Rodos 851 31","categoryIds":["fish-tavernas"],"categories":["Fish Tavernas"],"distanceKm":16.612472591452462},{"id":"greekRestaurants_17adb0f648d3","slug":"mama-sofia-17ad","kind":"restaurant","name":"Μαμά Σοφία","lat":36.4441876301452,"lng":28.223517806980094,"url":"https://maps.app.goo.gl/X3ifevtVb6h2atUp6?g_st=ipc","address":"Οδός Ορφέως 28, Παλιά Πόλη, 28 Orfeos Street, Old Town, Rhodes/Rodos 851 00","categoryIds":["greek-restaurants"],"categories":["Greek Restaurants"],"distanceKm":16.787172544090662},{"id":"mustSeeAttractions_934f36a67efa","slug":"medieval-city-of-rhodes-934f","kind":"restaurant","name":"Medieval City of Rhodes","lat":36.44472167652259,"lng":28.227519564434186,"url":"https://maps.app.goo.gl/ni4J6nqoFxCxVhof9?g_st=ipc","address":"Pl. Mouson 6, Rodos 851 00","categoryIds":["attractions"],"categories":["Must-See Attractions"],"distanceKm":16.892567203442315},{"id":"mustSeeAttractions_d121969affdc","slug":"palace-of-the-grand-master-of-the-knights-of-rhodes-d121","kind":"restaurant","name":"Palace of the Grand Master of the Knights of Rhodes","lat":36.44545330682862,"lng":28.224197135579786,"url":"https://maps.app.goo.gl/R9sce6Eydu3PYta2A?g_st=ipc","address":"Ippoton, Rodos 851 00","categoryIds":["attractions"],"categories":["Must-See Attractions"],"distanceKm":16.934226243770695},{"id":"fishTavernasRestaurants_7e035939a6db","slug":"traditional-cafe-symi-7e03","kind":"restaurant","name":"Traditional Cafe Symi","lat":36.447396932123645,"lng":28.225462639664087,"url":"https://maps.app.goo.gl/bB5NM791bDAKeYYP8?g_st=ipc","address":"Nea Agora 109, Rodos 851 00","categoryIds":["fish-tavernas"],"categories":["Fish Tavernas"],"distanceKm":17.162779185319582},{"id":"burgersRestaurants_8219677fe965","slug":"nom-street-food-smashed-burgers-8219","kind":"restaurant","name":"Nom street food & smashed burgers","lat":36.44818806230804,"lng":28.221540618444198,"url":"https://maps.app.goo.gl/jzcVrFqav7KsRnsy7?g_st=ipc","address":"Sofokli Venizelou 30, Rodos 851 00","categoryIds":["burgers"],"categories":["Burger Spots"],"distanceKm":17.209160417433907},{"id":"mustSeeAttractions_9e44fa658aa5","slug":"colossus-of-rhodes-9e44","kind":"restaurant","name":"Colossus of Rhodes","lat":36.451202414947005,"lng":28.227839764419826,"url":"https://maps.app.goo.gl/11HZKgu3Z71ViGrP9?g_st=ipc","address":"Pl. Neoriou, Rodos 851 00","categoryIds":["attractions"],"categories":["Must-See Attractions"],"distanceKm":17.61024254432808},{"id":"cheapEatsRestaurants_a7d0ccb07796","slug":"mr-g-s-psitopoleio-greek-street-food-a7d0","kind":"restaurant","name":"Mr.G's - Ψητοπωλείο - Greek Street Food","lat":36.45328895287043,"lng":28.221248936648102,"url":"https://maps.app.goo.gl/HQkLX39r1Ru88dxq8?g_st=ipc","address":"Geor. Papanikolaou 8, Rodos 851 00","categoryIds":["cheap-eats"],"categories":["Gyros & Cheap Eats"],"distanceKm":17.770563407587094},{"id":"greekRestaurants_8fa1ab96ff3b","slug":"estiatorio-paragka-8fa1","kind":"restaurant","name":"Εστιατόριο Παράγκα","lat":36.26098242565237,"lng":27.96998024225855,"url":"https://maps.app.goo.gl/rr6G3z1rwAh5ZVjW6?g_st=ipc","address":"Επαρ.Οδ. Απόλλωνα 13, Απόλλωνα 851 06","categoryIds":["greek-restaurants"],"categories":["Greek Restaurants"],"distanceKm":21.046392890026272},{"id":"greekRestaurants_a94a8469fcf3","slug":"mavrikos-a94a","kind":"restaurant","name":"Mavrikos","lat":36.09247847091618,"lng":28.08475093214934,"url":"https://maps.app.goo.gl/RT2NNoy2A6WNhV5d8?g_st=ipc","address":"Λίνδος 851 07","categoryIds":["greek-restaurants"],"categories":["Greek Restaurants"],"distanceKm":24.75143940841104},{"id":"municipalities_f23b3fb563b4","slug":"lindos-f23b","kind":"municipality","name":"Λίνδος","lat":36.0914,"lng":28.085,"region":"Ρόδος","name_en":"Lindos","region_en":"Rhodes","distanceKm":24.850871279072564}],"mentionedGuides":[],"canonicalSlug":"kolympia-a9df","enrichment":{"summary_en":"Κολύμπια is a curated neighborhood area in Ρόδος. It is connected to 0 nearby Googlementor picks to help travelers build a stronger local route.","summary_el":"Κολύμπια είναι ένα επιλεγμένο σημείο ενδιαφέροντος στην περιοχή Ρόδος. Συνδέεται με 0 κοντινές προτάσεις του Googlementor για πιο ολοκληρωμένη εμπειρία.","vibe_tags":["local-neighborhood","base-for-exploring"],"best_for":["first-time visitors","walk-and-explore days","return visitors"],"visit_moments":["late morning walks","sunset exploration"],"practical_note":"0 curated places are within walkable distance from this area center.","nearby_walkable_count":0,"nearby_count_2km":0,"confidence":0.55},"areaContext":null,"intentContexts":[]},"__N_SSG":true}