{"pageProps":{"entity":{"id":"italianRestaurants_c9470358a12d","slug":"la-pasteria-c947","kind":"restaurant","name":"La Pasteria","lat":37.97832911911956,"lng":23.73614187652223,"url":"https://maps.app.goo.gl/4tmrg1wVrWp5rgjx6?g_st=ipc","address":"Βαλαωρίτου 15, Αθήνα 106 71","categoryIds":["italian"],"categories":["Italian Restaurants"]},"sameCategory":[{"id":"italianRestaurants_b4580bbde39a","slug":"piadina-lumbro-b458","kind":"restaurant","name":"Piadina Lumbro","lat":37.97943796124596,"lng":23.735657958882037,"url":"https://maps.app.goo.gl/uGAbtwYha4Eeb7c56?g_st=ipc","address":"Ομήρου 15, Αθήνα 106 72","categoryIds":["italian"],"categories":["Italian Restaurants"]},{"id":"italianRestaurants_a02be0df2fa9","slug":"frankie-a02b","kind":"restaurant","name":"Frankie","lat":37.98052235951531,"lng":23.738034947822758,"url":"https://maps.app.goo.gl/Ju5CstFm66m8QTbA9?g_st=ipc","address":"Σκουφά 42, Αθήνα 106 72","categoryIds":["italian"],"categories":["Italian Restaurants"]},{"id":"italianRestaurants_52398969c9ea","slug":"alex-the-fresh-pasta-bar-5239","kind":"restaurant","name":"ALEX the fresh pasta bar","lat":37.98144779340368,"lng":23.73652703184346,"url":"https://maps.app.goo.gl/sAWyTjj3m9qMaTaY8?g_st=ipc","address":"Μασσαλίας 16, Αθήνα 106 80","categoryIds":["italian"],"categories":["Italian Restaurants"]},{"id":"italianRestaurants_15f54ac83ec4","slug":"gloria-gati-15f5","kind":"restaurant","name":"Gloria Gati","lat":37.97802514944533,"lng":23.731662994218254,"url":"https://maps.app.goo.gl/VyAef5tB1eVm8LECA?g_st=ipc","address":"Πλ. Αγίου Γεωργίου Καρύτση 6, Αθήνα 105 61","categoryIds":["italian"],"categories":["Italian Restaurants"]},{"id":"italianRestaurants_e7c94ca15e1b","slug":"granello-pizza-italiana-e7c9","kind":"restaurant","name":"Granello - Pizza Italiana","lat":37.97667761548528,"lng":23.73173801660532,"url":"https://maps.app.goo.gl/nkhWXfUCf8UqXp5W9?g_st=ipc","address":"Περικλέους 18, Αθήνα 105 62","categoryIds":["italian"],"categories":["Italian Restaurants"]},{"id":"italianRestaurants_d9eb835a787b","slug":"il-postino-d9eb","kind":"restaurant","name":"IL POSTINO","lat":37.982131533851984,"lng":23.737093611323974,"url":"https://maps.app.goo.gl/7Te4ShNfhnjxZ4C97?g_st=ipc","address":"Γριβαίων 3, Αθήνα 106 80","categoryIds":["italian"],"categories":["Italian Restaurants"]},{"id":"italianRestaurants_41ab3f71a154","slug":"aliola-s-ermou-41ab","kind":"restaurant","name":"Aliola’s Ermou","lat":37.97633249966058,"lng":23.7318293724108,"url":"https://maps.app.goo.gl/4FHfDnNt7PhJxhxK6?g_st=ipc","address":"Ερμού 18 &, Διομείας 2, Αθήνα 105 63","categoryIds":["italian"],"categories":["Italian Restaurants"]},{"id":"italianRestaurants_9735f36161b6","slug":"pracsitele-9735","kind":"restaurant","name":"Pracsitele","lat":37.978075255049035,"lng":23.730655699973674,"url":"https://maps.app.goo.gl/uY33YuN8n7TKUXd86?g_st=ipc","address":"Πραξιτέλους 7, Αθήνα 105 62","categoryIds":["italian"],"categories":["Italian Restaurants"]},{"id":"italianRestaurants_a85b9e4df417","slug":"brigante-syntagma-a85b","kind":"restaurant","name":"Brigante (Σύνταγμα)","lat":37.97426577787846,"lng":23.734179177201504,"url":"https://maps.app.goo.gl/RmErpGj8TndJSV9v7?g_st=ipc","address":"Ξενοφώντος 6, Αθήνα 105 57","categoryIds":["italian"],"categories":["Italian Restaurants"]},{"id":"italianRestaurants_ef8284fad678","slug":"v1935-roof-garden-ef82","kind":"restaurant","name":"V1935 Roof Garden","lat":37.974997891356715,"lng":23.732428069404467,"url":"https://maps.app.goo.gl/TKodgxdpAuijQZCk7?g_st=ipc","address":"Βουλής 29, Αθήνα 105 57","categoryIds":["italian"],"categories":["Italian Restaurants"]},{"id":"italianRestaurants_8dc12f0e929e","slug":"ovio-8dc1","kind":"restaurant","name":"OVIO","lat":37.974772406489194,"lng":23.732726038133688,"url":"https://maps.app.goo.gl/YsVGa9MzZPoFLxFs9?g_st=ipc","address":"Απόλλωνος 4, Αθήνα 105 57","categoryIds":["italian"],"categories":["Italian Restaurants"]},{"id":"italianRestaurants_4213a3098622","slug":"ami-italian-bistrot-4213","kind":"restaurant","name":"Ami Italian Bistrot","lat":37.97469248298705,"lng":23.732316050865755,"url":"https://maps.app.goo.gl/ddcDFfjhHBSTkLzH8?g_st=ipc","address":"Βουλής, Απόλλωνος &, Αθήνα 105 57","categoryIds":["italian"],"categories":["Italian Restaurants"]}],"nearby":[{"id":"coffeeBrunchRestaurants_741e5993d85c","slug":"paul-athens-741e","kind":"restaurant","name":"PAUL Athens","lat":37.977628510320386,"lng":23.735790636370144,"url":"https://maps.app.goo.gl/2zHj3YHoNrWUYk8f8?g_st=ipc","address":"Πανεπιστημίου 10, Αθήνα 106 71","categoryIds":["coffee-brunch"],"categories":["Coffee & Brunch Spots"],"distanceKm":0.08376649882734885},{"id":"luxuryDiningRestaurants_cde7552f30ab","slug":"tilemachos-athens-cde7","kind":"restaurant","name":"Τηλέμαχος Athens","lat":37.97762848061713,"lng":23.73578847774419,"url":"https://maps.app.goo.gl/RBuX85zG8FLEfgP38?g_st=ipc","address":"Πανεπιστημίου 10, Αθήνα 106 71","categoryIds":["luxury-dining"],"categories":["Luxury Dining"],"distanceKm":0.0838392880746743},{"id":"burgersRestaurants_3c1c73d21fec","slug":"meat-n-roses-kolonaki-3c1c","kind":"restaurant","name":"Meat n Roses Kolonaki","lat":37.97828442263524,"lng":23.735087640545906,"url":"https://maps.app.goo.gl/qGwCStnKNtrJzrtm6?g_st=ipc","address":"Αμερικής 7, Αθήνα 106 72","categoryIds":["burgers","cheap-eats"],"categories":["Burger Spots","Gyros & Cheap Eats"],"legacySlugs":["meat-n-roses-kolonaki-9219"],"distanceKm":0.0925359887436333},{"id":"coffeeBrunchRestaurants_d047b317da2a","slug":"to-tsai-d047","kind":"restaurant","name":"To Tsai","lat":37.97897316301174,"lng":23.737126960431553,"url":"https://maps.app.goo.gl/xwzLF5n6xn8fr2tf8?g_st=ipc","address":"Αλ. Σούτσου 19, Αθήνα 106 71","categoryIds":["coffee-brunch","vegetarian"],"categories":["Coffee & Brunch Spots","Vegetarian Friendly Restaurants"],"legacySlugs":["to-tsai-23ba"],"distanceKm":0.11217566757301045},{"id":"burgersRestaurants_73735eff606b","slug":"meat-n-roses-kolonaki-7373","kind":"restaurant","name":"Meat n Roses Kolonaki","lat":37.97930236645354,"lng":23.735454286708567,"url":"https://maps.app.goo.gl/KJyNqjkU3cm9AqGa8?g_st=ic","address":"Omirou 13, Athina 106 72","categoryIds":["burgers"],"categories":["Burger Spots"],"distanceKm":0.12386923834349366},{"id":"italianRestaurants_b4580bbde39a","slug":"piadina-lumbro-b458","kind":"restaurant","name":"Piadina Lumbro","lat":37.97943796124596,"lng":23.735657958882037,"url":"https://maps.app.goo.gl/uGAbtwYha4Eeb7c56?g_st=ipc","address":"Ομήρου 15, Αθήνα 106 72","categoryIds":["italian"],"categories":["Italian Restaurants"],"distanceKm":0.13038898039222901},{"id":"luxuryDiningRestaurants_35d3fcaae0e0","slug":"athenee-35d3","kind":"restaurant","name":"Athénée","lat":37.97732441090204,"lng":23.73522238103731,"url":"https://maps.app.goo.gl/XVTtg2fQJZ9BgKwf8?g_st=ipc","address":"Βουκουρεστίου 9, Αθήνα 106 71","categoryIds":["luxury-dining"],"categories":["Luxury Dining"],"distanceKm":0.13775436379491285},{"id":"dessertsRestaurants_212bd4b3371e","slug":"desire-zacharoplasteio-212b","kind":"restaurant","name":"DESIRE Ζαχαροπλαστείο","lat":37.97875008220235,"lng":23.737643413526353,"url":"https://maps.app.goo.gl/622nuTbk44qURXdA9?g_st=ipc","address":"Δημοκρίτου 6, Αθήνα 106 71","categoryIds":["desserts"],"categories":["Dessert Shops"],"distanceKm":0.1396838480046084},{"id":"coffeeBrunchRestaurants_394da04a2026","slug":"it-restaurant-kolonaki-394d","kind":"restaurant","name":"IT restaurant Kolonaki","lat":37.9781134250021,"lng":23.737763201387953,"url":"https://maps.app.goo.gl/5dn3SzH3a8fsGfeW7?g_st=ipc","address":"106 71 Voukourestiou 30 &, Αλ. Σούτσου, Αθήνα 106 71","categoryIds":["coffee-brunch"],"categories":["Coffee & Brunch Spots"],"distanceKm":0.14411694246796306},{"id":"asianRestaurants_e45a00190680","slug":"nyx-japanese-rooftop-gastrobar-e45a","kind":"restaurant","name":"NYX Japanese Rooftop Gastrobar","lat":37.979692107976724,"lng":23.736124325689694,"url":"https://maps.app.goo.gl/Tg5ncVYwYwG98YZBA?g_st=ipc","address":"Ομήρου 19, Αθήνα 106 19","categoryIds":["asian","luxury-dining","rooftop-lounges"],"categories":["Asian Restaurants","Luxury Dining","Rooftop Lounges"],"legacySlugs":["nyx-japanese-rooftop-gastrobar-3e6e","nyx-japanese-rooftop-gastrobar-f14e"],"distanceKm":0.1515652525504788},{"id":"luxuryDiningRestaurants_1c82eb719373","slug":"mappemonde-restaurant-bar-lounge-1c82","kind":"restaurant","name":"MAPPEMONDE RESTAURANT BAR-LOUNGE","lat":37.97696364697298,"lng":23.73616989138591,"url":"https://maps.app.goo.gl/WYq3Lbdn3q9HxutG9?g_st=ipc","address":"4 Eleftheriou Venizelou Avenue and, Κριεζώτου 2, Αθήνα 106 71","categoryIds":["luxury-dining","rooftop-lounges"],"categories":["Luxury Dining","Rooftop Lounges"],"legacySlugs":["mappemonde-restaurant-bar-lounge-a1dc"],"distanceKm":0.1518534292506249},{"id":"coffeeBrunchRestaurants_89f23e6089a9","slug":"philos-athens-89f2","kind":"restaurant","name":"Philos Athens","lat":37.97913933627947,"lng":23.73788834865789,"url":"https://maps.app.goo.gl/jExQQH2yipA8bApt9?g_st=ipc","address":"Σόλωνος 32, Αθήνα 106 73","categoryIds":["coffee-brunch"],"categories":["Coffee & Brunch Spots"],"distanceKm":0.17761918212811792},{"id":"coffeeBrunchRestaurants_ad607df7652f","slug":"samba-coffee-roasters-the-shop-ad60","kind":"restaurant","name":"Samba Coffee Roasters | The Shop","lat":37.9794317267494,"lng":23.73762622482217,"url":"https://maps.app.goo.gl/34yfEmMHeLiaz3iD9?g_st=ipc","address":"Σόλωνος 36, Αθήνα 106 73","categoryIds":["coffee-brunch"],"categories":["Coffee & Brunch Spots"],"distanceKm":0.17876771056909013},{"id":"luxuryDiningRestaurants_7703e92f7675","slug":"alexander-s-cigar-lounge-hotel-grande-bretagne-7703","kind":"restaurant","name":"Alexander's Cigar Lounge - Hotel Grande Bretagne","lat":37.9765761269288,"lng":23.735530035440927,"url":"https://maps.app.goo.gl/ATToqJxfAUoZ5G9K9?g_st=ipc","address":"Ξενοδοχείο Μεγάλη Βρεταννία, Αθήνα 105 64","categoryIds":["luxury-dining"],"categories":["Luxury Dining"],"distanceKm":0.2021663511472508},{"id":"coffeeBrunchRestaurants_8e0209d5d821","slug":"efimerida-ath-8e02","kind":"restaurant","name":"Εφημερίδα ATH","lat":37.97982401641368,"lng":23.734805099489133,"url":"https://maps.app.goo.gl/Kv2HqL5VxXf39c5Y7?g_st=ipc","address":"Βησσαρίωνος 9, Αθήνα 106 72","categoryIds":["coffee-brunch"],"categories":["Coffee & Brunch Spots"],"distanceKm":0.203367933284631},{"id":"rooftopLoungesRestaurants_a85e8793b95e","slug":"galaxy-bar-a85e","kind":"restaurant","name":"Galaxy Bar","lat":37.97799760915879,"lng":23.73380131955468,"url":"https://maps.app.goo.gl/onyhWrgj9TNpbXLX8?g_st=ipc","address":"Σταδίου 10, Αθήνα 105 62","categoryIds":["rooftop-lounges"],"categories":["Rooftop Lounges"],"distanceKm":0.20843271928961682},{"id":"luxuryDiningRestaurants_0523e221d253","slug":"gb-roof-garden-restaurant-bar-0523","kind":"restaurant","name":"GB Roof Garden Restaurant & Bar","lat":37.97622612223311,"lng":23.735512001439584,"url":"https://maps.app.goo.gl/VcZAREtQXac8Kb7L8?g_st=ipc","address":"Γεωρ. Α' 1, Αθήνα 105 64","categoryIds":["luxury-dining"],"categories":["Luxury Dining"],"distanceKm":0.2402713763378501},{"id":"rooftopLoungesRestaurants_c34049f74a4c","slug":"gb-roof-garden-restaurant-bar-c340","kind":"restaurant","name":"GB Roof Garden Restaurant & Bar","lat":37.97622491152129,"lng":23.73551130501855,"url":"https://maps.app.goo.gl/dd7gZSbVftPp5h3y8?g_st=ipc","address":"GB Roof Garden Restaurant & Bar","categoryIds":["rooftop-lounges"],"categories":["Rooftop Lounges"],"distanceKm":0.24041642685871772},{"id":"luxuryDiningRestaurants_bd5ed00d450e","slug":"the-winter-garden-bd5e","kind":"restaurant","name":"The Winter Garden","lat":37.97623725810017,"lng":23.735438816517487,"url":"https://maps.app.goo.gl/jhibZwcpc2dwd9vw9?g_st=ipc","address":"Γεωρ. Α' 1, Αθήνα 105 64","categoryIds":["luxury-dining"],"categories":["Luxury Dining"],"distanceKm":0.24062873838122142},{"id":"luxuryDiningRestaurants_625d4bb407a4","slug":"tudor-hall-625d","kind":"restaurant","name":"Tudor Hall","lat":37.97626476939356,"lng":23.73492119381686,"url":"https://maps.app.goo.gl/cS5CQSpmozciczpaA?g_st=ipc","address":"Γεωρ. Α' 3, Αθήνα 105 64","categoryIds":["luxury-dining","rooftop-lounges"],"categories":["Luxury Dining","Rooftop Lounges"],"legacySlugs":["tudor-hall-611d"],"distanceKm":0.25325570547026927},{"id":"mustSeeAttractions_4c1bed18d9f3","slug":"academy-of-athens-4c1b","kind":"restaurant","name":"Academy of Athens","lat":37.980052000475574,"lng":23.73401307902472,"url":"https://maps.app.goo.gl/ggPZ2e3QeajFYXJX8?g_st=ipc","address":"Panepistimiou 28, Athina 106 79","categoryIds":["attractions"],"categories":["Must-See Attractions"],"distanceKm":0.2674226355868481},{"id":"monasteriesChurches_4b11b4e1cf5d","slug":"ieros-naos-agioy-dionysioy-areopagitoy-polioychoy-athinon-4b11","kind":"restaurant","name":"Ιερός Ναός Αγίου Διονυσίου Αρεοπαγίτου, Πολιούχου Αθηνών","lat":37.97972265813733,"lng":23.73873188558116,"url":"https://maps.app.goo.gl/m2sqAvFCJXsVJyjB8?g_st=ipc","address":"Σκουφά 34, Αθήνα 106 72","categoryIds":["monasteries-churches"],"categories":["Monasteries & Spiritual Sites"],"distanceKm":0.27485241814043426},{"id":"coffeeBrunchRestaurants_19d13a25b343","slug":"filion-19d1","kind":"restaurant","name":"Φίλιον","lat":37.980020632255595,"lng":23.738452651724426,"url":"https://maps.app.goo.gl/Ts2X8wZmEjWPZrR3A?g_st=ipc","address":"Σκουφά 34, Αθήνα 106 72","categoryIds":["coffee-brunch"],"categories":["Coffee & Brunch Spots"],"distanceKm":0.2764001188022881},{"id":"cheapEatsRestaurants_fa954f16db19","slug":"i-kantina-tis-karagiorgi-servias-o-kritikos-fa95","kind":"restaurant","name":"Η καντίνα της Καραγιώργη Σερβίας (Ο Κρητικός)","lat":37.97642356412653,"lng":23.734100321342698,"url":"https://maps.app.goo.gl/EeFjaZknqeTjfN8V6?g_st=ipc","address":"Καραγιώργη Σερβίας 2, Αθήνα 105 62","categoryIds":["cheap-eats"],"categories":["Gyros & Cheap Eats"],"distanceKm":0.2773387203958253}],"mentionedGuides":[{"slug":"american-college-of-greece-agia-paraskevi-guide-el","title":"American College of Greece: Οδηγός Αγίας Παρασκευής"},{"slug":"american-college-of-greece-agia-paraskevi-guide","title":"American College of Greece: Welcome to Agia Paraskevi"}],"canonicalSlug":"la-pasteria-c947","enrichment":{"summary_en":"La Pasteria is a curated restaurant in Αθήνα 106 71 in the Italian Restaurants collection. It is connected to 242 nearby Googlementor picks to help travelers build a stronger local route.","summary_el":"La Pasteria είναι ένα επιλεγμένο σημείο φαγητού στην περιοχή Αθήνα 106 71 και ανήκει στη συλλογή Italian Restaurants. Συνδέεται με 242 κοντινές προτάσεις του Googlementor για πιο ολοκληρωμένη εμπειρία.","vibe_tags":["curated"],"best_for":["first-time visitors","food lovers"],"visit_moments":["lunch stop","dinner stop"],"practical_note":"Address and direct map link are available for easy turn-by-turn access.","nearby_walkable_count":242,"nearby_count_2km":639,"confidence":0.98},"areaContext":{"slug":"syntagma","name":"Syntagma","nameEl":"Σύνταγμα"},"intentContexts":[{"href":"/italian/syntagma","label":"Italian Restaurants in Syntagma","categorySlug":"italian","categoryName":"Italian Restaurants","areaSlug":"syntagma","areaName":"Syntagma","areaNameEl":"Σύνταγμα"}]},"__N_SSG":true}