{"pageProps":{"entity":{"id":"familyFriendly_d45bb5296460","slug":"maroussi-tennis-club-d45b","kind":"restaurant","name":"Maroussi Tennis Club","lat":38.04651986209008,"lng":23.825630520397997,"url":"https://maps.app.goo.gl/pF3h6gGnqMiku8Wg9?g_st=ic","address":"Sismanogliou 74, Marousi 151 26","categoryIds":["family-friendly"],"categories":["Kid Friendly Locations"]},"sameCategory":[{"id":"familyFriendly_a9b8fd64bf88","slug":"funmily-eat-drink-play-a9b8","kind":"restaurant","name":"FUNMILY eat-drink-play","lat":38.051902735451634,"lng":23.82889440448781,"url":"https://maps.app.goo.gl/5ypCQjX1CzhhmDWMA?g_st=ipc","address":"Οδός Πεντέλης 114, Μαρούσι 151 26","categoryIds":["family-friendly"],"categories":["Kid Friendly Locations"]},{"id":"familyFriendly_a06976665fe3","slug":"dentrospito-a069","kind":"restaurant","name":"Δεντρόσπιτο","lat":38.04193059212469,"lng":23.83336989792643,"url":"https://maps.app.goo.gl/xX4rv5hpzm2R55iv8?g_st=ipc","address":"Λεωφ. Πεντέλης 102, Βριλήσσια 152 35","categoryIds":["family-friendly"],"categories":["Kid Friendly Locations"]},{"id":"familyFriendly_86f9e83bcddf","slug":"parko-proin-naytikis-vasis-86f9","kind":"restaurant","name":"Πάρκο Πρώην Ναυτικής Βάσης","lat":38.045491355804536,"lng":23.838523859146985,"url":"https://maps.app.goo.gl/bVGsyiVv6EgBKgQg7?g_st=ipc","address":"Λεωφ. Πεντέλης 41, Βριλήσσια 152 35","categoryIds":["family-friendly"],"categories":["Kid Friendly Locations"]},{"id":"familyFriendly_aade95e892c7","slug":"parko-mikis-theodorakis-typet-aade","kind":"restaurant","name":"Πάρκο Μίκης Θεοδωράκης - ΤΥΠΕΤ","lat":38.0376288072202,"lng":23.83650236719041,"url":"https://maps.app.goo.gl/pvC5VhagjzGcsF3b7?g_st=ipc","address":"Υμηττού 57, Βριλήσσια 152 35","categoryIds":["family-friendly"],"categories":["Kid Friendly Locations"]},{"id":"familyFriendly_a0024b80ee95","slug":"block-games-a002","kind":"restaurant","name":"Block Games","lat":38.05634420757886,"lng":23.803830698656842,"url":"https://maps.app.goo.gl/KumHXE484XwJxn489?g_st=ipc","address":"Περικλέους 1, Μαρούσι 151 22","categoryIds":["family-friendly"],"categories":["Kid Friendly Locations"]},{"id":"familyFriendly_8c5536516bb1","slug":"theatraki-8c55","kind":"restaurant","name":"Theatraki","lat":38.02225032968998,"lng":23.814351171164784,"url":"https://maps.app.goo.gl/jauuVyHDGdr1MR746?g_st=ic","address":"Iraklidon 31, Chalandri 152 34","categoryIds":["family-friendly"],"categories":["Kid Friendly Locations"]},{"id":"familyFriendly_b5b6b464edb9","slug":"planet-cosmos-b5b6","kind":"restaurant","name":"Planet Cosmos","lat":38.036967894838305,"lng":23.858200213835428,"url":"https://maps.app.goo.gl/p7oh1sqhz5MkfN978?g_st=ipc","address":"Κλεισθένους 399, Γέρακας 153 44","categoryIds":["family-friendly"],"categories":["Kid Friendly Locations"]},{"id":"familyFriendly_006b710ec86a","slug":"ktima-aristi-006b","kind":"restaurant","name":"ΚΤΗΜΑ ΑΡΙΣΤΗ","lat":38.01987728596246,"lng":23.81566062458868,"url":"https://maps.app.goo.gl/82avq8dPqN3VZq7W7?g_st=ipc","address":"Πλουτάρχου 10, Χαλάνδρι 152 34","categoryIds":["family-friendly"],"categories":["Kid Friendly Locations"]},{"id":"familyFriendly_bdbc58481ced","slug":"enydreio-xplore-oceans-bdbc","kind":"restaurant","name":"Ενυδρείο XPLORE Oceans","lat":38.03457407087024,"lng":23.791982125171685,"url":"https://maps.app.goo.gl/qibAD4W4gNvVSf698?g_st=ipc","address":"Αγησιλάου, Μαρούσι 151 23","categoryIds":["family-friendly"],"categories":["Kid Friendly Locations"]},{"id":"familyFriendly_84e8f16ae20b","slug":"ethniko-moyseio-fysikis-istorias-goylandri-84e8","kind":"restaurant","name":"Εθνικό Μουσείο Φυσικής Ιστορίας Γουλανδρή","lat":38.07463041368346,"lng":23.814406620087777,"url":"https://maps.app.goo.gl/3kET1gVajc9wtcHj9?g_st=ipc","address":"Όθωνος 100, Κηφισιά 145 62","categoryIds":["family-friendly"],"categories":["Kid Friendly Locations"]},{"id":"familyFriendly_714cd57583c7","slug":"xplore-714c","kind":"restaurant","name":"XPLORE","lat":38.034636437257035,"lng":23.79103363842638,"url":"https://maps.app.goo.gl/TKKhEa5LN1Dy53v36?g_st=ipc","address":"Λεωφ. Κηφισίας 37Α, Μαρούσι 151 23","categoryIds":["family-friendly"],"categories":["Kid Friendly Locations"]},{"id":"familyFriendly_ad68bde06d5c","slug":"replayce-ad68","kind":"restaurant","name":"Replayce","lat":38.04114619526046,"lng":23.788356717778257,"url":"https://maps.app.goo.gl/ByfaE3CKqvW9hrLv6?g_st=ipc","address":"OAKA Gate Z, Αμαρυσίας Αρτέμιδος, Μαρούσι 151 22","categoryIds":["family-friendly"],"categories":["Kid Friendly Locations"]}],"nearby":[{"id":"cheapEatsRestaurants_5a1b3de4b0cd","slug":"ta-soyvlakia-tis-giagias-5a1b","kind":"restaurant","name":"Τα σουβλάκια της γιαγιάς","lat":38.04199101993577,"lng":23.824597588199378,"url":"https://maps.app.goo.gl/K9azEutYtVeRFeTB9?g_st=ipc","address":"Κυπρίων Αγωνιστών 50, Μαρούσι 151 26","categoryIds":["cheap-eats"],"categories":["Gyros & Cheap Eats"],"distanceKm":0.5116434319358314},{"id":"familyFriendly_a9b8fd64bf88","slug":"funmily-eat-drink-play-a9b8","kind":"restaurant","name":"FUNMILY eat-drink-play","lat":38.051902735451634,"lng":23.82889440448781,"url":"https://maps.app.goo.gl/5ypCQjX1CzhhmDWMA?g_st=ipc","address":"Οδός Πεντέλης 114, Μαρούσι 151 26","categoryIds":["family-friendly"],"categories":["Kid Friendly Locations"],"distanceKm":0.6632803473797734},{"id":"municipalities_797866e61212","slug":"melissia-7978","kind":"municipality","name":"Μελίσσια","lat":38.05,"lng":23.8333,"aliases":["Melissia","Melissa","Μελισσια"],"region":"Βόρεια Προάστια","name_en":"Melissia","region_en":"Northern Suburbs","distanceKm":0.7750914085192648},{"id":"fishTavernasRestaurants_62c7b8f3faa2","slug":"porfyra-62c7","kind":"restaurant","name":"ΠΟΡΦΥΡΑ","lat":38.05133265699478,"lng":23.83230614489945,"url":"https://maps.app.goo.gl/TQBY6fhE1DqGovNJ9?g_st=ipc","address":"Leof. Dimokratias 29, Melissia 151 27","categoryIds":["fish-tavernas"],"categories":["Fish Tavernas"],"distanceKm":0.792520678002433},{"id":"familyFriendly_a06976665fe3","slug":"dentrospito-a069","kind":"restaurant","name":"Δεντρόσπιτο","lat":38.04193059212469,"lng":23.83336989792643,"url":"https://maps.app.goo.gl/xX4rv5hpzm2R55iv8?g_st=ipc","address":"Λεωφ. Πεντέλης 102, Βριλήσσια 152 35","categoryIds":["family-friendly"],"categories":["Kid Friendly Locations"],"distanceKm":0.8483730333918782},{"id":"greekRestaurants_217beb188c9d","slug":"to-peyko-taverna-fagito-sto-choro-take-away-delivery-217b","kind":"restaurant","name":"Το Πευκο | Ταβέρνα - Φαγητό στο χώρο - Take Away - Delivery","lat":38.048953774865154,"lng":23.835609448784652,"url":"https://maps.app.goo.gl/2DPr3yhvS2JApV5x5","address":"Τήνου 12, Μελίσσια 151 27","categoryIds":["greek-restaurants"],"categories":["Greek Restaurants"],"distanceKm":0.9147639102385577},{"id":"burgersRestaurants_cdde40de0c45","slug":"the-burger-dudes-cdde","kind":"restaurant","name":"The Burger Dudes","lat":38.037808685524865,"lng":23.82651013380888,"url":"https://maps.app.goo.gl/nCm18QqReRW4TNmb6?g_st=ipc","address":"Θέτιδος 1, Βριλήσσια 152 35","categoryIds":["burgers"],"categories":["Burger Spots"],"distanceKm":0.9716966664229919},{"id":"italianRestaurants_206a9064f7f4","slug":"forget-about-it-206a","kind":"restaurant","name":"Forget About It","lat":38.03770860286521,"lng":23.82639404104221,"url":"https://maps.app.goo.gl/T4kAMQjZQmhxQyFN7?g_st=ipc","address":"Θέτιδος 1, Βριλήσσια 152 38","categoryIds":["italian"],"categories":["Italian Restaurants"],"distanceKm":0.9820461897135015},{"id":"coffeeBrunchRestaurants_4c5186ad6b82","slug":"the-roosters-vrilissia-4c51","kind":"restaurant","name":"The Roosters Vrilissia","lat":38.037656279094364,"lng":23.82632315275067,"url":"https://maps.app.goo.gl/Ujy91XzzUb5AuEK38?g_st=ipc","address":"Θέτιδος 1 &, Ομήρου 2, Βριλήσσια 152 38","categoryIds":["coffee-brunch"],"categories":["Coffee & Brunch Spots"],"distanceKm":0.9874501481856158},{"id":"cheapEatsRestaurants_666f9d7675e5","slug":"platanos-kempap-soyvlaki-666f","kind":"restaurant","name":"Πλάτανος Κεμπάπ-Σουβλάκι","lat":38.05130210276415,"lng":23.835854870928635,"url":"https://maps.app.goo.gl/uXenfuTid9hYf6He9?g_st=ipc","address":"Leof. Dimokratias 69, Melissia 151 27","categoryIds":["cheap-eats"],"categories":["Gyros & Cheap Eats"],"distanceKm":1.0413025044479416},{"id":"fishTavernasRestaurants_b5ecf6b7087f","slug":"psaromania-b5ec","kind":"restaurant","name":"Ψαρομανία","lat":38.048408639606166,"lng":23.81356249118105,"url":"https://maps.app.goo.gl/h2KMfix1JBmXpQQB9?g_st=ipc","address":"Δάφνης 57, Μαρούσι 151 25","categoryIds":["fish-tavernas"],"categories":["Fish Tavernas"],"distanceKm":1.0774179434804825},{"id":"burgersRestaurants_264306258d6e","slug":"busty-s-burger-2643","kind":"restaurant","name":"Busty's Burger","lat":38.05283037769694,"lng":23.815776704443905,"url":"https://maps.app.goo.gl/ZPYfcdYHMWXyKwF16?g_st=ipc","address":"Οδός Πεντέλης, Μαρούσι 151 26","categoryIds":["burgers"],"categories":["Burger Spots"],"distanceKm":1.1121426161019599},{"id":"familyFriendly_86f9e83bcddf","slug":"parko-proin-naytikis-vasis-86f9","kind":"restaurant","name":"Πάρκο Πρώην Ναυτικής Βάσης","lat":38.045491355804536,"lng":23.838523859146985,"url":"https://maps.app.goo.gl/bVGsyiVv6EgBKgQg7?g_st=ipc","address":"Λεωφ. Πεντέλης 41, Βριλήσσια 152 35","categoryIds":["family-friendly"],"categories":["Kid Friendly Locations"],"distanceKm":1.1348187458068093},{"id":"dessertsRestaurants_6ff752e919a0","slug":"nana-gioti-6ff7","kind":"restaurant","name":"Nana Gioti","lat":38.03608519844928,"lng":23.825679872970344,"url":"https://maps.app.goo.gl/AeWy5Es4sYdLyFSs7?g_st=ic","address":"Leof. Pentelis 24, Vrilissia 152 35","categoryIds":["desserts"],"categories":["Dessert Shops"],"distanceKm":1.1602897076074827},{"id":"burgersRestaurants_fe3476589c94","slug":"barbara-que-fe34","kind":"restaurant","name":"BarBara Que","lat":38.035803199648754,"lng":23.82668456854574,"url":"https://maps.app.goo.gl/qDrH9onsxTkW9iau8?g_st=ipc","address":"Εθ. Αντιστάσεως 27, Βριλήσσια 152 35","categoryIds":["burgers"],"categories":["Burger Spots"],"distanceKm":1.1952082843479186},{"id":"greekRestaurants_191a2f7954ba","slug":"to-aythaireto-191a","kind":"restaurant","name":"ΤΟ ΑΥΘΑΙΡΕΤΟ","lat":38.05739141623042,"lng":23.82532230565926,"url":"https://maps.app.goo.gl/oF5WnEmN9HdHPyPo9","address":"Πεύκων 10, Μαρούσι 151 26","categoryIds":["greek-restaurants"],"categories":["Greek Restaurants"],"distanceKm":1.2091628716824512},{"id":"cheapEatsRestaurants_26f9a7f050c1","slug":"the-handmade-souvlaki-ascension-26f9","kind":"restaurant","name":"The Handmade souvlaki Ascension","lat":38.035547141118364,"lng":23.82691676685056,"url":"https://maps.app.goo.gl/bx6SursnbZv26g7m7?g_st=ic","address":"Eth. Antistaseos 26, Vrilissia 152 35","categoryIds":["cheap-eats"],"categories":["Gyros & Cheap Eats"],"distanceKm":1.2252994355780849},{"id":"cheapEatsRestaurants_8375fe8079e7","slug":"umami-8375","kind":"restaurant","name":"umami","lat":38.03544459297975,"lng":23.82429599041442,"url":"https://maps.app.goo.gl/f1Pk44iqYYgPwZeK9?g_st=ipc","address":"Λεωφ. Πεντέλης 7A, Βριλήσσια 152 35","categoryIds":["cheap-eats"],"categories":["Gyros & Cheap Eats"],"distanceKm":1.237046745259799},{"id":"familyFriendly_aade95e892c7","slug":"parko-mikis-theodorakis-typet-aade","kind":"restaurant","name":"Πάρκο Μίκης Θεοδωράκης - ΤΥΠΕΤ","lat":38.0376288072202,"lng":23.83650236719041,"url":"https://maps.app.goo.gl/pvC5VhagjzGcsF3b7?g_st=ipc","address":"Υμηττού 57, Βριλήσσια 152 35","categoryIds":["family-friendly"],"categories":["Kid Friendly Locations"],"distanceKm":1.3725363081151747},{"id":"fishTavernasRestaurants_8fa64823bdb9","slug":"psarokokkalo-8fa6","kind":"restaurant","name":"Ψαροκόκκαλο","lat":38.05407148936591,"lng":23.838879406158195,"url":"https://maps.app.goo.gl/yjqJBhxZ9XwdkDBv7?g_st=ipc","address":"Ελ. Βενιζέλου 19, Μελίσσια 151 27","categoryIds":["fish-tavernas","luxury-dining"],"categories":["Fish Tavernas","Luxury Dining"],"legacySlugs":["psarokokkalo-9b9d"],"distanceKm":1.4321140463167445},{"id":"dessertsRestaurants_2b678632636d","slug":"gelateria-giovanni-2b67","kind":"restaurant","name":"Gelateria Giovanni","lat":38.05439248631055,"lng":23.83864189197517,"url":"https://maps.app.goo.gl/vHiSCvP87r2bMcgL7?g_st=ipc","address":"Μπουμπουλίνας 1, Μελίσσια 151 27","categoryIds":["desserts"],"categories":["Dessert Shops"],"distanceKm":1.436781296068838},{"id":"burgersRestaurants_ceb67d2517dd","slug":"godgilla-umami-street-food-ceb6","kind":"restaurant","name":"Godgilla umami street food","lat":38.056565975998105,"lng":23.814008768575892,"url":"https://maps.app.goo.gl/WyovvCKHo17WtrPb8?g_st=ipc","address":"Γεωρ. Κοτζιά 2, Μαρούσι 151 26","categoryIds":["burgers","cheap-eats"],"categories":["Burger Spots","Gyros & Cheap Eats"],"legacySlugs":["godgilla-umami-street-food-784d"],"distanceKm":1.5110921897193064},{"id":"cheapEatsRestaurants_b596150cf3db","slug":"trigono-melission-b596","kind":"restaurant","name":"ΤΡΙΓΩΝΟ ΜΕΛΙΣΣΙΩΝ","lat":38.05317998498453,"lng":23.84087862675326,"url":"https://maps.app.goo.gl/FjiCt1o7yoa331UN8?g_st=ipc","address":"Π. Τσαλδάρη 21, Μελίσσια 151 27","categoryIds":["cheap-eats"],"categories":["Gyros & Cheap Eats"],"distanceKm":1.5268050676039941},{"id":"dessertsRestaurants_953419857ace","slug":"zacharoplasteia-konstantinidis-9534","kind":"restaurant","name":"Ζαχαροπλαστεία ΚΩΝΣΤΑΝΤΙΝΙΔΗΣ","lat":38.04797259669027,"lng":23.808277250620737,"url":"https://maps.app.goo.gl/gRUZcBRcbiTVtWhq7?g_st=ipc","address":"Λεωφ. Κηφισίας 86, Μαρούσι 151 25","categoryIds":["desserts"],"categories":["Dessert Shops"],"distanceKm":1.5281238657871363}],"mentionedGuides":[],"canonicalSlug":"maroussi-tennis-club-d45b","enrichment":{"summary_en":"Maroussi Tennis Club is a curated restaurant in Marousi 151 26 in the Kid Friendly Locations collection. It is connected to 4 nearby Googlementor picks to help travelers build a stronger local route.","summary_el":"Maroussi Tennis Club είναι ένα επιλεγμένο σημείο φαγητού στην περιοχή Marousi 151 26 και ανήκει στη συλλογή Kid Friendly Locations. Συνδέεται με 4 κοντινές προτάσεις του Googlementor για πιο ολοκληρωμένη εμπειρία.","vibe_tags":["curated","family-ready"],"best_for":["first-time visitors","food lovers","families"],"visit_moments":["lunch stop","dinner stop"],"practical_note":"Address and direct map link are available for easy turn-by-turn access.","nearby_walkable_count":4,"nearby_count_2km":45,"confidence":0.98},"areaContext":{"slug":"melissia","name":"Melissia","nameEl":"Μελίσσια"},"intentContexts":[{"href":"/family-friendly/melissia","label":"Kid Friendly Locations in Melissia","categorySlug":"family-friendly","categoryName":"Kid Friendly Locations","areaSlug":"melissia","areaName":"Melissia","areaNameEl":"Μελίσσια"}]},"__N_SSG":true}