{"pageProps":{"entity":{"id":"dessertsRestaurants_3d8333fd87a3","slug":"mitsakakis-3d83","kind":"restaurant","name":"Mitsakakis","lat":35.2071841117343,"lng":26.1068075256644,"url":"https://maps.app.goo.gl/HzPozyu829t1F6kV8?g_st=ipc","address":"Kon/nou Karamanli 6, Sitia 723 00","categoryIds":["desserts"],"categories":["Dessert Shops"]},"sameCategory":[{"id":"dessertsRestaurants_247254daf3fe","slug":"queen-boutique-desserts-2472","kind":"restaurant","name":"Queen Boutique Desserts","lat":35.34028577182634,"lng":25.13554567801893,"url":"https://maps.app.goo.gl/6wWh68bY9rCwbUsj8?g_st=ic","address":"Ag. Titou, Iraklio 712 02","categoryIds":["desserts"],"categories":["Dessert Shops"]},{"id":"dessertsRestaurants_374f4778e206","slug":"bombus-street-loukoumas-coffee-374f","kind":"restaurant","name":"Bombus Street Loukoumas & Coffee","lat":35.33637912527502,"lng":25.133042788251835,"url":"https://maps.app.goo.gl/AAjaiaEXbfkmmMRW6?g_st=ipc","address":"Pl. Kornarou 31, Iraklio 712 01","categoryIds":["desserts"],"categories":["Dessert Shops"]},{"id":"coffeeBrunchRestaurants_0e2f635e730f","slug":"savoidakis-bakery-patisserie-rethymno-0e2f","kind":"restaurant","name":"Σαβοϊδάκης Bakery & Patisserie, Ρέθυμνο","lat":35.364498475258735,"lng":24.48871039963828,"url":"https://maps.app.goo.gl/JMMKwevbapcLZ5jw5?g_st=ipc","address":"Mark. Portaliou 57, Rethymno 741 50","categoryIds":["coffee-brunch","desserts"],"categories":["Coffee & Brunch Spots","Dessert Shops"],"legacySlugs":["savoidakis-bakery-patisserie-rethymno-b443"]},{"id":"coffeeBrunchRestaurants_64018e74309c","slug":"meltemi-6401","kind":"restaurant","name":"Meltemi","lat":36.545359250189506,"lng":26.352356416685993,"url":"https://maps.app.goo.gl/nFrvN47758pZXWzT8?g_st=ipc","address":"Astypalaia 859 00","categoryIds":["coffee-brunch","desserts"],"categories":["Coffee & Brunch Spots","Dessert Shops"],"legacySlugs":["meltemi-57c8"]},{"id":"coffeeBrunchRestaurants_a3547d8efbea","slug":"kolokytha-a354","kind":"restaurant","name":"Kolokytha","lat":36.54726990012019,"lng":26.353646413648903,"url":"https://maps.app.goo.gl/6FaxgMCjdWj9EPA48?g_st=ipc","address":"Unnamed Rd, Astipalea 859 00","categoryIds":["coffee-brunch","desserts"],"categories":["Coffee & Brunch Spots","Dessert Shops"],"legacySlugs":["kolokytha-3090"]},{"id":"dessertsRestaurants_ebef2944eed9","slug":"lolita-s-gelato-ebef","kind":"restaurant","name":"Lolita's Gelato","lat":36.46273695850675,"lng":25.376386479037105,"url":"https://maps.app.goo.gl/c2iaJjfqekF4QV9w5?g_st=ipc","address":"Oia 847 02","categoryIds":["desserts"],"categories":["Dessert Shops"]},{"id":"dessertsRestaurants_2726c61e3f6e","slug":"mikraki-gelato-2726","kind":"restaurant","name":"Μικράκι gelato","lat":36.83144131849213,"lng":25.898487086486654,"url":"https://maps.app.goo.gl/QD97vczb4ZtE7gzR9?g_st=ipc","address":"Χώρα 840 08","categoryIds":["desserts"],"categories":["Dessert Shops"]},{"id":"dessertsRestaurants_4247bc679f6e","slug":"kallisto-4247","kind":"restaurant","name":"Kallisto","lat":36.83193327608509,"lng":25.897182643444378,"url":"https://maps.app.goo.gl/zxMDWyaDa8oTgjvt6?g_st=ipc","address":"Χώρα 840 08","categoryIds":["desserts"],"categories":["Dessert Shops"]},{"id":"dessertsRestaurants_3d1262fd2666","slug":"fystiki-gelato-3d12","kind":"restaurant","name":"Fystiki Gelato","lat":36.93198529080786,"lng":25.599118541452043,"url":"https://maps.app.goo.gl/SRnK7VZPNJJSVHfq6?g_st=ipc","address":"Κουφονησίων, Koufonisi 843 00","categoryIds":["desserts"],"categories":["Dessert Shops"]},{"id":"dessertsRestaurants_bbd3b3b571f4","slug":"special-zipari-bbd3","kind":"restaurant","name":"Special Zipari","lat":36.87693633011065,"lng":27.208733925340766,"url":"https://maps.app.goo.gl/y1ujiW8koq2bhg1NA?g_st=ipc","address":"Zipari 853 00","categoryIds":["desserts"],"categories":["Dessert Shops"]},{"id":"coffeeBrunchRestaurants_409a1c00e009","slug":"fasolas-gastrokafeneio-409a","kind":"restaurant","name":"Fasolas Gastrokafeneio","lat":37.05047829842748,"lng":25.497802752574465,"url":"https://maps.app.goo.gl/s28qFqLPN9on9SZy8?g_st=ipc","address":"Filoti 843 02","categoryIds":["coffee-brunch","desserts"],"categories":["Coffee & Brunch Spots","Dessert Shops"],"legacySlugs":["fasolas-gastrokafeneio-d95b"]},{"id":"coffeeBrunchRestaurants_4d900c72bc80","slug":"caffe-greco-4d90","kind":"restaurant","name":"Caffe Greco","lat":37.06283829210554,"lng":25.482179694372245,"url":"https://maps.app.goo.gl/bvxkDLgLP2gCrEDeA?g_st=ipc","address":"Χαλκείο 843 02","categoryIds":["coffee-brunch","desserts"],"categories":["Coffee & Brunch Spots","Dessert Shops"],"legacySlugs":["caffe-greco-cc34"]}],"nearby":[{"id":"coffeeBrunchRestaurants_32952e6ac25c","slug":"cafe-kafe-konstantinos-mich-katsamboxakis-3295","kind":"restaurant","name":"Café Kafé (Konstantinos Mich. Katsamboxakis)","lat":35.20722771587482,"lng":26.10675728610521,"url":"https://maps.app.goo.gl/xoXNN9GSVDDfAxxk9?g_st=ipc","address":"Kon/nou Karamanli 6, Sitia 723 00","categoryIds":["coffee-brunch"],"categories":["Coffee & Brunch Spots"],"distanceKm":0.006659054455085872},{"id":"municipalities_0fab25c875e2","slug":"siteia-0fab","kind":"municipality","name":"Σητεία","lat":35.2078,"lng":26.106,"aliases":["Σητεια"],"region":"Ανατολική Κρήτη","name_en":"Sitia","region_en":"East Crete","distanceKm":0.10036292148050993},{"id":"greekRestaurants_31846964133f","slug":"inodion-3184","kind":"restaurant","name":"Inodion","lat":35.20856301491662,"lng":26.10648423346929,"url":"https://maps.app.goo.gl/pzhkDBi9GpvKTFMMA?g_st=ipc","address":"Ελ. Βενιζέλου 157, Σητεία 732 00","categoryIds":["greek-restaurants"],"categories":["Greek Restaurants"],"distanceKm":0.15611505210520585},{"id":"coffeeBrunchRestaurants_21dac0392c36","slug":"surf-beach-snack-bar-kouremenos-21da","kind":"restaurant","name":"Surf Beach - Snack Bar Kouremenos","lat":35.20624912822425,"lng":26.26983256244183,"url":"https://maps.app.goo.gl/gJZYAD9gs6uvp4U49?g_st=ipc","address":"Ιτανίων, Kouremenos 723 00","categoryIds":["coffee-brunch"],"categories":["Coffee & Brunch Spots"],"distanceKm":14.811978892606247},{"id":"greekRestaurants_1567bdcebc34","slug":"dragon-s-cave-tavern-1567","kind":"restaurant","name":"Dragon's Cave Tavern","lat":35.02451844531051,"lng":26.015929343410054,"url":"https://maps.app.goo.gl/BHeTEMJwhoKFTLPG7?g_st=ipc","address":"Λαγκάδα, Λιθίνες 720 59","categoryIds":["greek-restaurants"],"categories":["Greek Restaurants"],"distanceKm":21.929037181589862},{"id":"greekRestaurants_ab6c973413e5","slug":"taverna-oasis-ab6c","kind":"restaurant","name":"Ταβέρνα Όασις","lat":35.0192294033516,"lng":26.031168966197797,"url":"https://maps.app.goo.gl/VPbi6FqvcCuiHpnd7?g_st=ipc","address":"Καλό Νερό, Περιβολάκια 720 59","categoryIds":["greek-restaurants"],"categories":["Greek Restaurants"],"distanceKm":22.00291956916258},{"id":"coffeeBrunchRestaurants_1c66ab81c701","slug":"cavo-bianco-1c66","kind":"restaurant","name":"Cavo Bianco","lat":35.02143360163328,"lng":26.015024448599853,"url":"https://maps.app.goo.gl/ybTzaZNb6KvEBPUb8?g_st=ipc","address":"Dragon's Way, Ierapetra 720 59","categoryIds":["coffee-brunch"],"categories":["Coffee & Brunch Spots"],"distanceKm":22.27790092529182},{"id":"greekRestaurants_d2117786f7ef","slug":"kalliotzina-d211","kind":"restaurant","name":"Καλλιοτζίνα","lat":35.033382728113054,"lng":25.943654893279238,"url":"https://maps.app.goo.gl/vGqVwBvZXj3Cs15N9?g_st=ipc","address":"Κουτσουρᾶς, Σταυροχώρι 720 55","categoryIds":["greek-restaurants"],"categories":["Greek Restaurants"],"distanceKm":24.365597453884984},{"id":"fishTavernasRestaurants_6c6e7df47181","slug":"pelagos-sea-side-restaurant-6c6e","kind":"restaurant","name":"Pelagos Sea Side Restaurant","lat":35.01090317014822,"lng":25.837523741431433,"url":"https://maps.app.goo.gl/ChvtYGB6ww8Z241n6?g_st=ipc","address":"Κουτσουνάρι, Αγ. Ιωάννης 722 00","categoryIds":["fish-tavernas"],"categories":["Fish Tavernas"],"distanceKm":32.807921079734314}],"mentionedGuides":[],"canonicalSlug":"mitsakakis-3d83","enrichment":{"summary_en":"Mitsakakis is a curated restaurant in Sitia 723 00 in the Dessert Shops collection. It is connected to 3 nearby Googlementor picks to help travelers build a stronger local route.","summary_el":"Mitsakakis είναι ένα επιλεγμένο σημείο φαγητού στην περιοχή Sitia 723 00 και ανήκει στη συλλογή Dessert Shops. Συνδέεται με 3 κοντινές προτάσεις του Googlementor για πιο ολοκληρωμένη εμπειρία.","vibe_tags":["curated","sweet-stop"],"best_for":["first-time visitors","food lovers"],"visit_moments":["afternoon break","after dinner"],"practical_note":"Address and direct map link are available for easy turn-by-turn access.","nearby_walkable_count":3,"nearby_count_2km":3,"confidence":0.9},"areaContext":null,"intentContexts":[]},"__N_SSG":true}