{"pageProps":{"entity":{"id":"greekRestaurants_aa39dbadb1cc","slug":"mparmpa-mitsos-agios-dimitrios-aa39","kind":"restaurant","name":"Μπάρμπα-Μήτσος - Άγιος Δημήτριος","lat":37.92988893217819,"lng":23.71912670552918,"url":"https://maps.app.goo.gl/BYxu5opm4HvR37SN9","address":"Ιουστινιανού 11, Αγ. Δημήτριος Αττικής 173 41","categoryIds":["greek-restaurants"],"categories":["Greek Restaurants"]},"sameCategory":[{"id":"greekRestaurants_316cf3a477d7","slug":"taverna-o-notos-316c","kind":"restaurant","name":"Ταβέρνα ο Νότος","lat":37.93527346472632,"lng":23.722390326717125,"url":"https://maps.app.goo.gl/TEReWJLojKZEkJL38","address":"Μεταμορφώσεως 2, Αγ. Δημήτριος Αττικής 173 41","categoryIds":["greek-restaurants"],"categories":["Greek Restaurants"]},{"id":"greekRestaurants_ef1588581bbb","slug":"myrtia-ef15","kind":"restaurant","name":"Μυρτιά","lat":37.940920844377125,"lng":23.712738244892858,"url":"https://maps.app.goo.gl/QHjMpbFEFgtWLbA57","address":"Αϊδινίου 55, Νέα Σμύρνη 171 22","categoryIds":["greek-restaurants"],"categories":["Greek Restaurants"]},{"id":"greekRestaurants_eecb2ebbfdc2","slug":"gitema-eecb","kind":"restaurant","name":"Γήτεμα","lat":37.94107986247284,"lng":23.713131731866255,"url":"https://maps.app.goo.gl/S3ph9mpPrmbS64x3A","address":"Λεωφ. Ελ. Βενιζέλου 88, Νέα Σμύρνη 171 22","categoryIds":["greek-restaurants"],"categories":["Greek Restaurants"]},{"id":"greekRestaurants_6c6d00a6a4f4","slug":"remoytsiko-taverna-6c6d","kind":"restaurant","name":"Ρεμουτσικο Ταβέρνα","lat":37.93888185097854,"lng":23.730869105234564,"url":"https://maps.app.goo.gl/zELuRQBZCjzsqwux5","address":"Λεωφ. Αγίου Δημητρίου 120, Αγ. Δημήτριος Αττικής 173 41","categoryIds":["greek-restaurants"],"categories":["Greek Restaurants"]},{"id":"greekRestaurants_842cd50fd946","slug":"mpampis-taverna-842c","kind":"restaurant","name":"Μπάμπης Ταβέρνα","lat":37.93493015100239,"lng":23.70154955498321,"url":"https://maps.app.goo.gl/SyFUZSdaS3SB5Mm48","address":"Λεωφ. Αμφιθέας 73, Παλαιό Φάληρο 175 64","categoryIds":["greek-restaurants"],"categories":["Greek Restaurants"]},{"id":"greekRestaurants_30ac8464e0c3","slug":"kyr-aristos-30ac","kind":"restaurant","name":"Κυρ Αρίστος","lat":37.932597935183146,"lng":23.699203294233197,"url":"https://maps.app.goo.gl/EQaiuBpPZq633dxa7?g_st=ipc","address":"Zisimopoulou 96, Paleo Faliro 175 64","categoryIds":["greek-restaurants"],"categories":["Greek Restaurants"]},{"id":"cheapEatsRestaurants_9e38740e23c2","slug":"o-proedros-alimos-9e38","kind":"restaurant","name":"ο Πρόεδρος (Άλιμος)","lat":37.912881112573395,"lng":23.714106306735346,"url":"https://maps.app.goo.gl/nwzgkAPXAUQ2k7tQ7?g_st=ipc","address":"Άλιμος, Λεωφ. Καλαμακίου 26, Αθήνα 174 55","categoryIds":["cheap-eats","greek-restaurants"],"categories":["Gyros & Cheap Eats","Greek Restaurants"],"legacySlugs":["o-proedros-alimos-797f"]},{"id":"greekRestaurants_e3992a60261a","slug":"kritikos-e399","kind":"restaurant","name":"Κρητικός","lat":37.94303304147985,"lng":23.704084169584778,"url":"https://maps.app.goo.gl/QgBcqGt9addfXPwL6","address":"Ραιδεστού 36, Νέα Σμύρνη 171 22","categoryIds":["greek-restaurants"],"categories":["Greek Restaurants"]},{"id":"greekRestaurants_80e12cc840c6","slug":"arsenis-80e1","kind":"restaurant","name":"Arsenis","lat":37.93975062587842,"lng":23.699103162428067,"url":"https://maps.app.goo.gl/gyD8tEfz4zabut3VA","address":"Ζησιμοπούλου 19, Παλαιό Φάληρο 175 64","categoryIds":["greek-restaurants"],"categories":["Greek Restaurants"]},{"id":"greekRestaurants_8f822e8ac2ff","slug":"koytoyki-kalypso-8f82","kind":"restaurant","name":"Κουτούκι Καλυψώ","lat":37.94264199335833,"lng":23.700097006546933,"url":"https://maps.app.goo.gl/rZqTMGc8sQwmZ4zq9","address":"Πεντέλης 41-43, Παλαιό Φάληρο 175 64","categoryIds":["greek-restaurants"],"categories":["Greek Restaurants"]},{"id":"greekRestaurants_191784dd5c83","slug":"ta-filetakia-1917","kind":"restaurant","name":"Τα φιλετάκια","lat":37.94824819005281,"lng":23.729579675166935,"url":"https://maps.app.goo.gl/tBGQqYJbzo48VPWv9","address":"Εθνάρχου Μακαρίου 126, Δάφνη Αττικής 172 34","categoryIds":["greek-restaurants"],"categories":["Greek Restaurants"]},{"id":"greekRestaurants_5c7530a68c50","slug":"ladokolla-dafnis-5c75","kind":"restaurant","name":"Λαδόκολλα Δάφνης","lat":37.948710278848054,"lng":23.736099857630663,"url":"https://maps.app.goo.gl/DJkwhBF35mfEBRKG7","address":"Λεωφ. Αλ. Παπαναστασίου 8, Δάφνη Αττικής 172 35","categoryIds":["greek-restaurants"],"categories":["Greek Restaurants"]}],"nearby":[{"id":"cheapEatsRestaurants_42b8119d471a","slug":"psitopoleio-o-vaggelis-to-cheiropoiito-42b8","kind":"restaurant","name":"Ψητοπωλείο «ο Βαγγέλης το χειροποίητο»","lat":37.928620979940305,"lng":23.71576237841132,"url":"https://maps.app.goo.gl/4wk6CtNQgSCn9j33A?g_st=ipc","address":"Χαλκίδος 26, Αγ. Δημήτριος Αττικής 173 41","categoryIds":["cheap-eats"],"categories":["Gyros & Cheap Eats"],"distanceKm":0.3270289471113062},{"id":"italianRestaurants_e396fe74ff9a","slug":"le-pizze-di-san-gennaro-e396","kind":"restaurant","name":"LE PIZZE DI SAN GENNARO","lat":37.93395718694605,"lng":23.71495698828565,"url":"https://maps.app.goo.gl/BW3pXFd1SVKpBcai6?g_st=ipc","address":"Ευξείνου Πόντου 172, Νέα Σμύρνη 171 23","categoryIds":["italian"],"categories":["Italian Restaurants"],"distanceKm":0.5817003879616625},{"id":"greekRestaurants_316cf3a477d7","slug":"taverna-o-notos-316c","kind":"restaurant","name":"Ταβέρνα ο Νότος","lat":37.93527346472632,"lng":23.722390326717125,"url":"https://maps.app.goo.gl/TEReWJLojKZEkJL38","address":"Μεταμορφώσεως 2, Αγ. Δημήτριος Αττικής 173 41","categoryIds":["greek-restaurants"],"categories":["Greek Restaurants"],"distanceKm":0.663632912965736},{"id":"familyFriendly_feb6b1cb5cd1","slug":"little-land-kids-play-feb6","kind":"restaurant","name":"Little Land - Kids Play","lat":37.930642671894525,"lng":23.710426716839976,"url":"https://maps.app.goo.gl/fZKSbKJMUaonK7vh9?g_st=ipc","address":"Λεωφ. Ελ. Βενιζέλου 235, Παλαιό Φάληρο 175 63","categoryIds":["family-friendly"],"categories":["Kid Friendly Locations"],"distanceKm":0.7676308016278697},{"id":"coffeeBrunchRestaurants_5db780e34d2a","slug":"braxton-5db7","kind":"restaurant","name":"Braxton","lat":37.92816326326879,"lng":23.728060610716135,"url":"https://maps.app.goo.gl/DjcEWh3JQVQokVoj7?g_st=ipc","address":"Πόντου 20, Αγ. Δημήτριος Αττικής 173 42","categoryIds":["coffee-brunch"],"categories":["Coffee & Brunch Spots"],"distanceKm":0.8067237782327746},{"id":"dessertsRestaurants_60d1fcac742b","slug":"galaktopoleio-stamoy-60d1","kind":"restaurant","name":"Γαλακτοπωλείο ΣΤΑΜΟΥ","lat":37.92337769116455,"lng":23.723512288009644,"url":"https://maps.app.goo.gl/bn7iuhhPxPAJJeX38?g_st=ipc","address":"Λεωφ. Αγίου Δημητρίου 305, Αγ. Δημήτριος Αττικής 173 42","categoryIds":["desserts"],"categories":["Dessert Shops"],"distanceKm":0.8198565459605874},{"id":"dessertsRestaurants_10984675e64e","slug":"loukou-mio-1098","kind":"restaurant","name":"Loukou Mio","lat":37.934456122337956,"lng":23.71152313800977,"url":"https://maps.app.goo.gl/uQM5VBZoTd8kzvPT9?g_st=ipc","address":"Λεωφ. Ελ. Βενιζέλου 195, Νέα Σμύρνη 171 23","categoryIds":["desserts"],"categories":["Dessert Shops"],"distanceKm":0.8382209531803629},{"id":"cheapEatsRestaurants_79cf2e094e26","slug":"vaggelis-to-gnisio-1965-79cf","kind":"restaurant","name":"Βάγγελης Το Γνήσιο 1965","lat":37.93578922990488,"lng":23.72968201403695,"url":"https://maps.app.goo.gl/8q5LESzz3ctiGx4S6?g_st=ipc","address":"Λεωφ. Αγίου Δημητρίου 163, Αγ. Δημήτριος Αττικής 173 43","categoryIds":["cheap-eats"],"categories":["Gyros & Cheap Eats"],"distanceKm":1.1346474989252457},{"id":"dessertsRestaurants_f02a5d6ebd1d","slug":"melorama-f02a","kind":"restaurant","name":"Μελόραμα","lat":37.936036012331414,"lng":23.729840384667007,"url":"https://maps.app.goo.gl/YEvU9a6cA5Vmingw8?g_st=ipc","address":"Λεωφ. Αγίου Δημητρίου 161, Αγ. Δημήτριος Αττικής 173 43","categoryIds":["desserts"],"categories":["Dessert Shops"],"distanceKm":1.1619341881376073},{"id":"italianRestaurants_a0a70f822848","slug":"il-trovatore-a0a7","kind":"restaurant","name":"Il Trovatore","lat":37.93426882606043,"lng":23.704929709402517,"url":"https://maps.app.goo.gl/VEjqHzj7oG8PDciG7?g_st=ipc","address":"Γοργοποτάμου 14, Παλαιό Φάληρο 175 64","categoryIds":["italian"],"categories":["Italian Restaurants"],"distanceKm":1.336990492271005},{"id":"greekRestaurants_ef1588581bbb","slug":"myrtia-ef15","kind":"restaurant","name":"Μυρτιά","lat":37.940920844377125,"lng":23.712738244892858,"url":"https://maps.app.goo.gl/QHjMpbFEFgtWLbA57","address":"Αϊδινίου 55, Νέα Σμύρνη 171 22","categoryIds":["greek-restaurants"],"categories":["Greek Restaurants"],"distanceKm":1.348582429760619},{"id":"greekRestaurants_eecb2ebbfdc2","slug":"gitema-eecb","kind":"restaurant","name":"Γήτεμα","lat":37.94107986247284,"lng":23.713131731866255,"url":"https://maps.app.goo.gl/S3ph9mpPrmbS64x3A","address":"Λεωφ. Ελ. Βενιζέλου 88, Νέα Σμύρνη 171 22","categoryIds":["greek-restaurants"],"categories":["Greek Restaurants"],"distanceKm":1.3508848810199747},{"id":"burgersRestaurants_e2eccf34c175","slug":"hanky-panky-palaio-faliro-e2ec","kind":"restaurant","name":"Hanky Panky Palaio Faliro","lat":37.93089466239992,"lng":23.703396088291395,"url":"https://maps.app.goo.gl/psmqWjAqwrakd1ww7?g_st=ipc","address":"Πλ. Νταβάρη 2, Παλαιό Φάληρο 175 64","categoryIds":["burgers"],"categories":["Burger Spots"],"distanceKm":1.384192967008999},{"id":"coffeeBrunchRestaurants_c3b8d7875a67","slug":"upon-c3b8","kind":"restaurant","name":"UPON","lat":37.93165635013146,"lng":23.70322472978882,"url":"https://maps.app.goo.gl/yP6xS2xksJBA1Z4u7?g_st=ipc","address":"Dimokratias 33, Paleo Faliro 175 64","categoryIds":["coffee-brunch"],"categories":["Coffee & Brunch Spots"],"distanceKm":1.408468378543148},{"id":"greekRestaurants_6c6d00a6a4f4","slug":"remoytsiko-taverna-6c6d","kind":"restaurant","name":"Ρεμουτσικο Ταβέρνα","lat":37.93888185097854,"lng":23.730869105234564,"url":"https://maps.app.goo.gl/zELuRQBZCjzsqwux5","address":"Λεωφ. Αγίου Δημητρίου 120, Αγ. Δημήτριος Αττικής 173 41","categoryIds":["greek-restaurants"],"categories":["Greek Restaurants"],"distanceKm":1.4354326427175697},{"id":"burgersRestaurants_b47d84823c91","slug":"the-burger-joint-b47d","kind":"restaurant","name":"The Burger Joint","lat":37.942262724437896,"lng":23.71398429679752,"url":"https://maps.app.goo.gl/4gyyrfZJhxvHeHNj8?g_st=ipc","address":"Λεωφ. Ελ. Βενιζέλου 93, Νέα Σμύρνη 171 22","categoryIds":["burgers"],"categories":["Burger Spots"],"distanceKm":1.4479282011536545},{"id":"coffeeBrunchRestaurants_34ea25393225","slug":"hidden-alimos-34ea","kind":"restaurant","name":"Hidden Άλιμος","lat":37.9207925281224,"lng":23.706355320081276,"url":"https://maps.app.goo.gl/tNnv5bivZJzwGSak7?g_st=ipc","address":"Λεωφ. Ελευθερίας 45, Άλιμος 174 55","categoryIds":["coffee-brunch"],"categories":["Coffee & Brunch Spots"],"distanceKm":1.5092826174634648},{"id":"monasteriesChurches_532a88c17ded","slug":"ieros-naos-agioy-dimitrioy-532a","kind":"restaurant","name":"Ιερός Ναός Αγίου Δημητρίου","lat":37.939612390639354,"lng":23.731409160406493,"url":"https://maps.app.goo.gl/NQFZSQ6EDz4WiEjk6?g_st=ipc","address":"Λεωφ. Αγίου Δημητρίου 117, Αγ. Δημήτριος Αττικής 173 43","categoryIds":["monasteries-churches"],"categories":["Monasteries & Spiritual Sites"],"distanceKm":1.5262071929798169},{"id":"italianRestaurants_e0eab8c43067","slug":"il-tinello-athens-e0ea","kind":"restaurant","name":"Il Tinello Athens","lat":37.9164984895058,"lng":23.723486074483993,"url":"https://maps.app.goo.gl/BQxFwm6nKx3uhqa9A?g_st=ipc","address":"Κνωσού 54, Άλιμος 174 55","categoryIds":["italian"],"categories":["Italian Restaurants"],"distanceKm":1.5372652068389996},{"id":"coffeeBrunchRestaurants_11333324ec7e","slug":"cheiropoiito-peinirli-alimos-1133","kind":"restaurant","name":"Χειροποίητο Πεϊνιρλί - Άλιμος","lat":37.915620511365894,"lng":23.717157875434445,"url":"https://maps.app.goo.gl/t1zARdBkZ8TDso696?g_st=ipc","address":"Λεωφ. Καλαμακίου 65, Άλιμος 174 55","categoryIds":["coffee-brunch"],"categories":["Coffee & Brunch Spots"],"distanceKm":1.5959471528137954},{"id":"municipalities_89aa8cc05ac2","slug":"palaio-faliro-89aa","kind":"municipality","name":"Παλαιό Φάληρο","lat":37.9286,"lng":23.701,"region":"Νότια Προάστια","name_en":"Palaio Faliro","region_en":"Southern Suburbs","distanceKm":1.5962910047731367},{"id":"dessertsRestaurants_cd6c99db0548","slug":"royal-pastry-cd6c","kind":"restaurant","name":"ROYAL PASTRY","lat":37.9185478292188,"lng":23.73065461612568,"url":"https://maps.app.goo.gl/kD7yYZ1zi5KhZ3iT9?g_st=ipc","address":"Θεομήτορος 24, Άλιμος 173 42","categoryIds":["desserts"],"categories":["Dessert Shops"],"distanceKm":1.6163944820713338},{"id":"greekRestaurants_842cd50fd946","slug":"mpampis-taverna-842c","kind":"restaurant","name":"Μπάμπης Ταβέρνα","lat":37.93493015100239,"lng":23.70154955498321,"url":"https://maps.app.goo.gl/SyFUZSdaS3SB5Mm48","address":"Λεωφ. Αμφιθέας 73, Παλαιό Φάληρο 175 64","categoryIds":["greek-restaurants"],"categories":["Greek Restaurants"],"distanceKm":1.6403312312064524},{"id":"cheapEatsRestaurants_ae7b67ea9782","slug":"psitopoleio-o-lampros-ae7b","kind":"restaurant","name":"Ψητοπωλείο \"ο Λάμπρος\"","lat":37.93861571899796,"lng":23.703296381437085,"url":"https://maps.app.goo.gl/ufBXQHiqa3CEJ7PJ7?g_st=ipc","address":"Νέστορος 21, Παλαιό Φάληρο 175 61","categoryIds":["cheap-eats"],"categories":["Gyros & Cheap Eats"],"distanceKm":1.6938460199807663}],"mentionedGuides":[],"canonicalSlug":"mparmpa-mitsos-agios-dimitrios-aa39","enrichment":{"summary_en":"Μπάρμπα-Μήτσος - Άγιος Δημήτριος is a curated restaurant in Αγ. Δημήτριος Αττικής 173 41 in the Greek Restaurants collection. It is connected to 4 nearby Googlementor picks to help travelers build a stronger local route.","summary_el":"Μπάρμπα-Μήτσος - Άγιος Δημήτριος είναι ένα επιλεγμένο σημείο φαγητού στην περιοχή Αγ. Δημήτριος Αττικής 173 41 και ανήκει στη συλλογή Greek Restaurants. Συνδέεται με 4 κοντινές προτάσεις του Googlementor για πιο ολοκληρωμένη εμπειρία.","vibe_tags":["curated"],"best_for":["first-time visitors","food lovers"],"visit_moments":["lunch stop","dinner stop"],"practical_note":"Address and direct map link are available for easy turn-by-turn access.","nearby_walkable_count":4,"nearby_count_2km":55,"confidence":0.98},"areaContext":{"slug":"palaio-faliro","name":"Palaio Faliro","nameEl":"Παλαιό Φάληρο"},"intentContexts":[{"href":"/greek-restaurants/palaio-faliro","label":"Greek Restaurants in Palaio Faliro","categorySlug":"greek-restaurants","categoryName":"Greek Restaurants","areaSlug":"palaio-faliro","areaName":"Palaio Faliro","areaNameEl":"Παλαιό Φάληρο"}]},"__N_SSG":true}