{"pageProps":{"entity":{"id":"coffeeBrunchRestaurants_5b4cddd34628","slug":"mparko-5b4c","kind":"restaurant","name":"Μπάρκο","lat":37.89368052857063,"lng":24.013107601829738,"url":"https://maps.app.goo.gl/eVBj1NWi5ai3UMgQ9?g_st=ipc","address":"Λεωφ. Γ. Γρέγου 57, Πόρτο Ράφτη 190 23","categoryIds":["coffee-brunch"],"categories":["Coffee & Brunch Spots"]},"sameCategory":[{"id":"coffeeBrunchRestaurants_9c82093341f1","slug":"kazba-bar-kouzina-9c82","kind":"restaurant","name":"Kazba Bar Kouzina","lat":37.89105125077896,"lng":24.008282807805728,"url":"https://maps.app.goo.gl/RrMxEDqS2TizyDi36?g_st=ipc","address":"Λεωφ. Γ. Γρέγου 27, Πόρτο Ράφτη 190 03","categoryIds":["coffee-brunch"],"categories":["Coffee & Brunch Spots"]},{"id":"coffeeBrunchRestaurants_3667c08b817e","slug":"garazaki-3667","kind":"restaurant","name":"Garazaki","lat":38.00820112050225,"lng":23.859624038909082,"url":"https://maps.app.goo.gl/nhS7zheSxj71qxXFA?g_st=ipc","address":"Θεσσαλονίκης 33, Γέρακας 153 44","categoryIds":["coffee-brunch"],"categories":["Coffee & Brunch Spots"]},{"id":"coffeeBrunchRestaurants_e7c71ac4865d","slug":"petrino-anthousa-e7c7","kind":"restaurant","name":"Petrino Anthousa","lat":38.02672241020409,"lng":23.873783158410454,"url":"https://maps.app.goo.gl/9BhYBbp4S79LCn6k9?g_st=ic","address":"Edipsou 2-6, Anthousa 153 49","categoryIds":["coffee-brunch"],"categories":["Coffee & Brunch Spots"]},{"id":"coffeeBrunchRestaurants_cdd028e1f028","slug":"indianos-cdd0","kind":"restaurant","name":"Indianos","lat":38.07177701154969,"lng":23.99543112392712,"url":"https://maps.app.goo.gl/fQgSyiTZjMscc9UW9?g_st=ipc","address":"Μιαούλη 12, Νέα Μάκρη 190 05","categoryIds":["coffee-brunch"],"categories":["Coffee & Brunch Spots"]},{"id":"coffeeBrunchRestaurants_6490fab080eb","slug":"anapsyktirio-kalopoyla-6490","kind":"restaurant","name":"Αναψυκτήριο Καλοπούλα","lat":37.96354797529962,"lng":23.804248106884938,"url":"https://maps.app.goo.gl/uXF6EF7MznZrK5Jb9?g_st=ipc","address":"Unnamed Road, Καισαριανή","categoryIds":["coffee-brunch"],"categories":["Coffee & Brunch Spots"]},{"id":"coffeeBrunchRestaurants_9c4fad0bdb87","slug":"opus-coffee-and-more-9c4f","kind":"restaurant","name":"Opus coffee and more","lat":38.001260916187285,"lng":23.825716095768566,"url":"https://maps.app.goo.gl/ZsSXep3FZfHkFyPYA?g_st=ipc","address":"Αιγαίου Πελάγους, Γραβιάς και, Αγ. Παρασκευή 153 42","categoryIds":["coffee-brunch"],"categories":["Coffee & Brunch Spots"]},{"id":"coffeeBrunchRestaurants_047701412132","slug":"big-spoon-0477","kind":"restaurant","name":"Big Spoon","lat":38.00695313454604,"lng":23.827222163103215,"url":"https://maps.app.goo.gl/xKV3uQ5sHdPxcNpR6?g_st=ipc","address":"Αγίου Ιωάννου 65, Αγ. Παρασκευή 153 42","categoryIds":["coffee-brunch"],"categories":["Coffee & Brunch Spots"]},{"id":"coffeeBrunchRestaurants_f0c9993cb8f3","slug":"piccadilly-cafe-bar-f0c9","kind":"restaurant","name":"Piccadilly Cafe - Bar","lat":38.00719392579973,"lng":23.82715472856948,"url":"https://maps.app.goo.gl/sjLV2JRan1wDF2hM6?g_st=ipc","address":"Eleftherias, Αγίου Ιωάννου 63, Αγ. Παρασκευή 153 42","categoryIds":["coffee-brunch"],"categories":["Coffee & Brunch Spots"]},{"id":"coffeeBrunchRestaurants_6aac58356d58","slug":"dimitris-kasimis-foyrnos-6aac","kind":"restaurant","name":"ΔΗΜΗΤΡΗΣ ΚΑΣΙΜΗΣ Φούρνος","lat":38.0797197655773,"lng":23.980827928192117,"url":"https://maps.app.goo.gl/HVgjvMDChspNvrjy7?g_st=ipc","address":"44 Marathonos Ave, Enanti DEI, Nea Makri, 19005","categoryIds":["coffee-brunch"],"categories":["Coffee & Brunch Spots"]},{"id":"coffeeBrunchRestaurants_e72432c365d7","slug":"nisos-cafe-bar-e724","kind":"restaurant","name":"Nisos Café Bar","lat":37.71981320719648,"lng":23.912954314854076,"url":"https://maps.app.goo.gl/c8xgWYxc6QFikVut9?g_st=ipc","address":"Λεωφ. Αθηνών Σουνίου 48 5, Ανάβυσσος 190 13","categoryIds":["coffee-brunch"],"categories":["Coffee & Brunch Spots"]},{"id":"coffeeBrunchRestaurants_a15eff32047d","slug":"wallstreet-athens-a15e","kind":"restaurant","name":"WallStreet Athens","lat":38.01470612030241,"lng":23.8212081874615,"url":"https://maps.app.goo.gl/mBES32gA39m1YfEdA?g_st=ipc","address":"Ελπίδος, Δημ. Γούναρη 2-4, Αγ. Παρασκευή 153 43","categoryIds":["coffee-brunch"],"categories":["Coffee & Brunch Spots"]},{"id":"coffeeBrunchRestaurants_9ce003d4ec0a","slug":"alto-corto-cafe-9ce0","kind":"restaurant","name":"Alto Corto Cafe","lat":38.012694707387,"lng":23.81807168304755,"url":"https://maps.app.goo.gl/1oTiFbFAjGwZTcXq9?g_st=ipc","address":"Λεωφόρος Μεσογείων 400 και, Αἰγαίου Πελάγους, Αγ. Παρασκευή 153 42","categoryIds":["coffee-brunch"],"categories":["Coffee & Brunch Spots"]}],"nearby":[{"id":"coffeeBrunchRestaurants_9c82093341f1","slug":"kazba-bar-kouzina-9c82","kind":"restaurant","name":"Kazba Bar Kouzina","lat":37.89105125077896,"lng":24.008282807805728,"url":"https://maps.app.goo.gl/RrMxEDqS2TizyDi36?g_st=ipc","address":"Λεωφ. Γ. Γρέγου 27, Πόρτο Ράφτη 190 03","categoryIds":["coffee-brunch"],"categories":["Coffee & Brunch Spots"],"distanceKm":0.5145170572911368},{"id":"wineriesVineyards_262c7717edc1","slug":"oinopoieio-papagiannakos-262c","kind":"restaurant","name":"Οινοποιείο Παπαγιαννάκος","lat":37.90457982525897,"lng":23.983420618508436,"url":"https://maps.app.goo.gl/nRd1KxMycS9cXqd6A?g_st=ipc","address":"Πυθαγόρα, Μαρκόπουλο Μεσογαίας 190 03","categoryIds":["wineries-vineyards"],"categories":["Wineries & Vineyards"],"distanceKm":2.8729698565095614},{"id":"luxuryDiningRestaurants_1aa0e3418df4","slug":"nakal-state-of-mind-1aa0","kind":"restaurant","name":"Nakal State of Mind","lat":37.86969888591183,"lng":24.027576175967926,"url":"https://maps.app.goo.gl/9YgR6NNiMCEfXVTc6?g_st=ipc","address":"Αυλακίου 100, Πόρτο Ράφτη 190 03","categoryIds":["luxury-dining"],"categories":["Luxury Dining"],"distanceKm":2.953539304212692},{"id":"fishTavernasRestaurants_b12448499c96","slug":"psarotaverna-chamolia-b124","kind":"restaurant","name":"Ψαροταβέρνα Χαμολιά","lat":37.920806600246216,"lng":24.027771872272915,"url":"https://maps.app.goo.gl/f74w2o4iUn9xQDDs8?g_st=ipc","address":"Κλειούς, Βραυρώνα 190 03","categoryIds":["fish-tavernas"],"categories":["Fish Tavernas"],"distanceKm":3.279201102830534},{"id":"greekRestaurants_d0fbec7a3dcb","slug":"melikokon-mezedopoleio-porto-rafti-d0fb","kind":"restaurant","name":"MELIKOKON - MEZEDOPOLEIO - PORTO RAFTI","lat":37.867136583168865,"lng":24.038674142484993,"url":"https://maps.app.goo.gl/52G1EjfGK3qFyDtY6?g_st=ipc","address":"Τέρμα, Leof. Avlakiou, Porto Rafti 190 03","categoryIds":["greek-restaurants"],"categories":["Greek Restaurants"],"distanceKm":3.707636409181126},{"id":"mustSeeAttractions_28785f0c1603","slug":"naos-vrayronias-artemidos-2878","kind":"restaurant","name":"Ναός Βραυρωνίας Αρτέμιδος","lat":37.925951413998256,"lng":23.993485515950447,"url":"https://maps.app.goo.gl/GHxTmYXX8KQuXnnF8?g_st=ipc","address":"Βραυρώνα 190 03","categoryIds":["attractions"],"categories":["Must-See Attractions"],"distanceKm":3.9799149607229136},{"id":"fishTavernasRestaurants_69aafe29cadb","slug":"the-coral-69aa","kind":"restaurant","name":"The Coral","lat":37.93546332991727,"lng":24.012144070196292,"url":"https://maps.app.goo.gl/LrMfAiKJ9cCQAH6v7?g_st=ipc","address":"Leof. Vravronos 367, Artemis 190 16","categoryIds":["fish-tavernas"],"categories":["Fish Tavernas"],"distanceKm":4.64680435653455},{"id":"fishTavernasRestaurants_1101abe83696","slug":"mezedopoleio-i-chira-1101","kind":"restaurant","name":"Μεζεδοπωλείο «Η Χηρα»","lat":37.939079061504245,"lng":24.016183745998713,"url":"https://maps.app.goo.gl/ZtfRTs2EoQpXQkyy8?g_st=ipc","address":"Αγίου Κωνσταντίνου και Ελένης, Άρτεμις 190 16","categoryIds":["fish-tavernas"],"categories":["Fish Tavernas"],"distanceKm":5.055293792116088},{"id":"municipalities_a9741c8ba56d","slug":"artemida-a974","kind":"municipality","name":"Αρτέμιδα","lat":37.95,"lng":24,"region":"Ανατολικά Προάστια","name_en":"Artemida","region_en":"Eastern Suburbs","distanceKm":6.367108294060438},{"id":"fishTavernasRestaurants_e10a32c39c5a","slug":"tom-psarotaverna-e10a","kind":"restaurant","name":"TOM Psarotaverna","lat":37.83896686862904,"lng":24.048707414360276,"url":"https://maps.app.goo.gl/ofvaTy2Fz5my1RhL9?g_st=ipc","address":"Παραλία Κακής Θαλάσσης 190 01","categoryIds":["fish-tavernas"],"categories":["Fish Tavernas"],"distanceKm":6.839549691146228},{"id":"cheapEatsRestaurants_34ddf07c2336","slug":"estiatorio-psistaria-sotiris-34dd","kind":"restaurant","name":"Εστιατόριο Ψησταριά Σωτήρης","lat":37.87939587296456,"lng":23.933984566615596,"url":"https://maps.app.goo.gl/U5qLZ6nCR7tW5r3u7?g_st=ipc","address":"Μυριννουντος 10, Μαρκόπουλο Μεσογαίας 190 03","categoryIds":["cheap-eats"],"categories":["Gyros & Cheap Eats"],"distanceKm":7.1230503316229195},{"id":"mexicanRestaurants_3d3eda2795fe","slug":"ancho-3d3e","kind":"restaurant","name":"Ancho","lat":37.93619879432701,"lng":23.947326529806652,"url":"https://maps.app.goo.gl/vZsWgNz2ht7aShcY9","address":"Attiki Odos, Spata Artemida 190 04","categoryIds":["mexican"],"categories":["Mexican Restaurants"],"distanceKm":7.460031209985283},{"id":"dessertsRestaurants_244c93cd072a","slug":"terkenlis-el-venizelos-afixeis-244c","kind":"restaurant","name":"Τερκενλής Ελ. Βενιζέλος - Αφίξεις","lat":37.93767356668546,"lng":23.9476854578976,"url":"https://maps.app.goo.gl/VzWCZGWnxpdFBbDj6?g_st=ipc","address":"Αττική Οδός, Δήμος Σπάτων - Αρτέμιδος 190 04","categoryIds":["desserts"],"categories":["Dessert Shops"],"distanceKm":7.540987740710023},{"id":"familyFriendly_1a210cb8c101","slug":"ippikos-omilos-koyvara-1a21","kind":"restaurant","name":"Ιππικός Όμιλος Κουβαρά","lat":37.827589338108154,"lng":23.987545277707177,"url":"https://maps.app.goo.gl/hsmq3SFgWsx53mPW7?g_st=ipc","address":"Αγίου Φανουρίου, Κουβαράς 190 03","categoryIds":["family-friendly"],"categories":["Kid Friendly Locations"],"distanceKm":7.683997930721855},{"id":"greekRestaurants_cc0b98bd06d3","slug":"gavrilis-taverna-cc0b","kind":"restaurant","name":"Γαβριλης Ταβερνα","lat":37.82834073423115,"lng":23.969307203160838,"url":"https://maps.app.goo.gl/bdVU3oQaAfncuVsN9","address":"Αγίου Δημητρίου, Κουβαράς 190 03","categoryIds":["greek-restaurants"],"categories":["Greek Restaurants"],"distanceKm":8.22023056068777},{"id":"greekRestaurants_4897cd79b835","slug":"to-trigono-4897","kind":"restaurant","name":"Το Τρίγωνο","lat":37.842540231960264,"lng":23.92981276182192,"url":"https://maps.app.goo.gl/pPFdZPKhVShhMrpC6","address":"Αθηνων 36, Καλύβια Θορικού 190 10","categoryIds":["greek-restaurants"],"categories":["Greek Restaurants"],"distanceKm":9.26265226790484},{"id":"fishTavernasRestaurants_f7b6756d4a93","slug":"psaraki-f7b6","kind":"restaurant","name":"ψαΡΑΚΙ","lat":37.83998892168737,"lng":23.92872058927444,"url":"https://maps.app.goo.gl/RqqP9EwfK4qQLD1v5?g_st=ipc","address":"Ευαγγελίστριας, Καλύβια Θορικού 190 10","categoryIds":["fish-tavernas"],"categories":["Fish Tavernas"],"distanceKm":9.514026900799724},{"id":"greekRestaurants_2ecb7afbe3a2","slug":"taverna-o-moyroyzis-2ecb","kind":"restaurant","name":"Ταβέρνα ο Μουρούζης","lat":37.841203116649474,"lng":23.927040364485364,"url":"https://maps.app.goo.gl/ezdUi47iiXAnpXxY9","address":"Βασιλείου Γεωργάκη 2, Καλύβια Θορικού 190 10","categoryIds":["greek-restaurants"],"categories":["Greek Restaurants"],"distanceKm":9.546139864685662},{"id":"greekRestaurants_8851a9198b0c","slug":"o-christoforos-8851","kind":"restaurant","name":"Ο Χριστόφορος","lat":37.84084854419875,"lng":23.927116302854657,"url":"https://maps.app.goo.gl/qHLpPbKqrYerTaBG8","address":"Μιχάλη Καλαβρυτινού 11, Καλύβια Θορικού 190 10","categoryIds":["greek-restaurants"],"categories":["Greek Restaurants"],"distanceKm":9.565043786444196},{"id":"municipalities_0343e4758ade","slug":"saronikos-0343","kind":"municipality","name":"Σαρωνικός","lat":37.8333,"lng":23.9333,"region":"Ανατολικά Προάστια","name_en":"Saronikos","region_en":"Eastern Suburbs","distanceKm":9.703679964818988},{"id":"dessertsRestaurants_630fa546c8bd","slug":"zacharoplasteio-th-e-k-a-630f","kind":"restaurant","name":"Ζαχαροπλαστείο Θ.Ε.Κ.Α.","lat":37.809996734741844,"lng":23.981187744739113,"url":"https://maps.app.goo.gl/k7AZJfKYi8WUV3oM9?g_st=ipc","address":"Επαρ.Οδ. Κερατέας-Κακής Θάλασσας, Κερατέα 190 01","categoryIds":["desserts"],"categories":["Dessert Shops"],"distanceKm":9.718089780185025},{"id":"greekRestaurants_69fc9f288c42","slug":"lazo-69fc","kind":"restaurant","name":"Λάζο","lat":37.808550661496035,"lng":23.978467603150243,"url":"https://maps.app.goo.gl/fKnjDEunWNjANCQ27","address":"Αθηνών Σουνίου 53, Κερατέα 190 01","categoryIds":["greek-restaurants"],"categories":["Greek Restaurants"],"distanceKm":9.94260906336326},{"id":"municipalities_a1757f1f5877","slug":"koropi-a175","kind":"municipality","name":"Κορωπί","lat":37.8833,"lng":23.9,"region":"Ανατολικά Προάστια","name_en":"Koropi","region_en":"Eastern Suburbs","distanceKm":9.992743257020166},{"id":"familyFriendly_c8ef51000921","slug":"margi-farm-c8ef","kind":"restaurant","name":"Margi Farm","lat":37.84874963465927,"lng":23.91294630423687,"url":"https://maps.app.goo.gl/LpauJpU7FAqyQdA8A?g_st=ipc","address":"Thorikou, Saronikos 190 10","categoryIds":["family-friendly"],"categories":["Kid Friendly Locations"],"distanceKm":10.112204354902781}],"mentionedGuides":[],"canonicalSlug":"mparko-5b4c","enrichment":{"summary_en":"Μπάρκο is a curated restaurant in Πόρτο Ράφτη 190 23 in the Coffee & Brunch Spots collection. It is connected to 1 nearby Googlementor picks to help travelers build a stronger local route.","summary_el":"Μπάρκο είναι ένα επιλεγμένο σημείο φαγητού στην περιοχή Πόρτο Ράφτη 190 23 και ανήκει στη συλλογή Coffee & Brunch Spots. Συνδέεται με 1 κοντινές προτάσεις του Googlementor για πιο ολοκληρωμένη εμπειρία.","vibe_tags":["curated","daytime-favorite"],"best_for":["first-time visitors","food lovers"],"visit_moments":["early morning","late brunch"],"practical_note":"Address and direct map link are available for easy turn-by-turn access.","nearby_walkable_count":1,"nearby_count_2km":1,"confidence":0.9},"areaContext":null,"intentContexts":[]},"__N_SSG":true}