{"pageProps":{"entity":{"id":"municipalities_093f8da9eef7","slug":"nea-smyrni-093f","kind":"municipality","name":"Νέα Σμύρνη","lat":37.9456,"lng":23.7142,"aliases":["Nea Smyrni","Nea Smirni","Νεα Σμυρνη","Nea Smyrne"],"region":"Νότια Προάστια","name_en":"Nea Smyrni","region_en":"Southern Suburbs"},"sameCategory":[],"nearby":[{"id":"coffeeBrunchRestaurants_7990f39b9894","slug":"32-avenue-7990","kind":"restaurant","name":"32 Avenue","lat":37.946383947038974,"lng":23.714065407386308,"url":"https://maps.app.goo.gl/miSnLuSyrb5xJ1dB9?g_st=ipc","address":"2ας Μαΐου 32, Νέα Σμύρνη 171 21","categoryIds":["coffee-brunch"],"categories":["Coffee & Brunch Spots"],"distanceKm":0.08796624523061924},{"id":"italianRestaurants_da11e2c73563","slug":"cavaliere-ristorante-concettuale-da11","kind":"restaurant","name":"Cavaliere Ristorante Concettuale","lat":37.944619471140975,"lng":23.71414682617668,"url":"https://maps.app.goo.gl/WcUWRBUhr7SBrvaw8?g_st=ipc","address":"Λεωφ. Ελ. Βενιζέλου 42, Νέα Σμύρνη 171 22","categoryIds":["italian"],"categories":["Italian Restaurants"],"distanceKm":0.10912949107056986},{"id":"asianRestaurants_8c0b6c732554","slug":"black-lotus-vietnamese-restaurant-8c0b","kind":"restaurant","name":"Black Lotus Vietnamese Restaurant","lat":37.945120193663136,"lng":23.715750543219272,"url":"https://maps.app.goo.gl/ALPiHRy5LRfWNWfU7?g_st=ipc","address":"Ικονίου 11, Νέα Σμύρνη 171 23","categoryIds":["asian"],"categories":["Asian Restaurants"],"distanceKm":0.14605709794832428},{"id":"asianRestaurants_ea18f7423739","slug":"streetwok-ea18","kind":"restaurant","name":"StreetWok","lat":37.94661589274436,"lng":23.715316438751927,"url":"https://maps.app.goo.gl/Wb2pGeyp5yUdVqfd9?g_st=ipc","address":"Λεωφ. Ελ. Βενιζέλου 37, Νέα Σμύρνη 171 23","categoryIds":["asian","cheap-eats"],"categories":["Asian Restaurants","Gyros & Cheap Eats"],"legacySlugs":["streetwok-7394"],"distanceKm":0.14948019335933196},{"id":"mexicanRestaurants_e73bac78f16d","slug":"pueblo-chido-nea-smyrni-e73b","kind":"restaurant","name":"Pueblo Chido, Nea Smyrni","lat":37.94714091435742,"lng":23.714986542388107,"url":"https://maps.app.goo.gl/MWC6uaDUm2HJ8Ved9?g_st=ipc","address":"Pueblo Chido, Nea Smyrni","categoryIds":["mexican"],"categories":["Mexican Restaurants"],"distanceKm":0.1847019565870105},{"id":"mexicanRestaurants_e022afb77fe2","slug":"amigos-e022","kind":"restaurant","name":"Amigos","lat":37.94499454255761,"lng":23.71221746209658,"url":"https://maps.app.goo.gl/BHdiVv9h7dD8bkiu6?g_st=ipc","address":"Μεγ. Αλεξάνδρου 70, Νέα Σμύρνη 171 22","categoryIds":["mexican","vegetarian"],"categories":["Mexican Restaurants","Vegetarian Friendly Restaurants"],"legacySlugs":["amigos-83a2"],"distanceKm":0.18642581304699457},{"id":"coffeeBrunchRestaurants_bcef1a0d2ebe","slug":"aroma-plateias-bcef","kind":"restaurant","name":"Άρωμα πλατείας","lat":37.947245777072794,"lng":23.713361220767048,"url":"https://maps.app.goo.gl/6mPMQRmSeP8pK4Cu6?g_st=ipc","address":"25ης Μαρτίου 19, Νέα Σμύρνη 171 21","categoryIds":["coffee-brunch"],"categories":["Coffee & Brunch Spots"],"distanceKm":0.19722914110744394},{"id":"dessertsRestaurants_90551d221579","slug":"zuccherino-9055","kind":"restaurant","name":"Zuccherino","lat":37.94670677191045,"lng":23.712370393556583,"url":"https://maps.app.goo.gl/AvtpV9edEhsRgr9r5?g_st=ipc","address":"2ας Μαΐου 12, Νέα Σμύρνη 171 21","categoryIds":["desserts"],"categories":["Dessert Shops"],"distanceKm":0.20219866014339302},{"id":"asianRestaurants_6ef4181fa78e","slug":"kenko-japanese-restaurant-6ef4","kind":"restaurant","name":"Kenko Japanese Restaurant","lat":37.94729381865282,"lng":23.715042181127906,"url":"https://maps.app.goo.gl/XHTSnCRdEDq5dRxc7?g_st=ipc","address":"Λεωφ. Ελ. Βενιζέλου 22, Νέα Σμύρνη 171 21","categoryIds":["asian","luxury-dining"],"categories":["Asian Restaurants","Luxury Dining"],"legacySlugs":["kenko-japanese-restaurant-c964"],"distanceKm":0.2023042831230499},{"id":"coffeeBrunchRestaurants_01d039eed44f","slug":"flaked-croissanterie-nea-smyrni-01d0","kind":"restaurant","name":"Flaked Croissanterie Nea Smyrni","lat":37.94664941791958,"lng":23.71226377005945,"url":"https://maps.app.goo.gl/XhDMxWuwRuMVcghH9?g_st=ipc","address":"2ας Μαΐου 10, Νέα Σμύρνη 171 21","categoryIds":["coffee-brunch"],"categories":["Coffee & Brunch Spots"],"distanceKm":0.2060160763844281},{"id":"italianRestaurants_3441b54b92cd","slug":"vissente-italian-comfort-food-3441","kind":"restaurant","name":"Vissente - Italian comfort food","lat":37.94750349815223,"lng":23.714501612675416,"url":"https://maps.app.goo.gl/UadeCSeXLWu8p8wK6?g_st=ipc","address":"Πλ. Αθανασίου Καρύλλου 9, Νέα Σμύρνη 171 21","categoryIds":["italian"],"categories":["Italian Restaurants"],"distanceKm":0.21330527393077944},{"id":"cheapEatsRestaurants_fb98feb8ab24","slug":"soyvlakia-o-leyteris-fb98","kind":"restaurant","name":"Σουβλάκια ο Λευτέρης","lat":37.947152588163014,"lng":23.712051232496496,"url":"https://maps.app.goo.gl/MTQDk9is4pkL1vPt9?g_st=ipc","address":"Ειρήνης 2, Νέα Σμύρνη 171 21","categoryIds":["cheap-eats"],"categories":["Gyros & Cheap Eats"],"distanceKm":0.25555061661284123},{"id":"dessertsRestaurants_8de488078304","slug":"crepa-crepa-8de4","kind":"restaurant","name":"Crepa crepa","lat":37.94728978565515,"lng":23.712096506964457,"url":"https://maps.app.goo.gl/vmeSVgQbRFAe8fe19?g_st=ipc","address":"Ειρήνης 2, Νέα Σμύρνη 171 21","categoryIds":["desserts"],"categories":["Dessert Shops"],"distanceKm":0.26329829042489694},{"id":"burgersRestaurants_af2bce83bf0a","slug":"mpar-mpee-kioy-af2b","kind":"restaurant","name":"Μπαρ Μπεε Κιου","lat":37.947758433049515,"lng":23.715813044078192,"url":"https://maps.app.goo.gl/4dN2cUdHdLqSEgRQA?g_st=ipc","address":"Λεωφ. Ελ. Βενιζέλου 18, Νέα Σμύρνη 171 23","categoryIds":["burgers"],"categories":["Burger Spots"],"distanceKm":0.2785841795448587},{"id":"coffeeBrunchRestaurants_2673b2efe834","slug":"fred-2673","kind":"restaurant","name":"Fred","lat":37.94562369764514,"lng":23.71066649818301,"url":"https://maps.app.goo.gl/HMmCPXK9BhvDtR538?g_st=ipc","address":"Κων/νου Παλαιολόγου 24, Νέα Σμύρνη 171 21","categoryIds":["coffee-brunch"],"categories":["Coffee & Brunch Spots"],"distanceKm":0.3098560030737096},{"id":"vegetarianRestaurants_de7324c496a6","slug":"fakafel-de73","kind":"restaurant","name":"Φakafel","lat":37.945977379116876,"lng":23.71063148252821,"url":"https://maps.app.goo.gl/r5AXr2ToKxBqZpAv9?g_st=ipc","address":"Φakafel","categoryIds":["vegetarian"],"categories":["Vegetarian Friendly Restaurants"],"distanceKm":0.31571560127974924},{"id":"coffeeBrunchRestaurants_0aaa1d7425c8","slug":"o-nikos-0aaa","kind":"restaurant","name":"\"ο Νίκος\"","lat":37.94446727754758,"lng":23.71036042368455,"url":"https://maps.app.goo.gl/Hjscsj6jJP8Ehtjz8?g_st=ipc","address":"Κων/νου Παλαιολόγου 36, Νέα Σμύρνη 171 22","categoryIds":["coffee-brunch"],"categories":["Coffee & Brunch Spots"],"distanceKm":0.3594744881229948},{"id":"burgersRestaurants_b47d84823c91","slug":"the-burger-joint-b47d","kind":"restaurant","name":"The Burger Joint","lat":37.942262724437896,"lng":23.71398429679752,"url":"https://maps.app.goo.gl/4gyyrfZJhxvHeHNj8?g_st=ipc","address":"Λεωφ. Ελ. Βενιζέλου 93, Νέα Σμύρνη 171 22","categoryIds":["burgers"],"categories":["Burger Spots"],"distanceKm":0.3715698616095506},{"id":"greekRestaurants_eecb2ebbfdc2","slug":"gitema-eecb","kind":"restaurant","name":"Γήτεμα","lat":37.94107986247284,"lng":23.713131731866255,"url":"https://maps.app.goo.gl/S3ph9mpPrmbS64x3A","address":"Λεωφ. Ελ. Βενιζέλου 88, Νέα Σμύρνη 171 22","categoryIds":["greek-restaurants"],"categories":["Greek Restaurants"],"distanceKm":0.5112715237293622},{"id":"greekRestaurants_ef1588581bbb","slug":"myrtia-ef15","kind":"restaurant","name":"Μυρτιά","lat":37.940920844377125,"lng":23.712738244892858,"url":"https://maps.app.goo.gl/QHjMpbFEFgtWLbA57","address":"Αϊδινίου 55, Νέα Σμύρνη 171 22","categoryIds":["greek-restaurants"],"categories":["Greek Restaurants"],"distanceKm":0.5358554306908601},{"id":"cheapEatsRestaurants_7f509ca8a241","slug":"doner-tzortz-7f50","kind":"restaurant","name":"DONER.TZORTZ","lat":37.95300238294556,"lng":23.716665931248773,"url":"https://maps.app.goo.gl/otFTTi2nsTTPYaYKA?g_st=ipc","address":"Βιζυηνού 2, Νέα Σμύρνη 171 21","categoryIds":["cheap-eats"],"categories":["Gyros & Cheap Eats"],"distanceKm":0.8510331354544534},{"id":"greekRestaurants_e3992a60261a","slug":"kritikos-e399","kind":"restaurant","name":"Κρητικός","lat":37.94303304147985,"lng":23.704084169584778,"url":"https://maps.app.goo.gl/QgBcqGt9addfXPwL6","address":"Ραιδεστού 36, Νέα Σμύρνη 171 22","categoryIds":["greek-restaurants"],"categories":["Greek Restaurants"],"distanceKm":0.9318420012627008},{"id":"coffeeBrunchRestaurants_45cff5aaefe1","slug":"peggy-sue-45cf","kind":"restaurant","name":"Peggy Sue","lat":37.9539520452851,"lng":23.715104827553436,"url":"https://maps.app.goo.gl/jJoRB32pj6dGvy9h9?g_st=ipc","address":"Σπαθαρη 2, Νέα Σμύρνη 171 21","categoryIds":["coffee-brunch"],"categories":["Coffee & Brunch Spots"],"distanceKm":0.9320877525392983},{"id":"cheapEatsRestaurants_4c857b269660","slug":"soyvlakia-kalamakia-panostimo-4c85","kind":"restaurant","name":"Σουβλακια καλαμάκια πανοστιμο","lat":37.95437724216138,"lng":23.71201791711626,"url":"https://maps.app.goo.gl/wSd2i93DKt8GM9aEA?g_st=ipc","address":"Δοϊράνης 35, Καλλιθέα 176 72","categoryIds":["cheap-eats"],"categories":["Gyros & Cheap Eats"],"distanceKm":0.9945620624074211}],"mentionedGuides":[],"canonicalSlug":"nea-smyrni-093f","enrichment":{"summary_en":"Νέα Σμύρνη is a curated neighborhood area in Νότια Προάστια. It is connected to 20 nearby Googlementor picks to help travelers build a stronger local route.","summary_el":"Νέα Σμύρνη είναι ένα επιλεγμένο σημείο ενδιαφέροντος στην περιοχή Νότια Προάστια. Συνδέεται με 20 κοντινές προτάσεις του Googlementor για πιο ολοκληρωμένη εμπειρία.","vibe_tags":["local-neighborhood","base-for-exploring"],"best_for":["first-time visitors","walk-and-explore days","return visitors"],"visit_moments":["late morning walks","sunset exploration"],"practical_note":"20 curated places are within walkable distance from this area center.","nearby_walkable_count":20,"nearby_count_2km":92,"confidence":0.6},"areaContext":{"slug":"nea-smyrni","name":"Nea Smyrni","nameEl":"Νέα Σμύρνη"},"intentContexts":[]},"__N_SSG":true}