{"pageProps":{"entity":{"id":"wineriesVineyards_a4d0adc4e189","slug":"oinopoieio-chatzakis-a4d0","kind":"restaurant","name":"Οινοποιείο Χατζάκης","lat":37.487911506949764,"lng":24.920189638380265,"url":"https://maps.app.goo.gl/PnEvnYgAhh5oLj4j6?g_st=ipc","address":"Αη Μιχάλης 841 00","categoryIds":["wineries-vineyards"],"categories":["Wineries & Vineyards"]},"sameCategory":[{"id":"wineriesVineyards_659a4688a423","slug":"oinopoieio-chrysolora-659a","kind":"restaurant","name":"Οινοποιείο Χρυσολωρά","lat":37.186843478967006,"lng":24.50813577853972,"url":"https://maps.app.goo.gl/Mb44SR4hNKDDndUD6?g_st=ipc","address":"Φλάσκος - Προφήτης Ηλίας, Σέριφος 840 05","categoryIds":["wineries-vineyards"],"categories":["Wineries & Vineyards"]},{"id":"wineriesVineyards_f17638e49b8a","slug":"oinopoieio-moraiti-f176","kind":"restaurant","name":"Οινοποιείο Μωραΐτη","lat":37.1229987485843,"lng":25.244213980711866,"url":"https://maps.app.goo.gl/1HbespH52SwExwaW8?g_st=ipc","address":"Επαρχιακή Οδός Νάουσας-Μάρπισσας, Νάουσα 844 01","categoryIds":["wineries-vineyards"],"categories":["Wineries & Vineyards"]},{"id":"wineriesVineyards_fb04a0d726bd","slug":"oinopoieio-prifti-fb04","kind":"restaurant","name":"Οινοποιείο Πρίφτη","lat":37.742934639668164,"lng":24.024928046003534,"url":"https://maps.app.goo.gl/s9SpDZV9kTGdK3aE6?g_st=ipc","address":"Μαρκάτι 190 01","categoryIds":["wineries-vineyards"],"categories":["Wineries & Vineyards"]},{"id":"wineriesVineyards_946eb8e58cb0","slug":"kostantakis-winery-946e","kind":"restaurant","name":"Kostantakis Winery","lat":36.75755644321186,"lng":24.52676070016812,"url":"https://maps.app.goo.gl/6jEcs57aPdcQLmi17?g_st=ipc","address":"Πολλώνια 848 00","categoryIds":["wineries-vineyards"],"categories":["Wineries & Vineyards"]},{"id":"wineriesVineyards_c4b8aaa71f14","slug":"manalis-c4b8","kind":"restaurant","name":"Μάναλης","lat":36.681144681918035,"lng":25.100751857820168,"url":"https://maps.app.goo.gl/3DPBf6dGCNTLKikN6?g_st=ipc","address":"Σίκινος 840 10","categoryIds":["wineries-vineyards"],"categories":["Wineries & Vineyards"]},{"id":"wineriesVineyards_262c7717edc1","slug":"oinopoieio-papagiannakos-262c","kind":"restaurant","name":"Οινοποιείο Παπαγιαννάκος","lat":37.90457982525897,"lng":23.983420618508436,"url":"https://maps.app.goo.gl/nRd1KxMycS9cXqd6A?g_st=ipc","address":"Πυθαγόρα, Μαρκόπουλο Μεσογαίας 190 03","categoryIds":["wineries-vineyards"],"categories":["Wineries & Vineyards"]},{"id":"wineriesVineyards_07784b315d36","slug":"oinopoieio-zegginis-0778","kind":"restaurant","name":"Οινοποιείο Ζεγγίνης","lat":38.14341389755598,"lng":23.983053677151467,"url":"https://maps.app.goo.gl/ZRuTWvGbiLUcFQZw7?g_st=ipc","address":"Λεωφόρος Κάτω Σουλίου 62, Μαραθώνας 190 07","categoryIds":["wineries-vineyards"],"categories":["Wineries & Vineyards"]},{"id":"familyFriendly_840d2fe28674","slug":"ktima-kokotoy-840d","kind":"restaurant","name":"ΚΤΗΜΑ ΚΟΚΟΤΟΥ","lat":38.12312970101472,"lng":23.891798090837362,"url":"https://maps.app.goo.gl/9xRLBKhZXYMexEQX8?g_st=ipc","address":"Κτήμα Γ. Κοκοτού 1, Σταμάτα 145 75","categoryIds":["family-friendly","wineries-vineyards"],"categories":["Kid Friendly Locations","Wineries & Vineyards"],"legacySlugs":["ktima-kokotoy-a927"]},{"id":"wineriesVineyards_f66d3d921eed","slug":"domaine-sigalas-f66d","kind":"restaurant","name":"Domaine Sigalas","lat":36.47144515332007,"lng":25.394233805271192,"url":"https://maps.app.goo.gl/kxHf2McGP81at7gq9?g_st=ipc","address":"Baxes, Oia, Santorini 847 02","categoryIds":["wineries-vineyards"],"categories":["Wineries & Vineyards"]},{"id":"wineriesVineyards_3bdee9fa8d03","slug":"mikra-thira-winery-3bde","kind":"restaurant","name":"Mikra Thira Winery","lat":36.43912962546045,"lng":25.33447754994131,"url":"https://maps.app.goo.gl/RYuGtMWu3PcXZLU76?g_st=ipc","address":"Manolas 847 02","categoryIds":["wineries-vineyards"],"categories":["Wineries & Vineyards"]},{"id":"wineriesVineyards_3edb4c37dc1f","slug":"estates-costa-lazaridi-oenotria-land-3edb","kind":"restaurant","name":"Estates Costa Lazaridi - Oenotria Land","lat":38.23173089487007,"lng":23.870908077071547,"url":"https://maps.app.goo.gl/aoRwmKxMU5cHCnRX6?g_st=ipc","address":"2nd km Kapandriti Kalamos road, Kapandriti, 19014, 190 14","categoryIds":["wineries-vineyards"],"categories":["Wineries & Vineyards"]},{"id":"wineriesVineyards_21a74b37ed66","slug":"vassaltis-vineyards-21a7","kind":"restaurant","name":"Vassaltis Vineyards","lat":36.44254790219748,"lng":25.43767809168264,"url":"https://maps.app.goo.gl/2AtdngotJUgMkr7o8?g_st=ipc","address":"Περιφερειακή οδός, Βουρβούλος 847 00","categoryIds":["wineries-vineyards"],"categories":["Wineries & Vineyards"]}],"nearby":[{"id":"greekRestaurants_7b08b4e7ecfa","slug":"plakostroto-7b08","kind":"restaurant","name":"Πλακόστρωτο","lat":37.48884885717979,"lng":24.92039552541297,"url":"https://maps.app.goo.gl/XfD9nNTB3trh5Euw6?g_st=ipc","address":"Κυκλάδων, Αη Μιχάλης 841 00","categoryIds":["greek-restaurants"],"categories":["Greek Restaurants"],"distanceKm":0.10579974313157367},{"id":"greekRestaurants_b66f81151a01","slug":"empati-b66f","kind":"restaurant","name":"Εμπατή","lat":37.4495588259796,"lng":24.927676203171245,"url":"https://maps.app.goo.gl/6AwpTQ9uTLgEUaBJ8?g_st=ipc","address":"Αληθινή 841 00","categoryIds":["greek-restaurants"],"categories":["Greek Restaurants"],"distanceKm":4.315502503919971},{"id":"luxuryDiningRestaurants_9c6d307705cb","slug":"hygge-ano-syros-9c6d","kind":"restaurant","name":"Hygge Ano Syros","lat":37.45063025961707,"lng":24.93672789045308,"url":"https://maps.app.goo.gl/bq8XEdkjQTKveFWo7?g_st=ipc","address":"Ano Syros 841 00","categoryIds":["luxury-dining"],"categories":["Luxury Dining"],"distanceKm":4.394922664463696},{"id":"greekRestaurants_b8183ad911da","slug":"o-mitsos-b818","kind":"restaurant","name":"Ο Μήτσος","lat":37.44635077351931,"lng":24.926756993265617,"url":"https://maps.app.goo.gl/rymG3hKT6zM9Hv1X8?g_st=ipc","address":"Αληθινή 841 00","categoryIds":["greek-restaurants"],"categories":["Greek Restaurants"],"distanceKm":4.657547845780681},{"id":"fishTavernasRestaurants_980522cd3e49","slug":"allou-yialou-9805","kind":"restaurant","name":"Allou Yialou","lat":37.446952094396515,"lng":24.900261999085988,"url":"https://maps.app.goo.gl/fZarxkpuFnFbzYFR6?g_st=ipc","address":"Κίνι 841 00","categoryIds":["fish-tavernas"],"categories":["Fish Tavernas"],"distanceKm":4.882250995283946},{"id":"luxuryDiningRestaurants_fce7b5166669","slug":"elexis-restaurant-fce7","kind":"restaurant","name":"Elexis restaurant","lat":37.44565058814321,"lng":24.944776847765887,"url":"https://maps.app.goo.gl/rqnMSjkRjYm2rfCw6?g_st=ipc","address":"Apollonos 11, Ermoupoli 841 00","categoryIds":["luxury-dining"],"categories":["Luxury Dining"],"distanceKm":5.176026722558349},{"id":"coffeeBrunchRestaurants_9e14262d126e","slug":"artisti-prozymi-9e14","kind":"restaurant","name":"Artisti Προζύμι","lat":37.44450469447684,"lng":24.94200878171083,"url":"https://maps.app.goo.gl/zBtgvSEn5xc7LXJYA?g_st=ipc","address":"Ermoupoli 841 00","categoryIds":["coffee-brunch"],"categories":["Coffee & Brunch Spots"],"distanceKm":5.196585949831306},{"id":"coffeeBrunchRestaurants_ec0f2731baff","slug":"epta-syros-island-ec0f","kind":"restaurant","name":"Epta - Syros Island","lat":37.443982055478656,"lng":24.941782056394448,"url":"https://maps.app.goo.gl/67zZLni25BkifsZy6?g_st=ipc","address":"Peloponnisou 7, Ermoupoli 841 00","categoryIds":["coffee-brunch"],"categories":["Coffee & Brunch Spots"],"distanceKm":5.243304142306736},{"id":"dessertsRestaurants_a081a0be0db3","slug":"so-in-d-cjdh-a081","kind":"restaurant","name":"So in d cjdh","lat":37.4444390329241,"lng":24.943371459609835,"url":"https://maps.app.goo.gl/kDu69AUHWaiUN8MD9?g_st=ipc","address":"Γεωρ. Γεννηματά, Ερμούπολη 841 00","categoryIds":["desserts"],"categories":["Dessert Shops"],"distanceKm":5.249066053706051},{"id":"municipalities_10c41fed1584","slug":"syros-10c4","kind":"municipality","name":"Σύρος","lat":37.4442,"lng":24.9428,"aliases":["Syros","Siros","Σύρα","Συρος","Συρο"],"region":"Κυκλάδες","name_en":"Syros","region_en":"Cyclades","distanceKm":5.254193089641265},{"id":"coffeeBrunchRestaurants_4d25f45b5203","slug":"armadillo-coffee-brewery-4d25","kind":"restaurant","name":"Armadillo coffee brewery","lat":37.44456566950848,"lng":24.94393269848808,"url":"https://maps.app.goo.gl/1CcqyVuzhyYwut3Y7?g_st=ipc","address":"Emmanouil Roidi 9, Ermoupoli 841 00","categoryIds":["coffee-brunch"],"categories":["Coffee & Brunch Spots"],"distanceKm":5.255652929060709},{"id":"dessertsRestaurants_047955347234","slug":"django-gelato-syros-0479","kind":"restaurant","name":"Django Gelato Syros","lat":37.44450627617555,"lng":24.944030796272305,"url":"https://maps.app.goo.gl/n5hxCbxJp7iEtRnS8?g_st=ipc","address":"Εμμανουήλ Ροΐδη 10, Ερμούπολη 841 00","categoryIds":["desserts"],"categories":["Dessert Shops"],"distanceKm":5.265164482963327},{"id":"greekRestaurants_1696c19253da","slug":"seminario-restaurant-1696","kind":"restaurant","name":"SEMINARIO RESTAURANT","lat":37.44429164128135,"lng":24.944085469492308,"url":"https://maps.app.goo.gl/nJKupgtgjMPeqH9s9?g_st=ipc","address":"Κυπαρίσσου 7, Ερμούπολη 841 00","categoryIds":["greek-restaurants"],"categories":["Greek Restaurants"],"distanceKm":5.2889741499519},{"id":"vegetarianRestaurants_01ab7c5f61ba","slug":"seminario-01ab","kind":"restaurant","name":"SEMINARIO","lat":37.4442691864213,"lng":24.94407924993465,"url":"https://maps.app.goo.gl/67qtbde9XNL2VBgVA?g_st=ipc","address":"Kiparissou 7, Ermoupoli 841 00","categoryIds":["vegetarian"],"categories":["Vegetarian Friendly Restaurants"],"distanceKm":5.291045384656533},{"id":"greekRestaurants_146807342037","slug":"ithaki-toy-ai-1468","kind":"restaurant","name":"Ιθάκη του Αή","lat":37.44420854822272,"lng":24.943948745039016,"url":"https://maps.app.goo.gl/KDXT6jt1hACmxQyQ9?g_st=ipc","address":"Κλώνος &, Κυπαρίσσου 1Α, Ερμούπολη 841 00","categoryIds":["greek-restaurants"],"categories":["Greek Restaurants"],"distanceKm":5.292656716247576},{"id":"dessertsRestaurants_4f049383a360","slug":"athymaritis-4f04","kind":"restaurant","name":"Αθυμαρίτης","lat":37.44304285674758,"lng":24.942058155197838,"url":"https://maps.app.goo.gl/QqZKei5CzCtJaWFv7?g_st=ipc","address":"ΚΕΑΣ, Επτανήσου 2, ΚΑΙ 841 00","categoryIds":["desserts"],"categories":["Dessert Shops"],"distanceKm":5.349478953158362},{"id":"coffeeBrunchRestaurants_5149b6e62713","slug":"nuru-casual-dine-bar-5149","kind":"restaurant","name":"NURU Casual Dine Bar","lat":37.44349077641299,"lng":24.94447380869693,"url":"https://maps.app.goo.gl/MAU2ryGQrQMcWyvh7?g_st=ipc","address":"Coast Petrou Ralli, Ermoupoli 841 00","categoryIds":["coffee-brunch"],"categories":["Coffee & Brunch Spots"],"distanceKm":5.384312969051645},{"id":"greekRestaurants_ca82ecc0469e","slug":"to-tsipoyradiko-tis-myrsinis-ca82","kind":"restaurant","name":"Το Τσιπουράδικο της Μυρσίνης","lat":37.4418414585908,"lng":24.9417843089367,"url":"https://maps.app.goo.gl/iYVQf35areJL729h8?g_st=ipc","address":"Ακτή Παπάγου 6, Ερμούπολη 841 00","categoryIds":["greek-restaurants"],"categories":["Greek Restaurants"],"distanceKm":5.465813520471591},{"id":"italianRestaurants_c3995e275001","slug":"amvix-c399","kind":"restaurant","name":"Amvix","lat":37.44099934175907,"lng":24.940807847227685,"url":"https://maps.app.goo.gl/pvyKHGGD2fbgASCE8?g_st=ipc","address":"Akti Papagoi 26, Ermoupoli 841 00","categoryIds":["italian"],"categories":["Italian Restaurants"],"distanceKm":5.524692282210437},{"id":"greekRestaurants_bd91fcd5ea24","slug":"laoytari-bd91","kind":"restaurant","name":"Λαουτάρι","lat":37.440095347477,"lng":24.93954086077632,"url":"https://maps.app.goo.gl/hg1f12ccy5BRDtoR9?g_st=ipc","address":"Θερμοπυλών 18, Ερμούπολη 841 00","categoryIds":["greek-restaurants"],"categories":["Greek Restaurants"],"distanceKm":5.584495654649599},{"id":"familyFriendly_83c448f68640","slug":"gipedo-podosfairoy-pagoy-83c4","kind":"restaurant","name":"Γήπεδο Ποδοσφαίρου Πάγου","lat":37.42646477570567,"lng":24.907668410293343,"url":"https://maps.app.goo.gl/BaTm12sUUp1d1c9g8?g_st=ipc","address":"Πάγος 841 00","categoryIds":["family-friendly"],"categories":["Kid Friendly Locations"],"distanceKm":6.921375917979035},{"id":"coffeeBrunchRestaurants_6cf196494304","slug":"yamma-all-day-bar-restaurant-6cf1","kind":"restaurant","name":"Yamma All Day Bar - Restaurant","lat":37.42130665540869,"lng":24.87954060251137,"url":"https://maps.app.goo.gl/ndoCdemDkTB3EdpU7?g_st=ipc","address":"Συρου, Galissas 841 00","categoryIds":["coffee-brunch"],"categories":["Coffee & Brunch Spots"],"distanceKm":8.229529819881579},{"id":"greekRestaurants_96450f00f0b5","slug":"iliovasilema-9645","kind":"restaurant","name":"Ηλιοβασίλεμα","lat":37.42092278718389,"lng":24.87878430217567,"url":"https://maps.app.goo.gl/NKaN6gyqZ6cUdDoo9?g_st=ipc","address":"Παραλια, Γαλησσάς 841 00","categoryIds":["greek-restaurants"],"categories":["Greek Restaurants"],"distanceKm":8.297158181787056},{"id":"fishTavernasRestaurants_721ec670613c","slug":"ora-baresto-721e","kind":"restaurant","name":"ORA baresto","lat":37.398407848807196,"lng":24.87840275006321,"url":"https://maps.app.goo.gl/gop1o8sLeZBAttGy7?g_st=ipc","address":"Επαρχιακή Οδός Ερμούπολης-Φοίνικων,Φοίνικας 841 00 ΣΥΡΟΣ, 841 00","categoryIds":["fish-tavernas","greek-restaurants"],"categories":["Fish Tavernas","Greek Restaurants"],"legacySlugs":["ora-baresto-aeef"],"distanceKm":10.614088212945505}],"mentionedGuides":[],"canonicalSlug":"oinopoieio-chatzakis-a4d0","enrichment":{"summary_en":"Οινοποιείο Χατζάκης is a curated restaurant in Greece in the Wineries & Vineyards collection. It is connected to 1 nearby Googlementor picks to help travelers build a stronger local route.","summary_el":"Οινοποιείο Χατζάκης είναι ένα επιλεγμένο σημείο φαγητού στην περιοχή Greece και ανήκει στη συλλογή Wineries & Vineyards. Συνδέεται με 1 κοντινές προτάσεις του Googlementor για πιο ολοκληρωμένη εμπειρία.","vibe_tags":["curated","wine-moment"],"best_for":["first-time visitors","food lovers"],"visit_moments":["lunch stop","dinner stop"],"practical_note":"Address and direct map link are available for easy turn-by-turn access.","nearby_walkable_count":1,"nearby_count_2km":1,"confidence":0.9},"areaContext":{"slug":"syros","name":"Syros","nameEl":"Σύρος"},"intentContexts":[]},"__N_SSG":true}