{"pageProps":{"entity":{"id":"fishTavernasRestaurants_58477da61988","slug":"oti-kalo-5847","kind":"restaurant","name":"Oti Kalo","lat":37.8562893028016,"lng":24.785922766571392,"url":"https://maps.app.goo.gl/NHF5wztHFXbNzzkG6?g_st=ipc","address":"Μπατσί 845 01","categoryIds":["fish-tavernas"],"categories":["Fish Tavernas"]},"sameCategory":[{"id":"fishTavernasRestaurants_4dd45c710873","slug":"stamatis-tavern-4dd4","kind":"restaurant","name":"Stamatis Tavern","lat":37.85607023280217,"lng":24.78575728988094,"url":"https://maps.app.goo.gl/mBX3JbJMAWJA4x3Y7?g_st=ipc","address":"Κυκλάδων Ανδρος, Mpatsi 845 03","categoryIds":["fish-tavernas"],"categories":["Fish Tavernas"]},{"id":"fishTavernasRestaurants_b2dc1ce51a26","slug":"mastello-b2dc","kind":"restaurant","name":"Mastello","lat":37.85819226338292,"lng":24.78588365168363,"url":"https://maps.app.goo.gl/6pEnXsNrPXAaNQPu8?g_st=ipc","address":"Μπατσί 845 01","categoryIds":["fish-tavernas"],"categories":["Fish Tavernas"]},{"id":"fishTavernasRestaurants_f065f7059030","slug":"binelikia-f065","kind":"restaurant","name":"Binelikia","lat":37.83942195557314,"lng":24.93605561916826,"url":"https://maps.app.goo.gl/g7MbV8Cu1pjFFz8b7?g_st=ipc","address":"Νειμποριό, Andros 845 00","categoryIds":["fish-tavernas"],"categories":["Fish Tavernas"]},{"id":"fishTavernasRestaurants_61c64ce0663b","slug":"lithodomi-61c6","kind":"restaurant","name":"Λιθοδομή","lat":37.7730077055442,"lng":24.95123511430265,"url":"https://maps.app.goo.gl/AdyzF8weXRZVC15f6?g_st=ipc","address":"Αλίκης Ψάλτη, Ormos Korthiou 845 02","categoryIds":["fish-tavernas"],"categories":["Fish Tavernas"]},{"id":"fishTavernasRestaurants_d5a2190de0c2","slug":"tama-d5a2","kind":"restaurant","name":"Táma","lat":37.651655752579366,"lng":25.051591259144875,"url":"https://maps.app.goo.gl/FhoWaSrsyrypuExG8?g_st=ipc","address":"Όρμος Πανόρμου 842 01","categoryIds":["fish-tavernas"],"categories":["Fish Tavernas"]},{"id":"fishTavernasRestaurants_5745f4ec9e6d","slug":"to-thalassaki-5745","kind":"restaurant","name":"To Θαλασσάκι","lat":37.615230690872465,"lng":25.0428843541274,"url":"https://maps.app.goo.gl/eqUQ8oiZuscvzKLaA?g_st=ipc","address":"bay, Isternia 842 01","categoryIds":["fish-tavernas"],"categories":["Fish Tavernas"]},{"id":"fishTavernasRestaurants_d2e31b47d395","slug":"geysiploys-d2e3","kind":"restaurant","name":"Γευσίπλους","lat":38.01363391931526,"lng":24.41848605895524,"url":"https://maps.app.goo.gl/7p2KKH1ay3AcjzQf6?g_st=ipc","address":"Θεοχάρη Κότσικα 3, Κάρυστος 340 01","categoryIds":["fish-tavernas"],"categories":["Fish Tavernas"]},{"id":"fishTavernasRestaurants_ad8e3851f78d","slug":"to-50raki-toy-xenia-ad8e","kind":"restaurant","name":"Το 50ράκι του Ξενία","lat":38.04899426758984,"lng":24.31914838714323,"url":"https://maps.app.goo.gl/G7eazVK35sNwj5Jm7?g_st=ipc","address":"παραλιακός, 1ος, Μαρμάρι 340 13","categoryIds":["fish-tavernas"],"categories":["Fish Tavernas"]},{"id":"fishTavernasRestaurants_980522cd3e49","slug":"allou-yialou-9805","kind":"restaurant","name":"Allou Yialou","lat":37.446952094396515,"lng":24.900261999085988,"url":"https://maps.app.goo.gl/fZarxkpuFnFbzYFR6?g_st=ipc","address":"Κίνι 841 00","categoryIds":["fish-tavernas"],"categories":["Fish Tavernas"]},{"id":"fishTavernasRestaurants_721ec670613c","slug":"ora-baresto-721e","kind":"restaurant","name":"ORA baresto","lat":37.398407848807196,"lng":24.87840275006321,"url":"https://maps.app.goo.gl/gop1o8sLeZBAttGy7?g_st=ipc","address":"Επαρχιακή Οδός Ερμούπολης-Φοίνικων,Φοίνικας 841 00 ΣΥΡΟΣ, 841 00","categoryIds":["fish-tavernas","greek-restaurants"],"categories":["Fish Tavernas","Greek Restaurants"],"legacySlugs":["ora-baresto-aeef"]},{"id":"fishTavernasRestaurants_bceb21ce5afb","slug":"bolas-restaurant-syros-bceb","kind":"restaurant","name":"Bolas Restaurant Syros","lat":37.390186602163425,"lng":24.945820061380417,"url":"https://maps.app.goo.gl/CV5VQnagTSebUic97?g_st=ipc","address":"Βάρη 841 00","categoryIds":["fish-tavernas"],"categories":["Fish Tavernas"]},{"id":"fishTavernasRestaurants_b7db512b75ba","slug":"arias-restaurant-kythnos-b7db","kind":"restaurant","name":"Arias restaurant Kythnos","lat":37.43805920967631,"lng":24.433681333413276,"url":"https://maps.app.goo.gl/GWWwUXx8q4vncoUU7?g_st=ipc","address":"Unnamed Road, Ag. Irini, Kithnos 840 06","categoryIds":["fish-tavernas"],"categories":["Fish Tavernas"]}],"nearby":[{"id":"fishTavernasRestaurants_4dd45c710873","slug":"stamatis-tavern-4dd4","kind":"restaurant","name":"Stamatis Tavern","lat":37.85607023280217,"lng":24.78575728988094,"url":"https://maps.app.goo.gl/mBX3JbJMAWJA4x3Y7?g_st=ipc","address":"Κυκλάδων Ανδρος, Mpatsi 845 03","categoryIds":["fish-tavernas"],"categories":["Fish Tavernas"],"distanceKm":0.028362728589081315},{"id":"fishTavernasRestaurants_b2dc1ce51a26","slug":"mastello-b2dc","kind":"restaurant","name":"Mastello","lat":37.85819226338292,"lng":24.78588365168363,"url":"https://maps.app.goo.gl/6pEnXsNrPXAaNQPu8?g_st=ipc","address":"Μπατσί 845 01","categoryIds":["fish-tavernas"],"categories":["Fish Tavernas"],"distanceKm":0.21162742548447944},{"id":"greekRestaurants_93cc48915673","slug":"almi-tavern-andros-93cc","kind":"restaurant","name":"Almi Tavern Andros","lat":37.861737922645034,"lng":24.779792309491878,"url":"https://maps.app.goo.gl/eHhBS6sYeSo2Zr6s5?g_st=ipc","address":"Επαρ.Οδ. Άνδρου-Μπατσίου, Μπατσί 845 01","categoryIds":["greek-restaurants"],"categories":["Greek Restaurants"],"distanceKm":0.8103844862346693},{"id":"greekRestaurants_86110571add2","slug":"to-mpalkoni-toy-aigaioy-8611","kind":"restaurant","name":"Το Μπαλκόνι του Αιγαίου","lat":37.83554332996387,"lng":24.812413866994714,"url":"https://maps.app.goo.gl/7HaLWB594ALzDwtp7?g_st=ipc","address":"ΑΠΡΟΒΑΤΟ, Άνω Απροβατου 845 01","categoryIds":["greek-restaurants"],"categories":["Greek Restaurants"],"distanceKm":3.2760114989240354},{"id":"greekRestaurants_d4937c446881","slug":"to-steki-toy-andrea-stin-andro-d493","kind":"restaurant","name":"Το Στέκι Του Ανδρέα στην Άνδρο","lat":37.90062312367468,"lng":24.711658535578362,"url":"https://maps.app.goo.gl/XUN3ng41cfQhgK3D6?g_st=ipc","address":"Παραλία Φελλού, Άνδρος 845 00","categoryIds":["greek-restaurants"],"categories":["Greek Restaurants"],"distanceKm":8.172291481357318},{"id":"greekRestaurants_1430d6fb94a9","slug":"kossis-1430","kind":"restaurant","name":"Κόσσης","lat":37.92050251340132,"lng":24.72409809326984,"url":"https://maps.app.goo.gl/uhxK7foF95HsorjaA?g_st=ipc","address":"Aνω, Κάτω Φελλός 845 01","categoryIds":["greek-restaurants"],"categories":["Greek Restaurants"],"distanceKm":8.967613481364303},{"id":"dessertsRestaurants_1d7df040c53a","slug":"zacharoplasteio-za-i-ris-zairis-pastry-patisserie-gelateria-1d7d","kind":"restaurant","name":"ΖΑΧΑΡΟΠΛΑΣΤΕΙΟ \"ΖΑ'Ι'ΡΗΣ\" ZAIRIS-PASTRY Patisserie Gelateria","lat":37.82579583533186,"lng":24.91462125689678,"url":"https://maps.app.goo.gl/QbRR2HA2G4VUjkbb9?g_st=ipc","address":"ΜΕΣΣΑΡΙΑ, ΑΝΔΡΟΣ - MESSARIA, ANDROS, KYKLADES 845 00","categoryIds":["desserts"],"categories":["Dessert Shops"],"distanceKm":11.799017588385803},{"id":"greekRestaurants_718e14a085bf","slug":"fofo-cycladic-gastronomy-718e","kind":"restaurant","name":"Fofo Cycladic Gastronomy","lat":37.82353783239752,"lng":24.928189313412695,"url":"https://maps.app.goo.gl/2iPebnrW2ztaiYfU7?g_st=ipc","address":"Επαρ.Οδ. Άνδρου-Σταυροπέδας, Λιβάδια 845 00","categoryIds":["greek-restaurants"],"categories":["Greek Restaurants"],"distanceKm":13.012939795716267},{"id":"municipalities_3cbd90a19d63","slug":"andros-3cbd","kind":"municipality","name":"Άνδρος","lat":37.8333,"lng":24.9333,"region":"Κυκλάδες","name_en":"Andros","region_en":"Cyclades","distanceKm":13.190950901662863},{"id":"fishTavernasRestaurants_f065f7059030","slug":"binelikia-f065","kind":"restaurant","name":"Binelikia","lat":37.83942195557314,"lng":24.93605561916826,"url":"https://maps.app.goo.gl/g7MbV8Cu1pjFFz8b7?g_st=ipc","address":"Νειμποριό, Andros 845 00","categoryIds":["fish-tavernas"],"categories":["Fish Tavernas"],"distanceKm":13.315062705472634},{"id":"greekRestaurants_9335e3ff6212","slug":"sea-satin-nino-9335","kind":"restaurant","name":"SEA SATIN NINO","lat":37.773197007055956,"lng":24.950818318342087,"url":"https://maps.app.goo.gl/h3BaucesVrSWHYau5?g_st=ipc","address":"Pedestrian Walk Way, Ormos, Korthi 845 02","categoryIds":["greek-restaurants"],"categories":["Greek Restaurants"],"distanceKm":17.180899962089132},{"id":"fishTavernasRestaurants_61c64ce0663b","slug":"lithodomi-61c6","kind":"restaurant","name":"Λιθοδομή","lat":37.7730077055442,"lng":24.95123511430265,"url":"https://maps.app.goo.gl/AdyzF8weXRZVC15f6?g_st=ipc","address":"Αλίκης Ψάλτη, Ormos Korthiou 845 02","categoryIds":["fish-tavernas"],"categories":["Fish Tavernas"],"distanceKm":17.223103468783304},{"id":"fishTavernasRestaurants_d5a2190de0c2","slug":"tama-d5a2","kind":"restaurant","name":"Táma","lat":37.651655752579366,"lng":25.051591259144875,"url":"https://maps.app.goo.gl/FhoWaSrsyrypuExG8?g_st=ipc","address":"Όρμος Πανόρμου 842 01","categoryIds":["fish-tavernas"],"categories":["Fish Tavernas"],"distanceKm":32.607946641730116},{"id":"greekRestaurants_f1c703fa9088","slug":"sima-f1c7","kind":"restaurant","name":"Sima","lat":37.640391826641014,"lng":25.040013069732986,"url":"https://maps.app.goo.gl/3px2jqkoAcSm4AFa7?g_st=ipc","address":"Πύργος 842 01","categoryIds":["greek-restaurants"],"categories":["Greek Restaurants"],"distanceKm":32.79342092864901},{"id":"dessertsRestaurants_757fe603b972","slug":"to-kentrikon-757f","kind":"restaurant","name":"Το Κεντρικόν","lat":37.63921354793122,"lng":25.04200584233484,"url":"https://maps.app.goo.gl/MoMdkmCiYwwuTbUi7?g_st=ipc","address":"Unnamed Road, Πύργος 842 01","categoryIds":["desserts"],"categories":["Dessert Shops"],"distanceKm":33.00883919895816},{"id":"greekRestaurants_854af5844b5d","slug":"athmar-854a","kind":"restaurant","name":"Αθμάρ","lat":37.639145778049105,"lng":25.04198852214129,"url":"https://maps.app.goo.gl/89sj6fRtcg34nfx16?g_st=ipc","address":"Τήνου, Πύργος 842 01","categoryIds":["greek-restaurants"],"categories":["Greek Restaurants"],"distanceKm":33.01331851721513},{"id":"coffeeBrunchRestaurants_5f5634aa7ab6","slug":"mayou-all-day-bar-5f56","kind":"restaurant","name":"Mayou all day bar","lat":37.6225070567129,"lng":25.05248500203228,"url":"https://maps.app.goo.gl/MQWdjK1DGr9YXoey5?g_st=ipc","address":"Isternia, Tinos 842 01, Tinos Island 842 01","categoryIds":["coffee-brunch"],"categories":["Coffee & Brunch Spots"],"distanceKm":35.002532053452235},{"id":"coffeeBrunchRestaurants_4b0dd01f9ddd","slug":"exo-meria-4b0d","kind":"restaurant","name":"Exo meria","lat":37.621680604479764,"lng":25.051831582375698,"url":"https://maps.app.goo.gl/o27dRVLq4yNqsqfV6?g_st=ipc","address":"Isternia 842 01","categoryIds":["coffee-brunch"],"categories":["Coffee & Brunch Spots"],"distanceKm":35.032547008718254},{"id":"greekRestaurants_94cb9a9dd94a","slug":"stin-ammo-allios-94cb","kind":"restaurant","name":"Στην Άμμο...αλλιώς","lat":37.615358360450664,"lng":25.042685964832707,"url":"https://maps.app.goo.gl/3Pr5rMprS5Yppvz26?g_st=ipc","address":"Επαρχιακή οδός Τήνου, Όρμος Υστερνίων 842 00","categoryIds":["greek-restaurants"],"categories":["Greek Restaurants"],"distanceKm":35.036183605986864},{"id":"fishTavernasRestaurants_5745f4ec9e6d","slug":"to-thalassaki-5745","kind":"restaurant","name":"To Θαλασσάκι","lat":37.615230690872465,"lng":25.0428843541274,"url":"https://maps.app.goo.gl/eqUQ8oiZuscvzKLaA?g_st=ipc","address":"bay, Isternia 842 01","categoryIds":["fish-tavernas"],"categories":["Fish Tavernas"],"distanceKm":35.05829441362627},{"id":"greekRestaurants_9bd6eb0516c5","slug":"foy-foy-9bd6","kind":"restaurant","name":"ΦΟΥ-ΦΟΥ","lat":37.62122057124332,"lng":25.052979875664423,"url":"https://maps.app.goo.gl/TPj9fHVZDWJCm6NZA?g_st=ipc","address":"Isternia, Tinos 842 01, Tinos Island 842 01 Υστερνια, 842 01","categoryIds":["greek-restaurants"],"categories":["Greek Restaurants"],"distanceKm":35.13810567843101}],"mentionedGuides":[],"canonicalSlug":"oti-kalo-5847","enrichment":{"summary_en":"Oti Kalo is a curated restaurant in Greece in the Fish Tavernas collection. It is connected to 2 nearby Googlementor picks to help travelers build a stronger local route.","summary_el":"Oti Kalo είναι ένα επιλεγμένο σημείο φαγητού στην περιοχή Greece και ανήκει στη συλλογή Fish Tavernas. Συνδέεται με 2 κοντινές προτάσεις του Googlementor για πιο ολοκληρωμένη εμπειρία.","vibe_tags":["curated","seafood-local"],"best_for":["first-time visitors","food lovers"],"visit_moments":["lunch stop","dinner stop"],"practical_note":"Address and direct map link are available for easy turn-by-turn access.","nearby_walkable_count":2,"nearby_count_2km":3,"confidence":0.9},"areaContext":null,"intentContexts":[]},"__N_SSG":true}