{"pageProps":{"entity":{"id":"greekRestaurants_e73aaa95127b","slug":"paradosiaki-taverna-to-piroynaki-e73a","kind":"restaurant","name":"Παραδοσιακή Ταβέρνα Το Πηρουνάκι","lat":37.775396020007214,"lng":20.812027974617365,"url":"https://maps.app.goo.gl/fGjWbBB2hRjDmHD9A?g_st=ipc","address":"Ζάκυνθος, Λαγκαδάκια 290 92","categoryIds":["greek-restaurants"],"categories":["Greek Restaurants"]},"sameCategory":[{"id":"greekRestaurants_2f52a7e9d852","slug":"to-perivoli-toy-oyranoy-2f52","kind":"restaurant","name":"Το Περιβόλι του Ουρανού","lat":37.75066406986317,"lng":20.81144889930085,"url":"https://maps.app.goo.gl/Bxqpj1UNd4GdkRJ99?g_st=ipc","address":"Λαγώποδο 290 92","categoryIds":["greek-restaurants"],"categories":["Greek Restaurants"]},{"id":"greekRestaurants_0508aab0e4db","slug":"ampelostrates-0508","kind":"restaurant","name":"Αμπελοστράτες","lat":37.74910381219431,"lng":20.775003142233945,"url":"https://maps.app.goo.gl/dcPreoTjacUfw2gE7?g_st=ipc","address":"Κοιλιωμένος 290 92","categoryIds":["greek-restaurants"],"categories":["Greek Restaurants"]},{"id":"greekRestaurants_86504f0faf2d","slug":"taverna-kanalos-8650","kind":"restaurant","name":"Ταβέρνα Κανάλος","lat":37.74512607213738,"lng":20.917628670414246,"url":"https://maps.app.goo.gl/ebFS85SgPTyHbVcT9?g_st=ipc","address":"Ζάκυνθος 291 00","categoryIds":["greek-restaurants"],"categories":["Greek Restaurants"]},{"id":"greekRestaurants_b11ec83ff251","slug":"windmill-restaurant-vasilikos-b11e","kind":"restaurant","name":"Windmill Restaurant Vasilikos","lat":37.740610146426334,"lng":20.948246366300793,"url":"https://maps.app.goo.gl/V9M7P1MyavrnAWWj7?g_st=ipc","address":"Ζάκυνθος 291 00","categoryIds":["greek-restaurants"],"categories":["Greek Restaurants"]},{"id":"greekRestaurants_039c6865507c","slug":"taverna-to-poyrnari-039c","kind":"restaurant","name":"Ταβέρνα Το Πουρνάρι","lat":37.845018124044586,"lng":20.69557997574229,"url":"https://maps.app.goo.gl/KraNs6fJrs6US1EV7?g_st=ipc","address":"Ορθονιές 290 91","categoryIds":["greek-restaurants"],"categories":["Greek Restaurants"]},{"id":"greekRestaurants_c713b6900534","slug":"mikelatos-restaurant-c713","kind":"restaurant","name":"Mikelatos Restaurant","lat":38.07400478265195,"lng":20.79838946434788,"url":"https://maps.app.goo.gl/ds2jewM3NunSWLKo6?g_st=ipc","address":"Central pedestrian road of Skala, Σκάλα 280 86","categoryIds":["greek-restaurants"],"categories":["Greek Restaurants"]},{"id":"greekRestaurants_ff8ef7b622ff","slug":"sunset-restaurant-ff8e","kind":"restaurant","name":"Sunset Restaurant","lat":38.147065849821686,"lng":20.783912907033883,"url":"https://maps.app.goo.gl/8Z2amJ2HCnAWKU728?g_st=ipc","address":"Πόρος 280 86","categoryIds":["greek-restaurants"],"categories":["Greek Restaurants"]},{"id":"greekRestaurants_a4e07eddd13d","slug":"avithos-preview-taverna-a4e0","kind":"restaurant","name":"Avithos Preview Taverna","lat":38.10278400760593,"lng":20.538006715167594,"url":"https://maps.app.goo.gl/frNsRJR8RcKVup5j6?g_st=ipc","address":"Avithos Beach, Kalligata 281 00","categoryIds":["greek-restaurants"],"categories":["Greek Restaurants"]},{"id":"greekRestaurants_fef489007c02","slug":"anna-s-tavern-xasteria-fef4","kind":"restaurant","name":"Anna's Tavern (Xasteria)","lat":38.11938430612937,"lng":20.562853128007966,"url":"https://maps.app.goo.gl/k6iUiCZV7gkf1jreA?g_st=ipc","address":"Κεραμειές 281 00","categoryIds":["greek-restaurants"],"categories":["Greek Restaurants"]},{"id":"greekRestaurants_e335ec23f4b7","slug":"esperides-restaurant-e335","kind":"restaurant","name":"Esperides Restaurant","lat":38.11149781925104,"lng":20.52872285695272,"url":"https://maps.app.goo.gl/1uN9PKhytg7Xeum9A?g_st=ipc","address":"Σβορωνάτα 281 00","categoryIds":["greek-restaurants"],"categories":["Greek Restaurants"]},{"id":"greekRestaurants_b66963231ac9","slug":"olive-lounge-restaurant-bar-b669","kind":"restaurant","name":"Olive Lounge Restaurant & Bar","lat":38.13804007743401,"lng":20.556990158259417,"url":"https://maps.app.goo.gl/M3Twb4o792PcM5jR7?g_st=ipc","address":"Unnamed Road, Κάστρο 281 00","categoryIds":["greek-restaurants"],"categories":["Greek Restaurants"]},{"id":"greekRestaurants_70a7d97aa28c","slug":"il-borgo-restaurant-70a7","kind":"restaurant","name":"Il Borgo Restaurant","lat":38.138324170776656,"lng":20.555664585879075,"url":"https://maps.app.goo.gl/QVAWEX3QcThcLdsE7?g_st=ipc","address":"Κάστρο Αγίου Γεωργίου, Τραυλιάτα 281 00","categoryIds":["greek-restaurants"],"categories":["Greek Restaurants"]}],"nearby":[{"id":"wineriesVineyards_fdc81e37eccd","slug":"ktima-grampsa-grampsas-winery-restaurant-fdc8","kind":"restaurant","name":"Κτήμα Γράμψα ( Grampsas Winery & Restaurant)","lat":37.75447353990938,"lng":20.823574548385672,"url":"https://maps.app.goo.gl/m1RiUmNLtuMu1JHV9?g_st=ipc","address":"Lagopodo 290 92","categoryIds":["wineries-vineyards"],"categories":["Wineries & Vineyards"],"distanceKm":2.5382393556324856},{"id":"greekRestaurants_2f52a7e9d852","slug":"to-perivoli-toy-oyranoy-2f52","kind":"restaurant","name":"Το Περιβόλι του Ουρανού","lat":37.75066406986317,"lng":20.81144889930085,"url":"https://maps.app.goo.gl/Bxqpj1UNd4GdkRJ99?g_st=ipc","address":"Λαγώποδο 290 92","categoryIds":["greek-restaurants"],"categories":["Greek Restaurants"],"distanceKm":2.7505384554096626},{"id":"greekRestaurants_0508aab0e4db","slug":"ampelostrates-0508","kind":"restaurant","name":"Αμπελοστράτες","lat":37.74910381219431,"lng":20.775003142233945,"url":"https://maps.app.goo.gl/dcPreoTjacUfw2gE7?g_st=ipc","address":"Κοιλιωμένος 290 92","categoryIds":["greek-restaurants"],"categories":["Greek Restaurants"],"distanceKm":4.374966778797323},{"id":"luxuryDiningRestaurants_889a9d30e511","slug":"melia-fine-dining-889a","kind":"restaurant","name":"Melia fine dining","lat":37.828072825552965,"lng":20.841384143587636,"url":"https://maps.app.goo.gl/vE8rWsiQpSVYvijD9?g_st=ipc","address":"Τραγάκι 291 00","categoryIds":["luxury-dining"],"categories":["Luxury Dining"],"distanceKm":6.400107351636056},{"id":"coffeeBrunchRestaurants_4e218b55f113","slug":"madisons-kitchen-bar-4e21","kind":"restaurant","name":"Madisons Kitchen Bar","lat":37.78371523709895,"lng":20.898097278049377,"url":"https://maps.app.goo.gl/Anc3Yu4uRzD8XagR9?g_st=ipc","address":"Lomvardou 36, Zakinthos 291 00","categoryIds":["coffee-brunch"],"categories":["Coffee & Brunch Spots"],"distanceKm":7.620600984078814},{"id":"coffeeBrunchRestaurants_ebff8d600624","slug":"jenkins-lounge-eatery-ebff","kind":"restaurant","name":"Jenkins Lounge Eatery","lat":37.786543893628924,"lng":20.898568985854595,"url":"https://maps.app.goo.gl/1TG8uMAi1MTZQgiY8?g_st=ipc","address":"Psaron 3, Zakinthos 291 00","categoryIds":["coffee-brunch"],"categories":["Coffee & Brunch Spots"],"distanceKm":7.705912343336122},{"id":"municipalities_baf5b688aa1e","slug":"zakynthos-baf5","kind":"municipality","name":"Ζάκυνθος","lat":37.787,"lng":20.899,"aliases":["Zakynthos","Zante","Ζακύνθη","Ζακύνθια","Ζακυνθος","Ζακυνθο"],"region":"Ιόνιο","name_en":"Zakynthos","region_en":"Ionian Islands","distanceKm":7.751558017392537},{"id":"luxuryDiningRestaurants_297c60e6e419","slug":"prosilio-restaurant-297c","kind":"restaurant","name":"Prosilio Restaurant","lat":37.788001222025756,"lng":20.899925444650034,"url":"https://maps.app.goo.gl/ubyLMAurXvicrjVq5?g_st=ipc","address":"Ag. Panton 15, Zakinthos 291 00","categoryIds":["luxury-dining"],"categories":["Luxury Dining"],"distanceKm":7.850824962684782},{"id":"greekRestaurants_86504f0faf2d","slug":"taverna-kanalos-8650","kind":"restaurant","name":"Ταβέρνα Κανάλος","lat":37.74512607213738,"lng":20.917628670414246,"url":"https://maps.app.goo.gl/ebFS85SgPTyHbVcT9?g_st=ipc","address":"Ζάκυνθος 291 00","categoryIds":["greek-restaurants"],"categories":["Greek Restaurants"],"distanceKm":9.874551260166006},{"id":"greekRestaurants_b11ec83ff251","slug":"windmill-restaurant-vasilikos-b11e","kind":"restaurant","name":"Windmill Restaurant Vasilikos","lat":37.740610146426334,"lng":20.948246366300793,"url":"https://maps.app.goo.gl/V9M7P1MyavrnAWWj7?g_st=ipc","address":"Ζάκυνθος 291 00","categoryIds":["greek-restaurants"],"categories":["Greek Restaurants"],"distanceKm":12.584311887014836},{"id":"greekRestaurants_039c6865507c","slug":"taverna-to-poyrnari-039c","kind":"restaurant","name":"Ταβέρνα Το Πουρνάρι","lat":37.845018124044586,"lng":20.69557997574229,"url":"https://maps.app.goo.gl/KraNs6fJrs6US1EV7?g_st=ipc","address":"Ορθονιές 290 91","categoryIds":["greek-restaurants"],"categories":["Greek Restaurants"],"distanceKm":12.82897271616788},{"id":"fishTavernasRestaurants_1a19623dc76c","slug":"keri-lighthouse-restaurant-1a19","kind":"restaurant","name":"Keri Lighthouse Restaurant","lat":37.6544155286365,"lng":20.810506312482314,"url":"https://maps.app.goo.gl/5DwsHksg1ZHKzA62A?g_st=ipc","address":"Φάρος κεριού, Keri 290 92","categoryIds":["fish-tavernas"],"categories":["Fish Tavernas"],"distanceKm":13.45308273208576},{"id":"mustSeeAttractions_08514e911c7d","slug":"navagio-0851","kind":"restaurant","name":"Navagio","lat":37.85945060305929,"lng":20.624902110473712,"url":"https://maps.app.goo.gl/7zGrDtLoU6SSdcuS9?g_st=ipc","address":"Elatia 290 91","categoryIds":["attractions"],"categories":["Must-See Attractions"],"distanceKm":18.908682824300506},{"id":"mustSeeAttractions_20af350a9d06","slug":"blue-caves-zakynthos-20af","kind":"restaurant","name":"Blue Caves Zakynthos","lat":37.93034342843555,"lng":20.705251154680667,"url":"https://maps.app.goo.gl/aFhekQczUnCUCkXt7?g_st=ipc","address":"Porthmos Zakinthou","categoryIds":["attractions"],"categories":["Must-See Attractions"],"distanceKm":19.614744495867455}],"mentionedGuides":[],"canonicalSlug":"paradosiaki-taverna-to-piroynaki-e73a","enrichment":{"summary_en":"Παραδοσιακή Ταβέρνα Το Πηρουνάκι is a curated restaurant in Λαγκαδάκια 290 92 in the Greek Restaurants collection. It is connected to 0 nearby Googlementor picks to help travelers build a stronger local route.","summary_el":"Παραδοσιακή Ταβέρνα Το Πηρουνάκι είναι ένα επιλεγμένο σημείο φαγητού στην περιοχή Λαγκαδάκια 290 92 και ανήκει στη συλλογή Greek Restaurants. Συνδέεται με 0 κοντινές προτάσεις του Googlementor για πιο ολοκληρωμένη εμπειρία.","vibe_tags":["curated"],"best_for":["first-time visitors","food lovers"],"visit_moments":["lunch stop","dinner stop"],"practical_note":"Address and direct map link are available for easy turn-by-turn access.","nearby_walkable_count":0,"nearby_count_2km":0,"confidence":0.9},"areaContext":null,"intentContexts":[]},"__N_SSG":true}