{"pageProps":{"entity":{"id":"italianRestaurants_c7fad2a2b587","slug":"parco-pizza-c7fa","kind":"restaurant","name":"PARCO PIZZA","lat":38.04774854674856,"lng":23.728958951505486,"url":"https://maps.app.goo.gl/UiJhpTwk6oBuPXFx9?g_st=ipc","address":"Λεωφ. Δημοκρατίας 9, Καματερό 134 51","categoryIds":["italian"],"categories":["Italian Restaurants"]},"sameCategory":[{"id":"italianRestaurants_ae6165c67299","slug":"pastabar-ae61","kind":"restaurant","name":"pastabar","lat":38.03729506274719,"lng":23.739505873670616,"url":"https://maps.app.goo.gl/bRqX3YLuyGMaGs896?g_st=ipc","address":"Λεωφ. Δεκελείας 136, Νέα Φιλαδέλφεια Αττικής 143 41","categoryIds":["italian"],"categories":["Italian Restaurants"]},{"id":"italianRestaurants_f98d171cbc3e","slug":"la-greca-ilion-f98d","kind":"restaurant","name":"La Greca Ίλιον","lat":38.033370068810264,"lng":23.70123370557317,"url":"https://maps.app.goo.gl/Btmva8rtUGkuoUtX6?g_st=ipc","address":"Έκτορος 140, Ίλιον 131 23","categoryIds":["italian"],"categories":["Italian Restaurants"]},{"id":"italianRestaurants_d84ce5fee7c0","slug":"piazza-d-amore-d84c","kind":"restaurant","name":"Piazza D'Amore","lat":38.046873886500826,"lng":23.765946699532154,"url":"https://maps.app.goo.gl/m24wKNSPTHZaNPpA9?g_st=ipc","address":"28ης Οκτωβρίου 8, Ηράκλειο 141 21","categoryIds":["italian"],"categories":["Italian Restaurants"]},{"id":"italianRestaurants_9ad90cbc1718","slug":"goloso-cucina-e-pizza-italiana-9ad9","kind":"restaurant","name":"Goloso Cucina e Pizza Italiana","lat":38.034154813582916,"lng":23.69590782983928,"url":"https://maps.app.goo.gl/pg641ieu7sSBX3fa7","address":"Petroupoleos 68-70, Petroupoli 131 23","categoryIds":["italian"],"categories":["Italian Restaurants"]},{"id":"italianRestaurants_9807c76fa027","slug":"kamikaze-9807","kind":"restaurant","name":"KAMIKAZE","lat":38.0243124367211,"lng":23.753568534514113,"url":"https://maps.app.goo.gl/nGW44VsbXXjFk6eF7?g_st=ipc","address":"Ναρκίσσου 34-36, Γαλάτσι 111 46","categoryIds":["italian"],"categories":["Italian Restaurants"]},{"id":"italianRestaurants_c18420cfda0e","slug":"pizzamore-c184","kind":"restaurant","name":"Pizzamore","lat":38.01171283477954,"lng":23.755383909223237,"url":"https://maps.app.goo.gl/kYHyarXW2TAM2VEr9?g_st=ipc","address":"Πρωτοπαπαδάκη 20, Γαλάτσι 111 47","categoryIds":["italian"],"categories":["Italian Restaurants"]},{"id":"italianRestaurants_764eadc47084","slug":"pizza-days-ano-liosion-764e","kind":"restaurant","name":"Pizza Days - Άνω Λιοσίων","lat":38.08738762293733,"lng":23.705019354443774,"url":"https://maps.app.goo.gl/j8oAF5aTcAufPq229?g_st=ipc","address":"Πηνειού 38, Άνω Λιόσια 133 41","categoryIds":["italian"],"categories":["Italian Restaurants"]},{"id":"italianRestaurants_a2a46beb60d1","slug":"mamas-pizza-a2a4","kind":"restaurant","name":"mamas pizza","lat":38.00286067766126,"lng":23.729687108811326,"url":"https://maps.app.goo.gl/GBCYCeq3F77e7FqH8?g_st=ipc","address":"Φυλής 197, Αθήνα 112 52","categoryIds":["italian"],"categories":["Italian Restaurants"]},{"id":"italianRestaurants_1b88f38100c7","slug":"the-italians-peristeri-1b88","kind":"restaurant","name":"The italians_peristeri","lat":38.01175840681134,"lng":23.693124439008372,"url":"https://maps.app.goo.gl/EPn5hzC47NSHkek9A?g_st=ipc","address":"Αιμιλίου Βεάκη 46, Περιστέρι 121 34","categoryIds":["italian"],"categories":["Italian Restaurants"]},{"id":"italianRestaurants_b8dec0e1044a","slug":"makaroynes-exceptional-cuisine-b8de","kind":"restaurant","name":"Μακαρούνες (exceptional cuisine)","lat":38.01172277822911,"lng":23.691017826226332,"url":"https://maps.app.goo.gl/h2o6228dtCcx8xr98?g_st=ipc","address":"Αιμιλίου Βεάκη 70, Περιστέρι 121 34","categoryIds":["italian"],"categories":["Italian Restaurants"]},{"id":"italianRestaurants_fee68a36e757","slug":"lisa-athens-fee6","kind":"restaurant","name":"Lisa Athens","lat":38.00121668798056,"lng":23.737030313370706,"url":"https://maps.app.goo.gl/eiXsobGt1KWweP7UA?g_st=ipc","address":"Φωκίωνος Νέγρη 25, Αθήνα 113 61","categoryIds":["italian"],"categories":["Italian Restaurants"]},{"id":"italianRestaurants_27d92444b722","slug":"goloso-acharnes-27d9","kind":"restaurant","name":"GOLOSO - ΑΧΑΡΝΕΣ","lat":38.09475606530576,"lng":23.739483205778253,"url":"https://maps.app.goo.gl/fx2nPPeJ6gGMBbSBA","address":"Agiou Eleftheriou 18, Acharnes 136 74","categoryIds":["italian"],"categories":["Italian Restaurants"]}],"nearby":[{"id":"cheapEatsRestaurants_84f34ec821dd","slug":"o-stefanos-soyvlakia-84f3","kind":"restaurant","name":"Ο ΣΤΕΦΑΝΟΣ ΣΟΥΒΛΑΚΙΑ","lat":38.045163297484955,"lng":23.729228755056532,"url":"https://maps.app.goo.gl/Uog41UVXEyuZaDfdA?g_st=ipc","address":"Δεληγιάννη 71, Άγιοι Ανάργυροι 135 62","categoryIds":["cheap-eats"],"categories":["Gyros & Cheap Eats"],"distanceKm":0.2884358391439884},{"id":"familyFriendly_ee34f2b0b4d6","slug":"luna-park-aidonakia-s-a-ee34","kind":"restaurant","name":"Luna Park Aidonakia S.A.","lat":38.04298329114164,"lng":23.72412165922102,"url":"https://maps.app.goo.gl/7i1TWYeF8ZyU3Vq47?g_st=ipc","address":"Leof. Dimokratias, Agii Anargiri 131 22","categoryIds":["family-friendly"],"categories":["Kid Friendly Locations"],"distanceKm":0.6783782943163782},{"id":"familyFriendly_901096bfa3e5","slug":"mitropolitiko-parko-antonis-tritsis-9010","kind":"restaurant","name":"Μητροπολιτικό Πάρκο Αντώνης Τρίτσης","lat":38.04448272470426,"lng":23.721863541204524,"url":"https://maps.app.goo.gl/ruiCqSWVCT4XLQ6T7?g_st=ipc","address":"Σπύρου Μουστακλή 23, Ίλιον 131 22","categoryIds":["family-friendly"],"categories":["Kid Friendly Locations"],"distanceKm":0.719667897771103},{"id":"municipalities_88064bcfc221","slug":"kamatero-8806","kind":"municipality","name":"Καματερό","lat":38.05,"lng":23.72,"region":"Δυτικά Προάστια","name_en":"Kamatero","region_en":"Western Suburbs","distanceKm":0.8234633189403541},{"id":"municipalities_2d28cc1df46e","slug":"agioi-anargyroi-2d28","kind":"municipality","name":"Άγιοι Ανάργυροι","lat":38.04,"lng":23.73,"region":"Δυτικά Προάστια","name_en":"Agioi Anargyroi","region_en":"Western Suburbs","distanceKm":0.866408703219142},{"id":"greekRestaurants_9c1516b8d16d","slug":"mister-loykidelis-9c15","kind":"restaurant","name":"Μίστερ Λουκιδέλης","lat":38.03885909725717,"lng":23.736070793481,"url":"https://maps.app.goo.gl/CMKSzphqRyS8ewpNA","address":"Γεωρ. Παπανδρέου 81, Νέα Φιλαδέλφεια Αττικής 143 41","categoryIds":["greek-restaurants"],"categories":["Greek Restaurants"],"distanceKm":1.1683002854789974},{"id":"greekRestaurants_32d9fbbeb9ef","slug":"to-karagatsi-32d9","kind":"restaurant","name":"Το Καραγάτσι","lat":38.039818289814335,"lng":23.738940522044075,"url":"https://maps.app.goo.gl/8aQhSfNrT1Z9qqEm7","address":"Αγίου Ιωάννου 1, Νέα Φιλαδέλφεια Αττικής 143 42","categoryIds":["greek-restaurants"],"categories":["Greek Restaurants"],"distanceKm":1.2416172756742594},{"id":"greekRestaurants_977106c0152b","slug":"familokal-fagadiko-9771","kind":"restaurant","name":"Φαμιλόκαλ Φαγάδικο","lat":38.045110031748486,"lng":23.742897004373283,"url":"https://maps.app.goo.gl/cQhPg66yiWYq8LYP6","address":"Στρατάρχου Αλεξάνδρου Παπάγου 12, Νέα Φιλαδέλφεια Αττικής 143 42","categoryIds":["greek-restaurants"],"categories":["Greek Restaurants"],"distanceKm":1.255285043902459},{"id":"coffeeBrunchRestaurants_51893d66518d","slug":"mimosa-neighborhood-bistrot-5189","kind":"restaurant","name":"mimosa neighborhood bistrot","lat":38.03853139699867,"lng":23.737753049309227,"url":"https://maps.app.goo.gl/KBvxE1xtgNdKgvxY8?g_st=ipc","address":"Efesou, Μουδανιών &, Νέα Φιλαδέλφεια Αττικής 143 41","categoryIds":["coffee-brunch"],"categories":["Coffee & Brunch Spots"],"distanceKm":1.281986712834816},{"id":"greekRestaurants_f2cb76696412","slug":"melisses-f2cb","kind":"restaurant","name":"Μέλισσες","lat":38.03614200079934,"lng":23.736207405528564,"url":"https://maps.app.goo.gl/Drq2Vavwjh6HDMKf9","address":"Νικ. Τρυρια 39, Νέα Φιλαδέλφεια Αττικής 143 41","categoryIds":["greek-restaurants"],"categories":["Greek Restaurants"],"distanceKm":1.43824489738489},{"id":"italianRestaurants_ae6165c67299","slug":"pastabar-ae61","kind":"restaurant","name":"pastabar","lat":38.03729506274719,"lng":23.739505873670616,"url":"https://maps.app.goo.gl/bRqX3YLuyGMaGs896?g_st=ipc","address":"Λεωφ. Δεκελείας 136, Νέα Φιλαδέλφεια Αττικής 143 41","categoryIds":["italian"],"categories":["Italian Restaurants"],"distanceKm":1.4846475580093192},{"id":"familyFriendly_9c22759cd93a","slug":"alsos-neas-filadelfeias-9c22","kind":"restaurant","name":"Άλσος Νέας Φιλαδέλφειας","lat":38.042763651734646,"lng":23.744714870891837,"url":"https://maps.app.goo.gl/xdffZruJ9uqfJ5wx8?g_st=ipc","address":"Λεωφ. Δεκελείας 152, Αθήνα 143 42","categoryIds":["family-friendly"],"categories":["Kid Friendly Locations"],"distanceKm":1.486904498593989},{"id":"coffeeBrunchRestaurants_9257bf81b3ff","slug":"fairytale-to-paramythopoleio-tis-n-filadelfeias-9257","kind":"restaurant","name":"Fairytale – Το Παραμυθοπωλείο της Ν. Φιλαδέλφειας","lat":38.03555224332492,"lng":23.73629276954315,"url":"https://maps.app.goo.gl/GoWf19SFoVJNYBHP9?g_st=ipc","address":"Νικ. Τρυρια 48, Νέα Φιλαδέλφεια Αττικής 143 41","categoryIds":["coffee-brunch","desserts"],"categories":["Coffee & Brunch Spots","Dessert Shops"],"legacySlugs":["fairytale-to-paramythopoleio-tis-n-filadelfeias-db46"],"distanceKm":1.500555605392221},{"id":"burgersRestaurants_08ca7d0bda51","slug":"koutsi-katsika-street-food-nea-filadelfeia-08ca","kind":"restaurant","name":"Koutsi Katsika Street Food Νέα Φιλαδέλφεια","lat":38.03629712914596,"lng":23.73867302573474,"url":"https://maps.app.goo.gl/XqS8cuX3SxVKDWRr8?g_st=ipc","address":"Λεωφ. Δεκελείας 109, Νέα Φιλαδέλφεια Αττικής 143 41","categoryIds":["burgers","cheap-eats"],"categories":["Burger Spots","Gyros & Cheap Eats"],"legacySlugs":["koutsi-katsika-street-food-nea-filadelfeia-2553"],"distanceKm":1.5313591720868538},{"id":"cheapEatsRestaurants_372f0ee727b9","slug":"rigani-thymari-372f","kind":"restaurant","name":"Ρίγανη θυμάρι","lat":38.06157357464134,"lng":23.72960229805207,"url":"https://maps.app.goo.gl/Up1hU92hpZRnvgdJ8?g_st=ipc","address":"Αγίας Άννης 37, Αχαρνές 136 75","categoryIds":["cheap-eats"],"categories":["Gyros & Cheap Eats"],"distanceKm":1.5383046529110431},{"id":"cheapEatsRestaurants_8e920e95e567","slug":"slum-it-8e92","kind":"restaurant","name":"Slum it","lat":38.034971479219536,"lng":23.73628101866516,"url":"https://maps.app.goo.gl/m2fyvmtGXXiGevuC6?g_st=ipc","address":"Βρυούλων 15, Νέα Φιλαδέλφεια Αττικής 143 41","categoryIds":["cheap-eats"],"categories":["Gyros & Cheap Eats"],"distanceKm":1.558742160417303},{"id":"asianRestaurants_a37aef170d67","slug":"koyasan-in-philadelphia-a37a","kind":"restaurant","name":"KoYaSan in Philadelphia","lat":38.03582601502679,"lng":23.738913649887014,"url":"https://maps.app.goo.gl/pE1beFfDZ9181rp76?g_st=ipc","address":"Λεωφ. Δεκελείας 122, Νέα Φιλαδέλφεια Αττικής 143 41","categoryIds":["asian"],"categories":["Asian Restaurants"],"distanceKm":1.5866677615034375},{"id":"greekRestaurants_ff1c24351a74","slug":"mparmpa-alexis-ff1c","kind":"restaurant","name":"Μπάρμπα Αλέξης","lat":38.03352855482005,"lng":23.731362347180447,"url":"https://maps.app.goo.gl/qgjaSL92MEaYTNnP8","address":"Σαλαμίνος 70, Νέα Χαλκηδόνα 143 43","categoryIds":["greek-restaurants"],"categories":["Greek Restaurants"],"distanceKm":1.5951378580177236},{"id":"coffeeBrunchRestaurants_1dc06dcd5307","slug":"libertine-drinkery-1dc0","kind":"restaurant","name":"Libertine drinkery","lat":38.035181855146,"lng":23.738539611236607,"url":"https://maps.app.goo.gl/8mxrF5SroX8mcG5e8?g_st=ipc","address":"Λεωφ. Δεκελείας 114, Νέα Φιλαδέλφεια Αττικής 143 41","categoryIds":["coffee-brunch"],"categories":["Coffee & Brunch Spots"],"distanceKm":1.629886573204104},{"id":"cheapEatsRestaurants_93852e0ca98a","slug":"i-vromiara-the-gourmet-street-food-nea-filadelfeia-9385","kind":"restaurant","name":"Η Βρωμιάρα - The Gourmet Street Food - Νεα Φιλαδέλφεια","lat":38.03438911435279,"lng":23.73692338806855,"url":"https://maps.app.goo.gl/Q23dgN65gryr9fpi7?g_st=ipc","address":"Βρυούλων 5, Νέα Φιλαδέλφεια Αττικής 143 41","categoryIds":["cheap-eats"],"categories":["Gyros & Cheap Eats"],"distanceKm":1.641092688150501},{"id":"municipalities_1017b19e3550","slug":"nea-filadelfeia-1017","kind":"municipality","name":"Νέα Φιλαδέλφεια","lat":38.0333,"lng":23.7333,"region":"Βόρεια Προάστια","name_en":"Nea Filadelfeia","region_en":"Northern Suburbs","distanceKm":1.6509709266962336},{"id":"dessertsRestaurants_72c80ba8b348","slug":"galaktopoleio-stamoy-72c8","kind":"restaurant","name":"Γαλακτοπωλείο ΣΤΑΜΟΥ","lat":38.03443491475164,"lng":23.737764183814345,"url":"https://maps.app.goo.gl/37pG5QPiULEUHnjT8?g_st=ipc","address":"Λεωφ. Δεκελείας 87, Δήμος Νέας Φιλαδέλφειας - Νέας Χαλκηδόνας 143 41","categoryIds":["desserts"],"categories":["Dessert Shops"],"distanceKm":1.6691956688829288},{"id":"coffeeBrunchRestaurants_f590b11239fb","slug":"old-dog-f590","kind":"restaurant","name":"Old Dog","lat":38.03404960556602,"lng":23.736865639669244,"url":"https://maps.app.goo.gl/dYXbhhbFaLPj39Nu9?g_st=ipc","address":"Σάρδεων 6, Νέα Φιλαδέλφεια Αττικής 143 41","categoryIds":["coffee-brunch"],"categories":["Coffee & Brunch Spots"],"distanceKm":1.6732435104528538},{"id":"asianRestaurants_b60f010973e9","slug":"street-wok-b60f","kind":"restaurant","name":"Street wok","lat":38.03415849667832,"lng":23.737420165783373,"url":"https://maps.app.goo.gl/Cza8DpNsdEHX73EB8?g_st=ipc","address":"Βρυούλων 4, Νέα Φιλαδέλφεια Αττικής 143 41","categoryIds":["asian","cheap-eats"],"categories":["Asian Restaurants","Gyros & Cheap Eats"],"legacySlugs":["street-wok-ae06"],"distanceKm":1.6830362378226198}],"mentionedGuides":[],"canonicalSlug":"parco-pizza-c7fa","enrichment":{"summary_en":"PARCO PIZZA is a curated restaurant in Καματερό 134 51 in the Italian Restaurants collection. It is connected to 3 nearby Googlementor picks to help travelers build a stronger local route.","summary_el":"PARCO PIZZA είναι ένα επιλεγμένο σημείο φαγητού στην περιοχή Καματερό 134 51 και ανήκει στη συλλογή Italian Restaurants. Συνδέεται με 3 κοντινές προτάσεις του Googlementor για πιο ολοκληρωμένη εμπειρία.","vibe_tags":["curated"],"best_for":["first-time visitors","food lovers"],"visit_moments":["lunch stop","dinner stop"],"practical_note":"Address and direct map link are available for easy turn-by-turn access.","nearby_walkable_count":3,"nearby_count_2km":34,"confidence":0.9},"areaContext":{"slug":"kamatero","name":"Kamatero","nameEl":"Καματερό"},"intentContexts":[]},"__N_SSG":true}