{"pageProps":{"entity":{"id":"luxuryDiningRestaurants_5ce4a2badf9b","slug":"pelagos-5ce4","kind":"restaurant","name":"Pelagos","lat":37.805275140067316,"lng":23.77164308843121,"url":"https://maps.app.goo.gl/QTPENP7kfSJRAMQTA?g_st=ipc","address":"Απόλλωνος 40, Βουλιαγμένη 166 71","categoryIds":["luxury-dining"],"categories":["Luxury Dining"]},"sameCategory":[{"id":"luxuryDiningRestaurants_6dc5534d9406","slug":"taverna-37-6dc5","kind":"restaurant","name":"Taverna 37","lat":37.80595380281949,"lng":23.772585533663307,"url":"https://maps.app.goo.gl/xaizfkEuwTxWbciw7?g_st=ipc","address":"Απόλλωνος 40, Βουλιαγμένη 166 71","categoryIds":["luxury-dining"],"categories":["Luxury Dining"]},{"id":"luxuryDiningRestaurants_574534b0d822","slug":"beefbar-athens-5745","kind":"restaurant","name":"Beefbar Athens","lat":37.80501795981881,"lng":23.770115727453245,"url":"https://maps.app.goo.gl/xvud7RHhQEFXiChq5?g_st=ipc","address":"Athens Αστήρ Πάλας, Βουλιαγμένη 166 71","categoryIds":["luxury-dining"],"categories":["Luxury Dining"]},{"id":"fishTavernasRestaurants_a752a7fe8192","slug":"matsuhisa-athens-a752","kind":"restaurant","name":"Matsuhisa Athens","lat":37.806991167366505,"lng":23.7721702530857,"url":"https://maps.app.goo.gl/kX1Hohg5k4FcqjgeA?g_st=ipc","address":"40, Απόλλωνος street, Βουλιαγμένη 166 71","categoryIds":["fish-tavernas","luxury-dining"],"categories":["Fish Tavernas","Luxury Dining"],"legacySlugs":["matsuhisa-athens-c10d"]},{"id":"italianRestaurants_26670e11b304","slug":"mercato-2667","kind":"restaurant","name":"Mercato","lat":37.804876583131545,"lng":23.768732488679262,"url":"https://maps.app.goo.gl/WygPaRiVJpzqrZBi8","address":"Apollonos 40, Vouliagmeni 166 71","categoryIds":["italian","luxury-dining"],"categories":["Italian Restaurants","Luxury Dining"],"legacySlugs":["mercato-ae1b"]},{"id":"coffeeBrunchRestaurants_8b66a0a4f338","slug":"moorings-8b66","kind":"restaurant","name":"Moorings","lat":37.80205351483022,"lng":23.772631066760855,"url":"https://maps.app.goo.gl/YdREkVBev1UQTkqh6?g_st=ipc","address":"Μαρινα Βουλιαγμενης, Βουλιαγμένη 166 71","categoryIds":["coffee-brunch","luxury-dining"],"categories":["Coffee & Brunch Spots","Luxury Dining"],"legacySlugs":["moorings-e85b"]},{"id":"luxuryDiningRestaurants_cf5e588a6dce","slug":"estiatorio-ithaki-cf5e","kind":"restaurant","name":"Εστιατόριο Ιθάκη","lat":37.811063360560766,"lng":23.773264732265726,"url":"https://maps.app.goo.gl/bgcHWrkEN1tinWgK8?g_st=ipc","address":"Apollonos, Αθήνας 28, Βουλιαγμένη 166 71","categoryIds":["luxury-dining"],"categories":["Luxury Dining"]},{"id":"luxuryDiningRestaurants_08bbcc5a4dd6","slug":"labros-restaurant-08bb","kind":"restaurant","name":"Labros Restaurant","lat":37.8081975831625,"lng":23.78348018457994,"url":"https://maps.app.goo.gl/H6wg8L7hEhDJU9C38?g_st=ipc","address":"Λεωφ. Ποσειδώνος 20, Βουλιαγμένη 166 71","categoryIds":["luxury-dining"],"categories":["Luxury Dining"]},{"id":"luxuryDiningRestaurants_42ea23e17e35","slug":"abraovata-42ea","kind":"restaurant","name":"abraOvata","lat":37.806852023213075,"lng":23.785311811319485,"url":"https://maps.app.goo.gl/XBCeyEooo1BQ3GPW6?g_st=ipc","address":"Εστιατόριο Λίμνης, Αθήνα 166 71","categoryIds":["luxury-dining"],"categories":["Luxury Dining"]},{"id":"luxuryDiningRestaurants_c1ae11688e19","slug":"drakoulis-dry-raw-butcheries-voula-c1ae","kind":"restaurant","name":"Drakoulis Dry & Raw - Butcheries Voula","lat":37.837831960071576,"lng":23.769665916102717,"url":"https://maps.app.goo.gl/uMQc68wzQ6KRLhmv6?g_st=ipc","address":"Λεωφ. Βασιλέως Παύλου 103, Βούλα 166 73","categoryIds":["luxury-dining"],"categories":["Luxury Dining"]},{"id":"fishTavernasRestaurants_eb690c18b7db","slug":"sea-satin-athens-riviera-eb69","kind":"restaurant","name":"Sea Satin Athens Riviera","lat":37.840376863615674,"lng":23.760387360489776,"url":"https://maps.app.goo.gl/1QEDPDZdZC7GT8ne9?g_st=ipc","address":"Λεωφ. Κωνσταντίνου Καραμανλή 14, Βούλα 166 73","categoryIds":["fish-tavernas","luxury-dining"],"categories":["Fish Tavernas","Luxury Dining"],"legacySlugs":["sea-satin-athens-riviera-daf4"]},{"id":"luxuryDiningRestaurants_9dba478c9326","slug":"faidon-s-athens-9dba","kind":"restaurant","name":"FAIDON'S Athens","lat":37.841556503840984,"lng":23.766513107501794,"url":"https://maps.app.goo.gl/keaSEXUAsA2Tk34x9?g_st=ipc","address":"Αγίου Ιωάννου 28, Βούλα 166 73","categoryIds":["luxury-dining"],"categories":["Luxury Dining"]},{"id":"luxuryDiningRestaurants_d4685ec9fc7a","slug":"barbarossa-athens-d468","kind":"restaurant","name":"Barbarossa Athens","lat":37.85088920250088,"lng":23.748814418850717,"url":"https://maps.app.goo.gl/oUiPt5pCahzP963D8?g_st=ipc","address":"Λεωφ. Αλκυονίδων 4, Βούλα 166 73","categoryIds":["luxury-dining"],"categories":["Luxury Dining"]}],"nearby":[{"id":"luxuryDiningRestaurants_6dc5534d9406","slug":"taverna-37-6dc5","kind":"restaurant","name":"Taverna 37","lat":37.80595380281949,"lng":23.772585533663307,"url":"https://maps.app.goo.gl/xaizfkEuwTxWbciw7?g_st=ipc","address":"Απόλλωνος 40, Βουλιαγμένη 166 71","categoryIds":["luxury-dining"],"categories":["Luxury Dining"],"distanceKm":0.11202820647484599},{"id":"luxuryDiningRestaurants_574534b0d822","slug":"beefbar-athens-5745","kind":"restaurant","name":"Beefbar Athens","lat":37.80501795981881,"lng":23.770115727453245,"url":"https://maps.app.goo.gl/xvud7RHhQEFXiChq5?g_st=ipc","address":"Athens Αστήρ Πάλας, Βουλιαγμένη 166 71","categoryIds":["luxury-dining"],"categories":["Luxury Dining"],"distanceKm":0.13719986442291532},{"id":"fishTavernasRestaurants_a752a7fe8192","slug":"matsuhisa-athens-a752","kind":"restaurant","name":"Matsuhisa Athens","lat":37.806991167366505,"lng":23.7721702530857,"url":"https://maps.app.goo.gl/kX1Hohg5k4FcqjgeA?g_st=ipc","address":"40, Απόλλωνος street, Βουλιαγμένη 166 71","categoryIds":["fish-tavernas","luxury-dining"],"categories":["Fish Tavernas","Luxury Dining"],"legacySlugs":["matsuhisa-athens-c10d"],"distanceKm":0.1963536154104297},{"id":"italianRestaurants_26670e11b304","slug":"mercato-2667","kind":"restaurant","name":"Mercato","lat":37.804876583131545,"lng":23.768732488679262,"url":"https://maps.app.goo.gl/WygPaRiVJpzqrZBi8","address":"Apollonos 40, Vouliagmeni 166 71","categoryIds":["italian","luxury-dining"],"categories":["Italian Restaurants","Luxury Dining"],"legacySlugs":["mercato-ae1b"],"distanceKm":0.2595232332472314},{"id":"coffeeBrunchRestaurants_8b66a0a4f338","slug":"moorings-8b66","kind":"restaurant","name":"Moorings","lat":37.80205351483022,"lng":23.772631066760855,"url":"https://maps.app.goo.gl/YdREkVBev1UQTkqh6?g_st=ipc","address":"Μαρινα Βουλιαγμενης, Βουλιαγμένη 166 71","categoryIds":["coffee-brunch","luxury-dining"],"categories":["Coffee & Brunch Spots","Luxury Dining"],"legacySlugs":["moorings-e85b"],"distanceKm":0.3685945363921127},{"id":"luxuryDiningRestaurants_cf5e588a6dce","slug":"estiatorio-ithaki-cf5e","kind":"restaurant","name":"Εστιατόριο Ιθάκη","lat":37.811063360560766,"lng":23.773264732265726,"url":"https://maps.app.goo.gl/bgcHWrkEN1tinWgK8?g_st=ipc","address":"Apollonos, Αθήνας 28, Βουλιαγμένη 166 71","categoryIds":["luxury-dining"],"categories":["Luxury Dining"],"distanceKm":0.6591992304404821},{"id":"fishTavernasRestaurants_f4426065c5a4","slug":"sardelaki-me-thea-f442","kind":"restaurant","name":"Σαρδελάκι με θέα","lat":37.80897457022261,"lng":23.782330412997638,"url":"https://maps.app.goo.gl/6zBxpoBupuA67wwt8?g_st=ipc","address":"Λεωφ. Ποσειδώνος 18, Βουλιαγμένη 166 71","categoryIds":["fish-tavernas"],"categories":["Fish Tavernas"],"distanceKm":1.0250702139568706},{"id":"municipalities_e38c35bbed55","slug":"voyliagmeni-e38c","kind":"municipality","name":"Βουλιαγμένη","lat":37.8095,"lng":23.7821,"region":"Νότια Προάστια","name_en":"Vouliagmeni","region_en":"Southern Suburbs","distanceKm":1.0318148134130558},{"id":"luxuryDiningRestaurants_08bbcc5a4dd6","slug":"labros-restaurant-08bb","kind":"restaurant","name":"Labros Restaurant","lat":37.8081975831625,"lng":23.78348018457994,"url":"https://maps.app.goo.gl/H6wg8L7hEhDJU9C38?g_st=ipc","address":"Λεωφ. Ποσειδώνος 20, Βουλιαγμένη 166 71","categoryIds":["luxury-dining"],"categories":["Luxury Dining"],"distanceKm":1.0895171513497381},{"id":"luxuryDiningRestaurants_42ea23e17e35","slug":"abraovata-42ea","kind":"restaurant","name":"abraOvata","lat":37.806852023213075,"lng":23.785311811319485,"url":"https://maps.app.goo.gl/XBCeyEooo1BQ3GPW6?g_st=ipc","address":"Εστιατόριο Λίμνης, Αθήνα 166 71","categoryIds":["luxury-dining"],"categories":["Luxury Dining"],"distanceKm":1.2135858430997677},{"id":"coffeeBrunchRestaurants_80a974b8dc70","slug":"estiatorio-limnis-80a9","kind":"restaurant","name":"Εστιατόριο Λίμνης","lat":37.80691600865377,"lng":23.785479129703763,"url":"https://maps.app.goo.gl/mDVVDSh15YWjZRdF9?g_st=ipc","address":"Λίμνη, Βουλιαγμένη 166 71","categoryIds":["coffee-brunch"],"categories":["Coffee & Brunch Spots"],"distanceKm":1.2291684789829627},{"id":"mustSeeAttractions_96c6dc77490d","slug":"limni-voyliagmenis-96c6","kind":"restaurant","name":"Λίμνη Βουλιαγμένης","lat":37.80708594211009,"lng":23.78595413697381,"url":"https://maps.app.goo.gl/HJESfC3rnS8i8UYa9?g_st=ipc","address":"Βουλιαγμένη 166 71","categoryIds":["attractions"],"categories":["Must-See Attractions"],"distanceKm":1.2733021507137754},{"id":"coffeeBrunchRestaurants_0b20fa30dfc5","slug":"sofi-s-eatery-0b20","kind":"restaurant","name":"Sofi’s Eatery","lat":37.81302845785067,"lng":23.782463728500748,"url":"https://maps.app.goo.gl/Pa3TPAmcLCv6SJsw5?g_st=ipc","address":"Αγίου Παντελεήμονος 7, Βουλιαγμένη 166 71","categoryIds":["coffee-brunch"],"categories":["Coffee & Brunch Spots"],"distanceKm":1.2833167821941927},{"id":"cheapEatsRestaurants_cf5c14c0c783","slug":"zachos-gkril-cf5c","kind":"restaurant","name":"Ζάχος Γκριλ","lat":37.81320496162539,"lng":23.782770964184124,"url":"https://maps.app.goo.gl/bEtWEwaW2PfwcEhW9?g_st=ipc","address":"Ερμού 1, Βουλιαγμένη 166 71","categoryIds":["cheap-eats"],"categories":["Gyros & Cheap Eats"],"distanceKm":1.3164987311426173},{"id":"greekRestaurants_cce1cd728bae","slug":"loyizidis-estiatorio-voyliagmeni-cce1","kind":"restaurant","name":"Λουιζίδης Εστιατόριο Βουλιαγμένη","lat":37.813204547074946,"lng":23.78315032705324,"url":"https://maps.app.goo.gl/DrVjHpSB5fMFZXij9","address":"Ερμού 2, Βουλιαγμένη 166 71","categoryIds":["greek-restaurants"],"categories":["Greek Restaurants"],"distanceKm":1.3414017313125617},{"id":"monasteriesChurches_adc6b19412ee","slug":"parekklisi-agioy-georgioy-adc6","kind":"restaurant","name":"Παρεκκλήσι Αγίου Γεωργίου","lat":37.81919273575849,"lng":23.773228906832582,"url":"https://maps.app.goo.gl/WhtDbBx2hvZfm5mb9?g_st=ipc","address":"Βουλιαγμένη 166 71","categoryIds":["monasteries-churches"],"categories":["Monasteries & Spiritual Sites"],"distanceKm":1.5538235373106175},{"id":"cheapEatsRestaurants_b59c9010c8a4","slug":"zachos-b59c","kind":"restaurant","name":"Ζάχος","lat":37.821251970598816,"lng":23.80344271241433,"url":"https://maps.app.goo.gl/DsP5tZnJxShfNf3H9?g_st=ipc","address":"Βασ. Κωνσταντίνου 94, Βάρη 166 72","categoryIds":["cheap-eats"],"categories":["Gyros & Cheap Eats"],"distanceKm":3.3105103213579605},{"id":"coffeeBrunchRestaurants_1e8b13cd507d","slug":"riviera-coast-1e8b","kind":"restaurant","name":"Riviera Coast","lat":37.8360364556755,"lng":23.766880988503196,"url":"https://maps.app.goo.gl/d8HG2cz27hm9ZC3r9?g_st=ipc","address":"Λεωφ. Κωνσταντίνου Καραμανλή 18, Βούλα 166 73","categoryIds":["coffee-brunch"],"categories":["Coffee & Brunch Spots"],"distanceKm":3.445983090303159},{"id":"municipalities_79c2791cab2a","slug":"vari-79c2","kind":"municipality","name":"Βάρη","lat":37.8333,"lng":23.7917,"region":"Νότια Προάστια","name_en":"Vari","region_en":"Southern Suburbs","distanceKm":3.5797563538294206},{"id":"luxuryDiningRestaurants_c1ae11688e19","slug":"drakoulis-dry-raw-butcheries-voula-c1ae","kind":"restaurant","name":"Drakoulis Dry & Raw - Butcheries Voula","lat":37.837831960071576,"lng":23.769665916102717,"url":"https://maps.app.goo.gl/uMQc68wzQ6KRLhmv6?g_st=ipc","address":"Λεωφ. Βασιλέως Παύλου 103, Βούλα 166 73","categoryIds":["luxury-dining"],"categories":["Luxury Dining"],"distanceKm":3.6243163751655363},{"id":"coffeeBrunchRestaurants_264a40023d71","slug":"oven-264a","kind":"restaurant","name":"όβεν","lat":37.83821741108239,"lng":23.7685609654253,"url":"https://maps.app.goo.gl/gmek3DFpsqqbYYR49?g_st=ipc","address":"Λεωφ. Βασιλέως Παύλου 104, Βούλα 166 73","categoryIds":["coffee-brunch"],"categories":["Coffee & Brunch Spots"],"distanceKm":3.6730037035625496},{"id":"coffeeBrunchRestaurants_8123cddfff42","slug":"rey-pablo-8123","kind":"restaurant","name":"Rey Pablo","lat":37.83850094604755,"lng":23.768770335582047,"url":"https://maps.app.goo.gl/x4TKdGZ4P6i8FcrE6?g_st=ipc","address":"91, Λεωφ. Βασιλέως Παύλου 89, Βούλα 166 73","categoryIds":["coffee-brunch"],"categories":["Coffee & Brunch Spots"],"distanceKm":3.703147775085431},{"id":"greekRestaurants_d87acafe326d","slug":"ta-vlachika-d87a","kind":"restaurant","name":"Ta Vlachika","lat":37.834890045838,"lng":23.791941775154488,"url":"https://maps.app.goo.gl/VC2HFhV1wgWoJ7Ev7","address":"Leoforos Evelpidon, Πρεβέζης, Βάρη 166 72","categoryIds":["greek-restaurants"],"categories":["Greek Restaurants"],"distanceKm":3.744737001348385},{"id":"italianRestaurants_1195b260712d","slug":"napul-e-italian-comfort-food-wine-1195","kind":"restaurant","name":"Napul'è Italian Comfort Food & Wine","lat":37.8271502092117,"lng":23.80408943661563,"url":"https://maps.app.goo.gl/7yzTG7SodJm8Ubug6?g_st=ipc","address":"Βασ. Κωνσταντίνου 43, Βάρη 166 72","categoryIds":["italian"],"categories":["Italian Restaurants"],"distanceKm":3.746986719087725}],"mentionedGuides":[{"slug":"athens-day-trips-guide-el","title":"Καλύτερες Ημερήσιες Εκδρομές από την Αθήνα"}],"canonicalSlug":"pelagos-5ce4","enrichment":{"summary_en":"Pelagos is a curated restaurant in Βουλιαγμένη 166 71 in the Luxury Dining collection. It is connected to 6 nearby Googlementor picks to help travelers build a stronger local route.","summary_el":"Pelagos είναι ένα επιλεγμένο σημείο φαγητού στην περιοχή Βουλιαγμένη 166 71 και ανήκει στη συλλογή Luxury Dining. Συνδέεται με 6 κοντινές προτάσεις του Googlementor για πιο ολοκληρωμένη εμπειρία.","vibe_tags":["curated","premium-dining"],"best_for":["first-time visitors","food lovers","special occasions"],"visit_moments":["lunch stop","dinner stop"],"practical_note":"Address and direct map link are available for easy turn-by-turn access.","nearby_walkable_count":6,"nearby_count_2km":16,"confidence":0.98},"areaContext":{"slug":"voyliagmeni","name":"Vouliagmeni","nameEl":"Βουλιαγμένη"},"intentContexts":[{"href":"/luxury-dining/voyliagmeni","label":"Luxury Dining in Vouliagmeni","categorySlug":"luxury-dining","categoryName":"Luxury Dining","areaSlug":"voyliagmeni","areaName":"Vouliagmeni","areaNameEl":"Βουλιαγμένη"}]},"__N_SSG":true}