{"pageProps":{"entity":{"id":"cheapEatsRestaurants_666f9d7675e5","slug":"platanos-kempap-soyvlaki-666f","kind":"restaurant","name":"Πλάτανος Κεμπάπ-Σουβλάκι","lat":38.05130210276415,"lng":23.835854870928635,"url":"https://maps.app.goo.gl/uXenfuTid9hYf6He9?g_st=ipc","address":"Leof. Dimokratias 69, Melissia 151 27","categoryIds":["cheap-eats"],"categories":["Gyros & Cheap Eats"]},"sameCategory":[{"id":"cheapEatsRestaurants_b596150cf3db","slug":"trigono-melission-b596","kind":"restaurant","name":"ΤΡΙΓΩΝΟ ΜΕΛΙΣΣΙΩΝ","lat":38.05317998498453,"lng":23.84087862675326,"url":"https://maps.app.goo.gl/FjiCt1o7yoa331UN8?g_st=ipc","address":"Π. Τσαλδάρη 21, Μελίσσια 151 27","categoryIds":["cheap-eats"],"categories":["Gyros & Cheap Eats"]},{"id":"cheapEatsRestaurants_5a1b3de4b0cd","slug":"ta-soyvlakia-tis-giagias-5a1b","kind":"restaurant","name":"Τα σουβλάκια της γιαγιάς","lat":38.04199101993577,"lng":23.824597588199378,"url":"https://maps.app.goo.gl/K9azEutYtVeRFeTB9?g_st=ipc","address":"Κυπρίων Αγωνιστών 50, Μαρούσι 151 26","categoryIds":["cheap-eats"],"categories":["Gyros & Cheap Eats"]},{"id":"cheapEatsRestaurants_26f9a7f050c1","slug":"the-handmade-souvlaki-ascension-26f9","kind":"restaurant","name":"The Handmade souvlaki Ascension","lat":38.035547141118364,"lng":23.82691676685056,"url":"https://maps.app.goo.gl/bx6SursnbZv26g7m7?g_st=ic","address":"Eth. Antistaseos 26, Vrilissia 152 35","categoryIds":["cheap-eats"],"categories":["Gyros & Cheap Eats"]},{"id":"burgersRestaurants_ceb67d2517dd","slug":"godgilla-umami-street-food-ceb6","kind":"restaurant","name":"Godgilla umami street food","lat":38.056565975998105,"lng":23.814008768575892,"url":"https://maps.app.goo.gl/WyovvCKHo17WtrPb8?g_st=ipc","address":"Γεωρ. Κοτζιά 2, Μαρούσι 151 26","categoryIds":["burgers","cheap-eats"],"categories":["Burger Spots","Gyros & Cheap Eats"],"legacySlugs":["godgilla-umami-street-food-784d"]},{"id":"cheapEatsRestaurants_8375fe8079e7","slug":"umami-8375","kind":"restaurant","name":"umami","lat":38.03544459297975,"lng":23.82429599041442,"url":"https://maps.app.goo.gl/f1Pk44iqYYgPwZeK9?g_st=ipc","address":"Λεωφ. Πεντέλης 7A, Βριλήσσια 152 35","categoryIds":["cheap-eats"],"categories":["Gyros & Cheap Eats"]},{"id":"cheapEatsRestaurants_843263490ea4","slug":"jackaroo-8432","kind":"restaurant","name":"Jackaroo","lat":38.04618103563096,"lng":23.807668129553196,"url":"https://maps.app.goo.gl/PgrDAEWAFbwF6go48?g_st=ipc","address":"Leof. Kifisias 70, Marousi 151 25","categoryIds":["cheap-eats"],"categories":["Gyros & Cheap Eats"]},{"id":"cheapEatsRestaurants_8e2845b1b79c","slug":"to-elliniko-soyvlaki-8e28","kind":"restaurant","name":"Το Ελληνικό Σουβλάκι","lat":38.055611201936195,"lng":23.805858315965597,"url":"https://maps.app.goo.gl/GjgUbFCMPcughxPW6?g_st=ipc","address":"Διονύσου 19, Μαρούσι 151 24","categoryIds":["cheap-eats"],"categories":["Gyros & Cheap Eats"]},{"id":"cheapEatsRestaurants_484ec346fe11","slug":"souzi-tros-street-food-484e","kind":"restaurant","name":"SOUZI TROS street food","lat":38.0550996125921,"lng":23.804743752516742,"url":"https://maps.app.goo.gl/Q2YtxKh8LosNGyHJ6?g_st=ipc","address":"Σπύρου Λέκκα 9, Μαρούσι 151 24","categoryIds":["cheap-eats"],"categories":["Gyros & Cheap Eats"]},{"id":"cheapEatsRestaurants_b230f7d2edc5","slug":"to-petrino-toy-stamati-kapralos-stamatios-th-b230","kind":"restaurant","name":"Το Πέτρινο Του Σταμάτη (Καπράλος Σταμάτιος Θ.)","lat":38.049806163763144,"lng":23.869838485555228,"url":"https://maps.app.goo.gl/AdKg349ahnUtzxXt9?g_st=ipc","address":"Βασ. Γεωργίου Β 10, Πεντέλη 152 36","categoryIds":["cheap-eats"],"categories":["Gyros & Cheap Eats"]},{"id":"cheapEatsRestaurants_28c94df5ce5f","slug":"krepilateion-28c9","kind":"restaurant","name":"ΚΡΕΠΗΛΑΤΕΙΟΝ","lat":38.037837677741585,"lng":23.799467140725334,"url":"https://maps.app.goo.gl/CSqgCp2SZrPwcWdC6?g_st=ipc","address":"Λεωφ. Κηφισίας 59, Μαρούσι 151 25","categoryIds":["cheap-eats"],"categories":["Gyros & Cheap Eats"]},{"id":"cheapEatsRestaurants_4ec639153a0b","slug":"kantina-billy-4ec6","kind":"restaurant","name":"Καντίνα - Billy","lat":38.02609394796825,"lng":23.81064307512727,"url":"https://maps.app.goo.gl/9r8QWiSRkMH7dPqZA?g_st=ipc","address":"Λεωφ. Πεντέλης 68, Χαλάνδρι 152 34","categoryIds":["cheap-eats"],"categories":["Gyros & Cheap Eats"]},{"id":"cheapEatsRestaurants_3872707b22c4","slug":"gianniotiko-soyvlaki-3872","kind":"restaurant","name":"ΓΙΑΝΝΙΩΤΙΚΟ ΣΟΥΒΛΑΚΙ","lat":38.018885728218706,"lng":23.80780825876153,"url":"https://maps.app.goo.gl/VSmxeGeUsq75QADx9?g_st=ic","address":"Agias Paraskevis 95, Chalandri 152 34","categoryIds":["cheap-eats"],"categories":["Gyros & Cheap Eats"]}],"nearby":[{"id":"greekRestaurants_217beb188c9d","slug":"to-peyko-taverna-fagito-sto-choro-take-away-delivery-217b","kind":"restaurant","name":"Το Πευκο | Ταβέρνα - Φαγητό στο χώρο - Take Away - Delivery","lat":38.048953774865154,"lng":23.835609448784652,"url":"https://maps.app.goo.gl/2DPr3yhvS2JApV5x5","address":"Τήνου 12, Μελίσσια 151 27","categoryIds":["greek-restaurants"],"categories":["Greek Restaurants"],"distanceKm":0.26200494426343135},{"id":"municipalities_797866e61212","slug":"melissia-7978","kind":"municipality","name":"Μελίσσια","lat":38.05,"lng":23.8333,"aliases":["Melissia","Melissa","Μελισσια"],"region":"Βόρεια Προάστια","name_en":"Melissia","region_en":"Northern Suburbs","distanceKm":0.26647628007717733},{"id":"fishTavernasRestaurants_62c7b8f3faa2","slug":"porfyra-62c7","kind":"restaurant","name":"ΠΟΡΦΥΡΑ","lat":38.05133265699478,"lng":23.83230614489945,"url":"https://maps.app.goo.gl/TQBY6fhE1DqGovNJ9?g_st=ipc","address":"Leof. Dimokratias 29, Melissia 151 27","categoryIds":["fish-tavernas"],"categories":["Fish Tavernas"],"distanceKm":0.3107501610219826},{"id":"fishTavernasRestaurants_8fa64823bdb9","slug":"psarokokkalo-8fa6","kind":"restaurant","name":"Ψαροκόκκαλο","lat":38.05407148936591,"lng":23.838879406158195,"url":"https://maps.app.goo.gl/yjqJBhxZ9XwdkDBv7?g_st=ipc","address":"Ελ. Βενιζέλου 19, Μελίσσια 151 27","categoryIds":["fish-tavernas","luxury-dining"],"categories":["Fish Tavernas","Luxury Dining"],"legacySlugs":["psarokokkalo-9b9d"],"distanceKm":0.40615494684674275},{"id":"dessertsRestaurants_2b678632636d","slug":"gelateria-giovanni-2b67","kind":"restaurant","name":"Gelateria Giovanni","lat":38.05439248631055,"lng":23.83864189197517,"url":"https://maps.app.goo.gl/vHiSCvP87r2bMcgL7?g_st=ipc","address":"Μπουμπουλίνας 1, Μελίσσια 151 27","categoryIds":["desserts"],"categories":["Dessert Shops"],"distanceKm":0.4214687141454657},{"id":"cheapEatsRestaurants_b596150cf3db","slug":"trigono-melission-b596","kind":"restaurant","name":"ΤΡΙΓΩΝΟ ΜΕΛΙΣΣΙΩΝ","lat":38.05317998498453,"lng":23.84087862675326,"url":"https://maps.app.goo.gl/FjiCt1o7yoa331UN8?g_st=ipc","address":"Π. Τσαλδάρη 21, Μελίσσια 151 27","categoryIds":["cheap-eats"],"categories":["Gyros & Cheap Eats"],"distanceKm":0.4869271043688114},{"id":"asianRestaurants_b06ea4e8fead","slug":"shisan-sushi-bar-b06e","kind":"restaurant","name":"Shisan Sushi Bar","lat":38.053962138366174,"lng":23.841922115859383,"url":"https://maps.app.goo.gl/xTbQEiSszAswqYqi8?g_st=ipc","address":"Αλ. Ζαΐμη 1, Μελίσσια 151 27","categoryIds":["asian"],"categories":["Asian Restaurants"],"distanceKm":0.6080385349808055},{"id":"familyFriendly_a9b8fd64bf88","slug":"funmily-eat-drink-play-a9b8","kind":"restaurant","name":"FUNMILY eat-drink-play","lat":38.051902735451634,"lng":23.82889440448781,"url":"https://maps.app.goo.gl/5ypCQjX1CzhhmDWMA?g_st=ipc","address":"Οδός Πεντέλης 114, Μαρούσι 151 26","categoryIds":["family-friendly"],"categories":["Kid Friendly Locations"],"distanceKm":0.6131146096399559},{"id":"luxuryDiningRestaurants_7b82ed0407ba","slug":"kozi-s-7b82","kind":"restaurant","name":"Kozi's","lat":38.05410178054939,"lng":23.84283580469915,"url":"https://maps.app.goo.gl/FDQnvFLEucyn2rft6?g_st=ipc","address":"Π. Τσαλδάρη 34, Μελίσσια 151 27","categoryIds":["luxury-dining"],"categories":["Luxury Dining"],"distanceKm":0.6859587170888555},{"id":"mexicanRestaurants_a122440089bb","slug":"chilangos-melissia-a122","kind":"restaurant","name":"Chilangos Μελίσσια","lat":38.054355571864015,"lng":23.84267375327988,"url":"https://maps.app.goo.gl/1nUje6biZMsuVgA88?g_st=ipc","address":"Π. Τσαλδάρη 31, Μελίσσια 151 27","categoryIds":["mexican"],"categories":["Mexican Restaurants"],"distanceKm":0.6868479542310105},{"id":"familyFriendly_86f9e83bcddf","slug":"parko-proin-naytikis-vasis-86f9","kind":"restaurant","name":"Πάρκο Πρώην Ναυτικής Βάσης","lat":38.045491355804536,"lng":23.838523859146985,"url":"https://maps.app.goo.gl/bVGsyiVv6EgBKgQg7?g_st=ipc","address":"Λεωφ. Πεντέλης 41, Βριλήσσια 152 35","categoryIds":["family-friendly"],"categories":["Kid Friendly Locations"],"distanceKm":0.6870942702771409},{"id":"burgersRestaurants_b5cd5e9d8f33","slug":"comet-street-gourmet-athens-b5cd","kind":"restaurant","name":"Comet Street Gourmet Athens","lat":38.05458806834009,"lng":23.84252767987863,"url":"https://maps.app.goo.gl/7yT5TAqAFBttQ8yZ7?g_st=ipc","address":"Σωκράτους 3, Μελίσσια 151 27","categoryIds":["burgers"],"categories":["Burger Spots"],"distanceKm":0.6891105870433509},{"id":"italianRestaurants_3f60e58e5074","slug":"nolio-restaurant-3f60","kind":"restaurant","name":"Nolio Restaurant","lat":38.0541360368352,"lng":23.842912804517134,"url":"https://maps.app.goo.gl/yrWwCAmRFC73bnXRA?g_st=ipc","address":"Π. Τσαλδάρη 32-34, Μελίσσια 151 27","categoryIds":["italian"],"categories":["Italian Restaurants"],"distanceKm":0.6936951605224894},{"id":"fishTavernasRestaurants_43c82b52a2f5","slug":"nisiotissa-taverna-vrilissia-43c8","kind":"restaurant","name":"Νησιώτισσα | Ταβέρνα - Βριλήσσια","lat":38.049892048450445,"lng":23.844559347971032,"url":"https://maps.app.goo.gl/GRmK1dMStEro6P898?g_st=ipc","address":"Λεωφ. Πεντέλης 168, Βριλήσσια 152 35","categoryIds":["fish-tavernas"],"categories":["Fish Tavernas"],"distanceKm":0.7781439444988516},{"id":"asianRestaurants_0fceaf69bfec","slug":"tailandi-0fce","kind":"restaurant","name":"Ταϊλάνδη","lat":38.05465471580679,"lng":23.844081463874097,"url":"https://maps.app.goo.gl/EKBgxEmreeAUsw7BA?g_st=ipc","address":"Σωκράτους 7, Μελίσσια 151 27","categoryIds":["asian"],"categories":["Asian Restaurants"],"distanceKm":0.8110673442671654},{"id":"greekRestaurants_898e4444f3d9","slug":"o-kalofagas-steakhouse-898e","kind":"restaurant","name":"Ο Καλοφαγάς Steakhouse","lat":38.046607872986925,"lng":23.84536540675465,"url":"https://maps.app.goo.gl/K5myWMM5kegmZRGj7","address":"Παλαιών Πατρών Γερμανού 1, Βριλήσσια 152 38","categoryIds":["greek-restaurants"],"categories":["Greek Restaurants"],"distanceKm":0.9828454625730726},{"id":"fishTavernasRestaurants_94cda06b3f37","slug":"ta-psarakia-94cd","kind":"restaurant","name":"Τα Ψαράκια","lat":38.060545213135285,"lng":23.836609678627113,"url":"https://maps.app.goo.gl/uvjoui4AHeT11Xzo7?g_st=ipc","address":"Πλατεία Ελευθερίας 2, Νέστορος 4, Μελίσσια 151 27","categoryIds":["fish-tavernas"],"categories":["Fish Tavernas"],"distanceKm":1.0299095521029131},{"id":"familyFriendly_d45bb5296460","slug":"maroussi-tennis-club-d45b","kind":"restaurant","name":"Maroussi Tennis Club","lat":38.04651986209008,"lng":23.825630520397997,"url":"https://maps.app.goo.gl/pF3h6gGnqMiku8Wg9?g_st=ic","address":"Sismanogliou 74, Marousi 151 26","categoryIds":["family-friendly"],"categories":["Kid Friendly Locations"],"distanceKm":1.0413025044479416},{"id":"greekRestaurants_e5f425af5317","slug":"vlachos-mprizoles-choriatikes-pites-e5f4","kind":"restaurant","name":"Βλαχος, Μπριζόλες - Χωριάτικες πίτες","lat":38.06080156016513,"lng":23.83614625903362,"url":"https://maps.app.goo.gl/hue4bt53ZxfCUeXg6","address":"Κων/νου Καραμανλή, 17ης Νοεμβρίου και, Μελίσσια 151 27","categoryIds":["greek-restaurants"],"categories":["Greek Restaurants"],"distanceKm":1.056599529512958},{"id":"familyFriendly_a06976665fe3","slug":"dentrospito-a069","kind":"restaurant","name":"Δεντρόσπιτο","lat":38.04193059212469,"lng":23.83336989792643,"url":"https://maps.app.goo.gl/xX4rv5hpzm2R55iv8?g_st=ipc","address":"Λεωφ. Πεντέλης 102, Βριλήσσια 152 35","categoryIds":["family-friendly"],"categories":["Kid Friendly Locations"],"distanceKm":1.0645416097720934},{"id":"greekRestaurants_191a2f7954ba","slug":"to-aythaireto-191a","kind":"restaurant","name":"ΤΟ ΑΥΘΑΙΡΕΤΟ","lat":38.05739141623042,"lng":23.82532230565926,"url":"https://maps.app.goo.gl/oF5WnEmN9HdHPyPo9","address":"Πεύκων 10, Μαρούσι 151 26","categoryIds":["greek-restaurants"],"categories":["Greek Restaurants"],"distanceKm":1.1440865113763083},{"id":"cheapEatsRestaurants_5a1b3de4b0cd","slug":"ta-soyvlakia-tis-giagias-5a1b","kind":"restaurant","name":"Τα σουβλάκια της γιαγιάς","lat":38.04199101993577,"lng":23.824597588199378,"url":"https://maps.app.goo.gl/K9azEutYtVeRFeTB9?g_st=ipc","address":"Κυπρίων Αγωνιστών 50, Μαρούσι 151 26","categoryIds":["cheap-eats"],"categories":["Gyros & Cheap Eats"],"distanceKm":1.4295719390519257},{"id":"mexicanRestaurants_3cb054fab422","slug":"juan-s-cantina-vrilissia-3cb0","kind":"restaurant","name":"Juan's Cantina (Βριλήσσια)","lat":38.04160062532965,"lng":23.847620862228275,"url":"https://maps.app.goo.gl/6ANASWUmUfUoDhQ17?g_st=ipc","address":"Αναπαύσεως 40, Βριλήσσια 152 38","categoryIds":["mexican"],"categories":["Mexican Restaurants"],"distanceKm":1.4917315317823643},{"id":"familyFriendly_aade95e892c7","slug":"parko-mikis-theodorakis-typet-aade","kind":"restaurant","name":"Πάρκο Μίκης Θεοδωράκης - ΤΥΠΕΤ","lat":38.0376288072202,"lng":23.83650236719041,"url":"https://maps.app.goo.gl/pvC5VhagjzGcsF3b7?g_st=ipc","address":"Υμηττού 57, Βριλήσσια 152 35","categoryIds":["family-friendly"],"categories":["Kid Friendly Locations"],"distanceKm":1.5214580161505125}],"mentionedGuides":[],"canonicalSlug":"platanos-kempap-soyvlaki-666f","enrichment":{"summary_en":"Πλάτανος Κεμπάπ-Σουβλάκι is a curated restaurant in Melissia 151 27 in the Gyros & Cheap Eats collection. It is connected to 14 nearby Googlementor picks to help travelers build a stronger local route.","summary_el":"Πλάτανος Κεμπάπ-Σουβλάκι είναι ένα επιλεγμένο σημείο φαγητού στην περιοχή Melissia 151 27 και ανήκει στη συλλογή Gyros & Cheap Eats. Συνδέεται με 14 κοντινές προτάσεις του Googlementor για πιο ολοκληρωμένη εμπειρία.","vibe_tags":["curated","budget-friendly"],"best_for":["first-time visitors","food lovers","budget travelers"],"visit_moments":["lunch stop","dinner stop"],"practical_note":"Address and direct map link are available for easy turn-by-turn access.","nearby_walkable_count":14,"nearby_count_2km":35,"confidence":0.98},"areaContext":{"slug":"melissia","name":"Melissia","nameEl":"Μελίσσια"},"intentContexts":[{"href":"/cheap-eats/melissia","label":"Gyros & Cheap Eats in Melissia","categorySlug":"cheap-eats","categoryName":"Gyros & Cheap Eats","areaSlug":"melissia","areaName":"Melissia","areaNameEl":"Μελίσσια"}]},"__N_SSG":true}