{"pageProps":{"entity":{"id":"cheapEatsRestaurants_e141c683e929","slug":"psitopoleio-o-ymittos-e141","kind":"restaurant","name":"ΨΗΤΟΠΩΛΕΙΟ Ο ΥΜΗΤΤΟΣ","lat":37.9376577150226,"lng":23.756325000053742,"url":"https://maps.app.goo.gl/jevMqjqUqMVWPizM7?g_st=ipc","address":"Λεωφ. Ειρήνης 12, Ηλιούπολη 163 45","categoryIds":["cheap-eats"],"categories":["Gyros & Cheap Eats"]},"sameCategory":[{"id":"cheapEatsRestaurants_53e2baa7ddae","slug":"o-giorgos-ilioypoli-53e2","kind":"restaurant","name":"Ο Γιώργος (Ηλιούπολη)","lat":37.93157343086467,"lng":23.756713794378285,"url":"https://maps.app.goo.gl/ZHk6UviE5DhKfmAcA?g_st=ipc","address":"Πλ. Εθ. Αντιστάσεως 8, Ηλιούπολη 163 42","categoryIds":["cheap-eats"],"categories":["Gyros & Cheap Eats"]},{"id":"cheapEatsRestaurants_53eb96e06f78","slug":"zampelis-soyvlaki-53eb","kind":"restaurant","name":"ΖΑΜΠΕΛΗΣ Σουβλάκι","lat":37.942278449963005,"lng":23.7489165228981,"url":"https://maps.app.goo.gl/mBFJVYTZsF1kBbtk7?g_st=ipc","address":"Λεωφ. Μαρίνου Αντύπα 42, Ηλιούπολη 163 46","categoryIds":["cheap-eats"],"categories":["Gyros & Cheap Eats"]},{"id":"burgersRestaurants_c05eb7f13ddf","slug":"psychiatreio-c05e","kind":"restaurant","name":"Ψυχιατρείο","lat":37.941454787946455,"lng":23.74643002685345,"url":"https://maps.app.goo.gl/nvzgc7zjFUEkgZMN8?g_st=ipc","address":"Αγίου Κωνσταντίνου 16, Ηλιούπολη 163 46","categoryIds":["burgers","cheap-eats"],"categories":["Burger Spots","Gyros & Cheap Eats"],"legacySlugs":["psychiatreio-6c0c"]},{"id":"cheapEatsRestaurants_a6f267f71448","slug":"psitopoleio-o-kostas-a6f2","kind":"restaurant","name":"Ψητοπωλείο Ο Κώστας","lat":37.94774148940973,"lng":23.74608370924349,"url":"https://maps.app.goo.gl/8n9ne3gHR6APgQwh6?g_st=ipc","address":"Ηλιουπόλεως 157, Υμηττός 172 36","categoryIds":["cheap-eats"],"categories":["Gyros & Cheap Eats"]},{"id":"cheapEatsRestaurants_11e58e7bd1c7","slug":"pita-pan-11e5","kind":"restaurant","name":"Pita Pan","lat":37.93966105014638,"lng":23.74003701406881,"url":"https://maps.app.goo.gl/ub6T2bWkrrx9QZt69?g_st=ipc","address":"Παρ. Λεωφ. Βουλιαγμένης 276, Αγ. Δημήτριος Αττικής 173 43","categoryIds":["cheap-eats"],"categories":["Gyros & Cheap Eats"]},{"id":"cheapEatsRestaurants_b9d0dc3d0a7f","slug":"mayropipero-b9d0","kind":"restaurant","name":"Μαυροπίπερο","lat":37.939871957691295,"lng":23.73599315534295,"url":"https://maps.app.goo.gl/kLQRksA1KxobJdFA6?g_st=ipc","address":"Στρατάρχου Αλεξάνδρου Παπάγου 41, Αγ. Δημήτριος Αττικής 173 43","categoryIds":["cheap-eats"],"categories":["Gyros & Cheap Eats"]},{"id":"cheapEatsRestaurants_08d52517e6fc","slug":"mparmpa-mitsos-vyronas-08d5","kind":"restaurant","name":"Μπάρμπα Μήτσος Βύρωνας","lat":37.95390974598432,"lng":23.759679171308928,"url":"https://maps.app.goo.gl/1eSEWa3g6EhnDAvb6?g_st=ipc","address":"Επταλόφου 88, Βύρωνας 162 33","categoryIds":["cheap-eats"],"categories":["Gyros & Cheap Eats"]},{"id":"cheapEatsRestaurants_55ef34aff14a","slug":"aigyptios-55ef","kind":"restaurant","name":"ΑΙΓΥΠΤΙΟΣ","lat":37.919220373285064,"lng":23.75457772556386,"url":"https://maps.app.goo.gl/kKDBtgyh24ez28CR7?g_st=ipc","address":"Θράκης 58, Ηλιούπολη 163 41","categoryIds":["cheap-eats"],"categories":["Gyros & Cheap Eats"]},{"id":"cheapEatsRestaurants_1640e0da72d1","slug":"smasheat-o-1640","kind":"restaurant","name":"Smasheat'o","lat":37.95001486404743,"lng":23.73773292955517,"url":"https://maps.app.goo.gl/nrXvTuy8yr3sWi7k8?g_st=ipc","address":"Meg. Alexandrou 2, Athina 172 35","categoryIds":["cheap-eats"],"categories":["Gyros & Cheap Eats"]},{"id":"cheapEatsRestaurants_79cf2e094e26","slug":"vaggelis-to-gnisio-1965-79cf","kind":"restaurant","name":"Βάγγελης Το Γνήσιο 1965","lat":37.93578922990488,"lng":23.72968201403695,"url":"https://maps.app.goo.gl/8q5LESzz3ctiGx4S6?g_st=ipc","address":"Λεωφ. Αγίου Δημητρίου 163, Αγ. Δημήτριος Αττικής 173 43","categoryIds":["cheap-eats"],"categories":["Gyros & Cheap Eats"]},{"id":"cheapEatsRestaurants_99a7957def3b","slug":"corner-grill-99a7","kind":"restaurant","name":"corner grill","lat":37.92177506928485,"lng":23.73847692927626,"url":"https://maps.app.goo.gl/9DM3hLLcVtKfPYJg8?g_st=ipc","address":"Λεωφ. Ιωνίας 47, Άλιμος 174 56","categoryIds":["cheap-eats"],"categories":["Gyros & Cheap Eats"]},{"id":"cheapEatsRestaurants_59f1048e980a","slug":"to-steki-toy-kosta-59f1","kind":"restaurant","name":"Το Στέκι του Κώστα","lat":37.95121107984788,"lng":23.735124045238276,"url":"https://maps.app.goo.gl/gtmBLN9nUzctuFYM8?g_st=ipc","address":"Αγίας Βαρβάρας 59, Δάφνη Αττικής 172 35","categoryIds":["cheap-eats"],"categories":["Gyros & Cheap Eats"]}],"nearby":[{"id":"greekRestaurants_b996975f2765","slug":"to-koyzoylo-kritikes-geyseis-b996","kind":"restaurant","name":"Το Κουζουλό-Κρητικές Γεύσεις","lat":37.93790456342302,"lng":23.756307120209538,"url":"https://maps.app.goo.gl/92JS6PzrgTe3Moyv6","address":"Λεωφ. Ειρήνης 10, Ηλιούπολη 163 45","categoryIds":["greek-restaurants"],"categories":["Greek Restaurants"],"distanceKm":0.027493040352132018},{"id":"asianRestaurants_36f4a8956e8a","slug":"oma-sushi-bar-36f4","kind":"restaurant","name":"Oma Sushi Bar","lat":37.94009382367438,"lng":23.754689791765557,"url":"https://maps.app.goo.gl/sQ4YgJ2S6xgEEqCf7?g_st=ipc","address":"Ανδρέα Παπανδρέου 22, Ηλιούπολη 163 45","categoryIds":["asian"],"categories":["Asian Restaurants"],"distanceKm":0.30649855907626056},{"id":"dessertsRestaurants_87a8c1a7fdc0","slug":"l-arte-del-gelato-87a8","kind":"restaurant","name":"L'Arte del Gelato","lat":37.9335716460019,"lng":23.757250383926916,"url":"https://maps.app.goo.gl/d44Jasgx3fqMB2996?g_st=ipc","address":"Λεωφ. Ελ. Βενιζέλου 135, Ηλιούπολη 163 45","categoryIds":["desserts"],"categories":["Dessert Shops"],"distanceKm":0.46154125298154886},{"id":"coffeeBrunchRestaurants_04323df5602c","slug":"moments-cafe-0432","kind":"restaurant","name":"Moments cafe","lat":37.94145822074275,"lng":23.750459312660134,"url":"https://maps.app.goo.gl/6q9NBBvgffKvbrnG7?g_st=ipc","address":"Αγγέλου Σικελιανού 65, Ηλιούπολη 163 45","categoryIds":["coffee-brunch"],"categories":["Coffee & Brunch Spots"],"distanceKm":0.6657225815798361},{"id":"cheapEatsRestaurants_53e2baa7ddae","slug":"o-giorgos-ilioypoli-53e2","kind":"restaurant","name":"Ο Γιώργος (Ηλιούπολη)","lat":37.93157343086467,"lng":23.756713794378285,"url":"https://maps.app.goo.gl/ZHk6UviE5DhKfmAcA?g_st=ipc","address":"Πλ. Εθ. Αντιστάσεως 8, Ηλιούπολη 163 42","categoryIds":["cheap-eats"],"categories":["Gyros & Cheap Eats"],"distanceKm":0.6774002427340166},{"id":"dessertsRestaurants_851176573aad","slug":"zacharoplasteio-anastasia-8511","kind":"restaurant","name":"Ζαχαροπλαστείο ΑΝΑΣΤΑΣΙΑ","lat":37.936737596940006,"lng":23.764139852020705,"url":"https://maps.app.goo.gl/ckE6feeSmvZNEMur9?g_st=ipc","address":"Νεύτωνος 23, Ηλιούπολη 163 43","categoryIds":["desserts"],"categories":["Dessert Shops"],"distanceKm":0.6929400212118354},{"id":"dessertsRestaurants_7c5a207d8534","slug":"galaktopoleio-stamoy-7c5a","kind":"restaurant","name":"Γαλακτοπωλείο ΣΤΑΜΟΥ","lat":37.93137189453027,"lng":23.754775535968022,"url":"https://maps.app.goo.gl/o9wp2AdrozqHihcN7?g_st=ipc","address":"Λεωφ. Σοφοκλή Βενιζέλου 96, Ηλιούπολη 163 41","categoryIds":["desserts"],"categories":["Dessert Shops"],"distanceKm":0.7120385878606137},{"id":"cheapEatsRestaurants_53eb96e06f78","slug":"zampelis-soyvlaki-53eb","kind":"restaurant","name":"ΖΑΜΠΕΛΗΣ Σουβλάκι","lat":37.942278449963005,"lng":23.7489165228981,"url":"https://maps.app.goo.gl/mBFJVYTZsF1kBbtk7?g_st=ipc","address":"Λεωφ. Μαρίνου Αντύπα 42, Ηλιούπολη 163 46","categoryIds":["cheap-eats"],"categories":["Gyros & Cheap Eats"],"distanceKm":0.8282995705705882},{"id":"greekRestaurants_5c488f0d8ce0","slug":"ether-athens-5c48","kind":"restaurant","name":"Ether Athens","lat":37.9300575683433,"lng":23.752395520807372,"url":"https://maps.app.goo.gl/X42jFmXfj3xf7XFx9","address":"Πριάμου 2, Ηλιούπολη 163 41","categoryIds":["greek-restaurants"],"categories":["Greek Restaurants"],"distanceKm":0.912663533266128},{"id":"municipalities_9c070c898016","slug":"ilioypoli-9c07","kind":"municipality","name":"Ηλιούπολη","lat":37.9303,"lng":23.7506,"aliases":["Ilioupoli","Heliopoli","Ηλιουπολη","Ηλιουπολις","Heliopolis"],"region":"Νότια Προάστια","name_en":"Ilioupoli","region_en":"Southern Suburbs","distanceKm":0.9599219686494036},{"id":"burgersRestaurants_c05eb7f13ddf","slug":"psychiatreio-c05e","kind":"restaurant","name":"Ψυχιατρείο","lat":37.941454787946455,"lng":23.74643002685345,"url":"https://maps.app.goo.gl/nvzgc7zjFUEkgZMN8?g_st=ipc","address":"Αγίου Κωνσταντίνου 16, Ηλιούπολη 163 46","categoryIds":["burgers","cheap-eats"],"categories":["Burger Spots","Gyros & Cheap Eats"],"legacySlugs":["psychiatreio-6c0c"],"distanceKm":0.96500638369094},{"id":"fishTavernasRestaurants_57034fb5f673","slug":"mikres-kyklades-5703","kind":"restaurant","name":"ΜΙΚΡΕΣ ΚΥΚΛΑΔΕΣ","lat":37.938213721782944,"lng":23.745141100112257,"url":"https://maps.app.goo.gl/Za7BJdXKEyy2FFiM7","address":"Pantazi 56, Ilioupoli 163 46","categoryIds":["fish-tavernas"],"categories":["Fish Tavernas"],"distanceKm":0.9827400494528797},{"id":"italianRestaurants_55bf8f0c114f","slug":"the-eatalians-mario-luigi-55bf","kind":"restaurant","name":"The Eatalians - Mario & Luigi","lat":37.92539688479538,"lng":23.751855920363795,"url":"https://maps.app.goo.gl/hmtXEzz7XFvKtEnG6?g_st=ipc","address":"Λεωφ. Ελ. Βενιζέλου 190, Ηλιούπολη 163 41","categoryIds":["italian"],"categories":["Italian Restaurants"],"distanceKm":1.4185673351521666},{"id":"cheapEatsRestaurants_a6f267f71448","slug":"psitopoleio-o-kostas-a6f2","kind":"restaurant","name":"Ψητοπωλείο Ο Κώστας","lat":37.94774148940973,"lng":23.74608370924349,"url":"https://maps.app.goo.gl/8n9ne3gHR6APgQwh6?g_st=ipc","address":"Ηλιουπόλεως 157, Υμηττός 172 36","categoryIds":["cheap-eats"],"categories":["Gyros & Cheap Eats"],"distanceKm":1.4365814247731368},{"id":"cheapEatsRestaurants_11e58e7bd1c7","slug":"pita-pan-11e5","kind":"restaurant","name":"Pita Pan","lat":37.93966105014638,"lng":23.74003701406881,"url":"https://maps.app.goo.gl/ub6T2bWkrrx9QZt69?g_st=ipc","address":"Παρ. Λεωφ. Βουλιαγμένης 276, Αγ. Δημήτριος Αττικής 173 43","categoryIds":["cheap-eats"],"categories":["Gyros & Cheap Eats"],"distanceKm":1.4456575025126874},{"id":"dessertsRestaurants_65e04c3f641c","slug":"cinnabon-athens-metro-mall-65e0","kind":"restaurant","name":"Cinnabon (Athens Metro Mall)","lat":37.93941612015106,"lng":23.739972879470894,"url":"https://maps.app.goo.gl/71DTBLWMjXBGonps5?g_st=ipc","address":"Παρ. Λεωφ. Βουλιαγμένης 276, Αγ. Δημήτριος Αττικής 173 43","categoryIds":["desserts"],"categories":["Dessert Shops"],"distanceKm":1.4472869906551862},{"id":"greekRestaurants_d3958d32f2a3","slug":"lotza-to-kalamaki-spiti-toy-d395","kind":"restaurant","name":"Λοτζα - Το Καλαμάκι Σπίτι Του","lat":37.92519193178049,"lng":23.751255406437117,"url":"https://maps.app.goo.gl/Dnr9SzVdyH6c3w6d7","address":"Λεωφ. Κυπρίων Ηρώων 57, Ηλιούπολη 163 41","categoryIds":["greek-restaurants"],"categories":["Greek Restaurants"],"distanceKm":1.4556973293966964},{"id":"luxuryDiningRestaurants_b47f4027e341","slug":"son-b47f","kind":"restaurant","name":"Son","lat":37.92472593519205,"lng":23.751887900106137,"url":"https://maps.app.goo.gl/CjAYjU4oYoEDKsXh6?g_st=ipc","address":"Leof. El. Venizelou 197, Ilioupoli 163 41","categoryIds":["luxury-dining"],"categories":["Luxury Dining"],"distanceKm":1.489676957493619},{"id":"municipalities_2413d46e54f8","slug":"ymittos-2413","kind":"municipality","name":"Υμηττός","lat":37.9506,"lng":23.7511,"aliases":["Ymittos","Hymettos","Υμηττος"],"region":"Νότια Προάστια","name_en":"Ymittos","region_en":"Southern Suburbs","distanceKm":1.510292324167628},{"id":"fishTavernasRestaurants_86f548233faf","slug":"mpalkoni-stis-kyklades-86f5","kind":"restaurant","name":"ΜΠΑΛΚΟΝΙ ΣΤΙΣ ΚΥΚΛΑΔΕΣ","lat":37.943007346903,"lng":23.772380593489483,"url":"https://maps.app.goo.gl/FNypnyT1fTicRews8?g_st=ipc","address":"Π. Μελά 13, Βύρωνας 162 33","categoryIds":["fish-tavernas"],"categories":["Fish Tavernas"],"distanceKm":1.5284816607318201},{"id":"cheapEatsRestaurants_b9d0dc3d0a7f","slug":"mayropipero-b9d0","kind":"restaurant","name":"Μαυροπίπερο","lat":37.939871957691295,"lng":23.73599315534295,"url":"https://maps.app.goo.gl/kLQRksA1KxobJdFA6?g_st=ipc","address":"Στρατάρχου Αλεξάνδρου Παπάγου 41, Αγ. Δημήτριος Αττικής 173 43","categoryIds":["cheap-eats"],"categories":["Gyros & Cheap Eats"],"distanceKm":1.799938837094531},{"id":"cheapEatsRestaurants_08d52517e6fc","slug":"mparmpa-mitsos-vyronas-08d5","kind":"restaurant","name":"Μπάρμπα Μήτσος Βύρωνας","lat":37.95390974598432,"lng":23.759679171308928,"url":"https://maps.app.goo.gl/1eSEWa3g6EhnDAvb6?g_st=ipc","address":"Επταλόφου 88, Βύρωνας 162 33","categoryIds":["cheap-eats"],"categories":["Gyros & Cheap Eats"],"distanceKm":1.8309214154333366},{"id":"greekRestaurants_4c001bebcf5a","slug":"kyria-oyrania-taverna-4c00","kind":"restaurant","name":"Κυρία Ουρανία Ταβέρνα","lat":37.92057877935982,"lng":23.755542263928948,"url":"https://maps.app.goo.gl/ps7BDEvG27yAVuTL8","address":"Ηρ. Πολυτεχνείου 85, Ηλιούπολη 163 42","categoryIds":["greek-restaurants"],"categories":["Greek Restaurants"],"distanceKm":1.9003314670135012},{"id":"burgersRestaurants_1d9dede89409","slug":"hippy-joe-1d9d","kind":"restaurant","name":"Hippy Joe","lat":37.95458600508715,"lng":23.75943276506492,"url":"https://maps.app.goo.gl/crkq6yzRLRbaTy288?g_st=ipc","address":"Καραολή και Δημητρίου 5, Βύρωνας 162 31","categoryIds":["burgers"],"categories":["Burger Spots"],"distanceKm":1.9019637266825773}],"mentionedGuides":[],"canonicalSlug":"psitopoleio-o-ymittos-e141","enrichment":{"summary_en":"ΨΗΤΟΠΩΛΕΙΟ Ο ΥΜΗΤΤΟΣ is a curated restaurant in Ηλιούπολη 163 45 in the Gyros & Cheap Eats collection. It is connected to 7 nearby Googlementor picks to help travelers build a stronger local route.","summary_el":"ΨΗΤΟΠΩΛΕΙΟ Ο ΥΜΗΤΤΟΣ είναι ένα επιλεγμένο σημείο φαγητού στην περιοχή Ηλιούπολη 163 45 και ανήκει στη συλλογή Gyros & Cheap Eats. Συνδέεται με 7 κοντινές προτάσεις του Googlementor για πιο ολοκληρωμένη εμπειρία.","vibe_tags":["curated","budget-friendly"],"best_for":["first-time visitors","food lovers","budget travelers"],"visit_moments":["lunch stop","dinner stop"],"practical_note":"Address and direct map link are available for easy turn-by-turn access.","nearby_walkable_count":7,"nearby_count_2km":25,"confidence":0.98},"areaContext":{"slug":"ilioypoli","name":"Ilioupoli","nameEl":"Ηλιούπολη"},"intentContexts":[{"href":"/cheap-eats/ilioypoli","label":"Gyros & Cheap Eats in Ilioupoli","categorySlug":"cheap-eats","categoryName":"Gyros & Cheap Eats","areaSlug":"ilioypoli","areaName":"Ilioupoli","areaNameEl":"Ηλιούπολη"}]},"__N_SSG":true}