{"pageProps":{"entity":{"id":"mexicanRestaurants_e73bac78f16d","slug":"pueblo-chido-nea-smyrni-e73b","kind":"restaurant","name":"Pueblo Chido, Nea Smyrni","lat":37.94714091435742,"lng":23.714986542388107,"url":"https://maps.app.goo.gl/MWC6uaDUm2HJ8Ved9?g_st=ipc","address":"Pueblo Chido, Nea Smyrni","categoryIds":["mexican"],"categories":["Mexican Restaurants"]},"sameCategory":[{"id":"mexicanRestaurants_e022afb77fe2","slug":"amigos-e022","kind":"restaurant","name":"Amigos","lat":37.94499454255761,"lng":23.71221746209658,"url":"https://maps.app.goo.gl/BHdiVv9h7dD8bkiu6?g_st=ipc","address":"Μεγ. Αλεξάνδρου 70, Νέα Σμύρνη 171 22","categoryIds":["mexican","vegetarian"],"categories":["Mexican Restaurants","Vegetarian Friendly Restaurants"],"legacySlugs":["amigos-83a2"]},{"id":"mexicanRestaurants_ec31cb806a86","slug":"dos-banditos-ec31","kind":"restaurant","name":"Dos Banditos","lat":37.957023186399105,"lng":23.71172894880883,"url":"https://maps.app.goo.gl/A9S8uhRtFHyQhuDh6?g_st=ipc","address":"Δημοσθένους 31, Καλλιθέα 176 71","categoryIds":["mexican"],"categories":["Mexican Restaurants"]},{"id":"mexicanRestaurants_b734434ef46c","slug":"el-burro-tacos-y-tequila-b734","kind":"restaurant","name":"El burro tacos y tequila","lat":37.962922862445566,"lng":23.7215865155236,"url":"https://maps.app.goo.gl/5kJKHTBcWjkVftX99?g_st=ipc","address":"Δημητρακοπούλου 102, Αθήνα 117 41","categoryIds":["mexican"],"categories":["Mexican Restaurants"]},{"id":"cheapEatsRestaurants_d094097525b6","slug":"senor-picante-d094","kind":"restaurant","name":"Señor Picante","lat":37.965308606012925,"lng":23.726477821309263,"url":"https://maps.app.goo.gl/bZNApSKDTgmvuiXB7?g_st=ipc","address":"Φαλήρου 40, Αθήνα 117 42","categoryIds":["cheap-eats","mexican"],"categories":["Gyros & Cheap Eats","Mexican Restaurants"],"legacySlugs":["senor-picante-fbd3"]},{"id":"mexicanRestaurants_33052426e7a2","slug":"mamacita-taqueria-y-cocteleria-3305","kind":"restaurant","name":"Mamacita - Taquería y Coctelería","lat":37.97469687554734,"lng":23.731910676858394,"url":"https://maps.app.goo.gl/KcBA2GUcjk1cY9FJ8?g_st=ipc","address":"Απόλλωνος 9Β, Αθήνα 105 57","categoryIds":["mexican"],"categories":["Mexican Restaurants"]},{"id":"mexicanRestaurants_78038d8f26a9","slug":"dos-gardenias-7803","kind":"restaurant","name":"Dos Gardenias","lat":37.977603557604816,"lng":23.722737599299293,"url":"https://maps.app.goo.gl/Gi4zf9TfzCfLeQPL6?g_st=ipc","address":"Ήβης 21 &, Ναυάρχου Αποστόλη 17, Αθήνα 105 54","categoryIds":["mexican"],"categories":["Mexican Restaurants"]},{"id":"mexicanRestaurants_12ba982b5dec","slug":"ancho-mexican-grill-12ba","kind":"restaurant","name":"Ancho Mexican Grill","lat":37.97715705569823,"lng":23.72766354204186,"url":"https://maps.app.goo.gl/iYXrRpCvSYJUhEHx8?g_st=ipc","address":"Αιόλου 25, Αθήνα 105 51","categoryIds":["mexican"],"categories":["Mexican Restaurants"]},{"id":"mexicanRestaurants_68ac307861c4","slug":"morenita-all-day-bar-restaurant-68ac","kind":"restaurant","name":"Morenita All Day Bar Restaurant","lat":37.978327591113846,"lng":23.724081018892964,"url":"https://maps.app.goo.gl/HF699YbZfp4NJUYi7?g_st=ipc","address":"Τάκη 13, Αθήνα 105 54","categoryIds":["mexican"],"categories":["Mexican Restaurants"]},{"id":"mexicanRestaurants_d1ef1807c1f0","slug":"taco-loco-athens-d1ef","kind":"restaurant","name":"Taco Loco Athens","lat":37.9776204281013,"lng":23.730210870551065,"url":"https://maps.app.goo.gl/6pEPXa7waRhazPjR9?g_st=ipc","address":"Κολοκοτρώνη 39, Αθήνα 105 62","categoryIds":["mexican"],"categories":["Mexican Restaurants"]},{"id":"mexicanRestaurants_855638776a76","slug":"tekila-8556","kind":"restaurant","name":"Tekila","lat":37.97697304778162,"lng":23.733460625726625,"url":"https://maps.app.goo.gl/CAhgNENSirDV1fWq7?g_st=ipc","address":"Κολοκοτρώνη 3, Αθήνα 105 62","categoryIds":["mexican"],"categories":["Mexican Restaurants"]},{"id":"mexicanRestaurants_624c5c1ab8d8","slug":"mentirosa-tacos-cocktails-624c","kind":"restaurant","name":"Mentirosa - Tacos & Cocktails","lat":37.982550988441936,"lng":23.717503924756294,"url":"https://maps.app.goo.gl/1xXknD2jtrEpodcR7?g_st=ipc","address":"Θερμοπυλών 41, Αθήνα 104 35","categoryIds":["mexican"],"categories":["Mexican Restaurants"]},{"id":"mexicanRestaurants_246d0cbd5711","slug":"kaisaras-mpar-kaisaras-bar-246d","kind":"restaurant","name":"Καίσαρας Μπαρ - Kaisaras Bar","lat":37.96879437306453,"lng":23.758782238098565,"url":"https://maps.app.goo.gl/dNnjqQMeoX6QVGm38?g_st=ipc","address":"Πλατεία Παναγιώτη Μακρή 7-9, Καισαριανή 161 21","categoryIds":["mexican"],"categories":["Mexican Restaurants"]}],"nearby":[{"id":"asianRestaurants_6ef4181fa78e","slug":"kenko-japanese-restaurant-6ef4","kind":"restaurant","name":"Kenko Japanese Restaurant","lat":37.94729381865282,"lng":23.715042181127906,"url":"https://maps.app.goo.gl/XHTSnCRdEDq5dRxc7?g_st=ipc","address":"Λεωφ. Ελ. Βενιζέλου 22, Νέα Σμύρνη 171 21","categoryIds":["asian","luxury-dining"],"categories":["Asian Restaurants","Luxury Dining"],"legacySlugs":["kenko-japanese-restaurant-c964"],"distanceKm":0.01768830645899134},{"id":"italianRestaurants_3441b54b92cd","slug":"vissente-italian-comfort-food-3441","kind":"restaurant","name":"Vissente - Italian comfort food","lat":37.94750349815223,"lng":23.714501612675416,"url":"https://maps.app.goo.gl/UadeCSeXLWu8p8wK6?g_st=ipc","address":"Πλ. Αθανασίου Καρύλλου 9, Νέα Σμύρνη 171 21","categoryIds":["italian"],"categories":["Italian Restaurants"],"distanceKm":0.05859666122755387},{"id":"asianRestaurants_ea18f7423739","slug":"streetwok-ea18","kind":"restaurant","name":"StreetWok","lat":37.94661589274436,"lng":23.715316438751927,"url":"https://maps.app.goo.gl/Wb2pGeyp5yUdVqfd9?g_st=ipc","address":"Λεωφ. Ελ. Βενιζέλου 37, Νέα Σμύρνη 171 23","categoryIds":["asian","cheap-eats"],"categories":["Asian Restaurants","Gyros & Cheap Eats"],"legacySlugs":["streetwok-7394"],"distanceKm":0.06515356231575267},{"id":"burgersRestaurants_af2bce83bf0a","slug":"mpar-mpee-kioy-af2b","kind":"restaurant","name":"Μπαρ Μπεε Κιου","lat":37.947758433049515,"lng":23.715813044078192,"url":"https://maps.app.goo.gl/4dN2cUdHdLqSEgRQA?g_st=ipc","address":"Λεωφ. Ελ. Βενιζέλου 18, Νέα Σμύρνη 171 23","categoryIds":["burgers"],"categories":["Burger Spots"],"distanceKm":0.09983537695006993},{"id":"coffeeBrunchRestaurants_7990f39b9894","slug":"32-avenue-7990","kind":"restaurant","name":"32 Avenue","lat":37.946383947038974,"lng":23.714065407386308,"url":"https://maps.app.goo.gl/miSnLuSyrb5xJ1dB9?g_st=ipc","address":"2ας Μαΐου 32, Νέα Σμύρνη 171 21","categoryIds":["coffee-brunch"],"categories":["Coffee & Brunch Spots"],"distanceKm":0.11665631828305058},{"id":"coffeeBrunchRestaurants_bcef1a0d2ebe","slug":"aroma-plateias-bcef","kind":"restaurant","name":"Άρωμα πλατείας","lat":37.947245777072794,"lng":23.713361220767048,"url":"https://maps.app.goo.gl/6mPMQRmSeP8pK4Cu6?g_st=ipc","address":"25ης Μαρτίου 19, Νέα Σμύρνη 171 21","categoryIds":["coffee-brunch"],"categories":["Coffee & Brunch Spots"],"distanceKm":0.14299391553692287},{"id":"municipalities_093f8da9eef7","slug":"nea-smyrni-093f","kind":"municipality","name":"Νέα Σμύρνη","lat":37.9456,"lng":23.7142,"aliases":["Nea Smyrni","Nea Smirni","Νεα Σμυρνη","Nea Smyrne"],"region":"Νότια Προάστια","name_en":"Nea Smyrni","region_en":"Southern Suburbs","distanceKm":0.1847019565870105},{"id":"dessertsRestaurants_90551d221579","slug":"zuccherino-9055","kind":"restaurant","name":"Zuccherino","lat":37.94670677191045,"lng":23.712370393556583,"url":"https://maps.app.goo.gl/AvtpV9edEhsRgr9r5?g_st=ipc","address":"2ας Μαΐου 12, Νέα Σμύρνη 171 21","categoryIds":["desserts"],"categories":["Dessert Shops"],"distanceKm":0.234424449342216},{"id":"asianRestaurants_8c0b6c732554","slug":"black-lotus-vietnamese-restaurant-8c0b","kind":"restaurant","name":"Black Lotus Vietnamese Restaurant","lat":37.945120193663136,"lng":23.715750543219272,"url":"https://maps.app.goo.gl/ALPiHRy5LRfWNWfU7?g_st=ipc","address":"Ικονίου 11, Νέα Σμύρνη 171 23","categoryIds":["asian"],"categories":["Asian Restaurants"],"distanceKm":0.23446835760181692},{"id":"coffeeBrunchRestaurants_01d039eed44f","slug":"flaked-croissanterie-nea-smyrni-01d0","kind":"restaurant","name":"Flaked Croissanterie Nea Smyrni","lat":37.94664941791958,"lng":23.71226377005945,"url":"https://maps.app.goo.gl/XhDMxWuwRuMVcghH9?g_st=ipc","address":"2ας Μαΐου 10, Νέα Σμύρνη 171 21","categoryIds":["coffee-brunch"],"categories":["Coffee & Brunch Spots"],"distanceKm":0.24492488210607086},{"id":"dessertsRestaurants_8de488078304","slug":"crepa-crepa-8de4","kind":"restaurant","name":"Crepa crepa","lat":37.94728978565515,"lng":23.712096506964457,"url":"https://maps.app.goo.gl/vmeSVgQbRFAe8fe19?g_st=ipc","address":"Ειρήνης 2, Νέα Σμύρνη 171 21","categoryIds":["desserts"],"categories":["Dessert Shops"],"distanceKm":0.25395524323617213},{"id":"cheapEatsRestaurants_fb98feb8ab24","slug":"soyvlakia-o-leyteris-fb98","kind":"restaurant","name":"Σουβλάκια ο Λευτέρης","lat":37.947152588163014,"lng":23.712051232496496,"url":"https://maps.app.goo.gl/MTQDk9is4pkL1vPt9?g_st=ipc","address":"Ειρήνης 2, Νέα Σμύρνη 171 21","categoryIds":["cheap-eats"],"categories":["Gyros & Cheap Eats"],"distanceKm":0.25738859525837426},{"id":"italianRestaurants_da11e2c73563","slug":"cavaliere-ristorante-concettuale-da11","kind":"restaurant","name":"Cavaliere Ristorante Concettuale","lat":37.944619471140975,"lng":23.71414682617668,"url":"https://maps.app.goo.gl/WcUWRBUhr7SBrvaw8?g_st=ipc","address":"Λεωφ. Ελ. Βενιζέλου 42, Νέα Σμύρνη 171 22","categoryIds":["italian"],"categories":["Italian Restaurants"],"distanceKm":0.2898793524291335},{"id":"mexicanRestaurants_e022afb77fe2","slug":"amigos-e022","kind":"restaurant","name":"Amigos","lat":37.94499454255761,"lng":23.71221746209658,"url":"https://maps.app.goo.gl/BHdiVv9h7dD8bkiu6?g_st=ipc","address":"Μεγ. Αλεξάνδρου 70, Νέα Σμύρνη 171 22","categoryIds":["mexican","vegetarian"],"categories":["Mexican Restaurants","Vegetarian Friendly Restaurants"],"legacySlugs":["amigos-83a2"],"distanceKm":0.34046937629836355},{"id":"vegetarianRestaurants_de7324c496a6","slug":"fakafel-de73","kind":"restaurant","name":"Φakafel","lat":37.945977379116876,"lng":23.71063148252821,"url":"https://maps.app.goo.gl/r5AXr2ToKxBqZpAv9?g_st=ipc","address":"Φakafel","categoryIds":["vegetarian"],"categories":["Vegetarian Friendly Restaurants"],"distanceKm":0.4032017559752688},{"id":"coffeeBrunchRestaurants_2673b2efe834","slug":"fred-2673","kind":"restaurant","name":"Fred","lat":37.94562369764514,"lng":23.71066649818301,"url":"https://maps.app.goo.gl/HMmCPXK9BhvDtR538?g_st=ipc","address":"Κων/νου Παλαιολόγου 24, Νέα Σμύρνη 171 21","categoryIds":["coffee-brunch"],"categories":["Coffee & Brunch Spots"],"distanceKm":0.4146802657085729},{"id":"coffeeBrunchRestaurants_0aaa1d7425c8","slug":"o-nikos-0aaa","kind":"restaurant","name":"\"ο Νίκος\"","lat":37.94446727754758,"lng":23.71036042368455,"url":"https://maps.app.goo.gl/Hjscsj6jJP8Ehtjz8?g_st=ipc","address":"Κων/νου Παλαιολόγου 36, Νέα Σμύρνη 171 22","categoryIds":["coffee-brunch"],"categories":["Coffee & Brunch Spots"],"distanceKm":0.5029298740814191},{"id":"burgersRestaurants_b47d84823c91","slug":"the-burger-joint-b47d","kind":"restaurant","name":"The Burger Joint","lat":37.942262724437896,"lng":23.71398429679752,"url":"https://maps.app.goo.gl/4gyyrfZJhxvHeHNj8?g_st=ipc","address":"Λεωφ. Ελ. Βενιζέλου 93, Νέα Σμύρνη 171 22","categoryIds":["burgers"],"categories":["Burger Spots"],"distanceKm":0.5495035725692781},{"id":"cheapEatsRestaurants_7f509ca8a241","slug":"doner-tzortz-7f50","kind":"restaurant","name":"DONER.TZORTZ","lat":37.95300238294556,"lng":23.716665931248773,"url":"https://maps.app.goo.gl/otFTTi2nsTTPYaYKA?g_st=ipc","address":"Βιζυηνού 2, Νέα Σμύρνη 171 21","categoryIds":["cheap-eats"],"categories":["Gyros & Cheap Eats"],"distanceKm":0.6681929125853516},{"id":"greekRestaurants_eecb2ebbfdc2","slug":"gitema-eecb","kind":"restaurant","name":"Γήτεμα","lat":37.94107986247284,"lng":23.713131731866255,"url":"https://maps.app.goo.gl/S3ph9mpPrmbS64x3A","address":"Λεωφ. Ελ. Βενιζέλου 88, Νέα Σμύρνη 171 22","categoryIds":["greek-restaurants"],"categories":["Greek Restaurants"],"distanceKm":0.6933064847223699},{"id":"greekRestaurants_ef1588581bbb","slug":"myrtia-ef15","kind":"restaurant","name":"Μυρτιά","lat":37.940920844377125,"lng":23.712738244892858,"url":"https://maps.app.goo.gl/QHjMpbFEFgtWLbA57","address":"Αϊδινίου 55, Νέα Σμύρνη 171 22","categoryIds":["greek-restaurants"],"categories":["Greek Restaurants"],"distanceKm":0.7191906976869457},{"id":"coffeeBrunchRestaurants_45cff5aaefe1","slug":"peggy-sue-45cf","kind":"restaurant","name":"Peggy Sue","lat":37.9539520452851,"lng":23.715104827553436,"url":"https://maps.app.goo.gl/jJoRB32pj6dGvy9h9?g_st=ipc","address":"Σπαθαρη 2, Νέα Σμύρνη 171 21","categoryIds":["coffee-brunch"],"categories":["Coffee & Brunch Spots"],"distanceKm":0.7574342148405406},{"id":"italianRestaurants_20d0a7e98724","slug":"dei-fratelli-ristorante-italiano-20d0","kind":"restaurant","name":"Dei Fratelli - Ristorante Italiano","lat":37.954535351071335,"lng":23.71576098163187,"url":"https://maps.app.goo.gl/hbqzvikXoNEXvdgj7?g_st=ipc","address":"ΚΡΑΤΗΤΟΣ 10 &, Σπαθαρη, Νέα Σμύρνη 171 21","categoryIds":["italian"],"categories":["Italian Restaurants"],"distanceKm":0.8250230355738617},{"id":"cheapEatsRestaurants_4c857b269660","slug":"soyvlakia-kalamakia-panostimo-4c85","kind":"restaurant","name":"Σουβλακια καλαμάκια πανοστιμο","lat":37.95437724216138,"lng":23.71201791711626,"url":"https://maps.app.goo.gl/wSd2i93DKt8GM9aEA?g_st=ipc","address":"Δοϊράνης 35, Καλλιθέα 176 72","categoryIds":["cheap-eats"],"categories":["Gyros & Cheap Eats"],"distanceKm":0.8456968302947159}],"mentionedGuides":[],"canonicalSlug":"pueblo-chido-nea-smyrni-e73b","enrichment":{"summary_en":"Pueblo Chido, Nea Smyrni is a curated restaurant in Nea Smyrni in the Mexican Restaurants collection. It is connected to 22 nearby Googlementor picks to help travelers build a stronger local route.","summary_el":"Pueblo Chido, Nea Smyrni είναι ένα επιλεγμένο σημείο φαγητού στην περιοχή Nea Smyrni και ανήκει στη συλλογή Mexican Restaurants. Συνδέεται με 22 κοντινές προτάσεις του Googlementor για πιο ολοκληρωμένη εμπειρία.","vibe_tags":["curated"],"best_for":["first-time visitors","food lovers"],"visit_moments":["lunch stop","dinner stop"],"practical_note":"Address and direct map link are available for easy turn-by-turn access.","nearby_walkable_count":22,"nearby_count_2km":107,"confidence":0.98},"areaContext":{"slug":"nea-smyrni","name":"Nea Smyrni","nameEl":"Νέα Σμύρνη"},"intentContexts":[{"href":"/mexican/nea-smyrni","label":"Mexican Restaurants in Nea Smyrni","categorySlug":"mexican","categoryName":"Mexican Restaurants","areaSlug":"nea-smyrni","areaName":"Nea Smyrni","areaNameEl":"Νέα Σμύρνη"}]},"__N_SSG":true}