{"pageProps":{"entity":{"id":"familyFriendly_ef01ab8f9ddc","slug":"rafting-no-limits-gr-ef01","kind":"restaurant","name":"Rafting No Limits GR","lat":40.057225940419336,"lng":20.627015564275286,"url":"https://maps.app.goo.gl/JMXqaxKVD3CmU7Ft8?g_st=ipc","address":"BOURAZANI Konitsa, BOURAZANi KONITSA 441 00","categoryIds":["family-friendly"],"categories":["Kid Friendly Locations"]},"sameCategory":[{"id":"familyFriendly_f1559b4827bb","slug":"sarakatsaniki-stani-f155","kind":"restaurant","name":"Σαρακατσάνικη Στάνη","lat":39.93486554028431,"lng":20.916784074474684,"url":"https://maps.app.goo.gl/hz7v5UJ8xo3K6aLE7?g_st=ic","address":"Γυφτόκαμπος Σκαμνέλι, Skamnelli 440 10","categoryIds":["family-friendly"],"categories":["Kid Friendly Locations"]},{"id":"familyFriendly_fca4b1834b63","slug":"play-hall-fca4","kind":"restaurant","name":"PLAY HALL","lat":39.65033321631473,"lng":20.865657018209728,"url":"https://maps.app.goo.gl/SFFV3HjpyPgVaZLc9?g_st=ipc","address":"Leof. Geor. Gennimata, Ioannina 452 21","categoryIds":["family-friendly"],"categories":["Kid Friendly Locations"]},{"id":"familyFriendly_d18c51f19172","slug":"the-park-of-mushrooms-d18c","kind":"restaurant","name":"The Park of Mushrooms","lat":40.085707982229366,"lng":21.437328929556166,"url":"https://maps.app.goo.gl/8bk7HjJdaK7izqGE6?g_st=ipc","address":"Taliadouri 77, Grevena 511 00","categoryIds":["family-friendly"],"categories":["Kid Friendly Locations"]},{"id":"familyFriendly_e515147a29e0","slug":"aqualand-e515","kind":"restaurant","name":"Aqualand","lat":39.61697908099727,"lng":19.837429719404867,"url":"https://maps.app.goo.gl/NQ1AwXiEg5oZQg359?g_st=ipc","address":"Agios Ioannis 491 00","categoryIds":["family-friendly"],"categories":["Kid Friendly Locations"]},{"id":"familyFriendly_851fdc1f68b5","slug":"parapotamio-parko-artas-851f","kind":"restaurant","name":"Παραποτάμιο Πάρκο Άρτας","lat":39.16127581116029,"lng":20.996020576304343,"url":"https://maps.app.goo.gl/2QGxoFpihPsqFc2W8?g_st=ic","address":"Περιφερειακή Οδός και, Periferiaki odos Afxentiou 1, Arta 471 00","categoryIds":["family-friendly"],"categories":["Kid Friendly Locations"]},{"id":"familyFriendly_c02221112b03","slug":"keramario-paradosiaki-taverna-kai-xenones-c022","kind":"restaurant","name":"Κεραμαριό Παραδοσιακή Ταβέρνα και Ξενώνες","lat":39.40971777314896,"lng":21.605805073179642,"url":"https://maps.app.goo.gl/39GhkgeydgX7Y7Z5A?g_st=ipc","address":"Συνοικισμός Κεραμαριό, Δρακότρυπα, Mouzaki 430 60","categoryIds":["family-friendly"],"categories":["Kid Friendly Locations"]},{"id":"familyFriendly_a4d875b2fad3","slug":"the-mill-of-the-elves-a4d8","kind":"restaurant","name":"The Mill of the Elves","lat":39.5462653378013,"lng":21.758814753478795,"url":"https://maps.app.goo.gl/HiNCRKX6yM5iQQuv6?g_st=ipc","address":"Πάρκο Ματσόπουλου, Trikala 421 00","categoryIds":["family-friendly"],"categories":["Kid Friendly Locations"]},{"id":"familyFriendly_f9db02b0c4d4","slug":"saint-george-athletic-park-f9db","kind":"restaurant","name":"Saint George Athletic Park","lat":39.54375380003077,"lng":21.786690732349854,"url":"https://maps.app.goo.gl/pwB8sxfXU5yLbEHY9?g_st=ipc","address":"Trikala 421 00","categoryIds":["family-friendly"],"categories":["Kid Friendly Locations"]},{"id":"familyFriendly_9fb0caab5b5a","slug":"parko-elafion-agioy-panteleimonos-agios-dimitrios-kozanis-9fb0","kind":"restaurant","name":"Πάρκο Ελαφιών Αγίου Παντελεήμονος,Άγιος Δημήτριος Κοζάνης","lat":40.43077407157342,"lng":21.94672871822924,"url":"https://maps.app.goo.gl/RuwhJYNYLe2JU3NZA?g_st=ipc","address":"Agios Dimitrios 501 50","categoryIds":["family-friendly"],"categories":["Kid Friendly Locations"]},{"id":"familyFriendly_5f4d4e2afff8","slug":"bowling-city-club-5f4d","kind":"restaurant","name":"Bowling City Club","lat":40.49775337927069,"lng":22.17239983558456,"url":"https://maps.app.goo.gl/KgPCpfULKMp7KhMJ7?g_st=ipc","address":"Bowling City Club, Veria 591 32","categoryIds":["family-friendly"],"categories":["Kid Friendly Locations"]},{"id":"familyFriendly_ba29547bfcac","slug":"ktima-vrysi-polychoros-ekdiloseon-ba29","kind":"restaurant","name":"Κτήμα Βρύση - Πολυχώρος εκδηλώσεων","lat":39.776305858514846,"lng":22.305702369995416,"url":"https://maps.app.goo.gl/Jsmn7XMyr6zE6XDc6?g_st=ipc","address":"Τύρναβος 401 00","categoryIds":["family-friendly"],"categories":["Kid Friendly Locations"]},{"id":"familyFriendly_20ce7f662369","slug":"waterfalls-of-edessa-20ce","kind":"restaurant","name":"Waterfalls of Edessa","lat":40.80389706859676,"lng":22.056027729555048,"url":"https://maps.app.goo.gl/jGXWJC6i6KeqGJ128?g_st=ipc","address":"Tsimiski 2, Edessa 582 00","categoryIds":["family-friendly"],"categories":["Kid Friendly Locations"]}],"nearby":[{"id":"mustSeeAttractions_8df91757921b","slug":"zagori-8df9","kind":"restaurant","name":"Zagori","lat":39.96846543207807,"lng":20.729047055658157,"url":"https://maps.app.goo.gl/rVafr1wHovCRyoj77?g_st=ipc","address":"Papingo 440 04","categoryIds":["attractions"],"categories":["Must-See Attractions"],"distanceKm":13.149811148264979},{"id":"municipalities_cb2980eb2be9","slug":"papigko-cb29","kind":"municipality","name":"Πάπιγκο","lat":39.9667,"lng":20.7833,"region":"Ήπειρος","name_en":"Papingo","region_en":"Epirus","distanceKm":16.687756605270568},{"id":"municipalities_6d3e0429ac44","slug":"zagorochoria-6d3e","kind":"municipality","name":"Ζαγοροχώρια","lat":39.9167,"lng":20.7333,"region":"Ήπειρος","name_en":"Zagorochoria","region_en":"Epirus","distanceKm":18.05986656779424},{"id":"municipalities_5b04c25765e9","slug":"zagori-5b04","kind":"municipality","name":"Ζαγόρι","lat":39.9,"lng":20.8,"region":"Ήπειρος","name_en":"Zagori","region_en":"Epirus","distanceKm":22.86694778059355},{"id":"greekRestaurants_df023e747e5f","slug":"kanela-kai-garyfallo-mushroom-restaurant-df02","kind":"restaurant","name":"ΚΑΝΕΛΑ ΚΑΙ ΓΑΡΥΦΑΛΛΟ, Mushroom Restaurant","lat":39.873717064633475,"lng":20.75043313227449,"url":"https://maps.app.goo.gl/RMbRCUycwB1E3Sf99?g_st=ipc","address":"Κεντρική Οδός Βίτσας, Βίτσα Ζαγορίου 440 07","categoryIds":["greek-restaurants"],"categories":["Greek Restaurants"],"distanceKm":22.956559450715297},{"id":"municipalities_d3feba2113c4","slug":"pogoni-d3fe","kind":"municipality","name":"Πωγώνι","lat":39.8,"lng":20.5167,"region":"Ήπειρος","name_en":"Pogoni","region_en":"Epirus","distanceKm":30.109287567943834}],"mentionedGuides":[],"canonicalSlug":"rafting-no-limits-gr-ef01","enrichment":{"summary_en":"Rafting No Limits GR is a curated restaurant in BOURAZANi KONITSA 441 00 in the Kid Friendly Locations collection. It is connected to 0 nearby Googlementor picks to help travelers build a stronger local route.","summary_el":"Rafting No Limits GR είναι ένα επιλεγμένο σημείο φαγητού στην περιοχή BOURAZANi KONITSA 441 00 και ανήκει στη συλλογή Kid Friendly Locations. Συνδέεται με 0 κοντινές προτάσεις του Googlementor για πιο ολοκληρωμένη εμπειρία.","vibe_tags":["curated","family-ready"],"best_for":["first-time visitors","food lovers","families"],"visit_moments":["lunch stop","dinner stop"],"practical_note":"Address and direct map link are available for easy turn-by-turn access.","nearby_walkable_count":0,"nearby_count_2km":0,"confidence":0.9},"areaContext":null,"intentContexts":[]},"__N_SSG":true}