{"pageProps":{"entity":{"id":"greekRestaurants_884db7ea726f","slug":"rakoyn-884d","kind":"restaurant","name":"Ρακούν","lat":38.04130257579753,"lng":23.540052368264472,"url":"https://maps.app.goo.gl/8AuC45RCCAkJsvne9","address":"Νικολαΐδου 66, Ελευσίνα 192 00","categoryIds":["greek-restaurants"],"categories":["Greek Restaurants"]},"sameCategory":[{"id":"greekRestaurants_9cb9af8d0b5c","slug":"ayli-eleysina-9cb9","kind":"restaurant","name":"Αυλή Ελευσίνα","lat":38.03677889549646,"lng":23.538522460635875,"url":"https://maps.app.goo.gl/FqXm1SHTy3UsbXZy9","address":"Κανελλόπουλου 9, Ελευσίνα 192 00","categoryIds":["greek-restaurants"],"categories":["Greek Restaurants"]},{"id":"greekRestaurants_da2ab78c5fb8","slug":"sknipa-da2a","kind":"restaurant","name":"Σκνίπα","lat":37.96447715022685,"lng":23.56326926823615,"url":"https://maps.app.goo.gl/zYvZ3P8Ee67RZoNy6","address":"Ηλέκτρας 1, Πέραμα 188 63","categoryIds":["greek-restaurants"],"categories":["Greek Restaurants"]},{"id":"greekRestaurants_d0434bb7301e","slug":"ena-ena-d043","kind":"restaurant","name":"Ένα & Ένα","lat":38.008987140141066,"lng":23.65280105299395,"url":"https://maps.app.goo.gl/ndrwbvbypJGEEjum6","address":"Κύπρου 19, Χαϊδάρι 124 61","categoryIds":["greek-restaurants"],"categories":["Greek Restaurants"]},{"id":"greekRestaurants_9f4c1147cab2","slug":"ellinon-ta-xydia-9f4c","kind":"restaurant","name":"Ελλήνων Τα..ξυδια","lat":38.00596041944379,"lng":23.66399500584869,"url":"https://maps.app.goo.gl/oC72DF6MLMBssYjU7","address":"Νικ. Πλαστήρα 32, Χαϊδάρι 124 61","categoryIds":["greek-restaurants"],"categories":["Greek Restaurants"]},{"id":"greekRestaurants_741518abaa86","slug":"the-meaters-urban-beer-garden-7415","kind":"restaurant","name":"The Meaters Urban Beer Garden","lat":38.003598614109904,"lng":23.66346778642219,"url":"https://maps.app.goo.gl/zrm7vsMu18rMsZFJA","address":"Στρ. Καραϊσκάκη 25, Χαϊδάρι 124 61","categoryIds":["greek-restaurants"],"categories":["Greek Restaurants"]},{"id":"greekRestaurants_2f9a21e4ef01","slug":"pesto-ki-egine-2f9a","kind":"restaurant","name":"Πέστο Κι Έγινε","lat":38.00286560260897,"lng":23.663110435533067,"url":"https://maps.app.goo.gl/xWbZXEXeN5pg16TG9","address":"Στρ. Καραϊσκάκη 17, Χαϊδάρι 124 61","categoryIds":["greek-restaurants"],"categories":["Greek Restaurants"]},{"id":"greekRestaurants_b6bacb590b9a","slug":"to-yiasemi-food-wine-experience-b6ba","kind":"restaurant","name":"To Yiasemi Food & Wine Experience","lat":38.00142234618658,"lng":23.662754824513232,"url":"https://maps.app.goo.gl/72YzkYeb6xxkDt68A","address":"Στρ. Καραϊσκάκη 1, Β, Χαϊδάρι 124 61","categoryIds":["greek-restaurants"],"categories":["Greek Restaurants"]},{"id":"greekRestaurants_71ccb1aa4b83","slug":"taverna-o-vasilis-71cc","kind":"restaurant","name":"Ταβέρνα Ο Βασίλης","lat":37.983639078803165,"lng":23.65172200450781,"url":"https://maps.app.goo.gl/P3D4J5ff2iNtoGc99","address":"Κολοκοτρώνη 160, Κορυδαλλός 181 21","categoryIds":["greek-restaurants"],"categories":["Greek Restaurants"]},{"id":"coffeeBrunchRestaurants_ebe61501db3c","slug":"anemologio-enallaktiko-kafe-ebe6","kind":"restaurant","name":"Ανεμολόγιο εναλλακτικό καφέ","lat":38.01553415279337,"lng":23.680397259584772,"url":"https://maps.app.goo.gl/CdGAWQcCNoqhMaoLA?g_st=ipc","address":"Πελοπίδα 106, Περιστέρι 121 35","categoryIds":["coffee-brunch","greek-restaurants"],"categories":["Coffee & Brunch Spots","Greek Restaurants"],"legacySlugs":["anemologio-enallaktiko-kafe-3bf9"]},{"id":"greekRestaurants_e914468cc862","slug":"oinopantopoleio-to-eidikon-e914","kind":"restaurant","name":"Οινοπαντοπωλείο Tο Ειδικόν","lat":37.953880471733605,"lng":23.63384583394419,"url":"https://maps.app.goo.gl/PMXGHCEV52xT7G7w7","address":"Ψαρών 38, Πειραιάς 185 46","categoryIds":["greek-restaurants"],"categories":["Greek Restaurants"]},{"id":"greekRestaurants_899916cf9819","slug":"izampela-armenikes-nostimies-8999","kind":"restaurant","name":"Ιζαμπέλα - Αρμένικες νοστιμιές","lat":37.95153993965958,"lng":23.631088706562064,"url":"https://maps.app.goo.gl/r3twrz7bwRr76j8n8","address":"Αναπαύσεως 36, Δραπετσώνα 185 46","categoryIds":["greek-restaurants"],"categories":["Greek Restaurants"]},{"id":"greekRestaurants_f42ac62c3249","slug":"bounty-all-aboard-f42a","kind":"restaurant","name":"Bounty all aboard","lat":37.949723445369806,"lng":23.63332963263093,"url":"https://maps.app.goo.gl/2iShe5bzo7qg3ohc6","address":"Εθ. Αντιστάσεως 10, Δραπετσώνα 186 48","categoryIds":["greek-restaurants"],"categories":["Greek Restaurants"]}],"nearby":[{"id":"mustSeeAttractions_9b8993cb09f3","slug":"archaiologikos-choros-eleysinas-9b89","kind":"restaurant","name":"Αρχαιολογικός Χώρος Ελευσίνας","lat":38.04235410298215,"lng":23.539415339881792,"url":"https://maps.app.goo.gl/CQEgQ38KdmafS3mN7?g_st=ipc","address":"Σωτηρίου Γκιόκα 1, Ελευσίνα 192 00","categoryIds":["attractions"],"categories":["Must-See Attractions"],"distanceKm":0.1295509690759428},{"id":"greekRestaurants_9cb9af8d0b5c","slug":"ayli-eleysina-9cb9","kind":"restaurant","name":"Αυλή Ελευσίνα","lat":38.03677889549646,"lng":23.538522460635875,"url":"https://maps.app.goo.gl/FqXm1SHTy3UsbXZy9","address":"Κανελλόπουλου 9, Ελευσίνα 192 00","categoryIds":["greek-restaurants"],"categories":["Greek Restaurants"],"distanceKm":0.520548662521094},{"id":"familyFriendly_a59e646924f0","slug":"parko-arkopolis-a59e","kind":"restaurant","name":"Πάρκο ARKOPOLIS","lat":38.04423565223715,"lng":23.533199733095568,"url":"https://maps.app.goo.gl/x7x4Lu9B5vabrAyJ7?g_st=ipc","address":"Μαρίας Κιουρί, Ελευσίνα 192 00","categoryIds":["family-friendly"],"categories":["Kid Friendly Locations"],"distanceKm":0.682997416712516},{"id":"municipalities_91603d960254","slug":"eleysina-9160","kind":"municipality","name":"Ελευσίνα","lat":38.0333,"lng":23.5333,"aliases":["Ελευσινα"],"region":"Δυτική Αττική","name_en":"Elefsina","region_en":"West Attica","distanceKm":1.0684253081619877},{"id":"cheapEatsRestaurants_8c8fe904de1f","slug":"o-gyros-tis-polis-8c8f","kind":"restaurant","name":"Ο Γύρος Της Πόλης","lat":38.066483272222705,"lng":23.529477178860592,"url":"https://maps.app.goo.gl/aT8YqVdyM8ijeioo7?g_st=ipc","address":"Τέρμα Αφών, Afon Kipreou, Ελευσίνα 190 18","categoryIds":["cheap-eats"],"categories":["Gyros & Cheap Eats"],"distanceKm":2.949098914118598},{"id":"cheapEatsRestaurants_ff5878e53264","slug":"iliadis-coffee-and-food-ff58","kind":"restaurant","name":"ILIADIS COFFEE AND FOOD","lat":38.04539961819888,"lng":23.58539496057634,"url":"https://maps.app.goo.gl/vsiCvaNeFCuC7Dfv8?g_st=ipc","address":"Λεωφ. Δημοκρατίας 67, Ασπρόπυργος 193 00","categoryIds":["cheap-eats"],"categories":["Gyros & Cheap Eats"],"distanceKm":3.9967440796244817},{"id":"cheapEatsRestaurants_d7c29e2a0475","slug":"soyvlakia-o-pinis-d7c2","kind":"restaurant","name":"ΣΟΥΒΛΑΚΙΑ \"Ο ΠΙΝΗΣ\"","lat":38.059665035702054,"lng":23.588228176039767,"url":"https://maps.app.goo.gl/jR5vQVFM7HLTQP8n9?g_st=ipc","address":"Σαλαμίνος 39, Ασπρόπυργος 193 00","categoryIds":["cheap-eats"],"categories":["Gyros & Cheap Eats"],"distanceKm":4.6865577798596085},{"id":"municipalities_e0afc01f23ce","slug":"aspropyrgos-e0af","kind":"municipality","name":"Ασπρόπυργος","lat":38.0667,"lng":23.6,"region":"Δυτική Αττική","name_en":"Aspropyrgos","region_en":"West Attica","distanceKm":5.960401363375636},{"id":"monasteriesChurches_a960e0dee86b","slug":"iera-moni-panagias-gorgoepikooy-a960","kind":"restaurant","name":"Ιερά Μονή Παναγίας Γοργοεπηκόου","lat":38.06149256664941,"lng":23.467831046678143,"url":"https://maps.app.goo.gl/vNnKum91S5s8eiVu8?g_st=ipc","address":"Μακεδονομάχων, Μάνδρα-Ειδύλλια 196 00","categoryIds":["monasteries-churches"],"categories":["Monasteries & Spiritual Sites"],"distanceKm":6.71047946319915},{"id":"municipalities_367507a29ecc","slug":"perama-3675","kind":"municipality","name":"Πέραμα","lat":37.9681,"lng":23.5667,"region":"Πειραιάς","name_en":"Perama","region_en":"Piraeus","distanceKm":8.467990085419416},{"id":"fishTavernasRestaurants_2b503e4a2bfd","slug":"charti-kai-kalamari-2b50","kind":"restaurant","name":"ΧΑΡΤΙ ΚΑΙ ΚΑΛΑΜΑΡΙ","lat":37.964880612781556,"lng":23.561831186974818,"url":"https://maps.app.goo.gl/H8GUjvvHpXMG9g9D8?g_st=ipc","address":"Λεωφ. Ειρήνης 33, Πέραμα 188 63","categoryIds":["fish-tavernas"],"categories":["Fish Tavernas"],"distanceKm":8.709355510765697},{"id":"fishTavernasRestaurants_076c1eca8c96","slug":"oyzeri-lagoydera-076c","kind":"restaurant","name":"Ουζερί Λαγουδέρα","lat":37.96427992970154,"lng":23.558753968080776,"url":"https://maps.app.goo.gl/osnWCGuQG8gn8L3B9?g_st=ipc","address":"Λεωφ. Δημοκρατίας 33, Πέραμα 188 63","categoryIds":["fish-tavernas"],"categories":["Fish Tavernas"],"distanceKm":8.719874935034747},{"id":"fishTavernasRestaurants_9ca929492cba","slug":"o-takis-9ca9","kind":"restaurant","name":"Ο Τάκης","lat":37.965219250882924,"lng":23.56442918090091,"url":"https://maps.app.goo.gl/ZwRnw6egRaawky1TA?g_st=ipc","address":"Ηπείρου 66, Πέραμα 188 63","categoryIds":["fish-tavernas"],"categories":["Fish Tavernas"],"distanceKm":8.725530693487212},{"id":"greekRestaurants_da2ab78c5fb8","slug":"sknipa-da2a","kind":"restaurant","name":"Σκνίπα","lat":37.96447715022685,"lng":23.56326926823615,"url":"https://maps.app.goo.gl/zYvZ3P8Ee67RZoNy6","address":"Ηλέκτρας 1, Πέραμα 188 63","categoryIds":["greek-restaurants"],"categories":["Greek Restaurants"],"distanceKm":8.781465857716084},{"id":"monasteriesChurches_9012455a363d","slug":"iera-moni-dafnioy-9012","kind":"restaurant","name":"Ιερά Μονή Δαφνίου","lat":38.012995167161115,"lng":23.63601896606369,"url":"https://maps.app.goo.gl/idE6eKcfBqTpZbE78?g_st=ipc","address":"Ιερά Οδός, Χαϊδάρι 124 61","categoryIds":["monasteries-churches","attractions"],"categories":["Monasteries & Spiritual Sites","Must-See Attractions"],"legacySlugs":["iera-moni-dafnioy-2115"],"distanceKm":8.97575769308833},{"id":"cheapEatsRestaurants_10569f764062","slug":"sotiris-1056","kind":"restaurant","name":"Σωτήρης","lat":37.96420811591891,"lng":23.572955787134685,"url":"https://maps.app.goo.gl/6kV5zXHh5EwZ8Cy57?g_st=ipc","address":"ΑΘ.ΔΙΑΚΟΥ &, Σολωμού 6, Πέραμα 188 63","categoryIds":["cheap-eats"],"categories":["Gyros & Cheap Eats"],"distanceKm":9.044310554879067},{"id":"cheapEatsRestaurants_5e71f8045feb","slug":"to-steki-toy-manoli-5e71","kind":"restaurant","name":"Το Στέκι του Μανώλη","lat":37.963705294377505,"lng":23.57363615954898,"url":"https://maps.app.goo.gl/t3CWta3mHexys9Gs7?g_st=ipc","address":"Λεωφ. Ειρήνης 179, Πέραμα 188 63","categoryIds":["cheap-eats"],"categories":["Gyros & Cheap Eats"],"distanceKm":9.116393090577784},{"id":"municipalities_8fb165d3aa1c","slug":"salamina-8fb1","kind":"municipality","name":"Σαλαμίνα","lat":37.9645,"lng":23.4965,"region":"Νησιά Αργοσαρωνικού","name_en":"Salamina","region_en":"Saronic Islands","distanceKm":9.353857153947803},{"id":"italianRestaurants_c67f741fc9ba","slug":"pitsaria-achilleion-c67f","kind":"restaurant","name":"ΠΙΤΣΑΡΙΑ ΑΧΙΛΛΕΙΟΝ","lat":37.96332108068363,"lng":23.493487796737526,"url":"https://maps.app.goo.gl/xb88QciDkgCY4ycv8?g_st=ipc","address":"Λεωφ. Ακτή Καραϊσκάκη 24, Σαλαμίνα 189 00","categoryIds":["italian"],"categories":["Italian Restaurants"],"distanceKm":9.583062656390618},{"id":"coffeeBrunchRestaurants_7dd888878942","slug":"botanical-garden-bistrot-7dd8","kind":"restaurant","name":"Botanical Garden Bistrot","lat":38.01082910356087,"lng":23.64241923148242,"url":"https://maps.app.goo.gl/K8biwYq9RLoEXdZZA?g_st=ipc","address":"Βοτανικός Κήπος, Ιερά Οδός 403, Χαϊδάρι 124 61","categoryIds":["coffee-brunch"],"categories":["Coffee & Brunch Spots"],"distanceKm":9.585389210572313},{"id":"familyFriendly_7539abe09fd5","slug":"votanikos-kipos-diomidoys-7539","kind":"restaurant","name":"Βοτανικός Κήπος Διομήδους","lat":38.010895961889986,"lng":23.642935426625115,"url":"https://maps.app.goo.gl/WsLFbFUaXSS2rGMR6?g_st=ipc","address":"Ιερά Οδός 403, Χαϊδάρι 124 61","categoryIds":["family-friendly"],"categories":["Kid Friendly Locations"],"distanceKm":9.625079597692462},{"id":"coffeeBrunchRestaurants_ed186b21821d","slug":"grand-cafe-ed18","kind":"restaurant","name":"Grand Cafe","lat":38.01669030501736,"lng":23.65067849733212,"url":"https://maps.app.goo.gl/4ikkZmtmj8GogkUe7?g_st=ipc","address":"Γεωρ. Παπανδρέου 53, Χαϊδάρι 124 62","categoryIds":["coffee-brunch"],"categories":["Coffee & Brunch Spots"],"distanceKm":10.068612883279894},{"id":"mexicanRestaurants_67556fc4ed45","slug":"foinikas-cocina-y-cocteleria-mexicana-6755","kind":"restaurant","name":"Foinikas Cocina Y Cocteleria Mexicana","lat":38.015441217507856,"lng":23.650413232343997,"url":"https://maps.app.goo.gl/opzLk9C1z99QsEwW7?g_st=ipc","address":"Ηρ. Πολυτεχνείου 76, Χαϊδάρι 124 62","categoryIds":["mexican"],"categories":["Mexican Restaurants"],"distanceKm":10.085056444520912},{"id":"familyFriendly_dd451e30d935","slug":"strike-kiddo-dd45","kind":"restaurant","name":"Strike Kiddo","lat":38.01119139287315,"lng":23.650703428601517,"url":"https://maps.app.goo.gl/zpYyze4k5z1xryNd8?g_st=ipc","address":"Λεωφ. Αθηνών 336, Χαϊδάρι 124 62","categoryIds":["family-friendly"],"categories":["Kid Friendly Locations"],"distanceKm":10.254121041477765}],"mentionedGuides":[],"canonicalSlug":"rakoyn-884d","enrichment":{"summary_en":"Ρακούν is a curated restaurant in Ελευσίνα 192 00 in the Greek Restaurants collection. It is connected to 3 nearby Googlementor picks to help travelers build a stronger local route.","summary_el":"Ρακούν είναι ένα επιλεγμένο σημείο φαγητού στην περιοχή Ελευσίνα 192 00 και ανήκει στη συλλογή Greek Restaurants. Συνδέεται με 3 κοντινές προτάσεις του Googlementor για πιο ολοκληρωμένη εμπειρία.","vibe_tags":["curated"],"best_for":["first-time visitors","food lovers"],"visit_moments":["lunch stop","dinner stop"],"practical_note":"Address and direct map link are available for easy turn-by-turn access.","nearby_walkable_count":3,"nearby_count_2km":4,"confidence":0.9},"areaContext":null,"intentContexts":[]},"__N_SSG":true}