{"pageProps":{"entity":{"id":"wineriesVineyards_b10486ff2d64","slug":"rouvalis-wines-oinoforos-a-e-b104","kind":"restaurant","name":"ROUVALIS WINES (ΟΙΝΟΦΟΡΟΣ Α.Ε.)","lat":38.22055000984663,"lng":22.089166676944025,"url":"https://maps.app.goo.gl/znCHsxFPu7zWUC1b9?g_st=ipc","address":"Αίγιο 251 00","categoryIds":["wineries-vineyards"],"categories":["Wineries & Vineyards"]},"sameCategory":[{"id":"wineriesVineyards_8d14b59ec1a3","slug":"ampelones-rira-rira-vineyards-8d14","kind":"restaurant","name":"Αμπελώνες Ρίρα - Rira Vineyards","lat":38.29370777982869,"lng":22.008479102079523,"url":"https://maps.app.goo.gl/wH1yAZZ9D7nhcAqLA?g_st=ipc","address":"ΠΕΟ, Ν.Ε.Ο. Πατρών - Αθηνών, Νέος Ερινεός 250 09","categoryIds":["wineries-vineyards"],"categories":["Wineries & Vineyards"]},{"id":"wineriesVineyards_84ebef8f5b21","slug":"ktima-mega-spilaio-84eb","kind":"restaurant","name":"Κτήμα Μέγα Σπήλαιο","lat":38.112838077733514,"lng":22.169404735261367,"url":"https://maps.app.goo.gl/qGAsm3q6PmBPN3TK6?g_st=ipc","address":"Επαρ.Οδ. Πούντας - Καλαβρύτων, Egialia 250 01","categoryIds":["wineries-vineyards"],"categories":["Wineries & Vineyards"]},{"id":"wineriesVineyards_f80526daec5c","slug":"oinopoieio-tetramythos-f805","kind":"restaurant","name":"Οινοποιείο Τετράμυθος","lat":38.13861434975287,"lng":22.235631269922283,"url":"https://maps.app.goo.gl/n9FxLvDHw2tR949F6?g_st=ipc","address":"8ο ΧΛΜ ΕΠΑΡΧΙΑΚΗΣ ΟΔΟΥ, Επαρ.Οδ. Πούντας - Καλαβρύτων, Άνω Διακοπτό 250 03","categoryIds":["wineries-vineyards"],"categories":["Wineries & Vineyards"]},{"id":"wineriesVineyards_9e37380a5d2e","slug":"achaia-klaoys-9e37","kind":"restaurant","name":"Αχάια Κλάους","lat":38.1969102747539,"lng":21.769694421982503,"url":"https://maps.app.goo.gl/wH7qQkNGXbSkx9SY7?g_st=ipc","address":"Πετρωτό 262 23","categoryIds":["wineries-vineyards"],"categories":["Wineries & Vineyards"]},{"id":"wineriesVineyards_2f6094ec16d1","slug":"parparoysis-oinopoiia-2f60","kind":"restaurant","name":"ΠΑΡΠΑΡΟΥΣΗΣ ΟΙΝΟΠΟΙΙΑ","lat":38.283502229311324,"lng":21.768505095628893,"url":"https://maps.app.goo.gl/1mV7U2hRvYf1jzfb9?g_st=ipc","address":"Πολυκαστης, Πάτρα 264 42","categoryIds":["wineries-vineyards"],"categories":["Wineries & Vineyards"]},{"id":"wineriesVineyards_542024b64466","slug":"ktima-papargyrioy-5420","kind":"restaurant","name":"Κτήμα Παπαργυρίου","lat":38.018936342010846,"lng":22.689015035366058,"url":"https://maps.app.goo.gl/CGseBU489tpRFbra7?g_st=ipc","address":"Lalioti Corinthias, Κιάτο 202 00","categoryIds":["wineries-vineyards"],"categories":["Wineries & Vineyards"]},{"id":"wineriesVineyards_cc81df8a9ab1","slug":"argyriou-winery-cc81","kind":"restaurant","name":"Argyriou Winery","lat":38.639456665967444,"lng":22.535200421052764,"url":"https://maps.app.goo.gl/PAYKP7CHeiCivtki7?g_st=ipc","address":"Polydroso Parnassus, Parnassus 330 51","categoryIds":["wineries-vineyards"],"categories":["Wineries & Vineyards"]},{"id":"wineriesVineyards_b00a536153f6","slug":"semeli-estate-ktima-semeli-b00a","kind":"restaurant","name":"Semeli Estate | Κτήμα Σεμέλη","lat":37.87119800007677,"lng":22.67941642720224,"url":"https://maps.app.goo.gl/zETqXnjPfU3pMwmA8?g_st=ipc","address":"Επαρ.Οδ. Κιάτου - Νεμέας, Κούτσι 205 00","categoryIds":["wineries-vineyards"],"categories":["Wineries & Vineyards"]},{"id":"wineriesVineyards_44279fa455a5","slug":"gaia-winery-nemea-4427","kind":"restaurant","name":"Gaia Winery Nemea","lat":37.85612300690931,"lng":22.670580052988402,"url":"https://maps.app.goo.gl/ZgmCy9JQ7Vrkbz1r9?g_st=ipc","address":"Κούτσι 205 00","categoryIds":["wineries-vineyards"],"categories":["Wineries & Vineyards"]},{"id":"wineriesVineyards_239a4e029aee","slug":"venikos-wine-window-wine-tours-tastings-239a","kind":"restaurant","name":"Venikos Wine Window, Wine Tours & Tastings","lat":37.821663923892565,"lng":22.663321715457876,"url":"https://maps.app.goo.gl/ZMmJXxpaMciuZeCj6?g_st=ipc","address":"Plateia Iroon 3, Νεμέα 205 00","categoryIds":["wineries-vineyards"],"categories":["Wineries & Vineyards"]},{"id":"wineriesVineyards_b1e6778656c1","slug":"ktima-bairaktaris-b1e6","kind":"restaurant","name":"Ktima Bairaktaris","lat":37.809706199473894,"lng":22.66496992803815,"url":"https://maps.app.goo.gl/DHUmZNYmY1jciDqK9?g_st=ipc","address":"Ελ. Βενιζέλου 83, Νεμέα 205 00","categoryIds":["wineries-vineyards"],"categories":["Wineries & Vineyards"]},{"id":"wineriesVineyards_88afc94904f1","slug":"karamitsos-winery-88af","kind":"restaurant","name":"Karamitsos Winery","lat":37.8058034996967,"lng":22.666146923082234,"url":"https://maps.app.goo.gl/97nmfFmuN9mMotwW7?g_st=ipc","address":"Θέση Μπογάζι, Νεμέα 205 00","categoryIds":["wineries-vineyards"],"categories":["Wineries & Vineyards"]}],"nearby":[{"id":"municipalities_8571c9b3ef03","slug":"aigio-8571","kind":"municipality","name":"Αίγιο","lat":38.249,"lng":22.105,"aliases":["Aigio","Egio"],"region":"Δυτική Ελλάδα","name_en":"Aigio","region_en":"Western Greece","distanceKm":3.452554038509113},{"id":"wineriesVineyards_8d14b59ec1a3","slug":"ampelones-rira-rira-vineyards-8d14","kind":"restaurant","name":"Αμπελώνες Ρίρα - Rira Vineyards","lat":38.29370777982869,"lng":22.008479102079523,"url":"https://maps.app.goo.gl/wH1yAZZ9D7nhcAqLA?g_st=ipc","address":"ΠΕΟ, Ν.Ε.Ο. Πατρών - Αθηνών, Νέος Ερινεός 250 09","categoryIds":["wineries-vineyards"],"categories":["Wineries & Vineyards"],"distanceKm":10.761482344686403},{"id":"wineriesVineyards_84ebef8f5b21","slug":"ktima-mega-spilaio-84eb","kind":"restaurant","name":"Κτήμα Μέγα Σπήλαιο","lat":38.112838077733514,"lng":22.169404735261367,"url":"https://maps.app.goo.gl/qGAsm3q6PmBPN3TK6?g_st=ipc","address":"Επαρ.Οδ. Πούντας - Καλαβρύτων, Egialia 250 01","categoryIds":["wineries-vineyards"],"categories":["Wineries & Vineyards"],"distanceKm":13.880007275985223},{"id":"familyFriendly_f5a054e30c6e","slug":"cherryland-ktima-fokaeon-f5a0","kind":"restaurant","name":"CHERRYLAND - ΚΤΗΜΑ ΦΩΚΑΕΩΝ","lat":38.12752130997816,"lng":22.216601874987493,"url":"https://maps.app.goo.gl/Lr7uMbC7sLXRLEP9A?g_st=ipc","address":"Epar.Od. Pountas - Kalavriton, Kernitsa 250 03","categoryIds":["family-friendly"],"categories":["Kid Friendly Locations"],"distanceKm":15.20188387459663},{"id":"wineriesVineyards_f80526daec5c","slug":"oinopoieio-tetramythos-f805","kind":"restaurant","name":"Οινοποιείο Τετράμυθος","lat":38.13861434975287,"lng":22.235631269922283,"url":"https://maps.app.goo.gl/n9FxLvDHw2tR949F6?g_st=ipc","address":"8ο ΧΛΜ ΕΠΑΡΧΙΑΚΗΣ ΟΔΟΥ, Επαρ.Οδ. Πούντας - Καλαβρύτων, Άνω Διακοπτό 250 03","categoryIds":["wineries-vineyards"],"categories":["Wineries & Vineyards"],"distanceKm":15.713118360027394},{"id":"municipalities_b6d325cfd313","slug":"kalavryta-b6d3","kind":"municipality","name":"Καλάβρυτα","lat":38.0333,"lng":22.1167,"aliases":["Καλαβρυτα"],"region":"Πελοπόννησος","name_en":"Kalavryta","region_en":"Peloponnese","distanceKm":20.96007411153951},{"id":"greekRestaurants_4c45a183d4c2","slug":"kelari-4c45","kind":"restaurant","name":"Κελάρι","lat":38.03175556375287,"lng":22.10930942954511,"url":"https://maps.app.goo.gl/JGLvLQeBc1WEWSz87?g_st=ipc","address":"Lochia Kapota 19, Kalavrita 250 01","categoryIds":["greek-restaurants"],"categories":["Greek Restaurants"],"distanceKm":21.066793057053975},{"id":"greekRestaurants_3eb1dd9f3c34","slug":"taverna-aggeliki-3eb1","kind":"restaurant","name":"Ταβέρνα Αγγελική","lat":38.06658415392425,"lng":22.338919570518915,"url":"https://maps.app.goo.gl/WLaC7Mj54zxdUu1s6?g_st=ipc","address":"Σινεβρό 250 10","categoryIds":["greek-restaurants"],"categories":["Greek Restaurants"],"distanceKm":27.75132696171024},{"id":"familyFriendly_32cb5d544c31","slug":"area-synest-32cb","kind":"restaurant","name":"Area Synest","lat":38.06576851291907,"lng":22.340295581454182,"url":"https://maps.app.goo.gl/o23ir2rREaRUFiwK9?g_st=ipc","address":"Epar.Od. Agorianis-Koronias, Sinevro 250 10","categoryIds":["family-friendly"],"categories":["Kid Friendly Locations"],"distanceKm":27.902080656989195},{"id":"greekRestaurants_5aa2e69eb132","slug":"spitiko-5aa2","kind":"restaurant","name":"Σπιτικό","lat":38.39170969336317,"lng":21.837681345168555,"url":"https://maps.app.goo.gl/mC2mz8b1QWHdrqH79?g_st=ipc","address":"Λεωφ. Καθόδου Δωριέων, Ναύπακτος 303 00","categoryIds":["greek-restaurants"],"categories":["Greek Restaurants"],"distanceKm":29.04717489870109},{"id":"greekRestaurants_15370f84402d","slug":"taverna-papoulis-1537","kind":"restaurant","name":"Taverna Papoulis","lat":38.39278635466362,"lng":21.830140221236192,"url":"https://maps.app.goo.gl/WCJbXRkYL5MRmAFU9?g_st=ipc","address":"Σισμάνη, Φορμίωνος &, Ναύπακτος 303 00","categoryIds":["greek-restaurants"],"categories":["Greek Restaurants"],"distanceKm":29.624533662419893},{"id":"greekRestaurants_29fafe6777ec","slug":"apiko-mezedotechneio-29fa","kind":"restaurant","name":"Απίκο μεζεδοτεχνείο","lat":38.393299094022936,"lng":21.82979800924532,"url":"https://maps.app.goo.gl/AcecnJwEzMnsr3Tq7?g_st=ipc","address":"Σισμάνη 14, Ναύπακτος 303 00","categoryIds":["greek-restaurants"],"categories":["Greek Restaurants"],"distanceKm":29.68412187512468},{"id":"greekRestaurants_3652982e1103","slug":"ey-oinos-3652","kind":"restaurant","name":"Εύ-Οίνος","lat":38.39347292034383,"lng":21.82986697264944,"url":"https://maps.app.goo.gl/ijrmcn4wUaPLkcYZ8?g_st=ipc","address":"Σισμάνη 3, Ναύπακτος 303 00","categoryIds":["greek-restaurants"],"categories":["Greek Restaurants"],"distanceKm":29.69202707071872},{"id":"cheapEatsRestaurants_1fcaa4d5db8a","slug":"sweet-and-salty-1fca","kind":"restaurant","name":"Sweet and Salty","lat":38.3929233936639,"lng":21.828605110521075,"url":"https://maps.app.goo.gl/poWZpbGwDcXD9udJ6?g_st=ipc","address":"Καναβού και Κλεονίκου, Nafpaktos 303 00","categoryIds":["cheap-eats"],"categories":["Gyros & Cheap Eats"],"distanceKm":29.736653892533933},{"id":"municipalities_aaffd66d297b","slug":"naypaktos-aaff","kind":"municipality","name":"Ναύπακτος","lat":38.395,"lng":21.829,"region":"Δυτική Ελλάδα","name_en":"Nafpaktos","region_en":"Western Greece","distanceKm":29.85955837241862},{"id":"familyFriendly_9b2bda8df9e3","slug":"nymfes-9b2b","kind":"restaurant","name":"Νύμφες","lat":37.99541884225497,"lng":22.275355626093795,"url":"https://maps.app.goo.gl/V3SkPjW9XHfNjwvSA?g_st=ipc","address":"Ζαρούχλα - Φενεός, Zarouchla 250 06","categoryIds":["family-friendly"],"categories":["Kid Friendly Locations"],"distanceKm":29.867165688759165}],"mentionedGuides":[],"canonicalSlug":"rouvalis-wines-oinoforos-a-e-b104","enrichment":{"summary_en":"ROUVALIS WINES (ΟΙΝΟΦΟΡΟΣ Α.Ε.) is a curated restaurant in Greece in the Wineries & Vineyards collection. It is connected to 0 nearby Googlementor picks to help travelers build a stronger local route.","summary_el":"ROUVALIS WINES (ΟΙΝΟΦΟΡΟΣ Α.Ε.) είναι ένα επιλεγμένο σημείο φαγητού στην περιοχή Greece και ανήκει στη συλλογή Wineries & Vineyards. Συνδέεται με 0 κοντινές προτάσεις του Googlementor για πιο ολοκληρωμένη εμπειρία.","vibe_tags":["curated","wine-moment"],"best_for":["first-time visitors","food lovers"],"visit_moments":["lunch stop","dinner stop"],"practical_note":"Address and direct map link are available for easy turn-by-turn access.","nearby_walkable_count":0,"nearby_count_2km":0,"confidence":0.9},"areaContext":null,"intentContexts":[]},"__N_SSG":true}