{"pageProps":{"entity":{"id":"municipalities_cd2916d304ca","slug":"servia-cd29","kind":"municipality","name":"Σέρβια","lat":40.15,"lng":21.8833,"region":"Δυτική Μακεδονία","name_en":"Servia","region_en":"Western Macedonia"},"sameCategory":[],"nearby":[{"id":"municipalities_409628a3ab17","slug":"kozani-4096","kind":"municipality","name":"Κοζάνη","lat":40.3,"lng":21.7833,"region":"Δυτική Μακεδονία","name_en":"Kozani","region_en":"Western Macedonia","distanceKm":18.715638937883607},{"id":"coffeeBrunchRestaurants_843447e20995","slug":"peinirli-kastanias-8434","kind":"restaurant","name":"Πεϊνιρλί Καστανιάς","lat":40.40779656305863,"lng":22.118956878515576,"url":"https://maps.app.goo.gl/tFoh177Q4oimL9Ny7?g_st=ipc","address":"Kastania 591 32","categoryIds":["coffee-brunch"],"categories":["Coffee & Brunch Spots"],"distanceKm":34.947987272046845},{"id":"municipalities_9f6af8365720","slug":"grevena-9f6a","kind":"municipality","name":"Γρεβενά","lat":39.9833,"lng":21.4333,"region":"Δυτική Μακεδονία","name_en":"Grevena","region_en":"Western Macedonia","distanceKm":42.54397306613275},{"id":"municipalities_56af70d2af49","slug":"ptolemaida-56af","kind":"municipality","name":"Πτολεμαΐδα","lat":40.5167,"lng":21.6667,"region":"Δυτική Μακεδονία","name_en":"Ptolemaida","region_en":"Western Macedonia","distanceKm":44.717877562153596},{"id":"municipalities_6cef2b87b118","slug":"kastoria-6cef","kind":"municipality","name":"Καστοριά","lat":40.5181,"lng":21.26,"region":"Δυτική Μακεδονία","name_en":"Kastoria","region_en":"Western Macedonia","distanceKm":66.83214411553477},{"id":"municipalities_7fd935ddd138","slug":"florina-7fd9","kind":"municipality","name":"Φλώρινα","lat":40.8167,"lng":21.4167,"region":"Δυτική Μακεδονία","name_en":"Florina","region_en":"Western Macedonia","distanceKm":83.98224161246421}],"mentionedGuides":[],"canonicalSlug":"servia-cd29","enrichment":{"summary_en":"Σέρβια is a curated neighborhood area in Δυτική Μακεδονία. It is connected to 0 nearby Googlementor picks to help travelers build a stronger local route.","summary_el":"Σέρβια είναι ένα επιλεγμένο σημείο ενδιαφέροντος στην περιοχή Δυτική Μακεδονία. Συνδέεται με 0 κοντινές προτάσεις του Googlementor για πιο ολοκληρωμένη εμπειρία.","vibe_tags":["local-neighborhood","base-for-exploring"],"best_for":["first-time visitors","walk-and-explore days","return visitors"],"visit_moments":["late morning walks","sunset exploration"],"practical_note":"0 curated places are within walkable distance from this area center.","nearby_walkable_count":0,"nearby_count_2km":0,"confidence":0.55},"areaContext":null,"intentContexts":[]},"__N_SSG":true}