{"pageProps":{"entity":{"id":"wineriesVineyards_e898beacf16d","slug":"silva-daskalaki-winery-biodynamic-farming-e898","kind":"restaurant","name":"Silva Daskalaki Winery \"Biodynamic Farming\"","lat":35.208912270144424,"lng":25.03603983983806,"url":"https://maps.app.goo.gl/gpuUdyMFAFSDGWhB9?g_st=ipc","address":"Σίβα Ηρακλείου Κρήτης, Siva 700 11","categoryIds":["wineries-vineyards"],"categories":["Wineries & Vineyards"]},"sameCategory":[{"id":"wineriesVineyards_ed7776ab576e","slug":"douloufakis-winery-ed77","kind":"restaurant","name":"Douloufakis Winery","lat":35.21501780162754,"lng":25.04946643361547,"url":"https://maps.app.goo.gl/zMTfnAQij9XWewT4A?g_st=ipc","address":"Dafnes 700 11","categoryIds":["wineries-vineyards"],"categories":["Wineries & Vineyards"]},{"id":"wineriesVineyards_3fd2d09d6af1","slug":"amargiotakis-winery-3fd2","kind":"restaurant","name":"Amargiotakis Winery","lat":35.22052725096867,"lng":25.053509018560035,"url":"https://maps.app.goo.gl/w8PhqDhLwSHfYsK37?g_st=ipc","address":"Dafnes 700 11","categoryIds":["wineries-vineyards"],"categories":["Wineries & Vineyards"]},{"id":"wineriesVineyards_9cc28a86a508","slug":"diamantakis-winery-9cc2","kind":"restaurant","name":"Diamantakis Winery","lat":35.2119508828581,"lng":24.992812450943003,"url":"https://maps.app.goo.gl/bkHHKGBiuNPqDqhr9?g_st=ipc","address":"Kato Asites 700 13","categoryIds":["wineries-vineyards"],"categories":["Wineries & Vineyards"]},{"id":"wineriesVineyards_e1a29dba58c6","slug":"alexakis-s-a-alexakis-winery-e1a2","kind":"restaurant","name":"Alexakis S.A. - Alexakis Winery","lat":35.30223283392354,"lng":25.115833737445403,"url":"https://maps.app.goo.gl/yJ2MV2fN5rdteunH9?g_st=ipc","address":"104-106 Irinis & Filias, Peridi Metohi Heraklion Crete 715 00","categoryIds":["wineries-vineyards"],"categories":["Wineries & Vineyards"]},{"id":"wineriesVineyards_b64a808a6747","slug":"titakis-wines-fabrika-wine-experience-b64a","kind":"restaurant","name":"Titakis Wines - Fabrika Wine Experience","lat":35.233323447258094,"lng":25.184146411319137,"url":"https://maps.app.goo.gl/2HrLkExRymtYSkLw8?g_st=ipc","address":"Κουνάβοι 701 00","categoryIds":["wineries-vineyards"],"categories":["Wineries & Vineyards"]},{"id":"wineriesVineyards_65b893a10fe8","slug":"digenakis-winery-65b8","kind":"restaurant","name":"Digenakis Winery","lat":35.20463323509506,"lng":25.193086290366207,"url":"https://maps.app.goo.gl/pUbzJ3zkVU4WZQWt5?g_st=ipc","address":"Epar.Od. Kallonis - Gdochia, Arkalochori 701 00","categoryIds":["wineries-vineyards"],"categories":["Wineries & Vineyards"]},{"id":"wineriesVineyards_e2a27a918d4b","slug":"garakis-winery-e2a2","kind":"restaurant","name":"Garakis Winery","lat":35.23427724214697,"lng":25.19140759248994,"url":"https://maps.app.goo.gl/xe7Pzf6GWRjSnDGJ8?g_st=ipc","address":"Unnamed Road, Epano Archanes 701 00","categoryIds":["wineries-vineyards"],"categories":["Wineries & Vineyards"]},{"id":"wineriesVineyards_22764ebffa36","slug":"lyrarakis-winery-tasting-room-2276","kind":"restaurant","name":"Lyrarakis Winery & Tasting Room","lat":35.18420413415243,"lng":25.208537536815243,"url":"https://maps.app.goo.gl/im8sNsCc4aDTgz1y9?g_st=ipc","address":"Alagni, Arkalochori, 70300, Alagni, Heraklion, Crete 703 00","categoryIds":["wineries-vineyards"],"categories":["Wineries & Vineyards"]},{"id":"wineriesVineyards_c0a0097ca7d1","slug":"scalarea-estate-c0a0","kind":"restaurant","name":"Scalarea Estate","lat":35.27599918818081,"lng":25.19305839713735,"url":"https://maps.app.goo.gl/NubfvqJ28uAYTWoX7?g_st=ipc","address":"Σκαλάνι 701 00","categoryIds":["wineries-vineyards"],"categories":["Wineries & Vineyards"]},{"id":"wineriesVineyards_677336f8e41e","slug":"zacharioudakis-winery-6773","kind":"restaurant","name":"Zacharioudakis Winery","lat":35.077704088524044,"lng":24.941456893238932,"url":"https://maps.app.goo.gl/3MnhGaPvjLYbnZLf9?g_st=ipc","address":"Πλούτη 704 00","categoryIds":["wineries-vineyards"],"categories":["Wineries & Vineyards"]},{"id":"luxuryDiningRestaurants_2ae90f83c8cf","slug":"the-secret-gorge-restaurant-wine-tasting-experience-2ae9","kind":"restaurant","name":"The Secret Gorge - Restaurant & Wine Tasting Experience","lat":35.36437434920116,"lng":24.419370445837004,"url":"https://maps.app.goo.gl/gPHcQmEJJv1GDCXa7?g_st=ipc","address":"3rd Klm. National Road, Rethymno 741 50","categoryIds":["luxury-dining","wineries-vineyards"],"categories":["Luxury Dining","Wineries & Vineyards"],"legacySlugs":["the-secret-gorge-restaurant-wine-tasting-experience-46f1"]},{"id":"wineriesVineyards_b838da26d565","slug":"dourakis-winery-b838","kind":"restaurant","name":"Dourakis Winery","lat":35.34955760746719,"lng":24.203022751558134,"url":"https://maps.app.goo.gl/RrgeX3PAEePKPZU79?g_st=ipc","address":"Alikampos, Apokoronou, CHANIA 730 07","categoryIds":["wineries-vineyards"],"categories":["Wineries & Vineyards"]}],"nearby":[{"id":"wineriesVineyards_ed7776ab576e","slug":"douloufakis-winery-ed77","kind":"restaurant","name":"Douloufakis Winery","lat":35.21501780162754,"lng":25.04946643361547,"url":"https://maps.app.goo.gl/zMTfnAQij9XWewT4A?g_st=ipc","address":"Dafnes 700 11","categoryIds":["wineries-vineyards"],"categories":["Wineries & Vineyards"],"distanceKm":1.3959957653656987},{"id":"wineriesVineyards_3fd2d09d6af1","slug":"amargiotakis-winery-3fd2","kind":"restaurant","name":"Amargiotakis Winery","lat":35.22052725096867,"lng":25.053509018560035,"url":"https://maps.app.goo.gl/w8PhqDhLwSHfYsK37?g_st=ipc","address":"Dafnes 700 11","categoryIds":["wineries-vineyards"],"categories":["Wineries & Vineyards"],"distanceKm":2.046123410260814},{"id":"wineriesVineyards_9cc28a86a508","slug":"diamantakis-winery-9cc2","kind":"restaurant","name":"Diamantakis Winery","lat":35.2119508828581,"lng":24.992812450943003,"url":"https://maps.app.goo.gl/bkHHKGBiuNPqDqhr9?g_st=ipc","address":"Kato Asites 700 13","categoryIds":["wineries-vineyards"],"categories":["Wineries & Vineyards"],"distanceKm":3.9417461398450184},{"id":"greekRestaurants_f24ffdee3a33","slug":"i-taverna-toy-gianni-sto-kyparissi-f24f","kind":"restaurant","name":"Η ταβέρνα του Γιάννη στο Κυπαρίσσι","lat":35.19205483334649,"lng":25.077800899282035,"url":"https://maps.app.goo.gl/VdRwFKm52QBw7CuU8?g_st=ipc","address":"Κυπαρίσσι, Κυπάρισσος 715 00","categoryIds":["greek-restaurants"],"categories":["Greek Restaurants"],"distanceKm":4.232225202597505},{"id":"municipalities_28f34c2c61ff","slug":"archanes-asteroysia-28f3","kind":"municipality","name":"Αρχάνες - Αστερούσια","lat":35.166,"lng":25.15,"region":"Κεντρική Κρήτη","name_en":"Archanes - Asterousia","region_en":"Central Crete","distanceKm":11.402680193965749},{"id":"wineriesVineyards_e1a29dba58c6","slug":"alexakis-s-a-alexakis-winery-e1a2","kind":"restaurant","name":"Alexakis S.A. - Alexakis Winery","lat":35.30223283392354,"lng":25.115833737445403,"url":"https://maps.app.goo.gl/yJ2MV2fN5rdteunH9?g_st=ipc","address":"104-106 Irinis & Filias, Peridi Metohi Heraklion Crete 715 00","categoryIds":["wineries-vineyards"],"categories":["Wineries & Vineyards"],"distanceKm":12.655897399285884},{"id":"wineriesVineyards_b64a808a6747","slug":"titakis-wines-fabrika-wine-experience-b64a","kind":"restaurant","name":"Titakis Wines - Fabrika Wine Experience","lat":35.233323447258094,"lng":25.184146411319137,"url":"https://maps.app.goo.gl/2HrLkExRymtYSkLw8?g_st=ipc","address":"Κουνάβοι 701 00","categoryIds":["wineries-vineyards"],"categories":["Wineries & Vineyards"],"distanceKm":13.724905392830468},{"id":"municipalities_1719bd717428","slug":"malevizi-1719","kind":"municipality","name":"Μαλεβίζι","lat":35.333,"lng":25.033,"region":"Κεντρική Κρήτη","name_en":"Malevizi","region_en":"Central Crete","distanceKm":13.80068546564319},{"id":"wineriesVineyards_65b893a10fe8","slug":"digenakis-winery-65b8","kind":"restaurant","name":"Digenakis Winery","lat":35.20463323509506,"lng":25.193086290366207,"url":"https://maps.app.goo.gl/pUbzJ3zkVU4WZQWt5?g_st=ipc","address":"Epar.Od. Kallonis - Gdochia, Arkalochori 701 00","categoryIds":["wineries-vineyards"],"categories":["Wineries & Vineyards"],"distanceKm":14.276351883080626},{"id":"wineriesVineyards_e2a27a918d4b","slug":"garakis-winery-e2a2","kind":"restaurant","name":"Garakis Winery","lat":35.23427724214697,"lng":25.19140759248994,"url":"https://maps.app.goo.gl/xe7Pzf6GWRjSnDGJ8?g_st=ipc","address":"Unnamed Road, Epano Archanes 701 00","categoryIds":["wineries-vineyards"],"categories":["Wineries & Vineyards"],"distanceKm":14.392391564569019},{"id":"mustSeeAttractions_32e162886e33","slug":"knossos-palace-32e1","kind":"restaurant","name":"Knossos Palace","lat":35.29796093261648,"lng":25.162788626146504,"url":"https://maps.app.goo.gl/rAusZkVNEW96qAfY9?g_st=ipc","address":"Knossos 714 09","categoryIds":["attractions"],"categories":["Must-See Attractions"],"distanceKm":15.18237247387173},{"id":"fishTavernasRestaurants_208b03cf6a01","slug":"ta-kalitera-208b","kind":"restaurant","name":"Ta Kalitera","lat":35.33845050978141,"lng":25.108732834642794,"url":"https://maps.app.goo.gl/Zzo1Mb3E832t3J2V6?g_st=ipc","address":"Arkadias 33, Xeropotamos 713 03","categoryIds":["fish-tavernas"],"categories":["Fish Tavernas"],"distanceKm":15.84369343091662},{"id":"wineriesVineyards_22764ebffa36","slug":"lyrarakis-winery-tasting-room-2276","kind":"restaurant","name":"Lyrarakis Winery & Tasting Room","lat":35.18420413415243,"lng":25.208537536815243,"url":"https://maps.app.goo.gl/im8sNsCc4aDTgz1y9?g_st=ipc","address":"Alagni, Arkalochori, 70300, Alagni, Heraklion, Crete 703 00","categoryIds":["wineries-vineyards"],"categories":["Wineries & Vineyards"],"distanceKm":15.913176972780478},{"id":"wineriesVineyards_c0a0097ca7d1","slug":"scalarea-estate-c0a0","kind":"restaurant","name":"Scalarea Estate","lat":35.27599918818081,"lng":25.19305839713735,"url":"https://maps.app.goo.gl/NubfvqJ28uAYTWoX7?g_st=ipc","address":"Σκαλάνι 701 00","categoryIds":["wineries-vineyards"],"categories":["Wineries & Vineyards"],"distanceKm":16.092981460480207},{"id":"dessertsRestaurants_374f4778e206","slug":"bombus-street-loukoumas-coffee-374f","kind":"restaurant","name":"Bombus Street Loukoumas & Coffee","lat":35.33637912527502,"lng":25.133042788251835,"url":"https://maps.app.goo.gl/AAjaiaEXbfkmmMRW6?g_st=ipc","address":"Pl. Kornarou 31, Iraklio 712 01","categoryIds":["desserts"],"categories":["Dessert Shops"],"distanceKm":16.68648799710368},{"id":"municipalities_88475eea1332","slug":"anogeia-8847","kind":"municipality","name":"Ανώγεια","lat":35.294,"lng":24.884,"region":"Κεντρική Κρήτη","name_en":"Anogeia","region_en":"Central Crete","distanceKm":16.736802707418107},{"id":"cheapEatsRestaurants_d0529bd9203e","slug":"filia-giannari-d052","kind":"restaurant","name":"Filia Giannari","lat":35.33111188005716,"lng":25.144727327039348,"url":"https://maps.app.goo.gl/p8LFpYc2vTdDWnYp6?g_st=ipc","address":"kavpevtan Mavnoli Mpantouva 65, Iraklio 713 07","categoryIds":["cheap-eats"],"categories":["Gyros & Cheap Eats"],"distanceKm":16.792627015620408},{"id":"wineriesVineyards_677336f8e41e","slug":"zacharioudakis-winery-6773","kind":"restaurant","name":"Zacharioudakis Winery","lat":35.077704088524044,"lng":24.941456893238932,"url":"https://maps.app.goo.gl/3MnhGaPvjLYbnZLf9?g_st=ipc","address":"Πλούτη 704 00","categoryIds":["wineries-vineyards"],"categories":["Wineries & Vineyards"],"distanceKm":16.93573801864561},{"id":"burgersRestaurants_cd2472c6c11c","slug":"burger-lab-cd24","kind":"restaurant","name":"Burger lab","lat":35.34068409863636,"lng":25.1306859517302,"url":"https://maps.app.goo.gl/uWp5QLp34WVqvaSm8?g_st=ic","address":"Chandakos 63, Iraklio 712 02","categoryIds":["burgers"],"categories":["Burger Spots"],"distanceKm":16.985620222592622},{"id":"greekRestaurants_a50073ea32f7","slug":"peskesi-a500","kind":"restaurant","name":"Πεσκέσι","lat":35.34024406072665,"lng":25.132467165389027,"url":"https://maps.app.goo.gl/yUQNhdHvkcuWtksw6?g_st=ipc","address":"Καπετάν Χαραλάμπη 6-8, Ηράκλειο 712 02","categoryIds":["greek-restaurants"],"categories":["Greek Restaurants"],"distanceKm":17.026006670893143},{"id":"familyFriendly_5c291a1b67e5","slug":"sport-point-5c29","kind":"restaurant","name":"Sport Point","lat":35.329005872034685,"lng":25.15446679791221,"url":"https://maps.app.goo.gl/UUXRrELKzb2aEokB8?g_st=ipc","address":"Καστρινογιαννάκη 1 και, Dervenakion, Iraklio 714 09","categoryIds":["family-friendly"],"categories":["Kid Friendly Locations"],"distanceKm":17.143997555402418},{"id":"dessertsRestaurants_247254daf3fe","slug":"queen-boutique-desserts-2472","kind":"restaurant","name":"Queen Boutique Desserts","lat":35.34028577182634,"lng":25.13554567801893,"url":"https://maps.app.goo.gl/6wWh68bY9rCwbUsj8?g_st=ic","address":"Ag. Titou, Iraklio 712 02","categoryIds":["desserts"],"categories":["Dessert Shops"],"distanceKm":17.175303449860923},{"id":"municipalities_339b513af1e5","slug":"irakleio-339b","kind":"municipality","name":"Ηράκλειο","lat":35.3403,"lng":25.1442,"aliases":["Heraklion","Ηράκλειον","Ηράκλια","Ηρακλειο","Iraklio","Heraklio"],"region":"Κεντρική Κρήτη","name_en":"Heraklion","region_en":"Central Crete","distanceKm":17.602490395346273},{"id":"municipalities_7e06ecfbbc32","slug":"gortyna-7e06","kind":"municipality","name":"Γόρτυνα","lat":35.05,"lng":24.95,"aliases":["Gortyna","Gortina"],"region":"Νότια Κρήτη","name_en":"Gortyna","region_en":"South Crete","distanceKm":19.32514101377653}],"mentionedGuides":[],"canonicalSlug":"silva-daskalaki-winery-biodynamic-farming-e898","enrichment":{"summary_en":"Silva Daskalaki Winery \"Biodynamic Farming\" is a curated restaurant in Siva 700 11 in the Wineries & Vineyards collection. It is connected to 0 nearby Googlementor picks to help travelers build a stronger local route.","summary_el":"Silva Daskalaki Winery \"Biodynamic Farming\" είναι ένα επιλεγμένο σημείο φαγητού στην περιοχή Siva 700 11 και ανήκει στη συλλογή Wineries & Vineyards. Συνδέεται με 0 κοντινές προτάσεις του Googlementor για πιο ολοκληρωμένη εμπειρία.","vibe_tags":["curated","wine-moment"],"best_for":["first-time visitors","food lovers"],"visit_moments":["lunch stop","dinner stop"],"practical_note":"Address and direct map link are available for easy turn-by-turn access.","nearby_walkable_count":0,"nearby_count_2km":1,"confidence":0.9},"areaContext":null,"intentContexts":[]},"__N_SSG":true}