{"pageProps":{"entity":{"id":"greekRestaurants_316cf3a477d7","slug":"taverna-o-notos-316c","kind":"restaurant","name":"Ταβέρνα ο Νότος","lat":37.93527346472632,"lng":23.722390326717125,"url":"https://maps.app.goo.gl/TEReWJLojKZEkJL38","address":"Μεταμορφώσεως 2, Αγ. Δημήτριος Αττικής 173 41","categoryIds":["greek-restaurants"],"categories":["Greek Restaurants"]},"sameCategory":[{"id":"greekRestaurants_aa39dbadb1cc","slug":"mparmpa-mitsos-agios-dimitrios-aa39","kind":"restaurant","name":"Μπάρμπα-Μήτσος - Άγιος Δημήτριος","lat":37.92988893217819,"lng":23.71912670552918,"url":"https://maps.app.goo.gl/BYxu5opm4HvR37SN9","address":"Ιουστινιανού 11, Αγ. Δημήτριος Αττικής 173 41","categoryIds":["greek-restaurants"],"categories":["Greek Restaurants"]},{"id":"greekRestaurants_6c6d00a6a4f4","slug":"remoytsiko-taverna-6c6d","kind":"restaurant","name":"Ρεμουτσικο Ταβέρνα","lat":37.93888185097854,"lng":23.730869105234564,"url":"https://maps.app.goo.gl/zELuRQBZCjzsqwux5","address":"Λεωφ. Αγίου Δημητρίου 120, Αγ. Δημήτριος Αττικής 173 41","categoryIds":["greek-restaurants"],"categories":["Greek Restaurants"]},{"id":"greekRestaurants_eecb2ebbfdc2","slug":"gitema-eecb","kind":"restaurant","name":"Γήτεμα","lat":37.94107986247284,"lng":23.713131731866255,"url":"https://maps.app.goo.gl/S3ph9mpPrmbS64x3A","address":"Λεωφ. Ελ. Βενιζέλου 88, Νέα Σμύρνη 171 22","categoryIds":["greek-restaurants"],"categories":["Greek Restaurants"]},{"id":"greekRestaurants_ef1588581bbb","slug":"myrtia-ef15","kind":"restaurant","name":"Μυρτιά","lat":37.940920844377125,"lng":23.712738244892858,"url":"https://maps.app.goo.gl/QHjMpbFEFgtWLbA57","address":"Αϊδινίου 55, Νέα Σμύρνη 171 22","categoryIds":["greek-restaurants"],"categories":["Greek Restaurants"]},{"id":"greekRestaurants_191784dd5c83","slug":"ta-filetakia-1917","kind":"restaurant","name":"Τα φιλετάκια","lat":37.94824819005281,"lng":23.729579675166935,"url":"https://maps.app.goo.gl/tBGQqYJbzo48VPWv9","address":"Εθνάρχου Μακαρίου 126, Δάφνη Αττικής 172 34","categoryIds":["greek-restaurants"],"categories":["Greek Restaurants"]},{"id":"greekRestaurants_e3992a60261a","slug":"kritikos-e399","kind":"restaurant","name":"Κρητικός","lat":37.94303304147985,"lng":23.704084169584778,"url":"https://maps.app.goo.gl/QgBcqGt9addfXPwL6","address":"Ραιδεστού 36, Νέα Σμύρνη 171 22","categoryIds":["greek-restaurants"],"categories":["Greek Restaurants"]},{"id":"greekRestaurants_842cd50fd946","slug":"mpampis-taverna-842c","kind":"restaurant","name":"Μπάμπης Ταβέρνα","lat":37.93493015100239,"lng":23.70154955498321,"url":"https://maps.app.goo.gl/SyFUZSdaS3SB5Mm48","address":"Λεωφ. Αμφιθέας 73, Παλαιό Φάληρο 175 64","categoryIds":["greek-restaurants"],"categories":["Greek Restaurants"]},{"id":"greekRestaurants_5c7530a68c50","slug":"ladokolla-dafnis-5c75","kind":"restaurant","name":"Λαδόκολλα Δάφνης","lat":37.948710278848054,"lng":23.736099857630663,"url":"https://maps.app.goo.gl/DJkwhBF35mfEBRKG7","address":"Λεωφ. Αλ. Παπαναστασίου 8, Δάφνη Αττικής 172 35","categoryIds":["greek-restaurants"],"categories":["Greek Restaurants"]},{"id":"greekRestaurants_30ac8464e0c3","slug":"kyr-aristos-30ac","kind":"restaurant","name":"Κυρ Αρίστος","lat":37.932597935183146,"lng":23.699203294233197,"url":"https://maps.app.goo.gl/EQaiuBpPZq633dxa7?g_st=ipc","address":"Zisimopoulou 96, Paleo Faliro 175 64","categoryIds":["greek-restaurants"],"categories":["Greek Restaurants"]},{"id":"greekRestaurants_80e12cc840c6","slug":"arsenis-80e1","kind":"restaurant","name":"Arsenis","lat":37.93975062587842,"lng":23.699103162428067,"url":"https://maps.app.goo.gl/gyD8tEfz4zabut3VA","address":"Ζησιμοπούλου 19, Παλαιό Φάληρο 175 64","categoryIds":["greek-restaurants"],"categories":["Greek Restaurants"]},{"id":"greekRestaurants_8f822e8ac2ff","slug":"koytoyki-kalypso-8f82","kind":"restaurant","name":"Κουτούκι Καλυψώ","lat":37.94264199335833,"lng":23.700097006546933,"url":"https://maps.app.goo.gl/rZqTMGc8sQwmZ4zq9","address":"Πεντέλης 41-43, Παλαιό Φάληρο 175 64","categoryIds":["greek-restaurants"],"categories":["Greek Restaurants"]},{"id":"greekRestaurants_d2cc3fcfc069","slug":"ramona-taverna-kallithea-d2cc","kind":"restaurant","name":"Ραμόνα Ταβέρνα Καλλιθέα","lat":37.9556758154796,"lng":23.70860659191753,"url":"https://maps.app.goo.gl/RDXvdLT2Zy9wH87X9","address":"Μίνωος 11-13, Καλλιθέα 176 72","categoryIds":["greek-restaurants"],"categories":["Greek Restaurants"]}],"nearby":[{"id":"cheapEatsRestaurants_79cf2e094e26","slug":"vaggelis-to-gnisio-1965-79cf","kind":"restaurant","name":"Βάγγελης Το Γνήσιο 1965","lat":37.93578922990488,"lng":23.72968201403695,"url":"https://maps.app.goo.gl/8q5LESzz3ctiGx4S6?g_st=ipc","address":"Λεωφ. Αγίου Δημητρίου 163, Αγ. Δημήτριος Αττικής 173 43","categoryIds":["cheap-eats"],"categories":["Gyros & Cheap Eats"],"distanceKm":0.6420458425486872},{"id":"dessertsRestaurants_f02a5d6ebd1d","slug":"melorama-f02a","kind":"restaurant","name":"Μελόραμα","lat":37.936036012331414,"lng":23.729840384667007,"url":"https://maps.app.goo.gl/YEvU9a6cA5Vmingw8?g_st=ipc","address":"Λεωφ. Αγίου Δημητρίου 161, Αγ. Δημήτριος Αττικής 173 43","categoryIds":["desserts"],"categories":["Dessert Shops"],"distanceKm":0.6588462562536427},{"id":"greekRestaurants_aa39dbadb1cc","slug":"mparmpa-mitsos-agios-dimitrios-aa39","kind":"restaurant","name":"Μπάρμπα-Μήτσος - Άγιος Δημήτριος","lat":37.92988893217819,"lng":23.71912670552918,"url":"https://maps.app.goo.gl/BYxu5opm4HvR37SN9","address":"Ιουστινιανού 11, Αγ. Δημήτριος Αττικής 173 41","categoryIds":["greek-restaurants"],"categories":["Greek Restaurants"],"distanceKm":0.663632912965736},{"id":"italianRestaurants_e396fe74ff9a","slug":"le-pizze-di-san-gennaro-e396","kind":"restaurant","name":"LE PIZZE DI SAN GENNARO","lat":37.93395718694605,"lng":23.71495698828565,"url":"https://maps.app.goo.gl/BW3pXFd1SVKpBcai6?g_st=ipc","address":"Ευξείνου Πόντου 172, Νέα Σμύρνη 171 23","categoryIds":["italian"],"categories":["Italian Restaurants"],"distanceKm":0.6681385796174817},{"id":"greekRestaurants_6c6d00a6a4f4","slug":"remoytsiko-taverna-6c6d","kind":"restaurant","name":"Ρεμουτσικο Ταβέρνα","lat":37.93888185097854,"lng":23.730869105234564,"url":"https://maps.app.goo.gl/zELuRQBZCjzsqwux5","address":"Λεωφ. Αγίου Δημητρίου 120, Αγ. Δημήτριος Αττικής 173 41","categoryIds":["greek-restaurants"],"categories":["Greek Restaurants"],"distanceKm":0.8449184495965599},{"id":"monasteriesChurches_532a88c17ded","slug":"ieros-naos-agioy-dimitrioy-532a","kind":"restaurant","name":"Ιερός Ναός Αγίου Δημητρίου","lat":37.939612390639354,"lng":23.731409160406493,"url":"https://maps.app.goo.gl/NQFZSQ6EDz4WiEjk6?g_st=ipc","address":"Λεωφ. Αγίου Δημητρίου 117, Αγ. Δημήτριος Αττικής 173 43","categoryIds":["monasteries-churches"],"categories":["Monasteries & Spiritual Sites"],"distanceKm":0.9264679060954667},{"id":"coffeeBrunchRestaurants_5db780e34d2a","slug":"braxton-5db7","kind":"restaurant","name":"Braxton","lat":37.92816326326879,"lng":23.728060610716135,"url":"https://maps.app.goo.gl/DjcEWh3JQVQokVoj7?g_st=ipc","address":"Πόντου 20, Αγ. Δημήτριος Αττικής 173 42","categoryIds":["coffee-brunch"],"categories":["Coffee & Brunch Spots"],"distanceKm":0.9340198021182784},{"id":"cheapEatsRestaurants_42b8119d471a","slug":"psitopoleio-o-vaggelis-to-cheiropoiito-42b8","kind":"restaurant","name":"Ψητοπωλείο «ο Βαγγέλης το χειροποίητο»","lat":37.928620979940305,"lng":23.71576237841132,"url":"https://maps.app.goo.gl/4wk6CtNQgSCn9j33A?g_st=ipc","address":"Χαλκίδος 26, Αγ. Δημήτριος Αττικής 173 41","categoryIds":["cheap-eats"],"categories":["Gyros & Cheap Eats"],"distanceKm":0.9407957802001418},{"id":"dessertsRestaurants_10984675e64e","slug":"loukou-mio-1098","kind":"restaurant","name":"Loukou Mio","lat":37.934456122337956,"lng":23.71152313800977,"url":"https://maps.app.goo.gl/uQM5VBZoTd8kzvPT9?g_st=ipc","address":"Λεωφ. Ελ. Βενιζέλου 195, Νέα Σμύρνη 171 23","categoryIds":["desserts"],"categories":["Dessert Shops"],"distanceKm":0.9573821941619308},{"id":"greekRestaurants_eecb2ebbfdc2","slug":"gitema-eecb","kind":"restaurant","name":"Γήτεμα","lat":37.94107986247284,"lng":23.713131731866255,"url":"https://maps.app.goo.gl/S3ph9mpPrmbS64x3A","address":"Λεωφ. Ελ. Βενιζέλου 88, Νέα Σμύρνη 171 22","categoryIds":["greek-restaurants"],"categories":["Greek Restaurants"],"distanceKm":1.0373582693704761},{"id":"greekRestaurants_ef1588581bbb","slug":"myrtia-ef15","kind":"restaurant","name":"Μυρτιά","lat":37.940920844377125,"lng":23.712738244892858,"url":"https://maps.app.goo.gl/QHjMpbFEFgtWLbA57","address":"Αϊδινίου 55, Νέα Σμύρνη 171 22","categoryIds":["greek-restaurants"],"categories":["Greek Restaurants"],"distanceKm":1.053955013557283},{"id":"burgersRestaurants_b47d84823c91","slug":"the-burger-joint-b47d","kind":"restaurant","name":"The Burger Joint","lat":37.942262724437896,"lng":23.71398429679752,"url":"https://maps.app.goo.gl/4gyyrfZJhxvHeHNj8?g_st=ipc","address":"Λεωφ. Ελ. Βενιζέλου 93, Νέα Σμύρνη 171 22","categoryIds":["burgers"],"categories":["Burger Spots"],"distanceKm":1.0711767833795782},{"id":"familyFriendly_feb6b1cb5cd1","slug":"little-land-kids-play-feb6","kind":"restaurant","name":"Little Land - Kids Play","lat":37.930642671894525,"lng":23.710426716839976,"url":"https://maps.app.goo.gl/fZKSbKJMUaonK7vh9?g_st=ipc","address":"Λεωφ. Ελ. Βενιζέλου 235, Παλαιό Φάληρο 175 63","categoryIds":["family-friendly"],"categories":["Kid Friendly Locations"],"distanceKm":1.1687828204112822},{"id":"asianRestaurants_8c0b6c732554","slug":"black-lotus-vietnamese-restaurant-8c0b","kind":"restaurant","name":"Black Lotus Vietnamese Restaurant","lat":37.945120193663136,"lng":23.715750543219272,"url":"https://maps.app.goo.gl/ALPiHRy5LRfWNWfU7?g_st=ipc","address":"Ικονίου 11, Νέα Σμύρνη 171 23","categoryIds":["asian"],"categories":["Asian Restaurants"],"distanceKm":1.240104342294609},{"id":"italianRestaurants_da11e2c73563","slug":"cavaliere-ristorante-concettuale-da11","kind":"restaurant","name":"Cavaliere Ristorante Concettuale","lat":37.944619471140975,"lng":23.71414682617668,"url":"https://maps.app.goo.gl/WcUWRBUhr7SBrvaw8?g_st=ipc","address":"Λεωφ. Ελ. Βενιζέλου 42, Νέα Σμύρνη 171 22","categoryIds":["italian"],"categories":["Italian Restaurants"],"distanceKm":1.2659361277511827},{"id":"italianRestaurants_7df507160f43","slug":"de-michelle-7df5","kind":"restaurant","name":"DE MICHELLE","lat":37.94606996265572,"lng":23.727087729280314,"url":"https://maps.app.goo.gl/iqvRwdhG4FanUzaEA?g_st=ipc","address":"Μητροπολίτου Ευθυβούλη 17, Νέα Σμύρνη 171 24","categoryIds":["italian"],"categories":["Italian Restaurants"],"distanceKm":1.269222757822734},{"id":"cheapEatsRestaurants_b9d0dc3d0a7f","slug":"mayropipero-b9d0","kind":"restaurant","name":"Μαυροπίπερο","lat":37.939871957691295,"lng":23.73599315534295,"url":"https://maps.app.goo.gl/kLQRksA1KxobJdFA6?g_st=ipc","address":"Στρατάρχου Αλεξάνδρου Παπάγου 41, Αγ. Δημήτριος Αττικής 173 43","categoryIds":["cheap-eats"],"categories":["Gyros & Cheap Eats"],"distanceKm":1.2978997556727887},{"id":"italianRestaurants_22324beef805","slug":"pizza-days-agioy-dimitrioy-2232","kind":"restaurant","name":"Pizza Days - Αγίου Δημητρίου","lat":37.9436201391912,"lng":23.733022003629234,"url":"https://maps.app.goo.gl/mj45NkH8L5jqeHD58?g_st=ipc","address":"Ανδρέα Παπανδρέου 2, Αγ. Δημήτριος Αττικής 173 41","categoryIds":["italian"],"categories":["Italian Restaurants"],"distanceKm":1.3155429229836275},{"id":"dessertsRestaurants_60d1fcac742b","slug":"galaktopoleio-stamoy-60d1","kind":"restaurant","name":"Γαλακτοπωλείο ΣΤΑΜΟΥ","lat":37.92337769116455,"lng":23.723512288009644,"url":"https://maps.app.goo.gl/bn7iuhhPxPAJJeX38?g_st=ipc","address":"Λεωφ. Αγίου Δημητρίου 305, Αγ. Δημήτριος Αττικής 173 42","categoryIds":["desserts"],"categories":["Dessert Shops"],"distanceKm":1.32640493203249},{"id":"municipalities_093f8da9eef7","slug":"nea-smyrni-093f","kind":"municipality","name":"Νέα Σμύρνη","lat":37.9456,"lng":23.7142,"aliases":["Nea Smyrni","Nea Smirni","Νεα Σμυρνη","Nea Smyrne"],"region":"Νότια Προάστια","name_en":"Nea Smyrni","region_en":"Southern Suburbs","distanceKm":1.3543886209204894},{"id":"mexicanRestaurants_e022afb77fe2","slug":"amigos-e022","kind":"restaurant","name":"Amigos","lat":37.94499454255761,"lng":23.71221746209658,"url":"https://maps.app.goo.gl/BHdiVv9h7dD8bkiu6?g_st=ipc","address":"Μεγ. Αλεξάνδρου 70, Νέα Σμύρνη 171 22","categoryIds":["mexican","vegetarian"],"categories":["Mexican Restaurants","Vegetarian Friendly Restaurants"],"legacySlugs":["amigos-83a2"],"distanceKm":1.4015225661597681},{"id":"asianRestaurants_ea18f7423739","slug":"streetwok-ea18","kind":"restaurant","name":"StreetWok","lat":37.94661589274436,"lng":23.715316438751927,"url":"https://maps.app.goo.gl/Wb2pGeyp5yUdVqfd9?g_st=ipc","address":"Λεωφ. Ελ. Βενιζέλου 37, Νέα Σμύρνη 171 23","categoryIds":["asian","cheap-eats"],"categories":["Asian Restaurants","Gyros & Cheap Eats"],"legacySlugs":["streetwok-7394"],"distanceKm":1.4055211273147714},{"id":"coffeeBrunchRestaurants_7990f39b9894","slug":"32-avenue-7990","kind":"restaurant","name":"32 Avenue","lat":37.946383947038974,"lng":23.714065407386308,"url":"https://maps.app.goo.gl/miSnLuSyrb5xJ1dB9?g_st=ipc","address":"2ας Μαΐου 32, Νέα Σμύρνη 171 21","categoryIds":["coffee-brunch"],"categories":["Coffee & Brunch Spots"],"distanceKm":1.4350070326178026},{"id":"coffeeBrunchRestaurants_0aaa1d7425c8","slug":"o-nikos-0aaa","kind":"restaurant","name":"\"ο Νίκος\"","lat":37.94446727754758,"lng":23.71036042368455,"url":"https://maps.app.goo.gl/Hjscsj6jJP8Ehtjz8?g_st=ipc","address":"Κων/νου Παλαιολόγου 36, Νέα Σμύρνη 171 22","categoryIds":["coffee-brunch"],"categories":["Coffee & Brunch Spots"],"distanceKm":1.4690280641880464}],"mentionedGuides":[],"canonicalSlug":"taverna-o-notos-316c","enrichment":{"summary_en":"Ταβέρνα ο Νότος is a curated restaurant in Αγ. Δημήτριος Αττικής 173 41 in the Greek Restaurants collection. It is connected to 4 nearby Googlementor picks to help travelers build a stronger local route.","summary_el":"Ταβέρνα ο Νότος είναι ένα επιλεγμένο σημείο φαγητού στην περιοχή Αγ. Δημήτριος Αττικής 173 41 και ανήκει στη συλλογή Greek Restaurants. Συνδέεται με 4 κοντινές προτάσεις του Googlementor για πιο ολοκληρωμένη εμπειρία.","vibe_tags":["curated"],"best_for":["first-time visitors","food lovers"],"visit_moments":["lunch stop","dinner stop"],"practical_note":"Address and direct map link are available for easy turn-by-turn access.","nearby_walkable_count":4,"nearby_count_2km":54,"confidence":0.98},"areaContext":{"slug":"nea-smyrni","name":"Nea Smyrni","nameEl":"Νέα Σμύρνη"},"intentContexts":[{"href":"/greek-restaurants/nea-smyrni","label":"Greek Restaurants in Nea Smyrni","categorySlug":"greek-restaurants","categoryName":"Greek Restaurants","areaSlug":"nea-smyrni","areaName":"Nea Smyrni","areaNameEl":"Νέα Σμύρνη"}]},"__N_SSG":true}