{"pageProps":{"entity":{"id":"greekRestaurants_fb8150b1b5bf","slug":"taverna-o-litsas-fb81","kind":"restaurant","name":"Ταβέρνα Ο Λίτσας","lat":38.2808566827325,"lng":23.792798463384955,"url":"https://maps.app.goo.gl/DPJMb7ZiPi9MTzov7","address":"Λεωφ. Αθηνών Ωρωπού, Μήλεσι Αττικής 190 11","categoryIds":["greek-restaurants"],"categories":["Greek Restaurants"]},"sameCategory":[{"id":"greekRestaurants_e4ab2f008904","slug":"paradosiako-kafeneio-kotsannitsa-e4ab","kind":"restaurant","name":"Παραδοσιακό Καφενείο ΚωτσΑνΝίτσα","lat":38.23932131119346,"lng":23.792367425380203,"url":"https://maps.app.goo.gl/QsRPY3vUeGKY5wLB6","address":"Λεωφόρος Αθηνών Χαλκίδος, Μαλακάσα 190 11","categoryIds":["greek-restaurants"],"categories":["Greek Restaurants"]},{"id":"greekRestaurants_eab29c812967","slug":"to-syntrivani-perifanos-eab2","kind":"restaurant","name":"Το Συντριβάνι-Περήφανος","lat":38.239213748428575,"lng":23.795988231331933,"url":"https://maps.app.goo.gl/jUCxRPxswFJerx5H9","address":"Λεωφόρος Αθηνών, Μαλακάσα 190 11","categoryIds":["greek-restaurants"],"categories":["Greek Restaurants"]},{"id":"greekRestaurants_d3d5875fd455","slug":"to-tzaki-d3d5","kind":"restaurant","name":"Το τζάκι","lat":38.21655428611633,"lng":23.86821611372373,"url":"https://maps.app.goo.gl/7wN2L21tT2o7KxCV7","address":"Λεωφ. Ειρήνης 4, Πολυδένδρι 190 14","categoryIds":["greek-restaurants"],"categories":["Greek Restaurants"]},{"id":"greekRestaurants_f163a01d5b8e","slug":"taverna-vasilakos-f163","kind":"restaurant","name":"Ταβέρνα Βασιλάκος","lat":38.216929169351175,"lng":23.868895678768617,"url":"https://maps.app.goo.gl/5w23D5PVYwasH98X9","address":"Λεωφ. Ειρήνης 4, Πολυδένδρι 190 14","categoryIds":["greek-restaurants"],"categories":["Greek Restaurants"]},{"id":"greekRestaurants_a2675225a16c","slug":"taverna-galini-a267","kind":"restaurant","name":"Ταβέρνα Γαλήνη","lat":38.21564800607866,"lng":23.86762931136811,"url":"https://maps.app.goo.gl/Fk7koGAZ462ABfY76","address":"Λεωφ. Ειρήνης 8, Πολυδένδρι 190 14","categoryIds":["greek-restaurants"],"categories":["Greek Restaurants"]},{"id":"greekRestaurants_c595c62efc6b","slug":"mparmpa-vasilis-c595","kind":"restaurant","name":"Μπάρμπα Βασίλης","lat":38.23380794795737,"lng":23.89319631949878,"url":"https://maps.app.goo.gl/C74xDes5etzk12FL7","address":"Σπύρου Πολύχρονη, Μικροχώρι 190 14","categoryIds":["greek-restaurants"],"categories":["Greek Restaurants"]},{"id":"greekRestaurants_24713ff3cd1e","slug":"taverna-o-makis-afidnes-2471","kind":"restaurant","name":"Ταβέρνα ο Μάκης, Αφίδνες","lat":38.192798626562244,"lng":23.84324387519098,"url":"https://maps.app.goo.gl/wEzHjcfenn2nmLN3A","address":"Λεωφ. Καλλίμαχου 2, Σταθμός Αφιδνών 190 14","categoryIds":["greek-restaurants"],"categories":["Greek Restaurants"]},{"id":"greekRestaurants_5df0a2118a6f","slug":"agios-merkoyrios-5df0","kind":"restaurant","name":"Άγιος Μερκούριος","lat":38.1455087216868,"lng":23.79177367608356,"url":"https://maps.app.goo.gl/WBkCLkjPiQY1AwSH6","address":"Ά Φυλακιο Πυροσβεστικής, ΒΑΡΥΜΠΟΜΠΗ 136 73","categoryIds":["greek-restaurants"],"categories":["Greek Restaurants"]},{"id":"greekRestaurants_9800452eacf2","slug":"taverna-thea-9800","kind":"restaurant","name":"Ταβέρνα Θέα","lat":38.144279854273236,"lng":23.79258851371657,"url":"https://maps.app.goo.gl/fYR8XP1Em51pwvSn8","address":"Τατοΐου, Αχαρνές 136 72","categoryIds":["greek-restaurants"],"categories":["Greek Restaurants"]},{"id":"greekRestaurants_82199ba27aab","slug":"matambre-8219","kind":"restaurant","name":"Matambre","lat":38.17453592653479,"lng":23.91849447631357,"url":"https://maps.app.goo.gl/nZX2pdLZsc3fNQMa8","address":"Λεωφ. Λίμνης Μαραθώνος 245, Μαραθώνας 190 07","categoryIds":["greek-restaurants"],"categories":["Greek Restaurants"]},{"id":"greekRestaurants_3985a63bf69c","slug":"taverna-pappas-3985","kind":"restaurant","name":"Ταβέρνα Παππάς","lat":38.13707378465122,"lng":23.751130974888763,"url":"https://maps.app.goo.gl/cf1v4bYNnpWbWW7u9","address":"Θεσσαλονίκης 2, Αχαρνές 136 76","categoryIds":["greek-restaurants"],"categories":["Greek Restaurants"]},{"id":"greekRestaurants_a9fd28504adb","slug":"agroktima-regkoykoy-taverna-stamata-a9fd","kind":"restaurant","name":"Αγρόκτημα Ρεγκούκου Ταβέρνα Σταμάτα","lat":38.142623703496184,"lng":23.888598580375778,"url":"https://maps.app.goo.gl/X9aRczkLosh9Awyu8","address":"Έκτορος, Σταμάτα 145 75","categoryIds":["greek-restaurants"],"categories":["Greek Restaurants"]}],"nearby":[{"id":"municipalities_a230abd1223f","slug":"oropos-a230","kind":"municipality","name":"Ωρωπός","lat":38.3,"lng":23.7833,"region":"Ανατολικά Προάστια","name_en":"Oropos","region_en":"Eastern Suburbs","distanceKm":2.2843614136252928},{"id":"greekRestaurants_e4ab2f008904","slug":"paradosiako-kafeneio-kotsannitsa-e4ab","kind":"restaurant","name":"Παραδοσιακό Καφενείο ΚωτσΑνΝίτσα","lat":38.23932131119346,"lng":23.792367425380203,"url":"https://maps.app.goo.gl/QsRPY3vUeGKY5wLB6","address":"Λεωφόρος Αθηνών Χαλκίδος, Μαλακάσα 190 11","categoryIds":["greek-restaurants"],"categories":["Greek Restaurants"],"distanceKm":4.6186759224732095},{"id":"greekRestaurants_eab29c812967","slug":"to-syntrivani-perifanos-eab2","kind":"restaurant","name":"Το Συντριβάνι-Περήφανος","lat":38.239213748428575,"lng":23.795988231331933,"url":"https://maps.app.goo.gl/jUCxRPxswFJerx5H9","address":"Λεωφόρος Αθηνών, Μαλακάσα 190 11","categoryIds":["greek-restaurants"],"categories":["Greek Restaurants"],"distanceKm":4.6388507909828425},{"id":"familyFriendly_1a17238d519a","slug":"adventure-park-1a17","kind":"restaurant","name":"Adventure Park","lat":38.23252814955923,"lng":23.80993374825537,"url":"https://maps.app.goo.gl/uqiE3UGiFvDWS7Da8?g_st=ipc","address":"Επαρ.Οδ. Μαλακάσας-Μαρκόπουλου, Μαλακάσα 190 11","categoryIds":["family-friendly"],"categories":["Kid Friendly Locations"],"distanceKm":5.578279004454507},{"id":"familyFriendly_a642c6dd69d1","slug":"limni-mpeletsi-a642","kind":"restaurant","name":"Λίμνη Μπελέτσι","lat":38.21272884882845,"lng":23.804742885101245,"url":"https://maps.app.goo.gl/FTF7uvik6S36p7TQ9?g_st=ipc","address":"Ιπποκράτειος Πολιτεία 190 14","categoryIds":["family-friendly"],"categories":["Kid Friendly Locations"],"distanceKm":7.646942955414564},{"id":"wineriesVineyards_3edb4c37dc1f","slug":"estates-costa-lazaridi-oenotria-land-3edb","kind":"restaurant","name":"Estates Costa Lazaridi - Oenotria Land","lat":38.23173089487007,"lng":23.870908077071547,"url":"https://maps.app.goo.gl/aoRwmKxMU5cHCnRX6?g_st=ipc","address":"2nd km Kapandriti Kalamos road, Kapandriti, 19014, 190 14","categoryIds":["wineries-vineyards"],"categories":["Wineries & Vineyards"],"distanceKm":8.738099244285525},{"id":"familyFriendly_49cb6fcc743a","slug":"lakkagkini-sta-kioyrka-49cb","kind":"restaurant","name":"Λακκαγκίνη Στα Κιούρκα","lat":38.205377296617634,"lng":23.828785798413897,"url":"https://maps.app.goo.gl/e2bkfTBofA6k2DW66?g_st=ipc","address":"Αγίας Τριάδος, Αφίδνες 190 14","categoryIds":["family-friendly"],"categories":["Kid Friendly Locations"],"distanceKm":8.962062056934654},{"id":"greekRestaurants_d3d5875fd455","slug":"to-tzaki-d3d5","kind":"restaurant","name":"Το τζάκι","lat":38.21655428611633,"lng":23.86821611372373,"url":"https://maps.app.goo.gl/7wN2L21tT2o7KxCV7","address":"Λεωφ. Ειρήνης 4, Πολυδένδρι 190 14","categoryIds":["greek-restaurants"],"categories":["Greek Restaurants"],"distanceKm":9.720962157708671},{"id":"greekRestaurants_f163a01d5b8e","slug":"taverna-vasilakos-f163","kind":"restaurant","name":"Ταβέρνα Βασιλάκος","lat":38.216929169351175,"lng":23.868895678768617,"url":"https://maps.app.goo.gl/5w23D5PVYwasH98X9","address":"Λεωφ. Ειρήνης 4, Πολυδένδρι 190 14","categoryIds":["greek-restaurants"],"categories":["Greek Restaurants"],"distanceKm":9.730759257960246},{"id":"greekRestaurants_a2675225a16c","slug":"taverna-galini-a267","kind":"restaurant","name":"Ταβέρνα Γαλήνη","lat":38.21564800607866,"lng":23.86762931136811,"url":"https://maps.app.goo.gl/Fk7koGAZ462ABfY76","address":"Λεωφ. Ειρήνης 8, Πολυδένδρι 190 14","categoryIds":["greek-restaurants"],"categories":["Greek Restaurants"],"distanceKm":9.760971042190198},{"id":"familyFriendly_0acb8f4f4e6f","slug":"mia-fora-ki-enan-kairo-the-greeks-0acb","kind":"restaurant","name":"Μια φορά κι έναν καιρό - the Greeks","lat":38.25621870422675,"lng":23.68492152014709,"url":"https://maps.app.goo.gl/g4HUGMwd4cCRvGvE8?g_st=ipc","address":"Παναγίας Γρηγορούσης, Αυλώνας 190 11","categoryIds":["family-friendly"],"categories":["Kid Friendly Locations"],"distanceKm":9.808147312787668},{"id":"greekRestaurants_c595c62efc6b","slug":"mparmpa-vasilis-c595","kind":"restaurant","name":"Μπάρμπα Βασίλης","lat":38.23380794795737,"lng":23.89319631949878,"url":"https://maps.app.goo.gl/C74xDes5etzk12FL7","address":"Σπύρου Πολύχρονη, Μικροχώρι 190 14","categoryIds":["greek-restaurants"],"categories":["Greek Restaurants"],"distanceKm":10.208593790989415},{"id":"greekRestaurants_24713ff3cd1e","slug":"taverna-o-makis-afidnes-2471","kind":"restaurant","name":"Ταβέρνα ο Μάκης, Αφίδνες","lat":38.192798626562244,"lng":23.84324387519098,"url":"https://maps.app.goo.gl/wEzHjcfenn2nmLN3A","address":"Λεωφ. Καλλίμαχου 2, Σταθμός Αφιδνών 190 14","categoryIds":["greek-restaurants"],"categories":["Greek Restaurants"],"distanceKm":10.737186050000808},{"id":"municipalities_6af6e7b2b379","slug":"eretria-6af6","kind":"municipality","name":"Ερέτρια","lat":38.39,"lng":23.8,"region":"Στερεά Ελλάδα","name_en":"Eretria","region_en":"Central Greece","distanceKm":12.152426845889565},{"id":"fishTavernasRestaurants_63c1df7c960e","slug":"remetzo-63c1","kind":"restaurant","name":"Ρεμέτζο","lat":38.39112282038602,"lng":23.797236892149673,"url":"https://maps.app.goo.gl/oqv397oz79KFz6w69?g_st=ipc","address":"Λεωφ. Αρχαίου Θεάτρου 42, Ερέτρια 340 08","categoryIds":["fish-tavernas"],"categories":["Fish Tavernas"],"distanceKm":12.267144837440139},{"id":"coffeeBrunchRestaurants_ba1c57c3e046","slug":"katafygio-mpafi-ba1c","kind":"restaurant","name":"Καταφύγιο Μπάφι","lat":38.16746990651998,"lng":23.726972151660846,"url":"https://maps.app.goo.gl/h8ni4KMpRSPF4Zzu5?g_st=ipc","address":"Πάρνηθος, Αθήνα 136 72","categoryIds":["coffee-brunch"],"categories":["Coffee & Brunch Spots"],"distanceKm":13.857395883740171},{"id":"wineriesVineyards_387acae649dd","slug":"lykos-winery-387a","kind":"restaurant","name":"Lykos Winery","lat":38.40318852137616,"lng":23.75129901619749,"url":"https://maps.app.goo.gl/N8pQEWcDemQKLK6N6?g_st=ipc","address":"ΜΑΛΑΚΩΝΤΑΣ 0, Eretria 340 08","categoryIds":["wineries-vineyards"],"categories":["Wineries & Vineyards"],"distanceKm":14.075937898863657},{"id":"fishTavernasRestaurants_89f946397ea9","slug":"to-limanaki-tis-amarynthoy-89f9","kind":"restaurant","name":"Το Λιμανάκι Της Αμαρύνθου","lat":38.391630088057546,"lng":23.87976016192821,"url":"https://maps.app.goo.gl/123Yma2QRjswTuuD9?g_st=ipc","address":"Μιαούλη, Αμάρυνθος 340 06","categoryIds":["fish-tavernas"],"categories":["Fish Tavernas"],"distanceKm":14.46540226154386},{"id":"fishTavernasRestaurants_21394a13a305","slug":"gorgona-di-stefano-amarythos-oyzeri-psarotaverna-2139","kind":"restaurant","name":"Gorgona Di Stefano Amarythos Oυζερι Psarotaverna","lat":38.391896520308414,"lng":23.883711972578777,"url":"https://maps.app.goo.gl/Q3hYqnNSaAEfk5UH8?g_st=ipc","address":"Κων/νου Καραμανλή 2, Αμάρυνθος 340 06","categoryIds":["fish-tavernas"],"categories":["Fish Tavernas"],"distanceKm":14.673980046608264},{"id":"mustSeeAttractions_f8a8945256eb","slug":"ethnikos-drymos-parnithas-f8a8","kind":"restaurant","name":"Εθνικός Δρυμός Πάρνηθας","lat":38.15998271976968,"lng":23.71947970128565,"url":"https://maps.app.goo.gl/vhNTNbS2nJx1YD8n8?g_st=ipc","address":"Πάρνηθα 136 72","categoryIds":["attractions"],"categories":["Must-See Attractions"],"distanceKm":14.888701375034428},{"id":"greekRestaurants_5df0a2118a6f","slug":"agios-merkoyrios-5df0","kind":"restaurant","name":"Άγιος Μερκούριος","lat":38.1455087216868,"lng":23.79177367608356,"url":"https://maps.app.goo.gl/WBkCLkjPiQY1AwSH6","address":"Ά Φυλακιο Πυροσβεστικής, ΒΑΡΥΜΠΟΜΠΗ 136 73","categoryIds":["greek-restaurants"],"categories":["Greek Restaurants"],"distanceKm":15.050272915159569},{"id":"greekRestaurants_9800452eacf2","slug":"taverna-thea-9800","kind":"restaurant","name":"Ταβέρνα Θέα","lat":38.144279854273236,"lng":23.79258851371657,"url":"https://maps.app.goo.gl/fYR8XP1Em51pwvSn8","address":"Τατοΐου, Αχαρνές 136 72","categoryIds":["greek-restaurants"],"categories":["Greek Restaurants"],"distanceKm":15.186661499445545},{"id":"greekRestaurants_82199ba27aab","slug":"matambre-8219","kind":"restaurant","name":"Matambre","lat":38.17453592653479,"lng":23.91849447631357,"url":"https://maps.app.goo.gl/nZX2pdLZsc3fNQMa8","address":"Λεωφ. Λίμνης Μαραθώνος 245, Μαραθώνας 190 07","categoryIds":["greek-restaurants"],"categories":["Greek Restaurants"],"distanceKm":16.13437079845535},{"id":"greekRestaurants_3985a63bf69c","slug":"taverna-pappas-3985","kind":"restaurant","name":"Ταβέρνα Παππάς","lat":38.13707378465122,"lng":23.751130974888763,"url":"https://maps.app.goo.gl/cf1v4bYNnpWbWW7u9","address":"Θεσσαλονίκης 2, Αχαρνές 136 76","categoryIds":["greek-restaurants"],"categories":["Greek Restaurants"],"distanceKm":16.397187987746427}],"mentionedGuides":[],"canonicalSlug":"taverna-o-litsas-fb81","enrichment":{"summary_en":"Ταβέρνα Ο Λίτσας is a curated restaurant in Μήλεσι Αττικής 190 11 in the Greek Restaurants collection. It is connected to 0 nearby Googlementor picks to help travelers build a stronger local route.","summary_el":"Ταβέρνα Ο Λίτσας είναι ένα επιλεγμένο σημείο φαγητού στην περιοχή Μήλεσι Αττικής 190 11 και ανήκει στη συλλογή Greek Restaurants. Συνδέεται με 0 κοντινές προτάσεις του Googlementor για πιο ολοκληρωμένη εμπειρία.","vibe_tags":["curated"],"best_for":["first-time visitors","food lovers"],"visit_moments":["lunch stop","dinner stop"],"practical_note":"Address and direct map link are available for easy turn-by-turn access.","nearby_walkable_count":0,"nearby_count_2km":0,"confidence":0.9},"areaContext":null,"intentContexts":[]},"__N_SSG":true}