{"pageProps":{"entity":{"id":"cheapEatsRestaurants_685be47e5df7","slug":"to-ariston-685b","kind":"restaurant","name":"Το Άριστον","lat":37.88039754118748,"lng":23.75713413104173,"url":"https://maps.app.goo.gl/4zqMC4Phrwrov3rL6?g_st=ipc","address":"Σοφίας Βέμπο 22, Γλυφάδα 166 75","categoryIds":["cheap-eats"],"categories":["Gyros & Cheap Eats"]},"sameCategory":[{"id":"cheapEatsRestaurants_f4150c2850c0","slug":"i-leivadia-f415","kind":"restaurant","name":"Η Λειβαδιά","lat":37.87979270265205,"lng":23.758582732685436,"url":"https://maps.app.goo.gl/BFkQxfbJJTqb7Qp87?g_st=ipc","address":"Ανδρέα Παπανδρέου 126, Γλυφάδα 165 61","categoryIds":["cheap-eats"],"categories":["Gyros & Cheap Eats"]},{"id":"cheapEatsRestaurants_fda4a4f93016","slug":"psitopoleio-to-pyrnari-fda4","kind":"restaurant","name":"Ψητοπωλείο «Το Πυρνάρι»","lat":37.874394232840224,"lng":23.766043784078654,"url":"https://maps.app.goo.gl/qS5CXA1L9CMHWtaN7?g_st=ipc","address":"Ανθέων 33, Γλυφάδα 166 74","categoryIds":["cheap-eats"],"categories":["Gyros & Cheap Eats"]},{"id":"cheapEatsRestaurants_14277405021c","slug":"aristofanis-geyseis-estiatoria-psitopoleia-ano-glyfada-1427","kind":"restaurant","name":"Αριστοφάνης Γεύσεις | Εστιατόρια | Ψητοπωλεία Άνω Γλυφάδα","lat":37.890796486374335,"lng":23.76076987782631,"url":"https://maps.app.goo.gl/vR5rdW1p8psGAbRc7?g_st=ipc","address":"Δημ. Γούναρη 46, Ελληνικό 167 77","categoryIds":["cheap-eats"],"categories":["Gyros & Cheap Eats"]},{"id":"cheapEatsRestaurants_25ffd4c0ef7f","slug":"elliniko-soyvlaki-ap-to1990-25ff","kind":"restaurant","name":"Ελληνικό Σουβλάκι (απ'το1990)","lat":37.892191582868755,"lng":23.75361437896675,"url":"https://maps.app.goo.gl/RAbojGiNVh4trirv7?g_st=ipc","address":"Λεωφ. Ιασωνίδου 40, Ελληνικό 167 77","categoryIds":["cheap-eats"],"categories":["Gyros & Cheap Eats"]},{"id":"burgersRestaurants_9c2f22b0606b","slug":"hashtag-burger-9c2f","kind":"restaurant","name":"Hashtag#Burger","lat":37.89371001882756,"lng":23.763217485797266,"url":"https://maps.app.goo.gl/BsuHdbYYc8dsSTwn8?g_st=ipc","address":"Γεωρ. Γεννηματά 26, Γλυφάδα 165 62","categoryIds":["burgers","cheap-eats"],"categories":["Burger Spots","Gyros & Cheap Eats"],"legacySlugs":["hashtag-burger-30dc"]},{"id":"burgersRestaurants_797126963f1f","slug":"amam-estiatorio-glyfada-7971","kind":"restaurant","name":"ΑΜΑΜ - ΕΣΤΙΑΤΟΡΙΟ - ΓΛΥΦΑΔΑ","lat":37.895880681449796,"lng":23.761095559330744,"url":"https://maps.app.goo.gl/fAsTx4mwCTHC78t86?g_st=ipc","address":"Γεωρ. Γεννηματά 11, Γλυφάδα 165 62","categoryIds":["burgers","cheap-eats"],"categories":["Burger Spots","Gyros & Cheap Eats"],"legacySlugs":["amam-estiatorio-glyfada-af98"]},{"id":"cheapEatsRestaurants_4792fbe09c71","slug":"zahoulis-glyfada-4792","kind":"restaurant","name":"ZAHOULIS GLYFADA","lat":37.86453214322605,"lng":23.747876477019613,"url":"https://maps.app.goo.gl/mDh3F8ASwiDrm4yK9?g_st=ipc","address":"Γεωρ. Κονδύλη 7, Γλυφάδα 166 75","categoryIds":["cheap-eats"],"categories":["Gyros & Cheap Eats"]},{"id":"cheapEatsRestaurants_833c862346f4","slug":"virtuoso-enjoyment-833c","kind":"restaurant","name":"Virtuoso_enjoyment","lat":37.90017783194547,"lng":23.749997183633212,"url":"https://maps.app.goo.gl/7nLwDeMLLVCCJGGAA?g_st=ipc","address":"Μαρίνου Γερουλάνου 126, Αργυρούπολη 164 52","categoryIds":["cheap-eats"],"categories":["Gyros & Cheap Eats"]},{"id":"cheapEatsRestaurants_9085d6dbdfe8","slug":"street-food-park-9085","kind":"restaurant","name":"Street Food Park","lat":37.85905594962557,"lng":23.764660793565383,"url":"https://maps.app.goo.gl/8bfdGPL68FsznR1SA?g_st=ipc","address":"Παρ. Λεωφ. Βουλιαγμένης 153, Γλυφάδα 166 74","categoryIds":["cheap-eats"],"categories":["Gyros & Cheap Eats"]},{"id":"cheapEatsRestaurants_04e6a1e9ffd2","slug":"to-kalamaki-toy-aggeloy-04e6","kind":"restaurant","name":"Το Καλαμάκι του Αγγέλου","lat":37.90324456071206,"lng":23.748792260475668,"url":"https://maps.app.goo.gl/qgszesYeGs45UoHG6?g_st=ipc","address":"Πόντου 16, Αργυρούπολη 164 52","categoryIds":["cheap-eats"],"categories":["Gyros & Cheap Eats"]},{"id":"cheapEatsRestaurants_38d81d943048","slug":"oi-pites-toy-nteni-38d8","kind":"restaurant","name":"Οι Πίτες του Ντένη","lat":37.90525389875436,"lng":23.75051113822582,"url":"https://maps.app.goo.gl/LT4SpnfnfY3JNg1K7?g_st=ipc","address":"Μαρίνου Γερουλάνου 81, Αργυρούπολη 164 52","categoryIds":["cheap-eats"],"categories":["Gyros & Cheap Eats"]},{"id":"cheapEatsRestaurants_1d0eb7258382","slug":"zahoulis-argyroupoli-soyvlaki-1d0e","kind":"restaurant","name":"ZAHOULIS ARGYROUPOLI Σουβλάκι","lat":37.90791549793596,"lng":23.748232505140976,"url":"https://maps.app.goo.gl/kKDkkSTXoQK8Uh328?g_st=ipc","address":"Μαρίνου Γερουλάνου 54, Αργυρούπολη 164 52","categoryIds":["cheap-eats"],"categories":["Gyros & Cheap Eats"]}],"nearby":[{"id":"dessertsRestaurants_b4416b6328f3","slug":"sovolos-zacharoplasteio-foyrnos-b441","kind":"restaurant","name":"Sovolos - Ζαχαροπλαστείο - Φούρνος","lat":37.88041660741069,"lng":23.757712624330377,"url":"https://maps.app.goo.gl/P3uyZ1oH1pSEfex39?g_st=ipc","address":"Σοφίας Βέμπο 29, Γλυφάδα 165 61","categoryIds":["desserts"],"categories":["Dessert Shops"],"distanceKm":0.050815996848385885},{"id":"cheapEatsRestaurants_f4150c2850c0","slug":"i-leivadia-f415","kind":"restaurant","name":"Η Λειβαδιά","lat":37.87979270265205,"lng":23.758582732685436,"url":"https://maps.app.goo.gl/BFkQxfbJJTqb7Qp87?g_st=ipc","address":"Ανδρέα Παπανδρέου 126, Γλυφάδα 165 61","categoryIds":["cheap-eats"],"categories":["Gyros & Cheap Eats"],"distanceKm":0.14383062387036463},{"id":"italianRestaurants_18486d8f87b6","slug":"mamy-blue-pizza-napoletana-glyfada-1848","kind":"restaurant","name":"Mamy Blue - Pizza Napoletana Glyfada","lat":37.8796152626329,"lng":23.758507788324675,"url":"https://maps.app.goo.gl/Viv8JcHoZX8wKXaV9?g_st=ipc","address":"Ανδρέα Παπανδρέου 126, Γλυφάδα 165 61","categoryIds":["italian"],"categories":["Italian Restaurants"],"distanceKm":0.14866494076400266},{"id":"fishTavernasRestaurants_3cf7850d662e","slug":"to-agkistri-3cf7","kind":"restaurant","name":"Το Αγκίστρι","lat":37.88417743586951,"lng":23.75467629204283,"url":"https://maps.app.goo.gl/tT9ydwBCoa2EgT5d7?g_st=ipc","address":"Παλμύρας 2, Γλυφάδα 165 61","categoryIds":["fish-tavernas"],"categories":["Fish Tavernas"],"distanceKm":0.472425984766971},{"id":"dessertsRestaurants_f3a8bc3cdfa9","slug":"ourse-athens-f3a8","kind":"restaurant","name":"Ourse Athens","lat":37.88207729717418,"lng":23.76284471292179,"url":"https://maps.app.goo.gl/diDUu1LQKinrZXQT9?g_st=ipc","address":"Μυστρά 39, Γλυφάδα 165 61","categoryIds":["desserts"],"categories":["Dessert Shops"],"distanceKm":0.5348595380332622},{"id":"asianRestaurants_84fbfd57e68e","slug":"ryotei-118-84fb","kind":"restaurant","name":"Ryōtei 118","lat":37.879367097165485,"lng":23.763308738653866,"url":"https://maps.app.goo.gl/XC6EcCoyBojTFzQp9?g_st=ipc","address":"Δημ. Γούναρη 118, Γλυφάδα 166 74","categoryIds":["asian","burgers"],"categories":["Asian Restaurants","Burger Spots"],"legacySlugs":["ryotei-118-5acf"],"distanceKm":0.553901972616541},{"id":"burgersRestaurants_ba4a0b5f3045","slug":"ryotei118-ba4a","kind":"restaurant","name":"Ryōtei118","lat":37.87936856839685,"lng":23.763367179515893,"url":"https://maps.app.goo.gl/jQiZ1pYw63j3q8zG9","address":"Dim. Gounari 118, Glifada 166 74","categoryIds":["burgers"],"categories":["Burger Spots"],"distanceKm":0.5588876480557536},{"id":"greekRestaurants_f28bb3ae0783","slug":"gioyvetsakia-f28b","kind":"restaurant","name":"Γιουβετσάκια","lat":37.88563428778149,"lng":23.75438021161349,"url":"https://maps.app.goo.gl/tvw66LvtdqTpBCKw9","address":"Moreos 45 & Ithomis 20, Γλυφάδα 165 61","categoryIds":["greek-restaurants"],"categories":["Greek Restaurants"],"distanceKm":0.6304658670813409},{"id":"greekRestaurants_1210e06dbe2b","slug":"meli-ladi-1210","kind":"restaurant","name":"Μέλι & Λάδι","lat":37.87699204463285,"lng":23.76367728627069,"url":"https://maps.app.goo.gl/CPZ65sur6LLxmT9J6","address":"Δημ. Γούναρη 144, Γλυφάδα 165 62","categoryIds":["greek-restaurants"],"categories":["Greek Restaurants"],"distanceKm":0.6878863343835211},{"id":"dessertsRestaurants_2e03a8c9e4e0","slug":"sovolos-zacharoplasteio-foyrnos-2e03","kind":"restaurant","name":"Sovolos - Ζαχαροπλαστείο - Φούρνος","lat":37.87485505079695,"lng":23.763836128858856,"url":"https://maps.app.goo.gl/RXXKnkZNGbvAgkTW6?g_st=ipc","address":"Δημ. Γούναρη 158, Γλυφάδα 166 74","categoryIds":["desserts"],"categories":["Dessert Shops"],"distanceKm":0.8519577752280348},{"id":"dessertsRestaurants_040357268baa","slug":"galaktopoleio-stamoy-0403","kind":"restaurant","name":"Γαλακτοπωλείο ΣΤΑΜΟΥ","lat":37.874588254746484,"lng":23.763954006260555,"url":"https://maps.app.goo.gl/sGysojdMKvQUw51Q7?g_st=ipc","address":"Δημ. Γούναρη 160, Γλυφάδα 166 74","categoryIds":["desserts"],"categories":["Dessert Shops"],"distanceKm":0.8806580430827431},{"id":"greekRestaurants_b64cf8867729","slug":"tefariki-b64c","kind":"restaurant","name":"Τεφαρίκι","lat":37.871857113105406,"lng":23.752753345977908,"url":"https://maps.app.goo.gl/mcH8XPhdX39hW6V59","address":"Ξενοφώντος 28, Γλυφάδα 166 75","categoryIds":["greek-restaurants"],"categories":["Greek Restaurants"],"distanceKm":1.024540319832525},{"id":"asianRestaurants_f6ce39f326eb","slug":"noodle-bar-glyfada-f6ce","kind":"restaurant","name":"NOODLE BAR ΓΛΥΦΑΔΑ","lat":37.872037331445135,"lng":23.752155686687118,"url":"https://maps.app.goo.gl/GoKuSs69HC1RbxyBA?g_st=ipc","address":"Ξενοφώντος 20, Γλυφάδα 166 75","categoryIds":["asian"],"categories":["Asian Restaurants"],"distanceKm":1.0271877368035154},{"id":"cheapEatsRestaurants_fda4a4f93016","slug":"psitopoleio-to-pyrnari-fda4","kind":"restaurant","name":"Ψητοπωλείο «Το Πυρνάρι»","lat":37.874394232840224,"lng":23.766043784078654,"url":"https://maps.app.goo.gl/qS5CXA1L9CMHWtaN7?g_st=ipc","address":"Ανθέων 33, Γλυφάδα 166 74","categoryIds":["cheap-eats"],"categories":["Gyros & Cheap Eats"],"distanceKm":1.028162386872227},{"id":"monasteriesChurches_ea257ea66588","slug":"ieros-kathedrikos-naos-agias-triados-ano-glyfadas-ea25","kind":"restaurant","name":"Ιερός Καθεδρικός Ναός Αγίας Τριάδος Άνω Γλυφάδας","lat":37.87276703155996,"lng":23.76655825797858,"url":"https://maps.app.goo.gl/SpsszvBBtaBzKcAW9?g_st=ipc","address":"Αγίας ΤΡΙΑΔΑΣ &, Αρετής 78, Γλυφάδα 166 74","categoryIds":["monasteries-churches"],"categories":["Monasteries & Spiritual Sites"],"distanceKm":1.1849453011888866},{"id":"cheapEatsRestaurants_14277405021c","slug":"aristofanis-geyseis-estiatoria-psitopoleia-ano-glyfada-1427","kind":"restaurant","name":"Αριστοφάνης Γεύσεις | Εστιατόρια | Ψητοπωλεία Άνω Γλυφάδα","lat":37.890796486374335,"lng":23.76076987782631,"url":"https://maps.app.goo.gl/vR5rdW1p8psGAbRc7?g_st=ipc","address":"Δημ. Γούναρη 46, Ελληνικό 167 77","categoryIds":["cheap-eats"],"categories":["Gyros & Cheap Eats"],"distanceKm":1.19952439351802},{"id":"municipalities_3d9dbd89e718","slug":"glyfada-3d9d","kind":"municipality","name":"Γλυφάδα","lat":37.8782,"lng":23.743,"aliases":["Glyfada","Gliphada","Γλυφαδα","Glifada"],"region":"Νότια Προάστια","name_en":"Glyfada","region_en":"Southern Suburbs","distanceKm":1.264345294159611},{"id":"cheapEatsRestaurants_25ffd4c0ef7f","slug":"elliniko-soyvlaki-ap-to1990-25ff","kind":"restaurant","name":"Ελληνικό Σουβλάκι (απ'το1990)","lat":37.892191582868755,"lng":23.75361437896675,"url":"https://maps.app.goo.gl/RAbojGiNVh4trirv7?g_st=ipc","address":"Λεωφ. Ιασωνίδου 40, Ελληνικό 167 77","categoryIds":["cheap-eats"],"categories":["Gyros & Cheap Eats"],"distanceKm":1.347323434633785},{"id":"vegetarianRestaurants_4651fd50cc98","slug":"gi-4651","kind":"restaurant","name":"Γη","lat":37.867754101352695,"lng":23.757082449020576,"url":"https://maps.app.goo.gl/J8MbyuN6xbnsUxi89?g_st=ipc","address":"Γρ. Λαμπράκη 69, Γλυφάδα 166 75","categoryIds":["vegetarian"],"categories":["Vegetarian Friendly Restaurants"],"distanceKm":1.4058936834276068},{"id":"burgersRestaurants_9c2f22b0606b","slug":"hashtag-burger-9c2f","kind":"restaurant","name":"Hashtag#Burger","lat":37.89371001882756,"lng":23.763217485797266,"url":"https://maps.app.goo.gl/BsuHdbYYc8dsSTwn8?g_st=ipc","address":"Γεωρ. Γεννηματά 26, Γλυφάδα 165 62","categoryIds":["burgers","cheap-eats"],"categories":["Burger Spots","Gyros & Cheap Eats"],"legacySlugs":["hashtag-burger-30dc"],"distanceKm":1.5736059910016145},{"id":"familyFriendly_824dcd75a264","slug":"the-ellinikon-experience-park-824d","kind":"restaurant","name":"The Ellinikon Experience Park","lat":37.889532923626724,"lng":23.741777435195917,"url":"https://maps.app.goo.gl/sqeFJaUrDmxw1UqF7?g_st=ipc","address":"Ελληνικό 167 77","categoryIds":["family-friendly"],"categories":["Kid Friendly Locations"],"distanceKm":1.6876534337278788},{"id":"coffeeBrunchRestaurants_d0cf8543ac4f","slug":"la-linda-bakery-cafe-d0cf","kind":"restaurant","name":"La Linda Bakery & Café","lat":37.86700115203996,"lng":23.7478274102709,"url":"https://maps.app.goo.gl/2uSwHrZcryhig7ebA?g_st=ipc","address":"Κύπρου 13, Γλυφάδα 166 75","categoryIds":["coffee-brunch"],"categories":["Coffee & Brunch Spots"],"distanceKm":1.6988931450275089},{"id":"luxuryDiningRestaurants_771807889c8b","slug":"beastalis-food-for-proud-meat-eaters-7718","kind":"restaurant","name":"BEASTALIS ,Food for proud meat eaters","lat":37.867214606158306,"lng":23.7473035874199,"url":"https://maps.app.goo.gl/2E1n4NVs2CjMsLQo7?g_st=ipc","address":"Κύπρου 9, Γλυφάδα 166 75","categoryIds":["luxury-dining"],"categories":["Luxury Dining"],"distanceKm":1.7009756457973209},{"id":"familyFriendly_bba3af84c3c6","slug":"bella-vespa-bba3","kind":"restaurant","name":"Bella Vespa","lat":37.86706675735918,"lng":23.747387332761612,"url":"https://maps.app.goo.gl/dpip4AngfBL8xv2M8?g_st=ipc","address":"Κύπρου 11, Γλυφάδα 166 75","categoryIds":["family-friendly","italian"],"categories":["Kid Friendly Locations","Italian Restaurants"],"legacySlugs":["bella-vespa-976a"],"distanceKm":1.7114779933408335}],"mentionedGuides":[],"canonicalSlug":"to-ariston-685b","enrichment":{"summary_en":"Το Άριστον is a curated restaurant in Γλυφάδα 166 75 in the Gyros & Cheap Eats collection. It is connected to 9 nearby Googlementor picks to help travelers build a stronger local route.","summary_el":"Το Άριστον είναι ένα επιλεγμένο σημείο φαγητού στην περιοχή Γλυφάδα 166 75 και ανήκει στη συλλογή Gyros & Cheap Eats. Συνδέεται με 9 κοντινές προτάσεις του Googlementor για πιο ολοκληρωμένη εμπειρία.","vibe_tags":["curated","budget-friendly"],"best_for":["first-time visitors","food lovers","budget travelers"],"visit_moments":["lunch stop","dinner stop"],"practical_note":"Address and direct map link are available for easy turn-by-turn access.","nearby_walkable_count":9,"nearby_count_2km":36,"confidence":0.98},"areaContext":{"slug":"glyfada","name":"Glyfada","nameEl":"Γλυφάδα"},"intentContexts":[{"href":"/cheap-eats/glyfada","label":"Gyros & Cheap Eats in Glyfada","categorySlug":"cheap-eats","categoryName":"Gyros & Cheap Eats","areaSlug":"glyfada","areaName":"Glyfada","areaNameEl":"Γλυφάδα"}]},"__N_SSG":true}