{"pageProps":{"entity":{"id":"greekRestaurants_217beb188c9d","slug":"to-peyko-taverna-fagito-sto-choro-take-away-delivery-217b","kind":"restaurant","name":"Το Πευκο | Ταβέρνα - Φαγητό στο χώρο - Take Away - Delivery","lat":38.048953774865154,"lng":23.835609448784652,"url":"https://maps.app.goo.gl/2DPr3yhvS2JApV5x5","address":"Τήνου 12, Μελίσσια 151 27","categoryIds":["greek-restaurants"],"categories":["Greek Restaurants"]},"sameCategory":[{"id":"greekRestaurants_898e4444f3d9","slug":"o-kalofagas-steakhouse-898e","kind":"restaurant","name":"Ο Καλοφαγάς Steakhouse","lat":38.046607872986925,"lng":23.84536540675465,"url":"https://maps.app.goo.gl/K5myWMM5kegmZRGj7","address":"Παλαιών Πατρών Γερμανού 1, Βριλήσσια 152 38","categoryIds":["greek-restaurants"],"categories":["Greek Restaurants"]},{"id":"greekRestaurants_191a2f7954ba","slug":"to-aythaireto-191a","kind":"restaurant","name":"ΤΟ ΑΥΘΑΙΡΕΤΟ","lat":38.05739141623042,"lng":23.82532230565926,"url":"https://maps.app.goo.gl/oF5WnEmN9HdHPyPo9","address":"Πεύκων 10, Μαρούσι 151 26","categoryIds":["greek-restaurants"],"categories":["Greek Restaurants"]},{"id":"greekRestaurants_e5f425af5317","slug":"vlachos-mprizoles-choriatikes-pites-e5f4","kind":"restaurant","name":"Βλαχος, Μπριζόλες - Χωριάτικες πίτες","lat":38.06080156016513,"lng":23.83614625903362,"url":"https://maps.app.goo.gl/hue4bt53ZxfCUeXg6","address":"Κων/νου Καραμανλή, 17ης Νοεμβρίου και, Μελίσσια 151 27","categoryIds":["greek-restaurants"],"categories":["Greek Restaurants"]},{"id":"greekRestaurants_6b39ddfea6e1","slug":"magginas-taverna-melissia-6b39","kind":"restaurant","name":"Μαγγινας Ταβέρνα Μελίσσια","lat":38.06545992903425,"lng":23.842357706146192,"url":"https://maps.app.goo.gl/FMMwbifodFsWzbX47","address":"Πλ. Εθ. Αντιστάσεως, Μελίσσια 151 27","categoryIds":["greek-restaurants"],"categories":["Greek Restaurants"]},{"id":"greekRestaurants_2a4d19d5fad0","slug":"karavaiki-2a4d","kind":"restaurant","name":"Καραβαϊκή","lat":38.05688896672271,"lng":23.85683837486962,"url":"https://maps.app.goo.gl/bDovbnEG8g4iXg669","address":"25ης Μαρτίου 3, Νέα Πεντέλη 152 36","categoryIds":["greek-restaurants"],"categories":["Greek Restaurants"]},{"id":"greekRestaurants_b3a06913c0a6","slug":"striggla-b3a0","kind":"restaurant","name":"Striggla","lat":38.046725624480935,"lng":23.806442690864635,"url":"https://maps.app.goo.gl/zrq9BbB4MU8m8xEA7","address":"Αγίου Κωνσταντίνου 56, Μαρούσι 151 24","categoryIds":["greek-restaurants"],"categories":["Greek Restaurants"]},{"id":"greekRestaurants_3a95a72d63b7","slug":"to-steki-toy-andrea-sto-chalandri-3a95","kind":"restaurant","name":"Το Στέκι του Ανδρέα στο Χαλάνδρι","lat":38.02735400038434,"lng":23.82467794898433,"url":"https://maps.app.goo.gl/Wp9gL9KTg1iHqv8R6?g_st=ipc","address":"Μεσσηνίας 46, Χαλάνδρι 152 34","categoryIds":["greek-restaurants"],"categories":["Greek Restaurants"]},{"id":"greekRestaurants_81215dd76f6b","slug":"artisanal-8121","kind":"restaurant","name":"Artisanal","lat":38.067981010642875,"lng":23.811453792339574,"url":"https://maps.app.goo.gl/WsfMSGTo3b3Mq3hS6","address":"Ζηρίνη 2, Κηφισιά 145 62","categoryIds":["greek-restaurants"],"categories":["Greek Restaurants"]},{"id":"greekRestaurants_420dc8617ebb","slug":"to-vrasto-420d","kind":"restaurant","name":"Το Βραστό","lat":38.02920880289756,"lng":23.811047379895488,"url":"https://maps.app.goo.gl/GRjH6qkfc2wa5Tcv9?g_st=ipc","address":"Ρόδων 3, Χαλάνδρι 152 33","categoryIds":["greek-restaurants"],"categories":["Greek Restaurants"]},{"id":"greekRestaurants_c753372241fb","slug":"krystallis-c753","kind":"restaurant","name":"Κρυστάλλης","lat":38.05560270007769,"lng":23.870179792849736,"url":"https://maps.app.goo.gl/XofHBMHMp5Y8ecHi6","address":"Πλ. Αγίας Τριάδας, Πεντέλη 152 36","categoryIds":["greek-restaurants"],"categories":["Greek Restaurants"]},{"id":"greekRestaurants_23f639b6098c","slug":"pilioreitiko-23f6","kind":"restaurant","name":"Πηλιορειτικο","lat":38.05554171208636,"lng":23.870789909416057,"url":"https://maps.app.goo.gl/ZkvmmnHQW4d3ivh49","address":"Κρυστάλλη Κωνσταντίνου 1, Πεντέλη 152 36","categoryIds":["greek-restaurants"],"categories":["Greek Restaurants"]},{"id":"greekRestaurants_773d46c778fd","slug":"estiatorio-taverna-o-manolis-773d","kind":"restaurant","name":"Εστιατόριο Ταβέρνα Ο Μανώλης","lat":38.030716089112936,"lng":23.806470122135025,"url":"https://maps.app.goo.gl/E6ZfG324dBPeoKmz5?g_st=ipc","address":"Σάμου 1, Χαλάνδρι 152 33","categoryIds":["greek-restaurants"],"categories":["Greek Restaurants"]}],"nearby":[{"id":"municipalities_797866e61212","slug":"melissia-7978","kind":"municipality","name":"Μελίσσια","lat":38.05,"lng":23.8333,"aliases":["Melissia","Melissa","Μελισσια"],"region":"Βόρεια Προάστια","name_en":"Melissia","region_en":"Northern Suburbs","distanceKm":0.2332986616785205},{"id":"cheapEatsRestaurants_666f9d7675e5","slug":"platanos-kempap-soyvlaki-666f","kind":"restaurant","name":"Πλάτανος Κεμπάπ-Σουβλάκι","lat":38.05130210276415,"lng":23.835854870928635,"url":"https://maps.app.goo.gl/uXenfuTid9hYf6He9?g_st=ipc","address":"Leof. Dimokratias 69, Melissia 151 27","categoryIds":["cheap-eats"],"categories":["Gyros & Cheap Eats"],"distanceKm":0.26200494426343135},{"id":"fishTavernasRestaurants_62c7b8f3faa2","slug":"porfyra-62c7","kind":"restaurant","name":"ΠΟΡΦΥΡΑ","lat":38.05133265699478,"lng":23.83230614489945,"url":"https://maps.app.goo.gl/TQBY6fhE1DqGovNJ9?g_st=ipc","address":"Leof. Dimokratias 29, Melissia 151 27","categoryIds":["fish-tavernas"],"categories":["Fish Tavernas"],"distanceKm":0.39196210304088624},{"id":"familyFriendly_86f9e83bcddf","slug":"parko-proin-naytikis-vasis-86f9","kind":"restaurant","name":"Πάρκο Πρώην Ναυτικής Βάσης","lat":38.045491355804536,"lng":23.838523859146985,"url":"https://maps.app.goo.gl/bVGsyiVv6EgBKgQg7?g_st=ipc","address":"Λεωφ. Πεντέλης 41, Βριλήσσια 152 35","categoryIds":["family-friendly"],"categories":["Kid Friendly Locations"],"distanceKm":0.46190568346719574},{"id":"fishTavernasRestaurants_8fa64823bdb9","slug":"psarokokkalo-8fa6","kind":"restaurant","name":"Ψαροκόκκαλο","lat":38.05407148936591,"lng":23.838879406158195,"url":"https://maps.app.goo.gl/yjqJBhxZ9XwdkDBv7?g_st=ipc","address":"Ελ. Βενιζέλου 19, Μελίσσια 151 27","categoryIds":["fish-tavernas","luxury-dining"],"categories":["Fish Tavernas","Luxury Dining"],"legacySlugs":["psarokokkalo-9b9d"],"distanceKm":0.637035065309658},{"id":"cheapEatsRestaurants_b596150cf3db","slug":"trigono-melission-b596","kind":"restaurant","name":"ΤΡΙΓΩΝΟ ΜΕΛΙΣΣΙΩΝ","lat":38.05317998498453,"lng":23.84087862675326,"url":"https://maps.app.goo.gl/FjiCt1o7yoa331UN8?g_st=ipc","address":"Π. Τσαλδάρη 21, Μελίσσια 151 27","categoryIds":["cheap-eats"],"categories":["Gyros & Cheap Eats"],"distanceKm":0.658564496210881},{"id":"dessertsRestaurants_2b678632636d","slug":"gelateria-giovanni-2b67","kind":"restaurant","name":"Gelateria Giovanni","lat":38.05439248631055,"lng":23.83864189197517,"url":"https://maps.app.goo.gl/vHiSCvP87r2bMcgL7?g_st=ipc","address":"Μπουμπουλίνας 1, Μελίσσια 151 27","categoryIds":["desserts"],"categories":["Dessert Shops"],"distanceKm":0.6604801857993984},{"id":"familyFriendly_a9b8fd64bf88","slug":"funmily-eat-drink-play-a9b8","kind":"restaurant","name":"FUNMILY eat-drink-play","lat":38.051902735451634,"lng":23.82889440448781,"url":"https://maps.app.goo.gl/5ypCQjX1CzhhmDWMA?g_st=ipc","address":"Οδός Πεντέλης 114, Μαρούσι 151 26","categoryIds":["family-friendly"],"categories":["Kid Friendly Locations"],"distanceKm":0.673240159627053},{"id":"asianRestaurants_b06ea4e8fead","slug":"shisan-sushi-bar-b06e","kind":"restaurant","name":"Shisan Sushi Bar","lat":38.053962138366174,"lng":23.841922115859383,"url":"https://maps.app.goo.gl/xTbQEiSszAswqYqi8?g_st=ipc","address":"Αλ. Ζαΐμη 1, Μελίσσια 151 27","categoryIds":["asian"],"categories":["Asian Restaurants"],"distanceKm":0.7846464224122616},{"id":"fishTavernasRestaurants_43c82b52a2f5","slug":"nisiotissa-taverna-vrilissia-43c8","kind":"restaurant","name":"Νησιώτισσα | Ταβέρνα - Βριλήσσια","lat":38.049892048450445,"lng":23.844559347971032,"url":"https://maps.app.goo.gl/GRmK1dMStEro6P898?g_st=ipc","address":"Λεωφ. Πεντέλης 168, Βριλήσσια 152 35","categoryIds":["fish-tavernas"],"categories":["Fish Tavernas"],"distanceKm":0.7906006576598074},{"id":"familyFriendly_a06976665fe3","slug":"dentrospito-a069","kind":"restaurant","name":"Δεντρόσπιτο","lat":38.04193059212469,"lng":23.83336989792643,"url":"https://maps.app.goo.gl/xX4rv5hpzm2R55iv8?g_st=ipc","address":"Λεωφ. Πεντέλης 102, Βριλήσσια 152 35","categoryIds":["family-friendly"],"categories":["Kid Friendly Locations"],"distanceKm":0.8051904007504729},{"id":"luxuryDiningRestaurants_7b82ed0407ba","slug":"kozi-s-7b82","kind":"restaurant","name":"Kozi's","lat":38.05410178054939,"lng":23.84283580469915,"url":"https://maps.app.goo.gl/FDQnvFLEucyn2rft6?g_st=ipc","address":"Π. Τσαλδάρη 34, Μελίσσια 151 27","categoryIds":["luxury-dining"],"categories":["Luxury Dining"],"distanceKm":0.8532578851639194},{"id":"italianRestaurants_3f60e58e5074","slug":"nolio-restaurant-3f60","kind":"restaurant","name":"Nolio Restaurant","lat":38.0541360368352,"lng":23.842912804517134,"url":"https://maps.app.goo.gl/yrWwCAmRFC73bnXRA?g_st=ipc","address":"Π. Τσαλδάρη 32-34, Μελίσσια 151 27","categoryIds":["italian"],"categories":["Italian Restaurants"],"distanceKm":0.8608147025743554},{"id":"mexicanRestaurants_a122440089bb","slug":"chilangos-melissia-a122","kind":"restaurant","name":"Chilangos Μελίσσια","lat":38.054355571864015,"lng":23.84267375327988,"url":"https://maps.app.goo.gl/1nUje6biZMsuVgA88?g_st=ipc","address":"Π. Τσαλδάρη 31, Μελίσσια 151 27","categoryIds":["mexican"],"categories":["Mexican Restaurants"],"distanceKm":0.8622048348079042},{"id":"burgersRestaurants_b5cd5e9d8f33","slug":"comet-street-gourmet-athens-b5cd","kind":"restaurant","name":"Comet Street Gourmet Athens","lat":38.05458806834009,"lng":23.84252767987863,"url":"https://maps.app.goo.gl/7yT5TAqAFBttQ8yZ7?g_st=ipc","address":"Σωκράτους 3, Μελίσσια 151 27","categoryIds":["burgers"],"categories":["Burger Spots"],"distanceKm":0.8714708656092783},{"id":"greekRestaurants_898e4444f3d9","slug":"o-kalofagas-steakhouse-898e","kind":"restaurant","name":"Ο Καλοφαγάς Steakhouse","lat":38.046607872986925,"lng":23.84536540675465,"url":"https://maps.app.goo.gl/K5myWMM5kegmZRGj7","address":"Παλαιών Πατρών Γερμανού 1, Βριλήσσια 152 38","categoryIds":["greek-restaurants"],"categories":["Greek Restaurants"],"distanceKm":0.8932247018639996},{"id":"familyFriendly_d45bb5296460","slug":"maroussi-tennis-club-d45b","kind":"restaurant","name":"Maroussi Tennis Club","lat":38.04651986209008,"lng":23.825630520397997,"url":"https://maps.app.goo.gl/pF3h6gGnqMiku8Wg9?g_st=ic","address":"Sismanogliou 74, Marousi 151 26","categoryIds":["family-friendly"],"categories":["Kid Friendly Locations"],"distanceKm":0.9147639102385577},{"id":"asianRestaurants_0fceaf69bfec","slug":"tailandi-0fce","kind":"restaurant","name":"Ταϊλάνδη","lat":38.05465471580679,"lng":23.844081463874097,"url":"https://maps.app.goo.gl/EKBgxEmreeAUsw7BA?g_st=ipc","address":"Σωκράτους 7, Μελίσσια 151 27","categoryIds":["asian"],"categories":["Asian Restaurants"],"distanceKm":0.975777404598053},{"id":"cheapEatsRestaurants_5a1b3de4b0cd","slug":"ta-soyvlakia-tis-giagias-5a1b","kind":"restaurant","name":"Τα σουβλάκια της γιαγιάς","lat":38.04199101993577,"lng":23.824597588199378,"url":"https://maps.app.goo.gl/K9azEutYtVeRFeTB9?g_st=ipc","address":"Κυπρίων Αγωνιστών 50, Μαρούσι 151 26","categoryIds":["cheap-eats"],"categories":["Gyros & Cheap Eats"],"distanceKm":1.2366403141445845},{"id":"familyFriendly_aade95e892c7","slug":"parko-mikis-theodorakis-typet-aade","kind":"restaurant","name":"Πάρκο Μίκης Θεοδωράκης - ΤΥΠΕΤ","lat":38.0376288072202,"lng":23.83650236719041,"url":"https://maps.app.goo.gl/pvC5VhagjzGcsF3b7?g_st=ipc","address":"Υμηττού 57, Βριλήσσια 152 35","categoryIds":["family-friendly"],"categories":["Kid Friendly Locations"],"distanceKm":1.2617042979596127},{"id":"fishTavernasRestaurants_94cda06b3f37","slug":"ta-psarakia-94cd","kind":"restaurant","name":"Τα Ψαράκια","lat":38.060545213135285,"lng":23.836609678627113,"url":"https://maps.app.goo.gl/uvjoui4AHeT11Xzo7?g_st=ipc","address":"Πλατεία Ελευθερίας 2, Νέστορος 4, Μελίσσια 151 27","categoryIds":["fish-tavernas"],"categories":["Fish Tavernas"],"distanceKm":1.2918810135453236},{"id":"greekRestaurants_191a2f7954ba","slug":"to-aythaireto-191a","kind":"restaurant","name":"ΤΟ ΑΥΘΑΙΡΕΤΟ","lat":38.05739141623042,"lng":23.82532230565926,"url":"https://maps.app.goo.gl/oF5WnEmN9HdHPyPo9","address":"Πεύκων 10, Μαρούσι 151 26","categoryIds":["greek-restaurants"],"categories":["Greek Restaurants"],"distanceKm":1.3006092925095891},{"id":"greekRestaurants_e5f425af5317","slug":"vlachos-mprizoles-choriatikes-pites-e5f4","kind":"restaurant","name":"Βλαχος, Μπριζόλες - Χωριάτικες πίτες","lat":38.06080156016513,"lng":23.83614625903362,"url":"https://maps.app.goo.gl/hue4bt53ZxfCUeXg6","address":"Κων/νου Καραμανλή, 17ης Νοεμβρίου και, Μελίσσια 151 27","categoryIds":["greek-restaurants"],"categories":["Greek Restaurants"],"distanceKm":1.318251792774007},{"id":"mexicanRestaurants_3cb054fab422","slug":"juan-s-cantina-vrilissia-3cb0","kind":"restaurant","name":"Juan's Cantina (Βριλήσσια)","lat":38.04160062532965,"lng":23.847620862228275,"url":"https://maps.app.goo.gl/6ANASWUmUfUoDhQ17?g_st=ipc","address":"Αναπαύσεως 40, Βριλήσσια 152 38","categoryIds":["mexican"],"categories":["Mexican Restaurants"],"distanceKm":1.332237337560304}],"mentionedGuides":[],"canonicalSlug":"to-peyko-taverna-fagito-sto-choro-take-away-delivery-217b","enrichment":{"summary_en":"Το Πευκο | Ταβέρνα - Φαγητό στο χώρο - Take Away - Delivery is a curated restaurant in Μελίσσια 151 27 in the Greek Restaurants collection. It is connected to 10 nearby Googlementor picks to help travelers build a stronger local route.","summary_el":"Το Πευκο | Ταβέρνα - Φαγητό στο χώρο - Take Away - Delivery είναι ένα επιλεγμένο σημείο φαγητού στην περιοχή Μελίσσια 151 27 και ανήκει στη συλλογή Greek Restaurants. Συνδέεται με 10 κοντινές προτάσεις του Googlementor για πιο ολοκληρωμένη εμπειρία.","vibe_tags":["curated"],"best_for":["first-time visitors","food lovers"],"visit_moments":["lunch stop","dinner stop"],"practical_note":"Address and direct map link are available for easy turn-by-turn access.","nearby_walkable_count":10,"nearby_count_2km":35,"confidence":0.98},"areaContext":{"slug":"melissia","name":"Melissia","nameEl":"Μελίσσια"},"intentContexts":[{"href":"/greek-restaurants/melissia","label":"Greek Restaurants in Melissia","categorySlug":"greek-restaurants","categoryName":"Greek Restaurants","areaSlug":"melissia","areaName":"Melissia","areaNameEl":"Μελίσσια"}]},"__N_SSG":true}