{"pageProps":{"entity":{"id":"coffeeBrunchRestaurants_819a67237a78","slug":"zimis-819a","kind":"restaurant","name":"Zimis","lat":38.83034594976957,"lng":20.704090375704506,"url":"https://maps.app.goo.gl/qftMEppMQDEhweUP7?g_st=ipc","address":"Efstathiou Zakka 12, Lefkada 311 00","categoryIds":["coffee-brunch"],"categories":["Coffee & Brunch Spots"]},"sameCategory":[{"id":"coffeeBrunchRestaurants_7849cd86ff9a","slug":"myrtillo-7849","kind":"restaurant","name":"myrtillo","lat":38.33016504186232,"lng":20.54543331787743,"url":"https://maps.app.goo.gl/jceQN1dFVGYrVSaFA?g_st=ipc","address":"Divarata 280 81","categoryIds":["coffee-brunch"],"categories":["Coffee & Brunch Spots"]},{"id":"coffeeBrunchRestaurants_9057c09060eb","slug":"espresso-house-9057","kind":"restaurant","name":"Espresso house","lat":38.17163745193254,"lng":20.492476064422643,"url":"https://maps.app.goo.gl/yzerSoB1WzcjYnKq5?g_st=ipc","address":"Devosetou 15, Argostoli 281 00","categoryIds":["coffee-brunch"],"categories":["Coffee & Brunch Spots"]},{"id":"coffeeBrunchRestaurants_b203c212827d","slug":"remetzo-kafe-b203","kind":"restaurant","name":"Ρεμετζο καφέ","lat":38.14775445639953,"lng":20.7788036615171,"url":"https://maps.app.goo.gl/DJjkbdzn9Sg4yrHY7?g_st=ipc","address":"Metaxa, Kefalonia 280 82","categoryIds":["coffee-brunch"],"categories":["Coffee & Brunch Spots"]},{"id":"coffeeBrunchRestaurants_febf410e8642","slug":"costa-costa-beach-bar-febf","kind":"restaurant","name":"Costa Costa Beach Bar","lat":38.15380761963389,"lng":20.4824739703724,"url":"https://maps.app.goo.gl/TgFrHfc8nxYVBh9z7?g_st=ipc","address":"Lassi, Argostoli 281 00","categoryIds":["coffee-brunch"],"categories":["Coffee & Brunch Spots"]},{"id":"coffeeBrunchRestaurants_caa1d894f98a","slug":"kafepoleion-caa1","kind":"restaurant","name":"Kafepoleion","lat":38.14255916452544,"lng":20.54310186456745,"url":"https://maps.app.goo.gl/YKFX8hPovFNGt9pDA?g_st=ipc","address":"Κοκύλια, Kefalonia 281 00","categoryIds":["coffee-brunch"],"categories":["Coffee & Brunch Spots"]},{"id":"coffeeBrunchRestaurants_8e8ab9c3ae16","slug":"alatiera-8e8a","kind":"restaurant","name":"Alatiera","lat":38.36054133352401,"lng":21.42496004301919,"url":"https://maps.app.goo.gl/CmTSEDR1jZPW7D6x6?g_st=ipc","address":"Epar.Od. Mesologgiou - Alikon Tourlidas 27, Missolonghi 302 00","categoryIds":["coffee-brunch"],"categories":["Coffee & Brunch Spots"]},{"id":"coffeeBrunchRestaurants_f69353dde3df","slug":"ammos-beach-bar-restaurant-kefalonia-f693","kind":"restaurant","name":"Ammos Beach Bar & Restaurant | Kefalonia","lat":38.08122535953636,"lng":20.800056619766497,"url":"https://maps.app.goo.gl/SxeeHeaBpXq8VgZe8?g_st=ipc","address":"Κεφαλληνίας, Skala 281 00","categoryIds":["coffee-brunch"],"categories":["Coffee & Brunch Spots"]},{"id":"coffeeBrunchRestaurants_5fe3af39ab2b","slug":"825-eat-and-coffee-karpenissi-5fe3","kind":"restaurant","name":"825 eat and coffee Karpenissi","lat":38.879552565898926,"lng":21.74418375846026,"url":"https://maps.app.goo.gl/RS2SUMtbtY8WCrnF9?g_st=ipc","address":"Voutyro 361 00","categoryIds":["coffee-brunch"],"categories":["Coffee & Brunch Spots"]},{"id":"coffeeBrunchRestaurants_4e2dd1d22431","slug":"to-kafe-tis-charas-4e2d","kind":"restaurant","name":"Το καφέ της Χαράς","lat":38.86839469803581,"lng":21.760838169390635,"url":"https://maps.app.goo.gl/rmkYbTkw4mzL6Ws7A?g_st=ipc","address":"Κλαυσί 361 00","categoryIds":["coffee-brunch"],"categories":["Coffee & Brunch Spots"]},{"id":"coffeeBrunchRestaurants_1257c9be30ac","slug":"villaggio-cafe-meze-1257","kind":"restaurant","name":"Villaggio café - mezé","lat":38.903233129898815,"lng":21.759044154104334,"url":"https://maps.app.goo.gl/TYafQiUuDWknuAyTA?g_st=ipc","address":"ΚΟΡΥΣΧΑΔΕΣ 1, Karpenisi 361 00","categoryIds":["coffee-brunch"],"categories":["Coffee & Brunch Spots"]},{"id":"coffeeBrunchRestaurants_0e2616bd7fc7","slug":"saloon-park-0e26","kind":"restaurant","name":"Saloon Park","lat":38.90092398449493,"lng":21.77279442117925,"url":"https://maps.app.goo.gl/ou4ZLrrH5JymyBSH7?g_st=ipc","address":"3ο χιλ Καρπενησίου Προυσσου, Karpenisi 361 00","categoryIds":["coffee-brunch","family-friendly"],"categories":["Coffee & Brunch Spots","Kid Friendly Locations"],"legacySlugs":["saloon-park-ea50"]},{"id":"coffeeBrunchRestaurants_b487e1e8e4bb","slug":"la-mer-b487","kind":"restaurant","name":"La Mer","lat":38.15655535964722,"lng":21.36777415023951,"url":"https://maps.app.goo.gl/ijDMxEmSaLdDH7FR8?g_st=ipc","address":"Larisos 270 52","categoryIds":["coffee-brunch"],"categories":["Coffee & Brunch Spots"]}],"nearby":[{"id":"luxuryDiningRestaurants_8b20ccb20498","slug":"mastelo-restaurant-bar-8b20","kind":"restaurant","name":"Mastelo Restaurant & Bar","lat":38.83239517619771,"lng":20.705692089105533,"url":"https://maps.app.goo.gl/3X5uukpGejXWctER8?g_st=ipc","address":"Mitropoleos 11, Lefkada 311 00","categoryIds":["luxury-dining"],"categories":["Luxury Dining"],"distanceKm":0.2667786221316584},{"id":"dessertsRestaurants_c1858394016b","slug":"fresco-gelato-artigianale-c185","kind":"restaurant","name":"Fresco gelato artigianale","lat":38.833202680203854,"lng":20.707021375147267,"url":"https://maps.app.goo.gl/ewEbAmjuJdZBCseQ7?g_st=ipc","address":"Ioannou Mela 69, Lefkada 311 00","categoryIds":["desserts"],"categories":["Dessert Shops"],"distanceKm":0.40664523842712014},{"id":"italianRestaurants_13db7f7dfac4","slug":"loulis-taste-project-13db","kind":"restaurant","name":"Loulis Taste Project","lat":38.83362395321285,"lng":20.707875524974906,"url":"https://maps.app.goo.gl/tNzSrPjrJVJbBhbr6?g_st=ipc","address":"Loulis Taste Project","categoryIds":["italian"],"categories":["Italian Restaurants"],"distanceKm":0.49026076664907936},{"id":"municipalities_1d2e36065111","slug":"leykada-1d2e","kind":"municipality","name":"Λευκάδα","lat":38.83,"lng":20.71,"region":"Ιόνιο","name_en":"Lefkada","region_en":"Ionian Islands","distanceKm":0.5133451787518903},{"id":"luxuryDiningRestaurants_7ec403367977","slug":"restaurant-thymari-7ec4","kind":"restaurant","name":"Restaurant Thymari","lat":38.835357324233975,"lng":20.708797217981044,"url":"https://maps.app.goo.gl/8TWdBgQzLn6EaTaWA?g_st=ipc","address":"Πηνελόπης 19, Lefkada 311 00","categoryIds":["luxury-dining"],"categories":["Luxury Dining"],"distanceKm":0.6904597066403296},{"id":"rooftopLoungesRestaurants_fbedc289379a","slug":"taratsa-open-fbed","kind":"restaurant","name":"Taratsa Open","lat":38.83493516503128,"lng":20.711610210825643,"url":"https://maps.app.goo.gl/gucKqbib1YPXfXRd8?g_st=ipc","address":"EO Amfilochias Lefkadas, Lefkada 311 00","categoryIds":["rooftop-lounges"],"categories":["Rooftop Lounges"],"distanceKm":0.827448720907252},{"id":"greekRestaurants_1d1502fabe5a","slug":"margarita-restaurant-1d15","kind":"restaurant","name":"Margarita Restaurant","lat":38.83487688240494,"lng":20.711768051704645,"url":"https://maps.app.goo.gl/4VvcV8grfdUFnb8k8?g_st=ipc","address":"Dimitrioy golemi, Λευκάδα 311 00","categoryIds":["greek-restaurants"],"categories":["Greek Restaurants"],"distanceKm":0.8343243868359859},{"id":"fishTavernasRestaurants_7810838c2d0c","slug":"psaropoula-7810","kind":"restaurant","name":"Psaropoúla","lat":38.82126467879608,"lng":20.655911390455394,"url":"https://maps.app.goo.gl/64Q772kGwY6K6Mps8?g_st=ipc","address":"Τσουκαλαδες, Tsoukalades Λευκαδα, Lefkada 311 00","categoryIds":["fish-tavernas"],"categories":["Fish Tavernas"],"distanceKm":4.294023542047086},{"id":"fishTavernasRestaurants_1f52f6889767","slug":"ta-kanioria-tavern-1f52","kind":"restaurant","name":"Ta Kanioria Tavern","lat":38.79179727346099,"lng":20.720165771019264,"url":"https://maps.app.goo.gl/EbWqYiGwVkKbLu5h6?g_st=ipc","address":"Λυγιά 311 00","categoryIds":["fish-tavernas"],"categories":["Fish Tavernas"],"distanceKm":4.507039965089629},{"id":"greekRestaurants_0ef8cfb2d853","slug":"kolokythas-oikogeneiaki-taverna-0ef8","kind":"restaurant","name":"ΚΟΛΟΚΥΘΑΣ Οικογενειακή Ταβέρνα","lat":38.79965914314924,"lng":20.740469326628666,"url":"https://maps.app.goo.gl/DdneXWByi7dQmATLA?g_st=ipc","address":"Πλαγια αιτολοκαρνανιας Πλαγιά, Πλαγιά 300 02","categoryIds":["greek-restaurants"],"categories":["Greek Restaurants"],"distanceKm":4.645165873013992},{"id":"greekRestaurants_b44de7a44b82","slug":"breath-of-zorbas-b44d","kind":"restaurant","name":"Breath of Zorbas","lat":38.75308739240382,"lng":20.721497707378486,"url":"https://maps.app.goo.gl/qhkhSbqR6wdTPs2u6?g_st=ipc","address":"Ανάσα του Ζορμπά, Νικιάνα 311 00","categoryIds":["greek-restaurants"],"categories":["Greek Restaurants"],"distanceKm":8.722226029340218},{"id":"greekRestaurants_3127804c6fd3","slug":"drymonaki-3127","kind":"restaurant","name":"Drymonaki","lat":38.773138866298765,"lng":20.628773219324636,"url":"https://maps.app.goo.gl/PtQK43FC1oh4H367A?g_st=ipc","address":"Επαρ.Οδ. Λευκάδας - Κάτω Εξανθείας, Δρυμώνας 311 00","categoryIds":["greek-restaurants"],"categories":["Greek Restaurants"],"distanceKm":9.113833338351519},{"id":"greekRestaurants_711020d4f316","slug":"pardalo-katsiki-7110","kind":"restaurant","name":"Παρδαλό Κατσίκι","lat":38.76029753827684,"lng":20.64847159329693,"url":"https://maps.app.goo.gl/8pTbVRTApz74Yc7Y6?g_st=ipc","address":"Καρυά 310 80","categoryIds":["greek-restaurants"],"categories":["Greek Restaurants"],"distanceKm":9.159848204049831},{"id":"greekRestaurants_a07fccbcdfe3","slug":"taverna-o-minas-a07f","kind":"restaurant","name":"Ταβέρνα Ο Μηνάς","lat":38.745408998983734,"lng":20.72626254060498,"url":"https://maps.app.goo.gl/CMgtZcma5cpMYi7v9?g_st=ipc","address":"Νικιάνα 311 00","categoryIds":["greek-restaurants"],"categories":["Greek Restaurants"],"distanceKm":9.638087311047958},{"id":"luxuryDiningRestaurants_d0c9da73f0ff","slug":"amente-restaurant-cocktail-bar-d0c9","kind":"restaurant","name":"Amente Restaurant & Cocktail bar","lat":38.772581566319595,"lng":20.61911835255244,"url":"https://maps.app.goo.gl/gfJazr3nBs7Z4eio6?g_st=ipc","address":"Varagas, Drimonas 311 00","categoryIds":["luxury-dining"],"categories":["Luxury Dining"],"distanceKm":9.771171911162577},{"id":"greekRestaurants_d21bba9d342c","slug":"rachi-food-feelings-d21b","kind":"restaurant","name":"RACHI Food & Feelings","lat":38.75825764413059,"lng":20.616346707590512,"url":"https://maps.app.goo.gl/JGrrpXUs2MQoXr7q9?g_st=ipc","address":"Εξάνθεια 310 80","categoryIds":["greek-restaurants"],"categories":["Greek Restaurants"],"distanceKm":11.048973563402646},{"id":"greekRestaurants_6942525c12c1","slug":"the-barrel-restaurant-6942","kind":"restaurant","name":"The Barrel Restaurant","lat":38.70813316851677,"lng":20.712139832547678,"url":"https://maps.app.goo.gl/pBSGBnhjGPMcZiCm9?g_st=ipc","address":"Παραλία Νυδρίου, Νυδρί 310 84","categoryIds":["greek-restaurants"],"categories":["Greek Restaurants"],"distanceKm":13.607347773905817},{"id":"greekRestaurants_90eadbf70442","slug":"basilico-restaurant-nidri-lefkada-90ea","kind":"restaurant","name":"Basilico Restaurant Nidri Lefkada","lat":38.70626000795254,"lng":20.709794846088023,"url":"https://maps.app.goo.gl/cefnGXGEhd1wv2Dc8?g_st=ipc","address":"Ακτή Αριστοτέλη Ωνάση 34, Νυδρί 310 84","categoryIds":["greek-restaurants"],"categories":["Greek Restaurants"],"distanceKm":13.80658775298936},{"id":"greekRestaurants_b0e6188690d8","slug":"taverna-pantazis-b0e6","kind":"restaurant","name":"Ταβέρνα Πανταζής","lat":38.70139865323847,"lng":20.691084581555593,"url":"https://maps.app.goo.gl/Jen92tnRfBazNiWcA?g_st=ipc","address":"Μεγάλο Αυλάκι, Αγ. Χριστόφορος 311 00","categoryIds":["greek-restaurants"],"categories":["Greek Restaurants"],"distanceKm":14.38255557366916},{"id":"greekRestaurants_5b79ce0986b5","slug":"taverna-dimitris-5b79","kind":"restaurant","name":"Ταβέρνα Δημήτρης","lat":38.701351826545626,"lng":20.6910843134411,"url":"https://maps.app.goo.gl/g9mTBjMTZaLgmLJV6?g_st=ipc","address":"Μεγάλο Αυλάκι, Αγ. Χριστόφορος 311 00","categoryIds":["greek-restaurants"],"categories":["Greek Restaurants"],"distanceKm":14.387748293787109},{"id":"municipalities_761f6f2874f3","slug":"preveza-761f","kind":"municipality","name":"Πρέβεζα","lat":38.9567,"lng":20.75,"aliases":["Preveza"],"region":"Ήπειρος","name_en":"Preveza","region_en":"Epirus","distanceKm":14.600926215299337},{"id":"greekRestaurants_e4a6c55ef106","slug":"t-aloni-e4a6","kind":"restaurant","name":"T'Aloni","lat":38.718102837279,"lng":20.601347450819645,"url":"https://maps.app.goo.gl/1ZUJJmBiae2uGevP7?g_st=ipc","address":"Greece, Επαρ.Οδ. Λευκάδας - Βασιλίκης, Χορτάτα 310 82","categoryIds":["greek-restaurants"],"categories":["Greek Restaurants"],"distanceKm":15.33304508399684},{"id":"fishTavernasRestaurants_8c846286bb7f","slug":"hippocampus-restaurant-8c84","kind":"restaurant","name":"Hippocampus Restaurant","lat":38.68645020644706,"lng":20.712029545342183,"url":"https://maps.app.goo.gl/dycgkVizrbH5BJsH7?g_st=ipc","address":"Γενί 311 00","categoryIds":["fish-tavernas"],"categories":["Fish Tavernas"],"distanceKm":16.01527840696121},{"id":"greekRestaurants_3b8a788327c2","slug":"pavlos-taverna-3b8a","kind":"restaurant","name":"Pavlos Taverna","lat":38.68581647887406,"lng":20.688297137443023,"url":"https://maps.app.goo.gl/ihQGJVLaCRwDgTPC6?g_st=ipc","address":"38°41'09.1\"N 20°41'17.3\"E, Χαραδιάτικα 311 00","categoryIds":["greek-restaurants"],"categories":["Greek Restaurants"],"distanceKm":16.12918323181031}],"mentionedGuides":[],"canonicalSlug":"zimis-819a","enrichment":{"summary_en":"Zimis is a curated restaurant in Lefkada 311 00 in the Coffee & Brunch Spots collection. It is connected to 5 nearby Googlementor picks to help travelers build a stronger local route.","summary_el":"Zimis είναι ένα επιλεγμένο σημείο φαγητού στην περιοχή Lefkada 311 00 και ανήκει στη συλλογή Coffee & Brunch Spots. Συνδέεται με 5 κοντινές προτάσεις του Googlementor για πιο ολοκληρωμένη εμπειρία.","vibe_tags":["curated","daytime-favorite"],"best_for":["first-time visitors","food lovers"],"visit_moments":["early morning","late brunch"],"practical_note":"Address and direct map link are available for easy turn-by-turn access.","nearby_walkable_count":5,"nearby_count_2km":7,"confidence":0.98},"areaContext":null,"intentContexts":[]},"__N_SSG":true}