{"pageProps":{"payload":{"area":{"id":"municipalities_80c55a9453fa","name":"Άνω Πετράλωνα","nameEn":"Ano Petralona","region":"Κέντρο Αθήνας","regionEn":"Athens Center","lat":37.9689,"lng":23.7139,"urlSlug":"ano-petralona","aliases":["Άνω Πετράλωνα","Ano Petralona","Άνω Πετράλωνα Athens Center","Ano Petralona Athens Center","Ανω Πετραλωνα","ano-petralona-80c5","ano-petralona"]},"category":{"id":"cheap-eats","name":"Gyros & Cheap Eats","urlSlug":"cheap-eats","aliases":["cheap-eats","Gyros & Cheap Eats","gyros-cheap-eats"]},"entities":[{"entity":{"id":"cheapEatsRestaurants_1f6ebf17e5fc","slug":"pita-status-1f6e","kind":"restaurant","name":"Pita Status","lat":37.96762299813557,"lng":23.71283351407897,"url":"https://maps.app.goo.gl/QzPB3fhcnsDGCLfk8?g_st=ipc","address":"Καλλισθένους 82, Αθήνα 118 52","categoryIds":["cheap-eats"],"categories":["Gyros & Cheap Eats"]},"distanceKm":0.17000904888339968},{"entity":{"id":"cheapEatsRestaurants_69740415da3d","slug":"best-taste-6974","kind":"restaurant","name":"Best Taste","lat":37.96738306337228,"lng":23.70591216193093,"url":"https://maps.app.goo.gl/kwZdwHs4BAKbQ5T69?g_st=ipc","address":"Αθηνοδώρου 23, Αθήνα 118 53","categoryIds":["cheap-eats"],"categories":["Gyros & Cheap Eats"]},"distanceKm":0.7202502807042536},{"entity":{"id":"cheapEatsRestaurants_ed7bd1fc7e39","slug":"mirlo-kebabs-ed7b","kind":"restaurant","name":"mirlo kebabs","lat":37.976362795934286,"lng":23.71060804281136,"url":"https://maps.app.goo.gl/rT5pzNjpc9bM7HzT9?g_st=ipc","address":"Ελασιδών 5A, Αθήνα 118 54","categoryIds":["cheap-eats"],"categories":["Gyros & Cheap Eats"]},"distanceKm":0.8785643935946443},{"entity":{"id":"cheapEatsRestaurants_f167ae0efa67","slug":"kalyvas-oikogeneiako-psitopoleio-f167","kind":"restaurant","name":"Καλύβας οικογενειακό ψητοπωλείο","lat":37.962881286635515,"lng":23.721970322127277,"url":"https://maps.app.goo.gl/tfkKpGgKP9PAqPWX9?g_st=ipc","address":"Dimitrakopoulou 91-93, G Olymbiou 10, Athina 117 41","categoryIds":["cheap-eats"],"categories":["Gyros & Cheap Eats"]},"distanceKm":0.9738655485230384},{"entity":{"id":"cheapEatsRestaurants_5e8824ccc538","slug":"kalamaki-bar-5e88","kind":"restaurant","name":"Kalamaki Bar","lat":37.9654765831714,"lng":23.725752010856876,"url":"https://maps.app.goo.gl/vMhM3YojNKaURqwX8?g_st=ipc","address":"Δημητρακοπούλου και, Δράκου 15, Αθήνα 117 42","categoryIds":["cheap-eats"],"categories":["Gyros & Cheap Eats"]},"distanceKm":1.1065113798251618},{"entity":{"id":"cheapEatsRestaurants_ccda7a47a1b9","slug":"falafel-bar-to-revithi-ccda","kind":"restaurant","name":"falafel bar ΤΟ ΡΕΒΙΘΙ","lat":37.96631483519238,"lng":23.7261110398094,"url":"https://maps.app.goo.gl/4FqJYg2raYZvXHja7?g_st=ipc","address":"Παρθενώνος 1, Αθήνα 117 42","categoryIds":["cheap-eats"],"categories":["Gyros & Cheap Eats"]},"distanceKm":1.1083631943050272},{"entity":{"id":"gyrosSouvlakiRestaurants_22073f048cbc","slug":"o-kostas-2207","kind":"restaurant","name":"O Kostas","lat":37.972,"lng":23.726,"url":"https://maps.app.goo.gl/sample28","address":"Adrianou 116, Athina 105 58","categoryIds":["cheap-eats"],"categories":["Gyros & Cheap Eats"]},"distanceKm":1.1152698703584778},{"entity":{"id":"cheapEatsRestaurants_9ef22bd13da7","slug":"gyristroyla-9ef2","kind":"restaurant","name":"Γυριστρούλα","lat":37.97711548768267,"lng":23.72128560665997,"url":"https://maps.app.goo.gl/rUqbZBRjNZ4twFu59?g_st=ipc","address":"Square (across from \"Thissio\" ISAP station, Αγίων Ασωμάτων 9, Αθήνα 105 54","categoryIds":["cheap-eats"],"categories":["Gyros & Cheap Eats"]},"distanceKm":1.119655287302265},{"entity":{"id":"cheapEatsRestaurants_abe36348d52a","slug":"guarantee-abe3","kind":"restaurant","name":"Guarantee","lat":37.96613348579953,"lng":23.726193428667294,"url":"https://maps.app.goo.gl/k43yGuJ8dK72yJAh8?g_st=ipc","address":"Βεΐκου 41, Αθήνα 117 42","categoryIds":["cheap-eats"],"categories":["Gyros & Cheap Eats"]},"distanceKm":1.1207077988056457},{"entity":{"id":"cheapEatsRestaurants_d094097525b6","slug":"senor-picante-d094","kind":"restaurant","name":"Señor Picante","lat":37.965308606012925,"lng":23.726477821309263,"url":"https://maps.app.goo.gl/bZNApSKDTgmvuiXB7?g_st=ipc","address":"Φαλήρου 40, Αθήνα 117 42","categoryIds":["cheap-eats"],"categories":["Gyros & Cheap Eats"]},"distanceKm":1.1726886988952443},{"entity":{"id":"cheapEatsRestaurants_4de598be41da","slug":"johnie-hot-dog-syggroy-4de5","kind":"restaurant","name":"Johnie Hot Dog Συγγρού","lat":37.959239923680194,"lng":23.71954717101243,"url":"https://maps.app.goo.gl/WUCUWAGV3GyPBumi7?g_st=ipc","address":"Λεωφ. Ανδρέα Συγγρού 136, Καλλιθέα 176 71","categoryIds":["cheap-eats"],"categories":["Gyros & Cheap Eats"]},"distanceKm":1.1827463919972265},{"entity":{"id":"cheapEatsRestaurants_087b1f7ae690","slug":"potato-king-087b","kind":"restaurant","name":"Potato King","lat":37.97675298586362,"lng":23.723457601026865,"url":"https://maps.app.goo.gl/7oETcHQJwsjd3Q6S9?g_st=ipc","address":"Αγίου Φιλίππου 7, Αθήνα 105 55","categoryIds":["cheap-eats"],"categories":["Gyros & Cheap Eats"]},"distanceKm":1.2101093878983067},{"entity":{"id":"cheapEatsRestaurants_0c227902a32d","slug":"elvis-kalamakia-0c22","kind":"restaurant","name":"Έλβις Καλαμάκια","lat":37.977219822169786,"lng":23.722815670884195,"url":"https://maps.app.goo.gl/FJ47hNfgCop393VD9?g_st=ipc","address":"Ερμού 112, Αθήνα 105 63","categoryIds":["cheap-eats"],"categories":["Gyros & Cheap Eats"]},"distanceKm":1.21103161140598},{"entity":{"id":"cheapEatsRestaurants_a74d191853cb","slug":"wolfie-s-iera-odos-a74d","kind":"restaurant","name":"Wolfie’s Iera Odos","lat":37.98005072086818,"lng":23.713098576163578,"url":"https://maps.app.goo.gl/WroCvakHc4brPbjt7?g_st=ipc","address":"Ιερά Οδός 37, Αθήνα 118 54","categoryIds":["cheap-eats"],"categories":["Gyros & Cheap Eats"]},"distanceKm":1.2418919485156639},{"entity":{"id":"cheapEatsRestaurants_104db32dd905","slug":"jackaroo-104d","kind":"restaurant","name":"Jackaroo","lat":37.96222285381352,"lng":23.7252636942005,"url":"https://maps.app.goo.gl/obvLVFRy5Vbt8DPS6?g_st=ipc","address":"Καλλιρρόης 73, Αθήνα 117 45","categoryIds":["cheap-eats"],"categories":["Gyros & Cheap Eats"]},"distanceKm":1.242433371088314},{"entity":{"id":"cheapEatsRestaurants_ea477a96a248","slug":"ta-soyvlakia-tis-petmeza-souvlakia-petmeza-ea47","kind":"restaurant","name":"Τα ΣΟΥΒΛΑΚΙΑ της Πετμεζά souvlakia petmeza","lat":37.96653318144558,"lng":23.72792783847805,"url":"https://maps.app.goo.gl/wJbToSNnsHXBEELJ7?g_st=ipc","address":"Πετμεζά 2, Αθήνα 117 42","categoryIds":["cheap-eats"],"categories":["Gyros & Cheap Eats"]},"distanceKm":1.257546531810175},{"entity":{"id":"cheapEatsRestaurants_9273dc402e3b","slug":"piccola-9273","kind":"restaurant","name":"Piccola","lat":37.980127892484575,"lng":23.715865229557284,"url":"https://maps.app.goo.gl/MuZFA3dXT4LnZFtL7?g_st=ipc","address":"Keramikou 111, Athina 104 35","categoryIds":["cheap-eats"],"categories":["Gyros & Cheap Eats"]},"distanceKm":1.2603122915294553},{"entity":{"id":"cheapEatsRestaurants_94dff4f67b62","slug":"to-soyvlaki-tis-charokopoy-94df","kind":"restaurant","name":"Το Σουβλάκι Της Χαροκόπου","lat":37.95770921844376,"lng":23.710571236714188,"url":"https://maps.app.goo.gl/Rh99dawd3iLza1Vz7?g_st=ipc","address":"Χαροκόπου 46, Καλλιθέα 176 71","categoryIds":["cheap-eats"],"categories":["Gyros & Cheap Eats"]},"distanceKm":1.2781185074162529},{"entity":{"id":"gyrosSouvlakiRestaurants_ddb106f4030b","slug":"gyros-psyrri-ddb1","kind":"restaurant","name":"Gyros Psyrri","lat":37.974,"lng":23.727,"url":"https://maps.app.goo.gl/sample30","address":"Agiou Filippou 19, Athina 105 55","categoryIds":["cheap-eats"],"categories":["Gyros & Cheap Eats"]},"distanceKm":1.2807033189485593},{"entity":{"id":"cheapEatsRestaurants_7c127d112eef","slug":"dirty-manh-7c12","kind":"restaurant","name":"Dirty Manh","lat":37.96689597541608,"lng":23.728371721835774,"url":"https://maps.app.goo.gl/LaZcss8aznDJpxm89?g_st=ipc","address":"Νικ. Δημητρακοπούλου 5, Αθήνα 117 42","categoryIds":["cheap-eats"],"categories":["Gyros & Cheap Eats"]},"distanceKm":1.2880302148901304},{"entity":{"id":"cheapEatsRestaurants_6df03a7d154b","slug":"to-soyvlaki-tis-sarri-6df0","kind":"restaurant","name":"το σουβλάκι της σαρρή","lat":37.978860476586924,"lng":23.722082836375154,"url":"https://maps.app.goo.gl/4dueoYmWEmQ4i8jF8?g_st=ipc","address":"Σαρρή 36, Αθήνα 105 53","categoryIds":["cheap-eats"],"categories":["Gyros & Cheap Eats"]},"distanceKm":1.3195212694375393},{"entity":{"id":"cheapEatsRestaurants_3d671140dfef","slug":"o-thanasis-kempap-monastiraki-3d67","kind":"restaurant","name":"Ο Θανάσης κεμπάπ Μοναστηράκι","lat":37.976291478347854,"lng":23.726486093222853,"url":"https://maps.app.goo.gl/1dqXX7TB1pvVovcv8?g_st=ipc","address":"Μητροπόλεως 69, Αθήνα 105 55","categoryIds":["cheap-eats"],"categories":["Gyros & Cheap Eats"]},"distanceKm":1.3757366107984528},{"entity":{"id":"cheapEatsRestaurants_7d6699a91456","slug":"o-gyros-poy-gyreyeis-7d66","kind":"restaurant","name":"ο γύρος που γυρεύεις","lat":37.968706021561665,"lng":23.729791439377735,"url":"https://maps.app.goo.gl/bMFjRtNN6Ztw4H43A?g_st=ipc","address":"Αθανασίου Διάκου 1 Ακρόπολη, Αθήνα 117 42","categoryIds":["cheap-eats"],"categories":["Gyros & Cheap Eats"]},"distanceKm":1.3932115026818848},{"entity":{"id":"cheapEatsRestaurants_0f0b8dd68736","slug":"the-doc-s-burger-bar-0f0b","kind":"restaurant","name":"The Doc's Burger Bar","lat":37.97742334199844,"lng":23.725636669246807,"url":"https://maps.app.goo.gl/U7fwr2D5HgEHTzhH6?g_st=ipc","address":"Ανδρέα Μιαούλη 10, Αθήνα 105 54","categoryIds":["cheap-eats"],"categories":["Gyros & Cheap Eats"]},"distanceKm":1.3987904545245642},{"entity":{"id":"cheapEatsRestaurants_97e6c85445da","slug":"tsiken-the-van-97e6","kind":"restaurant","name":"ΤΣΙΚΕΝ The Van","lat":37.97797456722786,"lng":23.725133314287408,"url":"https://maps.app.goo.gl/QK18bYTh1b11fJt97?g_st=ipc","address":"Μιαούλη 19, Αθήνα 105 54","categoryIds":["cheap-eats"],"categories":["Gyros & Cheap Eats"]},"distanceKm":1.409861970964615},{"entity":{"id":"cheapEatsRestaurants_2631e9cf6c33","slug":"andreas-2631","kind":"restaurant","name":"Ανδρέας","lat":37.96513210122869,"lng":23.697946357808643,"url":"https://maps.app.goo.gl/FLdq6c6WUqhHtMqK9?g_st=ipc","address":"Χρυσοστόμου Σμύρνης 52, Ταύρος Αττικής 177 78","categoryIds":["cheap-eats"],"categories":["Gyros & Cheap Eats"]},"distanceKm":1.459940612206501},{"entity":{"id":"cheapEatsRestaurants_24f0cfa0516a","slug":"ringo-kalamaki-pub-24f0","kind":"restaurant","name":"RINGO Kalamaki Pub","lat":37.978249435688795,"lng":23.72590325237898,"url":"https://maps.app.goo.gl/EvDBZN3YG2DfzNcdA?g_st=ipc","address":"Πρωτογένους 8, Αθήνα 105 54","categoryIds":["cheap-eats"],"categories":["Gyros & Cheap Eats"]},"distanceKm":1.4791151866724335},{"entity":{"id":"gyrosSouvlakiRestaurants_514910b62a38","slug":"souvlaki-monastiraki-5149","kind":"restaurant","name":"Souvlaki Monastiraki","lat":37.975,"lng":23.729,"url":"https://maps.app.goo.gl/sample29","address":"Mitropoleos 2, Athina 105 63","categoryIds":["cheap-eats"],"categories":["Gyros & Cheap Eats"]},"distanceKm":1.4872860847111562},{"entity":{"id":"cheapEatsRestaurants_f6e9355765da","slug":"armando-pizzeria-cafeteria-f6e9","kind":"restaurant","name":"Armando Pizzeria Cafeteria","lat":37.98213236236815,"lng":23.71647213293712,"url":"https://maps.app.goo.gl/X5ofrEqzBi24eigT6?g_st=ipc","address":"Σαλαμίνος 43, Αθήνα 104 35","categoryIds":["cheap-eats"],"categories":["Gyros & Cheap Eats"]},"distanceKm":1.4885439863543837},{"entity":{"id":"cheapEatsRestaurants_f2848f6727ab","slug":"tylixto-monastiraki-f284","kind":"restaurant","name":"TYLIXTO MONASTIRAKI","lat":37.976859135543,"lng":23.727597993730694,"url":"https://maps.app.goo.gl/s8G17xLU1a1prvZq8?g_st=ipc","address":"Aiolou 19 TYLIXTO, Αιόλου 19, Αθήνα 105 51","categoryIds":["cheap-eats"],"categories":["Gyros & Cheap Eats"]},"distanceKm":1.4916211190316575}],"counts":{"totalEntities":4117,"totalInArea":818,"totalInCategory":440,"totalCategoryArea":103},"relatedCategories":[{"categoryId":"coffee-brunch","categorySlug":"brunch","categoryName":"Coffee & Brunch Spots","count":131,"passesThreshold":true},{"categoryId":"greek-restaurants","categorySlug":"greek-restaurants","categoryName":"Greek Restaurants","count":94,"passesThreshold":true},{"categoryId":"desserts","categorySlug":"desserts","categoryName":"Dessert Shops","count":78,"passesThreshold":true},{"categoryId":"vegetarian","categorySlug":"vegetarian","categoryName":"Vegetarian Friendly Restaurants","count":72,"passesThreshold":true},{"categoryId":"luxury-dining","categorySlug":"luxury-dining","categoryName":"Luxury Dining","count":70,"passesThreshold":true},{"categoryId":"italian","categorySlug":"italian","categoryName":"Italian Restaurants","count":51,"passesThreshold":true},{"categoryId":"rooftop-lounges","categorySlug":"rooftops","categoryName":"Rooftop Lounges","count":51,"passesThreshold":true},{"categoryId":"attractions","categorySlug":"attractions","categoryName":"Must-See Attractions","count":42,"passesThreshold":true},{"categoryId":"burgers","categorySlug":"burgers","categoryName":"Burger Spots","count":36,"passesThreshold":true},{"categoryId":"asian","categorySlug":"asian-restaurants","categoryName":"Asian Restaurants","count":36,"passesThreshold":true}],"relatedAreas":[{"areaId":"municipalities_877c3bc81df5","areaName":"Σύνταγμα","areaSlug":"syntagma","count":120,"passesThreshold":true,"nearestDistanceKm":0.11961398706816125},{"areaId":"municipalities_0fd1d03201a0","areaName":"Μετς","areaSlug":"mets","count":117,"passesThreshold":true,"nearestDistanceKm":0.1631876921993796},{"areaId":"municipalities_5bc013791cf8","areaName":"Πλάκα","areaSlug":"plaka","count":117,"passesThreshold":true,"nearestDistanceKm":0.2738306467202473},{"areaId":"municipalities_0cae2c00b932","areaName":"Κολωνάκι","areaSlug":"kolonaki","count":116,"passesThreshold":true,"nearestDistanceKm":0.2594995444411492},{"areaId":"municipalities_d7e1aaaed4f9","areaName":"Μοναστηράκι","areaSlug":"monastiraki","count":115,"passesThreshold":true,"nearestDistanceKm":0.0015439249117317326},{"areaId":"municipalities_2bcfcb8b899f","areaName":"Ψυρρή","areaSlug":"psyrri","count":115,"passesThreshold":true,"nearestDistanceKm":0.12368716844713971},{"areaId":"municipalities_2f324ee27306","areaName":"Εξάρχεια","areaSlug":"exarcheia","count":113,"passesThreshold":true,"nearestDistanceKm":0.11466066383697145},{"areaId":"municipalities_4149fa79e27b","areaName":"Ακρόπολη","areaSlug":"akropoli","count":112,"passesThreshold":true,"nearestDistanceKm":0.061502911765534726},{"areaId":"municipalities_616efd2a0d9b","areaName":"Κουκάκι","areaSlug":"koykaki","count":112,"passesThreshold":true,"nearestDistanceKm":0.06801690175180578},{"areaId":"municipalities_7e1691d5f08d","areaName":"Μεταξουργείο","areaSlug":"metaxoyrgeio","count":112,"passesThreshold":true,"nearestDistanceKm":0.22717746766798677}],"passesThreshold":true},"hasAreaGuidePage":true,"topGuides":[]},"__N_SSG":true}