{"pageProps":{"payload":{"area":{"id":"municipalities_6dce5446e51c","name":"Φιλοθέη","nameEn":"Filothei","region":"Βόρεια Προάστια","regionEn":"Northern Suburbs","lat":38.024,"lng":23.766,"urlSlug":"filothei","aliases":["Φιλοθέη","Filothei","Φιλοθέη Northern Suburbs","Filothei Northern Suburbs","Filothee","Φιλοθεη","Philothei","filothei-6dce","filothei"]},"category":{"id":"cheap-eats","name":"Gyros & Cheap Eats","urlSlug":"cheap-eats","aliases":["cheap-eats","Gyros & Cheap Eats","gyros-cheap-eats"]},"entities":[{"entity":{"id":"cheapEatsRestaurants_7b6d49968714","slug":"nikos-o-kalavrytinos-7b6d","kind":"restaurant","name":"Νίκος ο Καλαβρυτινός","lat":38.024001161887576,"lng":23.75301292455858,"url":"https://maps.app.goo.gl/cmE54PPQGsdzvzgz5?g_st=ipc","address":"Εκάβης 63, Γαλάτσι 111 46","categoryIds":["cheap-eats"],"categories":["Gyros & Cheap Eats"]},"distanceKm":1.1375913700434823},{"entity":{"id":"cheapEatsRestaurants_58791178b56b","slug":"draminos-5879","kind":"restaurant","name":"Δραμινός","lat":38.03491475648599,"lng":23.754928540856955,"url":"https://maps.app.goo.gl/uhi56PKbCSVGMvqf8?g_st=ipc","address":"Σινώπης 62, Νέα Ιωνία 142 33","categoryIds":["cheap-eats"],"categories":["Gyros & Cheap Eats"]},"distanceKm":1.5534946504881098},{"entity":{"id":"cheapEatsRestaurants_cbf0a0d9c1b3","slug":"lamprinaki-cbf0","kind":"restaurant","name":"Λαμπρινάκι","lat":38.0224148920344,"lng":23.747555518536878,"url":"https://maps.app.goo.gl/M5T9Z6KajRqpaNBA7?g_st=ipc","address":"Τράλλεων 67, Αθήνα 111 42","categoryIds":["cheap-eats"],"categories":["Gyros & Cheap Eats"]},"distanceKm":1.6252312216731861},{"entity":{"id":"cheapEatsRestaurants_f3077615404b","slug":"kantina-o-alekos-f307","kind":"restaurant","name":"Καντίνα \"ο Αλεκος\"","lat":38.04208740467577,"lng":23.77486464859004,"url":"https://maps.app.goo.gl/4oCtgVQEesHACQsu8?g_st=ipc","address":"Μαρίνου Αντύπα 47, Ηράκλειο 141 21","categoryIds":["cheap-eats"],"categories":["Gyros & Cheap Eats"]},"distanceKm":2.1558817423072605},{"entity":{"id":"cheapEatsRestaurants_5f9d5dd343a6","slug":"ypoyrgeio-geyseon-soyvlaki-psita-5f9d","kind":"restaurant","name":"ΥΠΟΥΡΓΕΙΟ ΓΕΥΣΕΩΝ-Σουβλάκι,Ψητά","lat":38.04303394507047,"lng":23.771779772357615,"url":"https://maps.app.goo.gl/LCrvDRPpRco2nVuF9?g_st=ipc","address":"Φιλοθέης 67, Ηράκλειο 141 21","categoryIds":["cheap-eats"],"categories":["Gyros & Cheap Eats"]},"distanceKm":2.1761724357097862},{"entity":{"id":"cheapEatsRestaurants_778124c76b47","slug":"kayteros-7781","kind":"restaurant","name":"Καυτερός","lat":38.01875295817606,"lng":23.790041802148505,"url":"https://maps.app.goo.gl/pxJjypQCU2pCdj2c9?g_st=ipc","address":"Αγρινίου 5, Χαλάνδρι 152 32","categoryIds":["cheap-eats"],"categories":["Gyros & Cheap Eats"]},"distanceKm":2.1853204691870083},{"entity":{"id":"cheapEatsRestaurants_a39f2b17c80c","slug":"i-vasiliki-psitopoleio-soyvlakopoleio-a39f","kind":"restaurant","name":"Η Βασιλική - Ψητοπωλείο Σουβλακοπωλείο","lat":38.01712717421362,"lng":23.740908436131292,"url":"https://maps.app.goo.gl/5zkEPJhoVXLaVYeF7?g_st=ipc","address":"Μαρκορά 25, Αθήνα 111 41","categoryIds":["cheap-eats"],"categories":["Gyros & Cheap Eats"]},"distanceKm":2.327044803720392},{"entity":{"id":"cheapEatsRestaurants_59fb21ba5f98","slug":"hobos-street-grill-59fb","kind":"restaurant","name":"Hobos Street Grill","lat":38.04249747641086,"lng":23.753515339761147,"url":"https://maps.app.goo.gl/YHJtEHPvQRVXwD3F7?g_st=ipc","address":"Λεωφ. Ηρακλείου 254, Νέα Ιωνία 142 31","categoryIds":["cheap-eats"],"categories":["Gyros & Cheap Eats"]},"distanceKm":2.329410347348595},{"entity":{"id":"cheapEatsRestaurants_204d68c7c535","slug":"to-ariston-204d","kind":"restaurant","name":"ΤΟ ΑΡΙΣΤΟΝ","lat":38.022955608499146,"lng":23.735820169983455,"url":"https://maps.app.goo.gl/TRT4ewxJ6pQL8ffBA?g_st=ipc","address":"Πατησίων 349, Αθήνα 111 44","categoryIds":["cheap-eats"],"categories":["Gyros & Cheap Eats"]},"distanceKm":2.646143856668661},{"entity":{"id":"cheapEatsRestaurants_6fffd649c703","slug":"ta-soyvlakia-tis-lilas-6fff","kind":"restaurant","name":"Τα Σουβλάκια της Λίλας","lat":38.005272385766645,"lng":23.785280918308118,"url":"https://maps.app.goo.gl/47M2HP8TwbyX2Zp37?g_st=ipc","address":"25ης Μαρτίου 41, Νέο Ψυχικό 154 51","categoryIds":["cheap-eats"],"categories":["Gyros & Cheap Eats"]},"distanceKm":2.6813336678807},{"entity":{"id":"cheapEatsRestaurants_d9e484914294","slug":"mparmpalias-d9e4","kind":"restaurant","name":"Μπαρμπαλιάς","lat":38.022224299572,"lng":23.79656538042495,"url":"https://maps.app.goo.gl/LeEZCDs2GRC6YKuT7?g_st=ipc","address":"Λεωφ. Βασιλέως Γεωργίου B 6, Χαλάνδρι 152 33","categoryIds":["cheap-eats"],"categories":["Gyros & Cheap Eats"]},"distanceKm":2.6846506248385005},{"entity":{"id":"cheapEatsRestaurants_19bf55f57647","slug":"soyvlakochorio-19bf","kind":"restaurant","name":"Σουβλακοχωριό","lat":38.019021009797974,"lng":23.79620669265203,"url":"https://maps.app.goo.gl/Qngg6pY64nb2i3sX9?g_st=ipc","address":"25ης Μαρτίου 33, Χαλάνδρι 152 32","categoryIds":["cheap-eats"],"categories":["Gyros & Cheap Eats"]},"distanceKm":2.703318104849167},{"entity":{"id":"cheapEatsRestaurants_708ba2b3a806","slug":"eyripidis-1955-708b","kind":"restaurant","name":"Ευριπίδης 1955","lat":38.03354736852586,"lng":23.737489018536408,"url":"https://maps.app.goo.gl/oALQiKiSKqqQt7VE8?g_st=ipc","address":"Λεωφ. Δεκελείας 83, Νέα Φιλαδέλφεια Αττικής 143 41","categoryIds":["cheap-eats"],"categories":["Gyros & Cheap Eats"]},"distanceKm":2.7135216325938307},{"entity":{"id":"cheapEatsRestaurants_1dedf7a650a7","slug":"pita-pan-psychiko-1ded","kind":"restaurant","name":"Πίτα Παν Ψυχικό","lat":38.000864793942334,"lng":23.776520342405362,"url":"https://maps.app.goo.gl/ZXh8jCZFq67QiKQq7?g_st=ipc","address":"Αγγέλου Σικελιανού 28, Νέο Ψυχικό 154 51","categoryIds":["cheap-eats"],"categories":["Gyros & Cheap Eats"]},"distanceKm":2.7326386205928177},{"entity":{"id":"cheapEatsRestaurants_ae066a0c8be0","slug":"street-wok-ae06","kind":"restaurant","name":"Street wok","lat":38.03415581458627,"lng":23.737421868861436,"url":"https://maps.app.goo.gl/2Mpgb24E2Bp7GYMDA?g_st=ipc","address":"Βρυούλων 4, Νέα Φιλαδέλφεια Αττικής 143 41","categoryIds":["cheap-eats"],"categories":["Gyros & Cheap Eats"]},"distanceKm":2.746048920624026},{"entity":{"id":"cheapEatsRestaurants_4176abbd859b","slug":"to-soyvlaki-toy-chalandrioy-express-4176","kind":"restaurant","name":"Το Σουβλάκι του Χαλανδρίου «Express»","lat":38.02210047029897,"lng":23.79733270387276,"url":"https://maps.app.goo.gl/jvDmvkwHFZFAd18e6?g_st=ipc","address":"Κολοκοτρώνη 26, Χαλάνδρι 152 33","categoryIds":["cheap-eats"],"categories":["Gyros & Cheap Eats"]},"distanceKm":2.752711451447618},{"entity":{"id":"cheapEatsRestaurants_25538f73c661","slug":"koutsi-katsika-street-food-nea-filadelfeia-2553","kind":"restaurant","name":"Koutsi Katsika Street Food Νέα Φιλαδέλφεια","lat":38.036295969328165,"lng":23.73867352816236,"url":"https://maps.app.goo.gl/SfprcJNzr7drSK6A6?g_st=ipc","address":"Λεωφ. Δεκελείας 109, Νέα Φιλαδέλφεια Αττικής 143 41","categoryIds":["cheap-eats"],"categories":["Gyros & Cheap Eats"]},"distanceKm":2.756431151291878},{"entity":{"id":"cheapEatsRestaurants_93852e0ca98a","slug":"i-vromiara-the-gourmet-street-food-nea-filadelfeia-9385","kind":"restaurant","name":"Η Βρωμιάρα - The Gourmet Street Food - Νεα Φιλαδέλφεια","lat":38.03438911435279,"lng":23.73692338806855,"url":"https://maps.app.goo.gl/Q23dgN65gryr9fpi7?g_st=ipc","address":"Βρυούλων 5, Νέα Φιλαδέλφεια Αττικής 143 41","categoryIds":["cheap-eats"],"categories":["Gyros & Cheap Eats"]},"distanceKm":2.7965174272123896},{"entity":{"id":"cheapEatsRestaurants_6071194d9f9f","slug":"curry-express-indian-chef-6071","kind":"restaurant","name":"Curry Express & Indian Chef","lat":38.02245552538877,"lng":23.798012966612305,"url":"https://maps.app.goo.gl/z58YmxhSwvtKJai57?g_st=ipc","address":"Γρ. Γυφτοπούλου 7, Χαλάνδρι 152 33","categoryIds":["cheap-eats"],"categories":["Gyros & Cheap Eats"]},"distanceKm":2.8094309930150767},{"entity":{"id":"cheapEatsRestaurants_8385a72feb82","slug":"taco-bell-8385","kind":"restaurant","name":"Taco Bell","lat":38.0228052820458,"lng":23.79853818143159,"url":"https://maps.app.goo.gl/f47SevFfDgNbNtWk7?g_st=ipc","address":"Κολοκοτρώνη 13, Χαλάνδρι 152 33","categoryIds":["cheap-eats"],"categories":["Gyros & Cheap Eats"]},"distanceKm":2.853270716207426},{"entity":{"id":"cheapEatsRestaurants_8e920e95e567","slug":"slum-it-8e92","kind":"restaurant","name":"Slum it","lat":38.034971479219536,"lng":23.73628101866516,"url":"https://maps.app.goo.gl/m2fyvmtGXXiGevuC6?g_st=ipc","address":"Βρυούλων 15, Νέα Φιλαδέλφεια Αττικής 143 41","categoryIds":["cheap-eats"],"categories":["Gyros & Cheap Eats"]},"distanceKm":2.874719110525175},{"entity":{"id":"cheapEatsRestaurants_70af29f6373f","slug":"holy-pasta-chalandri-70af","kind":"restaurant","name":"Holy Pasta Chalandri","lat":38.02090646389776,"lng":23.799055964157045,"url":"https://maps.app.goo.gl/dD7x8SrXxBd8mmDX7?g_st=ipc","address":"Ηρακλείου 3, Χαλάνδρι 152 32","categoryIds":["cheap-eats"],"categories":["Gyros & Cheap Eats"]},"distanceKm":2.9159296898150737},{"entity":{"id":"cheapEatsRestaurants_6a4147d64308","slug":"klassikon-6a41","kind":"restaurant","name":"Κλασσικόν","lat":37.99808496466343,"lng":23.757900577588526,"url":"https://maps.app.goo.gl/RXpLLpBphHc6FhZD9?g_st=ipc","address":"Μητροπέτροβα 32, Αθήνα 114 76","categoryIds":["cheap-eats"],"categories":["Gyros & Cheap Eats"]},"distanceKm":2.967701193650267},{"entity":{"id":"cheapEatsRestaurants_ec9b2c37ec79","slug":"o-ellinaras-ec9b","kind":"restaurant","name":"Ο ΕΛΛΗΝΑΡΑΣ","lat":38.017568546798636,"lng":23.799181700850475,"url":"https://maps.app.goo.gl/3g2yxFrBJ6V2KPZm7?g_st=ipc","address":"Παλαιολόγου 63, Χαλάνδρι 152 32","categoryIds":["cheap-eats"],"categories":["Gyros & Cheap Eats"]},"distanceKm":2.993332944368719},{"entity":{"id":"cheapEatsRestaurants_4b2392e8f1da","slug":"peirasmos-4b23","kind":"restaurant","name":"ΠΕΙΡΑΣΜΟΣ","lat":38.00274661999109,"lng":23.744683791776005,"url":"https://maps.app.goo.gl/wXj4gGBY4uF6K2yW8?g_st=ipc","address":"Βελβενδού 20, Αθήνα 113 63","categoryIds":["cheap-eats"],"categories":["Gyros & Cheap Eats"]},"distanceKm":3.0120403451455706},{"entity":{"id":"cheapEatsRestaurants_0022a0eff11e","slug":"koytroylis-0022","kind":"restaurant","name":"ΚΟΥΤΡΟΥΛΗΣ","lat":37.99585400563359,"lng":23.762177083127305,"url":"https://maps.app.goo.gl/xGhyT1vrgFSKodic9?g_st=ipc","address":"Βαρνακιώτη 4, Αθήνα 115 24","categoryIds":["cheap-eats"],"categories":["Gyros & Cheap Eats"]},"distanceKm":3.147562275253946},{"entity":{"id":"cheapEatsRestaurants_3855239555fb","slug":"oi-meraklides-3855","kind":"restaurant","name":"Οι Μερακλήδες","lat":38.005421507151304,"lng":23.738069532004765,"url":"https://maps.app.goo.gl/cQBiuhmvhu6SiSrp9?g_st=ipc","address":"Αγίας Ζώνης 60, Αθήνα 112 56","categoryIds":["cheap-eats"],"categories":["Gyros & Cheap Eats"]},"distanceKm":3.202306775474148},{"entity":{"id":"cheapEatsRestaurants_28c94df5ce5f","slug":"krepilateion-28c9","kind":"restaurant","name":"ΚΡΕΠΗΛΑΤΕΙΟΝ","lat":38.037837677741585,"lng":23.799467140725334,"url":"https://maps.app.goo.gl/CSqgCp2SZrPwcWdC6?g_st=ipc","address":"Λεωφ. Κηφισίας 59, Μαρούσι 151 25","categoryIds":["cheap-eats"],"categories":["Gyros & Cheap Eats"]},"distanceKm":3.310550977294286},{"entity":{"id":"cheapEatsRestaurants_27cac1fed09e","slug":"cocofino-i-nea-geysi-sto-kotopoylo-27ca","kind":"restaurant","name":"Cocofino Η Νέα Γεύση Στο Κοτόπουλο","lat":38.005115910403084,"lng":23.79578002602544,"url":"https://maps.app.goo.gl/uKWqbt6RdiChRPZi8?g_st=ipc","address":"Φανερωμένης 1α, Χολαργός 155 61","categoryIds":["cheap-eats"],"categories":["Gyros & Cheap Eats"]},"distanceKm":3.348960360066968},{"entity":{"id":"cheapEatsRestaurants_0e996f9a4065","slug":"jackaroo-0e99","kind":"restaurant","name":"Jackaroo","lat":37.99342271258061,"lng":23.764131211857187,"url":"https://maps.app.goo.gl/VnT5HzaYL2NjnGd27?g_st=ipc","address":"Πανόρμου 109, Αθήνα 115 24","categoryIds":["cheap-eats"],"categories":["Gyros & Cheap Eats"]},"distanceKm":3.403979135886207}],"counts":{"totalEntities":4117,"totalInArea":240,"totalInCategory":440,"totalCategoryArea":34},"relatedCategories":[{"categoryId":"greek-restaurants","categorySlug":"greek-restaurants","categoryName":"Greek Restaurants","count":41,"passesThreshold":true},{"categoryId":"desserts","categorySlug":"desserts","categoryName":"Dessert Shops","count":40,"passesThreshold":true},{"categoryId":"coffee-brunch","categorySlug":"brunch","categoryName":"Coffee & Brunch Spots","count":31,"passesThreshold":true},{"categoryId":"burgers","categorySlug":"burgers","categoryName":"Burger Spots","count":19,"passesThreshold":true},{"categoryId":"italian","categorySlug":"italian","categoryName":"Italian Restaurants","count":18,"passesThreshold":true},{"categoryId":"asian","categorySlug":"asian-restaurants","categoryName":"Asian Restaurants","count":14,"passesThreshold":true},{"categoryId":"family-friendly","categorySlug":"family-friendly","categoryName":"Kid Friendly Locations","count":11,"passesThreshold":true},{"categoryId":"fish-tavernas","categorySlug":"fish-tavernas","categoryName":"Fish Tavernas","count":9,"passesThreshold":true},{"categoryId":"luxury-dining","categorySlug":"luxury-dining","categoryName":"Luxury Dining","count":7,"passesThreshold":true},{"categoryId":"mexican","categorySlug":"mexican","categoryName":"Mexican Restaurants","count":7,"passesThreshold":true}],"relatedAreas":[{"areaId":"municipalities_877c3bc81df5","areaName":"Σύνταγμα","areaSlug":"syntagma","count":120,"passesThreshold":true,"nearestDistanceKm":0.11961398706816125},{"areaId":"municipalities_0fd1d03201a0","areaName":"Μετς","areaSlug":"mets","count":117,"passesThreshold":true,"nearestDistanceKm":0.1631876921993796},{"areaId":"municipalities_5bc013791cf8","areaName":"Πλάκα","areaSlug":"plaka","count":117,"passesThreshold":true,"nearestDistanceKm":0.2738306467202473},{"areaId":"municipalities_0cae2c00b932","areaName":"Κολωνάκι","areaSlug":"kolonaki","count":116,"passesThreshold":true,"nearestDistanceKm":0.2594995444411492},{"areaId":"municipalities_d7e1aaaed4f9","areaName":"Μοναστηράκι","areaSlug":"monastiraki","count":115,"passesThreshold":true,"nearestDistanceKm":0.0015439249117317326},{"areaId":"municipalities_2bcfcb8b899f","areaName":"Ψυρρή","areaSlug":"psyrri","count":115,"passesThreshold":true,"nearestDistanceKm":0.12368716844713971},{"areaId":"municipalities_2f324ee27306","areaName":"Εξάρχεια","areaSlug":"exarcheia","count":113,"passesThreshold":true,"nearestDistanceKm":0.11466066383697145},{"areaId":"municipalities_4149fa79e27b","areaName":"Ακρόπολη","areaSlug":"akropoli","count":112,"passesThreshold":true,"nearestDistanceKm":0.061502911765534726},{"areaId":"municipalities_616efd2a0d9b","areaName":"Κουκάκι","areaSlug":"koykaki","count":112,"passesThreshold":true,"nearestDistanceKm":0.06801690175180578},{"areaId":"municipalities_7e1691d5f08d","areaName":"Μεταξουργείο","areaSlug":"metaxoyrgeio","count":112,"passesThreshold":true,"nearestDistanceKm":0.22717746766798677}],"passesThreshold":true},"hasAreaGuidePage":true,"topGuides":[]},"__N_SSG":true}