{"pageProps":{"payload":{"area":{"id":"municipalities_093f8da9eef7","name":"Νέα Σμύρνη","nameEn":"Nea Smyrni","region":"Νότια Προάστια","regionEn":"Southern Suburbs","lat":37.9456,"lng":23.7142,"urlSlug":"nea-smyrni","aliases":["Νέα Σμύρνη","Nea Smyrni","Νέα Σμύρνη Southern Suburbs","Nea Smyrni Southern Suburbs","Nea Smirni","Νεα Σμυρνη","Nea Smyrne","nea-smyrni-093f","nea-smyrni"]},"category":{"id":"desserts","name":"Dessert Shops","urlSlug":"desserts","aliases":["desserts","Dessert Shops","dessert-shops"]},"entities":[{"entity":{"id":"dessertsRestaurants_90551d221579","slug":"zuccherino-9055","kind":"restaurant","name":"Zuccherino","lat":37.94670677191045,"lng":23.712370393556583,"url":"https://maps.app.goo.gl/AvtpV9edEhsRgr9r5?g_st=ipc","address":"2ας Μαΐου 12, Νέα Σμύρνη 171 21","categoryIds":["desserts"],"categories":["Dessert Shops"]},"distanceKm":0.20219866014339302},{"entity":{"id":"dessertsRestaurants_8de488078304","slug":"crepa-crepa-8de4","kind":"restaurant","name":"Crepa crepa","lat":37.94728978565515,"lng":23.712096506964457,"url":"https://maps.app.goo.gl/vmeSVgQbRFAe8fe19?g_st=ipc","address":"Ειρήνης 2, Νέα Σμύρνη 171 21","categoryIds":["desserts"],"categories":["Dessert Shops"]},"distanceKm":0.26329829042489694},{"entity":{"id":"dessertsRestaurants_6903e2ef4276","slug":"la-maison-fine-pastry-6903","kind":"restaurant","name":"La Maison - Fine Pastry","lat":37.951479018771344,"lng":23.703684961330683,"url":"https://maps.app.goo.gl/Hwbaz4KzQVAzGaRA8?g_st=ipc","address":"Δημοσθένους 149, Καλλιθέα 176 73","categoryIds":["desserts"],"categories":["Dessert Shops"]},"distanceKm":1.1302371513788172},{"entity":{"id":"dessertsRestaurants_10984675e64e","slug":"loukou-mio-1098","kind":"restaurant","name":"Loukou Mio","lat":37.934456122337956,"lng":23.71152313800977,"url":"https://maps.app.goo.gl/uQM5VBZoTd8kzvPT9?g_st=ipc","address":"Λεωφ. Ελ. Βενιζέλου 195, Νέα Σμύρνη 171 23","categoryIds":["desserts"],"categories":["Dessert Shops"]},"distanceKm":1.261182036893339},{"entity":{"id":"dessertsRestaurants_0bd680afbb5e","slug":"zacharoplasteio-profiterol-dimopoylos-kallithea-0bd6","kind":"restaurant","name":"Ζαχαροπλαστείο Προφιτερόλ Δημόπουλος Καλλιθέα","lat":37.95693778495156,"lng":23.709710879410338,"url":"https://maps.app.goo.gl/t1RvynY9vJegnu6i6?g_st=ipc","address":"Αγ. Πάντων 46, Καλλιθέα 176 71","categoryIds":["desserts"],"categories":["Dessert Shops"]},"distanceKm":1.3207211109410817},{"entity":{"id":"dessertsRestaurants_f02a5d6ebd1d","slug":"melorama-f02a","kind":"restaurant","name":"Μελόραμα","lat":37.936036012331414,"lng":23.729840384667007,"url":"https://maps.app.goo.gl/YEvU9a6cA5Vmingw8?g_st=ipc","address":"Λεωφ. Αγίου Δημητρίου 161, Αγ. Δημήτριος Αττικής 173 43","categoryIds":["desserts"],"categories":["Dessert Shops"]},"distanceKm":1.7355510091667978},{"entity":{"id":"dessertsRestaurants_bf8ca0a3720e","slug":"elli-s-cakes-bf8c","kind":"restaurant","name":"Elli's Cakes","lat":37.9448495085085,"lng":23.734073926930343,"url":"https://maps.app.goo.gl/eufNFz1Bu9hgqeNm6?g_st=ipc","address":"Λεωφ. Αγίου Δημητρίου 40, Αγ. Δημήτριος Αττικής 173 41","categoryIds":["desserts"],"categories":["Dessert Shops"]},"distanceKm":1.744705877233692},{"entity":{"id":"dessertsRestaurants_aa7ff0f772d7","slug":"galaktopoleio-stamoy-aa7f","kind":"restaurant","name":"Γαλακτοπωλείο ΣΤΑΜΟΥ","lat":37.952436676546995,"lng":23.695715045897042,"url":"https://maps.app.goo.gl/rD5jojpe8yMT5k159?g_st=ipc","address":"Λεωφ. Ελ. Βενιζέλου 210, Καλλιθέα 176 75","categoryIds":["desserts"],"categories":["Dessert Shops"]},"distanceKm":1.7902501403140083},{"entity":{"id":"dessertsRestaurants_39196d9bee61","slug":"fatto-a-mano-3919","kind":"restaurant","name":"Fatto a Mano","lat":37.93356989313718,"lng":23.69912680674615,"url":"https://maps.app.goo.gl/6dQNxoEQLFVCyt9ZA?g_st=ipc","address":"Ζησιμοπούλου 86, Παλαιό Φάληρο 175 64","categoryIds":["desserts"],"categories":["Dessert Shops"]},"distanceKm":1.8806047439957232},{"entity":{"id":"dessertsRestaurants_565a86e193ac","slug":"loukoumania-koukaki-565a","kind":"restaurant","name":"Loukoumania Koukaki","lat":37.96292938267619,"lng":23.721586647006472,"url":"https://maps.app.goo.gl/ZLLgE9gFjGjPVqBp7?g_st=ipc","address":"Δημητρακοπούλου 102, Αθήνα 117 41","categoryIds":["desserts"],"categories":["Dessert Shops"]},"distanceKm":2.0328639636579866},{"entity":{"id":"dessertsRestaurants_4a419c4649f4","slug":"zacharoplasteia-kosmikon-p-faliro-4a41","kind":"restaurant","name":"ΖΑΧΑΡΟΠΛΑΣΤΕΙΑ ΚΟΣΜΙΚΟΝ Π.ΦΑΛΗΡΟ","lat":37.93261968622875,"lng":23.696837541827062,"url":"https://maps.app.goo.gl/JkkxEzmScmoGgm2v7?g_st=ipc","address":"Αγίου Αλεξάνδρου, Ζησιμοπούλου &, Παλαιό Φάληρο 175 61","categoryIds":["desserts"],"categories":["Dessert Shops"]},"distanceKm":2.0979953487389578},{"entity":{"id":"dessertsRestaurants_f792b1129076","slug":"flour-of-youth-f792","kind":"restaurant","name":"Flour Of Youth","lat":37.96404409092071,"lng":23.722471600259,"url":"https://maps.app.goo.gl/FibffjzNDReT3bDx7?g_st=ipc","address":"Βεΐκου 91, Αθήνα 117 41","categoryIds":["desserts"],"categories":["Dessert Shops"]},"distanceKm":2.1753393543992265},{"entity":{"id":"dessertsRestaurants_84508f8235f2","slug":"zuccherino-8450","kind":"restaurant","name":"Zuccherino","lat":37.93016519402215,"lng":23.696227697191645,"url":"https://maps.app.goo.gl/tbe5oMETgxZAQkFK9?g_st=ipc","address":"Πρωτέως & Σειρήνων 48, Παλαιό Φάληρο 175 61","categoryIds":["desserts"],"categories":["Dessert Shops"]},"distanceKm":2.330178731848547},{"entity":{"id":"dessertsRestaurants_65e04c3f641c","slug":"cinnabon-athens-metro-mall-65e0","kind":"restaurant","name":"Cinnabon (Athens Metro Mall)","lat":37.93941612015106,"lng":23.739972879470894,"url":"https://maps.app.goo.gl/71DTBLWMjXBGonps5?g_st=ipc","address":"Παρ. Λεωφ. Βουλιαγμένης 276, Αγ. Δημήτριος Αττικής 173 43","categoryIds":["desserts"],"categories":["Dessert Shops"]},"distanceKm":2.362348812943491},{"entity":{"id":"dessertsRestaurants_fc989a6fabce","slug":"zuccherino-fc98","kind":"restaurant","name":"Zuccherino","lat":37.929164062996655,"lng":23.69423089313357,"url":"https://maps.app.goo.gl/sw7fDPkoLwrWyuYH8?g_st=ipc","address":"Αγ. Αλεξάνδρου & Ναϊάδων, Παλαιό Φάληρο 175 61","categoryIds":["desserts"],"categories":["Dessert Shops"]},"distanceKm":2.5311941811733325},{"entity":{"id":"dessertsRestaurants_afb8506c8d05","slug":"artopoieio-zacharoplasteio-arto-zymia-afb8","kind":"restaurant","name":"Αρτοποιείο Ζαχαροπλαστείο \"Αρτο..ζυμιά\"","lat":37.96420550961748,"lng":23.731210577575705,"url":"https://maps.app.goo.gl/6ehxn4f4WUToWUi36?g_st=ipc","address":"Αγλαονίκης 22, Αθήνα 117 43","categoryIds":["desserts"],"categories":["Dessert Shops"]},"distanceKm":2.550383651605191},{"entity":{"id":"dessertsRestaurants_b3f00cec9209","slug":"dolce-far-niente-ice-cream-b3f0","kind":"restaurant","name":"Dolce Far Niente ice cream","lat":37.967030991920694,"lng":23.725035602938313,"url":"https://maps.app.goo.gl/YaopPeigqjaCn38A6?g_st=ipc","address":"Τσάμη Καρατάσου 26, Αθήνα 117 42","categoryIds":["desserts"],"categories":["Dessert Shops"]},"distanceKm":2.565403261416113},{"entity":{"id":"dessertsRestaurants_60d1fcac742b","slug":"galaktopoleio-stamoy-60d1","kind":"restaurant","name":"Γαλακτοπωλείο ΣΤΑΜΟΥ","lat":37.92337769116455,"lng":23.723512288009644,"url":"https://maps.app.goo.gl/bn7iuhhPxPAJJeX38?g_st=ipc","address":"Λεωφ. Αγίου Δημητρίου 305, Αγ. Δημήτριος Αττικής 173 42","categoryIds":["desserts"],"categories":["Dessert Shops"]},"distanceKm":2.6024747234978887},{"entity":{"id":"dessertsRestaurants_fd20de94e53a","slug":"special-patisserie-fd20","kind":"restaurant","name":"Special patisserie","lat":37.969012654644324,"lng":23.710612606423226,"url":"https://maps.app.goo.gl/PFQQ6yh6H3RcJ4dD6?g_st=ipc","address":"Τριών Ιεραρχών 124, Αθήνα 118 52","categoryIds":["desserts"],"categories":["Dessert Shops"]},"distanceKm":2.6222986423052883},{"entity":{"id":"dessertsRestaurants_2a3970a71069","slug":"django-gelato-athens-2a39","kind":"restaurant","name":"Django Gelato Athens","lat":37.96685228149483,"lng":23.72787408682893,"url":"https://maps.app.goo.gl/uXMPHW7X8YEMKDvp9?g_st=ipc","address":"Βεΐκου 15, Αθήνα 117 42","categoryIds":["desserts"],"categories":["Dessert Shops"]},"distanceKm":2.649861027724935},{"entity":{"id":"dessertsRestaurants_44e6918dfa7f","slug":"alchimistis-cafe-patisserie-44e6","kind":"restaurant","name":"Αλχημιστής Cafe Patisserie","lat":37.96784501160447,"lng":23.7283241033881,"url":"https://maps.app.goo.gl/n2exdkXc6qfVR4fM9?g_st=ipc","address":"Χατζηχρήστου 8, Αθήνα 117 42","categoryIds":["desserts"],"categories":["Dessert Shops"]},"distanceKm":2.7661900882301773},{"entity":{"id":"dessertsRestaurants_22239c987b1a","slug":"patisserie-artemis-gelateria-ice-cream-2223","kind":"restaurant","name":"Patisserie Artemis - Gelateria Ice Cream","lat":37.96786547488155,"lng":23.729346783174314,"url":"https://maps.app.goo.gl/dE6muCbG7gwaWz9H8?g_st=ipc","address":"Μακρυγιάννη 33, Αθήνα 117 42","categoryIds":["desserts"],"categories":["Dessert Shops"]},"distanceKm":2.8094789068198187},{"entity":{"id":"dessertsRestaurants_7f61f06e1814","slug":"ice-queen-gelato-7f61","kind":"restaurant","name":"Ice Queen Gelato","lat":37.96875198593791,"lng":23.729719578537868,"url":"https://maps.app.goo.gl/HyCCcJSVYZCw8dMV7?g_st=ipc","address":"Μακρυγιάννη 9, Αθήνα 117 42","categoryIds":["desserts"],"categories":["Dessert Shops"]},"distanceKm":2.911846911137745},{"entity":{"id":"dessertsRestaurants_e6bd44c1950f","slug":"asterisque-the-bakery-e6bd","kind":"restaurant","name":"Asterisque The Bakery","lat":37.966001002034226,"lng":23.735518320337178,"url":"https://maps.app.goo.gl/rDURttsufbmP6fEE6?g_st=ipc","address":"Χαρβούρη 2, Αθήνα 116 36","categoryIds":["desserts"],"categories":["Dessert Shops"]},"distanceKm":2.9393124669714514},{"entity":{"id":"dessertsRestaurants_e43c42b90f2e","slug":"madame-fraise-e43c","kind":"restaurant","name":"Madame Fraise","lat":37.96254401203089,"lng":23.741655782873448,"url":"https://maps.app.goo.gl/Fa8Ak5n35wZADRZJ8?g_st=ipc","address":"Υμηττού 225, Αθήνα 116 32","categoryIds":["desserts"],"categories":["Dessert Shops"]},"distanceKm":3.0569071149544373},{"entity":{"id":"dessertsRestaurants_7bd01cf1e63e","slug":"fresko-yogurt-bar-7bd0","kind":"restaurant","name":"Fresko Yogurt Bar","lat":37.9729332607424,"lng":23.720307507382138,"url":"https://maps.app.goo.gl/iHsYU8dLuNLhL1VR9?g_st=ipc","address":"Ιουλίου Σμιθ 2, Αθήνα 118 51","categoryIds":["desserts"],"categories":["Dessert Shops"]},"distanceKm":3.0861264659633454},{"entity":{"id":"dessertsRestaurants_db3d47fd588a","slug":"arte-athens-db3d","kind":"restaurant","name":"Arte Athens","lat":37.97243004672386,"lng":23.729479004279412,"url":"https://maps.app.goo.gl/Lqr3t1JFkHesFNnk6?g_st=ipc","address":"Τριπόδων 16, Αθήνα 105 58","categoryIds":["desserts"],"categories":["Dessert Shops"]},"distanceKm":3.270294541822677},{"entity":{"id":"dessertsRestaurants_d2c71b210d1a","slug":"solo-gelato-d2c7","kind":"restaurant","name":"Solo Gelato","lat":37.972749067243114,"lng":23.730253715604512,"url":"https://maps.app.goo.gl/NjipC5csKbXMwq4j7?g_st=ipc","address":"Αδριανού 120, Αθήνα 105 58","categoryIds":["desserts"],"categories":["Dessert Shops"]},"distanceKm":3.3308127204242233},{"entity":{"id":"dessertsRestaurants_cd6c99db0548","slug":"royal-pastry-cd6c","kind":"restaurant","name":"ROYAL PASTRY","lat":37.9185478292188,"lng":23.73065461612568,"url":"https://maps.app.goo.gl/kD7yYZ1zi5KhZ3iT9?g_st=ipc","address":"Θεομήτορος 24, Άλιμος 173 42","categoryIds":["desserts"],"categories":["Dessert Shops"]},"distanceKm":3.336328126646444},{"entity":{"id":"dessertsRestaurants_36cfd9004102","slug":"fresh-mail-pagkratioy-36cf","kind":"restaurant","name":"Fresh Mail Παγκρατίου","lat":37.963053181322294,"lng":23.74589240163266,"url":"https://maps.app.goo.gl/umohxobBLijQzZis5?g_st=ipc","address":"Filolaou 124Α, Athina 116 33","categoryIds":["desserts"],"categories":["Dessert Shops"]},"distanceKm":3.3893275034446013}],"counts":{"totalEntities":4118,"totalInArea":336,"totalInCategory":379,"totalCategoryArea":32},"relatedCategories":[{"categoryId":"coffee-brunch","categorySlug":"brunch","categoryName":"Coffee & Brunch Spots","count":56,"passesThreshold":true},{"categoryId":"cheap-eats","categorySlug":"cheap-eats","categoryName":"Gyros & Cheap Eats","count":46,"passesThreshold":true},{"categoryId":"greek-restaurants","categorySlug":"greek-restaurants","categoryName":"Greek Restaurants","count":44,"passesThreshold":true},{"categoryId":"attractions","categorySlug":"attractions","categoryName":"Must-See Attractions","count":29,"passesThreshold":true},{"categoryId":"italian","categorySlug":"italian","categoryName":"Italian Restaurants","count":25,"passesThreshold":true},{"categoryId":"vegetarian","categorySlug":"vegetarian","categoryName":"Vegetarian Friendly Restaurants","count":19,"passesThreshold":true},{"categoryId":"luxury-dining","categorySlug":"luxury-dining","categoryName":"Luxury Dining","count":17,"passesThreshold":true},{"categoryId":"rooftop-lounges","categorySlug":"rooftops","categoryName":"Rooftop Lounges","count":14,"passesThreshold":true},{"categoryId":"asian","categorySlug":"asian-restaurants","categoryName":"Asian Restaurants","count":11,"passesThreshold":true},{"categoryId":"fish-tavernas","categorySlug":"fish-tavernas","categoryName":"Fish Tavernas","count":11,"passesThreshold":true}],"relatedAreas":[{"areaId":"municipalities_75ddb64a42fd","areaName":"Γύζη","areaSlug":"gyzi","count":93,"nearestDistanceKm":0.32215698371358104},{"areaId":"municipalities_61eaea5bd3d9","areaName":"Ιλίσια","areaSlug":"ilisia","count":86,"nearestDistanceKm":0.37498482525216587},{"areaId":"municipalities_0fd1d03201a0","areaName":"Μετς","areaSlug":"mets","count":85,"nearestDistanceKm":0.1314938402817187},{"areaId":"municipalities_af1f7d07cb18","areaName":"Γκάζι","areaSlug":"gkazi","count":85,"nearestDistanceKm":0.18651008458205726},{"areaId":"municipalities_2f324ee27306","areaName":"Εξάρχεια","areaSlug":"exarcheia","count":85,"nearestDistanceKm":0.2193595957859492},{"areaId":"municipalities_0cae2c00b932","areaName":"Κολωνάκι","areaSlug":"kolonaki","count":84,"nearestDistanceKm":0.09888651704551905},{"areaId":"municipalities_f73663b8f738","areaName":"Αττική","areaSlug":"attiki","count":84,"nearestDistanceKm":0.4088220172465194},{"areaId":"municipalities_5bc013791cf8","areaName":"Πλάκα","areaSlug":"plaka","count":83,"nearestDistanceKm":0.027062667032199905},{"areaId":"municipalities_2bcfcb8b899f","areaName":"Ψυρρή","areaSlug":"psyrri","count":83,"nearestDistanceKm":0.047074153549061026},{"areaId":"municipalities_877c3bc81df5","areaName":"Σύνταγμα","areaSlug":"syntagma","count":83,"nearestDistanceKm":0.14239808242892413}],"passesThreshold":true}},"__N_SSG":true}