{"pageProps":{"entity":{"id":"mustSeeAttractions_2a618ba12cb4","slug":"aerides-2a61","kind":"restaurant","name":"Αέρηδες","lat":37.97449623338425,"lng":23.727043202053398,"url":"https://maps.app.goo.gl/djGFTxoDCCB83eyN6?g_st=ipc","address":"Αθήνα 105 55","categoryIds":["attractions"],"categories":["Must-See Attractions"]},"sameCategory":[{"id":"mustSeeAttractions_c2101de8cfd4","slug":"romaiki-agora-athinon-c210","kind":"restaurant","name":"Ρωμαϊκή Αγορά Αθηνών","lat":37.974304073145795,"lng":23.72610046442621,"url":"https://maps.app.goo.gl/ix2gNhhwsMZiBHES8?g_st=ipc","address":"Πολυγνώτου 3, Αθήνα 105 55","categoryIds":["attractions"],"categories":["Must-See Attractions"]},{"id":"mustSeeAttractions_4e551e61d3d7","slug":"gate-of-athena-archegetis-4e55","kind":"restaurant","name":"Gate of Athena Archegetis","lat":37.974568649716346,"lng":23.725518029561396,"url":"https://maps.app.goo.gl/DQtGJPqpneygKtHk7?g_st=ipc","address":"Διοσκούρων, Epaminonda &, Athina 105 55","categoryIds":["attractions"],"categories":["Must-See Attractions"]},{"id":"mustSeeAttractions_4878dd7452cc","slug":"vivliothiki-toy-adrianoy-4878","kind":"restaurant","name":"Βιβλιοθήκη του Αδριανού","lat":37.975502314737916,"lng":23.726030220996723,"url":"https://maps.app.goo.gl/Mr5MTi9dXGy4Y8Gt5?g_st=ipc","address":"Κ, Άρεως 3, Τ, Αθήνα 105 55","categoryIds":["attractions"],"categories":["Must-See Attractions"]},{"id":"mustSeeAttractions_241beda98c80","slug":"plateia-monastirakioy-241b","kind":"restaurant","name":"Πλατεία Μοναστηρακίου","lat":37.97640816584317,"lng":23.725886410870196,"url":"https://maps.app.goo.gl/BWatUxUvLvu5LHMP9?g_st=ipc","address":"Απόλλωνος 21, Αθήνα 105 57","categoryIds":["attractions"],"categories":["Must-See Attractions"]},{"id":"mustSeeAttractions_f9286196691d","slug":"anafiotika-f928","kind":"restaurant","name":"Αναφιώτικα","lat":37.97237012452399,"lng":23.728116657972198,"url":"https://maps.app.goo.gl/tWCR6cy3umt66P4p6?g_st=ipc","address":"Αθήνα 105 58","categoryIds":["attractions"],"categories":["Must-See Attractions"]},{"id":"mustSeeAttractions_b999049b5fec","slug":"roman-basilica-b999","kind":"restaurant","name":"Roman Basilica","lat":37.97583750461877,"lng":23.723867490000497,"url":"https://maps.app.goo.gl/ij6x92mGVau3FvST9?g_st=ipc","address":"Αδριανού 27, Αθήνα 105 55","categoryIds":["attractions"],"categories":["Must-See Attractions"]},{"id":"mustSeeAttractions_186b78600e45","slug":"parthenonas-186b","kind":"restaurant","name":"Παρθενώνας","lat":37.97152775110389,"lng":23.726714874737574,"url":"https://maps.app.goo.gl/ztHmcesfndwzvFuRA?g_st=ipc","address":"Αθήνα 105 58","categoryIds":["attractions"],"categories":["Must-See Attractions"]},{"id":"mustSeeAttractions_9bfc186193fa","slug":"akropoli-athinon-9bfc","kind":"restaurant","name":"Ακρόπολη Αθηνών","lat":37.97153381829169,"lng":23.7257493192379,"url":"https://maps.app.goo.gl/p7J1mcB5DGfqSALg6?g_st=ipc","address":"Αθήνα 105 58","categoryIds":["attractions"],"categories":["Must-See Attractions"]},{"id":"mustSeeAttractions_fa2e6a808026","slug":"archaia-agora-athinon-fa2e","kind":"restaurant","name":"Αρχαία Αγορά Αθηνών","lat":37.97489898202124,"lng":23.722093444133804,"url":"https://maps.app.goo.gl/ofAbPpuVbSmGyHGy7?g_st=ipc","address":"Αθήνα 105 55","categoryIds":["attractions"],"categories":["Must-See Attractions"]},{"id":"mustSeeAttractions_8085cf28024a","slug":"choragic-monument-of-lysicrates-8085","kind":"restaurant","name":"Choragic Monument of Lysicrates","lat":37.97108971386169,"lng":23.72994596958006,"url":"https://maps.app.goo.gl/7Xgk65sqPNFM93Sy9?g_st=ipc","address":"Epimenidou 3, Athina 105 58","categoryIds":["attractions"],"categories":["Must-See Attractions"]},{"id":"mustSeeAttractions_e73ed47cb5a3","slug":"odeio-irodoy-toy-attikoy-e73e","kind":"restaurant","name":"Ωδείο Ηρώδου του Αττικού","lat":37.97079439393834,"lng":23.724582622108812,"url":"https://maps.app.goo.gl/rjXRZrpDRp5VnNP2A?g_st=ipc","address":"Διονυσίου Αρεοπαγίτου, Αθήνα 105 55","categoryIds":["attractions"],"categories":["Must-See Attractions"]},{"id":"mustSeeAttractions_513259a6b06d","slug":"olympioy-dios-5132","kind":"restaurant","name":"Ολυμπίου Διός","lat":37.97177631416209,"lng":23.731310537974434,"url":"https://maps.app.goo.gl/FgkJ1umuygHQYmoC8?g_st=ipc","address":"Αθήνα 105 58","categoryIds":["attractions"],"categories":["Must-See Attractions"]}],"nearby":[{"id":"gyrosSouvlakiRestaurants_ddb106f4030b","slug":"gyros-psyrri-ddb1","kind":"restaurant","name":"Gyros Psyrri","lat":37.974,"lng":23.727,"url":"https://maps.app.goo.gl/sample30","address":"Agiou Filippou 19, Athina 105 55","categoryIds":["cheap-eats"],"categories":["Gyros & Cheap Eats"],"distanceKm":0.05530842333707248},{"id":"greekRestaurants_60d2190d08b8","slug":"aerides-mezedopoleio-plaka-60d2","kind":"restaurant","name":"Αέρηδες Μεζεδοπωλείο Πλάκα","lat":37.974495755428926,"lng":23.72798871305526,"url":"https://maps.app.goo.gl/Cx6gQQWkCy2n1mXw6","address":"Διογένους 3, Αθήνα 105 56","categoryIds":["greek-restaurants"],"categories":["Greek Restaurants"],"distanceKm":0.08287714069093788},{"id":"mustSeeAttractions_c2101de8cfd4","slug":"romaiki-agora-athinon-c210","kind":"restaurant","name":"Ρωμαϊκή Αγορά Αθηνών","lat":37.974304073145795,"lng":23.72610046442621,"url":"https://maps.app.goo.gl/ix2gNhhwsMZiBHES8?g_st=ipc","address":"Πολυγνώτου 3, Αθήνα 105 55","categoryIds":["attractions"],"categories":["Must-See Attractions"],"distanceKm":0.08535197459146183},{"id":"rooftopLoungesRestaurants_6bc9125d2c6e","slug":"odos-lysioy-6bc9","kind":"restaurant","name":"Οδος Λυσιου","lat":37.97368556896764,"lng":23.727989877138466,"url":"https://maps.app.goo.gl/QFStwG4KRSZkG2Em7?g_st=ipc","address":"Mnisikleous 22 and, Lisiou corner, Athina 105 56","categoryIds":["rooftop-lounges"],"categories":["Rooftop Lounges"],"distanceKm":0.12252002140009802},{"id":"fishTavernasRestaurants_2ec8563b4367","slug":"anefani-2ec8","kind":"restaurant","name":"Ανεφάνη","lat":37.973535712152035,"lng":23.727823659961384,"url":"https://maps.app.goo.gl/ZNPzCDATcCosWfhTA?g_st=ipc","address":"Μνησικλέους 24, Αθήνα 105 56","categoryIds":["fish-tavernas","rooftop-lounges"],"categories":["Fish Tavernas","Rooftop Lounges"],"legacySlugs":["anefani-d906"],"distanceKm":0.12683561231922627},{"id":"mustSeeAttractions_4e551e61d3d7","slug":"gate-of-athena-archegetis-4e55","kind":"restaurant","name":"Gate of Athena Archegetis","lat":37.974568649716346,"lng":23.725518029561396,"url":"https://maps.app.goo.gl/DQtGJPqpneygKtHk7?g_st=ipc","address":"Διοσκούρων, Epaminonda &, Athina 105 55","categoryIds":["attractions"],"categories":["Must-See Attractions"],"distanceKm":0.1339285662809566},{"id":"vegetarianRestaurants_e1e5ea98ec84","slug":"jaipur-palace-plaka-e1e5","kind":"restaurant","name":"Jaipur Palace Plaka","lat":37.9746957700778,"lng":23.728563859316758,"url":"https://maps.app.goo.gl/aNRwgGJgRT99wmHt5?g_st=ipc","address":"Mnisikleous 7B, Athina 105 56","categoryIds":["vegetarian"],"categories":["Vegetarian Friendly Restaurants"],"distanceKm":0.13512442888387105},{"id":"coffeeBrunchRestaurants_d230a95180a5","slug":"anafiotika-cafe-restaurant-d230","kind":"restaurant","name":"Anafiotika Cafe - Restaurant","lat":37.97339153102626,"lng":23.727755098705728,"url":"https://maps.app.goo.gl/5TUnwM6DgvopJtKt9?g_st=ipc","address":"Μνησικλέους 24β, Αθήνα 105 56","categoryIds":["coffee-brunch"],"categories":["Coffee & Brunch Spots"],"distanceKm":0.13777818491854923},{"id":"mustSeeAttractions_4878dd7452cc","slug":"vivliothiki-toy-adrianoy-4878","kind":"restaurant","name":"Βιβλιοθήκη του Αδριανού","lat":37.975502314737916,"lng":23.726030220996723,"url":"https://maps.app.goo.gl/Mr5MTi9dXGy4Y8Gt5?g_st=ipc","address":"Κ, Άρεως 3, Τ, Αθήνα 105 55","categoryIds":["attractions"],"categories":["Must-See Attractions"],"distanceKm":0.14282472739331342},{"id":"luxuryDiningRestaurants_83e86c45f94e","slug":"dolli-s-83e8","kind":"restaurant","name":"DOLLI•S","lat":37.97581257538226,"lng":23.728126338151636,"url":"https://maps.app.goo.gl/otc3c7Va7CjPm1DW6?g_st=ipc","address":"Μητροπόλεως 49, Αθήνα 105 56","categoryIds":["luxury-dining","rooftop-lounges"],"categories":["Luxury Dining","Rooftop Lounges"],"legacySlugs":["dolli-s-6749"],"distanceKm":0.17446449107954667},{"id":"rooftopLoungesRestaurants_fd3b2b6edd97","slug":"anglais-athens-fd3b","kind":"restaurant","name":"Anglais Athens","lat":37.97603265069114,"lng":23.726612987310695,"url":"https://maps.app.goo.gl/3tBECibCkAn27cvf9?g_st=ipc","address":"Κηρυκείου 6, Αθήνα 105 55","categoryIds":["rooftop-lounges"],"categories":["Rooftop Lounges"],"distanceKm":0.17495404420419267},{"id":"gyrosSouvlakiRestaurants_514910b62a38","slug":"souvlaki-monastiraki-5149","kind":"restaurant","name":"Souvlaki Monastiraki","lat":37.975,"lng":23.729,"url":"https://maps.app.goo.gl/sample29","address":"Mitropoleos 2, Athina 105 63","categoryIds":["cheap-eats"],"categories":["Gyros & Cheap Eats"],"distanceKm":0.1804345818467169},{"id":"burgersRestaurants_72777d81b2c1","slug":"cadillac-burgers-7277","kind":"restaurant","name":"Cadillac Burgers","lat":37.97549144814891,"lng":23.728731411277973,"url":"https://maps.app.goo.gl/tbzr2ePrf29seJBFA?g_st=ipc","address":"Μνησικλέους 6, Αθήνα 105 56","categoryIds":["burgers"],"categories":["Burger Spots"],"distanceKm":0.18477870967078003},{"id":"coffeeBrunchRestaurants_ef8ff3ba5523","slug":"melina-mercouri-cafe-ef8f","kind":"restaurant","name":"Melina Mercouri Café","lat":37.973329408985265,"lng":23.72859454809977,"url":"https://maps.app.goo.gl/fE5D7HkmY8kdkhM6A?g_st=ic","address":"Lisiou 22, Athina 105 56","categoryIds":["coffee-brunch"],"categories":["Coffee & Brunch Spots"],"distanceKm":0.18794880804640518},{"id":"greekRestaurants_60fc17fb1af0","slug":"eycharis-mezedopoleio-60fc","kind":"restaurant","name":"Ευχαρις Μεζεδοπωλείο","lat":37.97570405558301,"lng":23.72549560715114,"url":"https://maps.app.goo.gl/RANm4cQqR929BJSE7","address":"Αδριανού 49Α, Αθήνα 105 55","categoryIds":["greek-restaurants"],"categories":["Greek Restaurants"],"distanceKm":0.1908889104252459},{"id":"dessertsRestaurants_5e0cb4cc4116","slug":"zuccherino-5e0c","kind":"restaurant","name":"Zuccherino","lat":37.97623565675873,"lng":23.72722343699636,"url":"https://maps.app.goo.gl/boMtKFAnr9YpgWRf9?g_st=ipc","address":"Μητροπόλεως 80, Αθήνα 105 60","categoryIds":["desserts"],"categories":["Dessert Shops"],"distanceKm":0.19405916601818884},{"id":"luxuryDiningRestaurants_1ec414f34680","slug":"okra-1ec4","kind":"restaurant","name":"Okra","lat":37.976265060511366,"lng":23.727023267502062,"url":"https://maps.app.goo.gl/WKQy9EmSUhqhWCug7?g_st=ipc","address":"Μητροπόλεως 82, Αθήνα 105 55","categoryIds":["luxury-dining","rooftop-lounges"],"categories":["Luxury Dining","Rooftop Lounges"],"legacySlugs":["okra-912c"],"distanceKm":0.19669236386129083},{"id":"rooftopLoungesRestaurants_f5cf87cae9d4","slug":"city-zen-all-day-bar-restaurant-f5cf","kind":"restaurant","name":"City ZEN All Day Bar Restaurant","lat":37.97627508580123,"lng":23.72741558524515,"url":"https://maps.app.goo.gl/jqRmCH3g4tS3Er5o8?g_st=ipc","address":"Αιόλου 11, Αθήνα 105 55","categoryIds":["rooftop-lounges"],"categories":["Rooftop Lounges"],"distanceKm":0.2004743660557276},{"id":"greekRestaurants_77b3530742da","slug":"maiandros-restaurant-77b3","kind":"restaurant","name":"Maiandros Restaurant","lat":37.97572091133567,"lng":23.725354400404825,"url":"https://maps.app.goo.gl/6vSRNbnm7hVmc1NH6","address":"Αδριανού 47, Αθήνα 105 55","categoryIds":["greek-restaurants"],"categories":["Greek Restaurants"],"distanceKm":0.2011383904720243},{"id":"monasteriesChurches_8533fc9b9b94","slug":"ieros-naos-agion-anargyron-kolokynthi-metochion-panagioy-tafoy-8533","kind":"restaurant","name":"Ιερός Ναός Αγίων Αναργύρων Κολοκύνθη - Μετόχιον Παναγίου Τάφου","lat":37.97293435768165,"lng":23.728208879310362,"url":"https://maps.app.goo.gl/nKcEJuoZ25jXrQqeA?g_st=ipc","address":"Ερεχθέως 18, Αθήνα 105 56","categoryIds":["monasteries-churches"],"categories":["Monasteries & Spiritual Sites"],"distanceKm":0.20149994572746094},{"id":"coffeeBrunchRestaurants_52c7c7c59252","slug":"ciel-athens-52c7","kind":"restaurant","name":"Ciel Athens","lat":37.975701684177345,"lng":23.72877509005901,"url":"https://maps.app.goo.gl/U1toAvoUiB34xk528?g_st=ipc","address":"ΜΝΗΣΙΚΛΕΟΥΣ, Μητροπόλεως 2, Αθήνα 105 56","categoryIds":["coffee-brunch","luxury-dining"],"categories":["Coffee & Brunch Spots","Luxury Dining"],"legacySlugs":["ciel-athens-4c25"],"distanceKm":0.20251246044198448},{"id":"cheapEatsRestaurants_3d671140dfef","slug":"o-thanasis-kempap-monastiraki-3d67","kind":"restaurant","name":"Ο Θανάσης κεμπάπ Μοναστηράκι","lat":37.976291478347854,"lng":23.726486093222853,"url":"https://maps.app.goo.gl/1dqXX7TB1pvVovcv8?g_st=ipc","address":"Μητροπόλεως 69, Αθήνα 105 55","categoryIds":["cheap-eats"],"categories":["Gyros & Cheap Eats"],"distanceKm":0.20550800755559137},{"id":"municipalities_d7e1aaaed4f9","slug":"monastiraki-d7e1","kind":"municipality","name":"Μοναστηράκι","lat":37.9763,"lng":23.7265,"aliases":["Monastiraci"],"region":"Κέντρο Αθήνας","name_en":"Monastiraki","region_en":"Athens Center","distanceKm":0.2061436061109563},{"id":"coffeeBrunchRestaurants_278a93a562e8","slug":"vrysaki-278a","kind":"restaurant","name":"Βρυσάκι","lat":37.97478391705531,"lng":23.724523558556633,"url":"https://maps.app.goo.gl/Ji4XoLwygMsPtG528?g_st=ipc","address":"Βρυσακίου 17, Αθήνα 105 55","categoryIds":["coffee-brunch"],"categories":["Coffee & Brunch Spots"],"distanceKm":0.22315918294755696}],"mentionedGuides":[],"canonicalSlug":"aerides-2a61","enrichment":{"summary_en":"Αέρηδες is a curated restaurant in Greece in the Must-See Attractions collection. It is connected to 319 nearby Googlementor picks to help travelers build a stronger local route.","summary_el":"Αέρηδες είναι ένα επιλεγμένο σημείο φαγητού στην περιοχή Greece και ανήκει στη συλλογή Must-See Attractions. Συνδέεται με 319 κοντινές προτάσεις του Googlementor για πιο ολοκληρωμένη εμπειρία.","vibe_tags":["curated"],"best_for":["first-time visitors","food lovers"],"visit_moments":["lunch stop","dinner stop"],"practical_note":"Address and direct map link are available for easy turn-by-turn access.","nearby_walkable_count":319,"nearby_count_2km":648,"confidence":0.98},"areaContext":{"slug":"monastiraki","name":"Monastiraki","nameEl":"Μοναστηράκι"},"intentContexts":[{"href":"/attractions/monastiraki","label":"Must-See Attractions in Monastiraki","categorySlug":"attractions","categoryName":"Must-See Attractions","areaSlug":"monastiraki","areaName":"Monastiraki","areaNameEl":"Μοναστηράκι"}]},"__N_SSG":true}