{"pageProps":{"entity":{"id":"fishTavernasRestaurants_383167100733","slug":"akrogiali-nea-styra-georgios-sakkas-3831","kind":"restaurant","name":"Ακρογιάλι,Νέα Στύρα, Γεώργιος Σάκκας","lat":38.18207049369658,"lng":24.205304816688248,"url":"https://maps.app.goo.gl/y16s54T91w6wpMWN8?g_st=ipc","address":"Επαρ.Οδ. Στυρών - Τσακαίων, Νέα Στύρα 340 15","categoryIds":["fish-tavernas"],"categories":["Fish Tavernas"]},"sameCategory":[{"id":"fishTavernasRestaurants_dbeeca252c4d","slug":"sarde-litsa-nea-styra-sardelitsa-nea-styra-restaurant-dbee","kind":"restaurant","name":"Σαρδε...λίτσα Νέα Στύρα / Sardelitsa Nea Styra Restaurant","lat":38.17743257826927,"lng":24.207403041603783,"url":"https://maps.app.goo.gl/Xe4ATvjns7X2yC947?g_st=ipc","address":"Λιμεναρχείο, Γκίκα Παναγιώτου, Νέα Στύρα 340 15","categoryIds":["fish-tavernas"],"categories":["Fish Tavernas"]},{"id":"fishTavernasRestaurants_7c72e98cf52d","slug":"coralli-sea-food-more-7c72","kind":"restaurant","name":"Coralli sea food & more","lat":38.17680309383435,"lng":24.20738938198672,"url":"https://maps.app.goo.gl/UjGxTE3NH62racTj6?g_st=ipc","address":"Γεωρ. Παπανικολάου, Γκίκα Παναγιώτου και, Νέα Στύρα 340 15","categoryIds":["fish-tavernas"],"categories":["Fish Tavernas"]},{"id":"fishTavernasRestaurants_ad8e3851f78d","slug":"to-50raki-toy-xenia-ad8e","kind":"restaurant","name":"Το 50ράκι του Ξενία","lat":38.04899426758984,"lng":24.31914838714323,"url":"https://maps.app.goo.gl/G7eazVK35sNwj5Jm7?g_st=ipc","address":"παραλιακός, 1ος, Μαρμάρι 340 13","categoryIds":["fish-tavernas"],"categories":["Fish Tavernas"]},{"id":"fishTavernasRestaurants_4a2d79882f36","slug":"panormitis-4a2d","kind":"restaurant","name":"Πανορμίτης","lat":38.121572702191,"lng":23.99671729866393,"url":"https://maps.app.goo.gl/aXSXemiooEkkE8AKA?g_st=ipc","address":"Λεωφ. Ποσειδώνος 55, Αγ. Παντελεήμων 190 07","categoryIds":["fish-tavernas"],"categories":["Fish Tavernas"]},{"id":"fishTavernasRestaurants_71251c14afd0","slug":"psarotaverna-to-sesi-7125","kind":"restaurant","name":"Ψαροταβέρνα Το Σέσι","lat":38.24842775538029,"lng":23.99464421753432,"url":"https://maps.app.goo.gl/84sjRRsuicEhYQth9?g_st=ipc","address":"Λεωφ. Ποσειδώνος 53, Σέσι 190 07","categoryIds":["fish-tavernas"],"categories":["Fish Tavernas"]},{"id":"fishTavernasRestaurants_0618ada54b19","slug":"o-psaras-restaurant-0618","kind":"restaurant","name":"Ο Ψαράς Restaurant","lat":38.11793561687655,"lng":23.99065580006594,"url":"https://maps.app.goo.gl/fSjcPNAg9aRVEF926?g_st=ipc","address":"Παραλία Μαραθώνα, Λεωφ. Ποσειδώνος 3, Αγ. Παντελεήμων 190 07","categoryIds":["fish-tavernas"],"categories":["Fish Tavernas"]},{"id":"fishTavernasRestaurants_cfc96ee9ddf3","slug":"isidora-cfc9","kind":"restaurant","name":"Ισιδώρα","lat":38.11335499841936,"lng":23.98507325460099,"url":"https://maps.app.goo.gl/USycaJUwTZTzMdADA?g_st=ipc","address":"Περικλέους ΠΑΡΑΛΙΑ, Μαραθώνας 190 07","categoryIds":["fish-tavernas"],"categories":["Fish Tavernas"]},{"id":"fishTavernasRestaurants_c8d79ddce787","slug":"ayra-c8d7","kind":"restaurant","name":"Αύρα","lat":38.09393032588583,"lng":23.981355142971612,"url":"https://maps.app.goo.gl/Qd74p6vmhVLEfQxg7?g_st=ipc","address":"Τέρμα, Λεωφ. Ποσειδώνος, Νέα Μάκρη 190 05","categoryIds":["fish-tavernas"],"categories":["Fish Tavernas"]},{"id":"fishTavernasRestaurants_120bf543e9c4","slug":"to-plokami-120b","kind":"restaurant","name":"Το πλοκάμι","lat":38.09102735114395,"lng":23.981804303325717,"url":"https://maps.app.goo.gl/QuJBtKF3QD3n78sW8?g_st=ipc","address":"Λεωφ. Ποσειδώνος, Νέα Μάκρη 190 05","categoryIds":["fish-tavernas"],"categories":["Fish Tavernas"]},{"id":"fishTavernasRestaurants_0b56e36ee289","slug":"trata-i-0b56","kind":"restaurant","name":"ΤΡΑΤΑ (Η)","lat":38.09030258735327,"lng":23.982252068927664,"url":"https://maps.app.goo.gl/4cT7yir2FyLEmVPB8?g_st=ipc","address":"Λεωφ. Ποσειδώνος 30, Νέα Μάκρη 190 05","categoryIds":["fish-tavernas"],"categories":["Fish Tavernas"]},{"id":"fishTavernasRestaurants_d1fdd80a5c4e","slug":"akrogiali-d1fd","kind":"restaurant","name":"Ακρογιάλι","lat":38.07176023911009,"lng":23.99585573289976,"url":"https://maps.app.goo.gl/xsBV1faj5k58gwi47?g_st=ipc","address":"Μιαούλη 8, Νέα Μάκρη 190 05","categoryIds":["fish-tavernas"],"categories":["Fish Tavernas"]},{"id":"fishTavernasRestaurants_5f172a2da902","slug":"psarotaverna-to-petradi-5f17","kind":"restaurant","name":"Ψαροταβέρνα \"Το Πετράδι\"","lat":38.41006072552465,"lng":24.197994037205248,"url":"https://maps.app.goo.gl/cVt18H2LKwwAMxpC7?g_st=ipc","address":"Άγιοι Απόστολοι 340 17","categoryIds":["fish-tavernas"],"categories":["Fish Tavernas"]}],"nearby":[{"id":"fishTavernasRestaurants_dbeeca252c4d","slug":"sarde-litsa-nea-styra-sardelitsa-nea-styra-restaurant-dbee","kind":"restaurant","name":"Σαρδε...λίτσα Νέα Στύρα / Sardelitsa Nea Styra Restaurant","lat":38.17743257826927,"lng":24.207403041603783,"url":"https://maps.app.goo.gl/Xe4ATvjns7X2yC947?g_st=ipc","address":"Λιμεναρχείο, Γκίκα Παναγιώτου, Νέα Στύρα 340 15","categoryIds":["fish-tavernas"],"categories":["Fish Tavernas"],"distanceKm":0.5473530898656649},{"id":"fishTavernasRestaurants_7c72e98cf52d","slug":"coralli-sea-food-more-7c72","kind":"restaurant","name":"Coralli sea food & more","lat":38.17680309383435,"lng":24.20738938198672,"url":"https://maps.app.goo.gl/UjGxTE3NH62racTj6?g_st=ipc","address":"Γεωρ. Παπανικολάου, Γκίκα Παναγιώτου και, Νέα Στύρα 340 15","categoryIds":["fish-tavernas"],"categories":["Fish Tavernas"],"distanceKm":0.6133951794494366},{"id":"greekRestaurants_1d92f9bdf6c9","slug":"taverna-kalliontzi-1d92","kind":"restaurant","name":"Ταβερνα Καλλιοντζη","lat":38.30212031451821,"lng":24.192393057705917,"url":"https://maps.app.goo.gl/q5yJNzCzH42Ubojt5?g_st=ipc","address":"Ζάρακες 340 17","categoryIds":["greek-restaurants"],"categories":["Greek Restaurants"],"distanceKm":13.396472809679135},{"id":"greekRestaurants_3e4d92e59717","slug":"taverna-ramnoys-3e4d","kind":"restaurant","name":"Ταβέρνα Ραμνούς","lat":38.21411980707791,"lng":24.03058229285915,"url":"https://maps.app.goo.gl/M3qEfsy6NhrFMcCH9","address":"Αρχαιολογικος Χωρος Ραμνους, Λεωφόρος Ραμνουντος Τερμα, Μαραθωνας 190 07","categoryIds":["greek-restaurants"],"categories":["Greek Restaurants"],"distanceKm":15.678611890768686},{"id":"fishTavernasRestaurants_ad8e3851f78d","slug":"to-50raki-toy-xenia-ad8e","kind":"restaurant","name":"Το 50ράκι του Ξενία","lat":38.04899426758984,"lng":24.31914838714323,"url":"https://maps.app.goo.gl/G7eazVK35sNwj5Jm7?g_st=ipc","address":"παραλιακός, 1ος, Μαρμάρι 340 13","categoryIds":["fish-tavernas"],"categories":["Fish Tavernas"],"distanceKm":17.836919998683484},{"id":"fishTavernasRestaurants_4a2d79882f36","slug":"panormitis-4a2d","kind":"restaurant","name":"Πανορμίτης","lat":38.121572702191,"lng":23.99671729866393,"url":"https://maps.app.goo.gl/aXSXemiooEkkE8AKA?g_st=ipc","address":"Λεωφ. Ποσειδώνος 55, Αγ. Παντελεήμων 190 07","categoryIds":["fish-tavernas"],"categories":["Fish Tavernas"],"distanceKm":19.44012442975153},{"id":"fishTavernasRestaurants_71251c14afd0","slug":"psarotaverna-to-sesi-7125","kind":"restaurant","name":"Ψαροταβέρνα Το Σέσι","lat":38.24842775538029,"lng":23.99464421753432,"url":"https://maps.app.goo.gl/84sjRRsuicEhYQth9?g_st=ipc","address":"Λεωφ. Ποσειδώνος 53, Σέσι 190 07","categoryIds":["fish-tavernas"],"categories":["Fish Tavernas"],"distanceKm":19.82836093924946},{"id":"wineriesVineyards_07784b315d36","slug":"oinopoieio-zegginis-0778","kind":"restaurant","name":"Οινοποιείο Ζεγγίνης","lat":38.14341389755598,"lng":23.983053677151467,"url":"https://maps.app.goo.gl/ZRuTWvGbiLUcFQZw7?g_st=ipc","address":"Λεωφόρος Κάτω Σουλίου 62, Μαραθώνας 190 07","categoryIds":["wineries-vineyards"],"categories":["Wineries & Vineyards"],"distanceKm":19.90072449698006},{"id":"fishTavernasRestaurants_0618ada54b19","slug":"o-psaras-restaurant-0618","kind":"restaurant","name":"Ο Ψαράς Restaurant","lat":38.11793561687655,"lng":23.99065580006594,"url":"https://maps.app.goo.gl/fSjcPNAg9aRVEF926?g_st=ipc","address":"Παραλία Μαραθώνα, Λεωφ. Ποσειδώνος 3, Αγ. Παντελεήμων 190 07","categoryIds":["fish-tavernas"],"categories":["Fish Tavernas"],"distanceKm":20.078744458592304},{"id":"fishTavernasRestaurants_cfc96ee9ddf3","slug":"isidora-cfc9","kind":"restaurant","name":"Ισιδώρα","lat":38.11335499841936,"lng":23.98507325460099,"url":"https://maps.app.goo.gl/USycaJUwTZTzMdADA?g_st=ipc","address":"Περικλέους ΠΑΡΑΛΙΑ, Μαραθώνας 190 07","categoryIds":["fish-tavernas"],"categories":["Fish Tavernas"],"distanceKm":20.718751512209746},{"id":"coffeeBrunchRestaurants_7dfa5bb5c12c","slug":"argithea-7dfa","kind":"restaurant","name":"Αργιθέα","lat":38.15948282094037,"lng":23.95837767969574,"url":"https://maps.app.goo.gl/w98y2hBDroKUDcwZ7?g_st=ipc","address":"Λεωφ. Μαραθώνος 11, Μαραθώνας 190 07","categoryIds":["coffee-brunch"],"categories":["Coffee & Brunch Spots"],"distanceKm":21.73158817369369},{"id":"fishTavernasRestaurants_c8d79ddce787","slug":"ayra-c8d7","kind":"restaurant","name":"Αύρα","lat":38.09393032588583,"lng":23.981355142971612,"url":"https://maps.app.goo.gl/Qd74p6vmhVLEfQxg7?g_st=ipc","address":"Τέρμα, Λεωφ. Ποσειδώνος, Νέα Μάκρη 190 05","categoryIds":["fish-tavernas"],"categories":["Fish Tavernas"],"distanceKm":21.901368675151282},{"id":"fishTavernasRestaurants_120bf543e9c4","slug":"to-plokami-120b","kind":"restaurant","name":"Το πλοκάμι","lat":38.09102735114395,"lng":23.981804303325717,"url":"https://maps.app.goo.gl/QuJBtKF3QD3n78sW8?g_st=ipc","address":"Λεωφ. Ποσειδώνος, Νέα Μάκρη 190 05","categoryIds":["fish-tavernas"],"categories":["Fish Tavernas"],"distanceKm":22.01316366833783},{"id":"fishTavernasRestaurants_0b56e36ee289","slug":"trata-i-0b56","kind":"restaurant","name":"ΤΡΑΤΑ (Η)","lat":38.09030258735327,"lng":23.982252068927664,"url":"https://maps.app.goo.gl/4cT7yir2FyLEmVPB8?g_st=ipc","address":"Λεωφ. Ποσειδώνος 30, Νέα Μάκρη 190 05","categoryIds":["fish-tavernas"],"categories":["Fish Tavernas"],"distanceKm":22.01571948641034},{"id":"fishTavernasRestaurants_d1fdd80a5c4e","slug":"akrogiali-d1fd","kind":"restaurant","name":"Ακρογιάλι","lat":38.07176023911009,"lng":23.99585573289976,"url":"https://maps.app.goo.gl/xsBV1faj5k58gwi47?g_st=ipc","address":"Μιαούλη 8, Νέα Μάκρη 190 05","categoryIds":["fish-tavernas"],"categories":["Fish Tavernas"],"distanceKm":22.047703377047217},{"id":"greekRestaurants_e13d6a44e9be","slug":"stoy-ladokosta-e13d","kind":"restaurant","name":"Στου Λαδόκωστα","lat":38.08813666230261,"lng":23.982996365102682,"url":"https://maps.app.goo.gl/mXkB4S51cYRYxwCe8","address":"Λεωφ. Ποσειδώνος, Νέα Μάκρη 190 05","categoryIds":["greek-restaurants"],"categories":["Greek Restaurants"],"distanceKm":22.071263507447366},{"id":"coffeeBrunchRestaurants_cdd028e1f028","slug":"indianos-cdd0","kind":"restaurant","name":"Indianos","lat":38.07177701154969,"lng":23.99543112392712,"url":"https://maps.app.goo.gl/fQgSyiTZjMscc9UW9?g_st=ipc","address":"Μιαούλη 12, Νέα Μάκρη 190 05","categoryIds":["coffee-brunch"],"categories":["Coffee & Brunch Spots"],"distanceKm":22.07753772818002},{"id":"municipalities_dba8e62f5c2c","slug":"nea-makri-dba8","kind":"municipality","name":"Νέα Μάκρη","lat":38.083,"lng":23.983,"aliases":["Nea Makri","Nea Makry"],"region":"Ανατολικά Προάστια","name_en":"Nea Makri","region_en":"Eastern Suburbs","distanceKm":22.34754673367554},{"id":"italianRestaurants_2acf318486cb","slug":"toto-s-little-italy-2acf","kind":"restaurant","name":"Toto's Little Italy","lat":38.083162778426875,"lng":23.980726245351242,"url":"https://maps.app.goo.gl/oSFQmUYzAW2nsJ8z6?g_st=ipc","address":"Νικ. Πλαστήρα 29, Νέα Μάκρη 190 05","categoryIds":["italian"],"categories":["Italian Restaurants"],"distanceKm":22.511923275535928},{"id":"municipalities_3b0d7e6ae7e7","slug":"marathonas-3b0d","kind":"municipality","name":"Μαραθώνας","lat":38.15,"lng":23.95,"region":"Ανατολικά Προάστια","name_en":"Marathon","region_en":"Eastern Suburbs","distanceKm":22.602856956956934},{"id":"coffeeBrunchRestaurants_6aac58356d58","slug":"dimitris-kasimis-foyrnos-6aac","kind":"restaurant","name":"ΔΗΜΗΤΡΗΣ ΚΑΣΙΜΗΣ Φούρνος","lat":38.0797197655773,"lng":23.980827928192117,"url":"https://maps.app.goo.gl/HVgjvMDChspNvrjy7?g_st=ipc","address":"44 Marathonos Ave, Enanti DEI, Nea Makri, 19005","categoryIds":["coffee-brunch"],"categories":["Coffee & Brunch Spots"],"distanceKm":22.694122970733023},{"id":"familyFriendly_db07c7976a87","slug":"jumicar-db07","kind":"restaurant","name":"Jumicar","lat":38.07454902492717,"lng":23.982372514870235,"url":"https://maps.app.goo.gl/b5HKTfYuBC6WE3XP7?g_st=ipc","address":"Λεωφ. Μαραθώνος 1, Νέα Μάκρη 190 05","categoryIds":["family-friendly"],"categories":["Kid Friendly Locations"],"distanceKm":22.873149349126223},{"id":"dessertsRestaurants_5958ec3ad958","slug":"to-plesti-5958","kind":"restaurant","name":"Το Πλέστι","lat":38.06758002269708,"lng":23.98228118791333,"url":"https://maps.app.goo.gl/8uS8BHW1y7vuZtMn8?g_st=ipc","address":"Λεωφ. Μαραθώνος 31ο, Νέα Μάκρη 190 05","categoryIds":["desserts"],"categories":["Dessert Shops"],"distanceKm":23.295041008930035},{"id":"monasteriesChurches_c2b99534a746","slug":"osioy-fraim-c2b9","kind":"restaurant","name":"Οσίου Ἐφραίμ","lat":38.07494568017478,"lng":23.95319576902227,"url":"https://maps.app.goo.gl/t1Fe5nBcUY3vmfcE7?g_st=ipc","address":"Αγίου Εφραίμ, Νέα Μάκρη 190 05","categoryIds":["monasteries-churches"],"categories":["Monasteries & Spiritual Sites"],"distanceKm":25.06327484591923}],"mentionedGuides":[],"canonicalSlug":"akrogiali-nea-styra-georgios-sakkas-3831","enrichment":{"summary_en":"Ακρογιάλι,Νέα Στύρα, Γεώργιος Σάκκας is a curated restaurant in Νέα Στύρα 340 15 in the Fish Tavernas collection. It is connected to 2 nearby Googlementor picks to help travelers build a stronger local route.","summary_el":"Ακρογιάλι,Νέα Στύρα, Γεώργιος Σάκκας είναι ένα επιλεγμένο σημείο φαγητού στην περιοχή Νέα Στύρα 340 15 και ανήκει στη συλλογή Fish Tavernas. Συνδέεται με 2 κοντινές προτάσεις του Googlementor για πιο ολοκληρωμένη εμπειρία.","vibe_tags":["curated","seafood-local"],"best_for":["first-time visitors","food lovers"],"visit_moments":["lunch stop","dinner stop"],"practical_note":"Address and direct map link are available for easy turn-by-turn access.","nearby_walkable_count":2,"nearby_count_2km":2,"confidence":0.9},"areaContext":null,"intentContexts":[]},"__N_SSG":true}