{"pageProps":{"entity":{"id":"wineriesVineyards_30791389b0f6","slug":"anoskeli-winery-3079","kind":"restaurant","name":"Anoskeli Winery","lat":35.460142479001455,"lng":23.77578731455054,"url":"https://maps.app.goo.gl/PgqU5uYf8bg9kRur9?g_st=ipc","address":"Ανώσκελη 730 02","categoryIds":["wineries-vineyards"],"categories":["Wineries & Vineyards"]},"sameCategory":[{"id":"wineriesVineyards_1e78873b8ebe","slug":"pnevmatikaki-s-a-1e78","kind":"restaurant","name":"PNEVMATIKAKI S.A.","lat":35.49514634531768,"lng":23.71327829803601,"url":"https://maps.app.goo.gl/osNQqbqujG8u5Npj7?g_st=ipc","address":"Drapanias 734 00","categoryIds":["wineries-vineyards"],"categories":["Wineries & Vineyards"]},{"id":"wineriesVineyards_6807d76cc581","slug":"manousakis-winery-6807","kind":"restaurant","name":"Manousakis Winery","lat":35.44928609215256,"lng":23.88714203573119,"url":"https://maps.app.goo.gl/rcCjRKaUHGWTfgjX9?g_st=ipc","address":"Βατόλακκος 730 05","categoryIds":["wineries-vineyards"],"categories":["Wineries & Vineyards"]},{"id":"wineriesVineyards_218b1ae88a57","slug":"agia-triada-winery-218b","kind":"restaurant","name":"Αgia Triada Winery","lat":35.56054075236249,"lng":24.135001472011776,"url":"https://maps.app.goo.gl/75yFj7YEiVy8Cvdz7?g_st=ipc","address":"Μόνη Αγίας Τριάδος των Τζαγκαρόλων 731 00","categoryIds":["wineries-vineyards"],"categories":["Wineries & Vineyards"]},{"id":"wineriesVineyards_b838da26d565","slug":"dourakis-winery-b838","kind":"restaurant","name":"Dourakis Winery","lat":35.34955760746719,"lng":24.203022751558134,"url":"https://maps.app.goo.gl/RrgeX3PAEePKPZU79?g_st=ipc","address":"Alikampos, Apokoronou, CHANIA 730 07","categoryIds":["wineries-vineyards"],"categories":["Wineries & Vineyards"]},{"id":"luxuryDiningRestaurants_2ae90f83c8cf","slug":"the-secret-gorge-restaurant-wine-tasting-experience-2ae9","kind":"restaurant","name":"The Secret Gorge - Restaurant & Wine Tasting Experience","lat":35.36437434920116,"lng":24.419370445837004,"url":"https://maps.app.goo.gl/gPHcQmEJJv1GDCXa7?g_st=ipc","address":"3rd Klm. National Road, Rethymno 741 50","categoryIds":["luxury-dining","wineries-vineyards"],"categories":["Luxury Dining","Wineries & Vineyards"],"legacySlugs":["the-secret-gorge-restaurant-wine-tasting-experience-46f1"]},{"id":"wineriesVineyards_9cc28a86a508","slug":"diamantakis-winery-9cc2","kind":"restaurant","name":"Diamantakis Winery","lat":35.2119508828581,"lng":24.992812450943003,"url":"https://maps.app.goo.gl/bkHHKGBiuNPqDqhr9?g_st=ipc","address":"Kato Asites 700 13","categoryIds":["wineries-vineyards"],"categories":["Wineries & Vineyards"]},{"id":"wineriesVineyards_677336f8e41e","slug":"zacharioudakis-winery-6773","kind":"restaurant","name":"Zacharioudakis Winery","lat":35.077704088524044,"lng":24.941456893238932,"url":"https://maps.app.goo.gl/3MnhGaPvjLYbnZLf9?g_st=ipc","address":"Πλούτη 704 00","categoryIds":["wineries-vineyards"],"categories":["Wineries & Vineyards"]},{"id":"wineriesVineyards_e898beacf16d","slug":"silva-daskalaki-winery-biodynamic-farming-e898","kind":"restaurant","name":"Silva Daskalaki Winery \"Biodynamic Farming\"","lat":35.208912270144424,"lng":25.03603983983806,"url":"https://maps.app.goo.gl/gpuUdyMFAFSDGWhB9?g_st=ipc","address":"Σίβα Ηρακλείου Κρήτης, Siva 700 11","categoryIds":["wineries-vineyards"],"categories":["Wineries & Vineyards"]},{"id":"wineriesVineyards_ed7776ab576e","slug":"douloufakis-winery-ed77","kind":"restaurant","name":"Douloufakis Winery","lat":35.21501780162754,"lng":25.04946643361547,"url":"https://maps.app.goo.gl/zMTfnAQij9XWewT4A?g_st=ipc","address":"Dafnes 700 11","categoryIds":["wineries-vineyards"],"categories":["Wineries & Vineyards"]},{"id":"wineriesVineyards_3fd2d09d6af1","slug":"amargiotakis-winery-3fd2","kind":"restaurant","name":"Amargiotakis Winery","lat":35.22052725096867,"lng":25.053509018560035,"url":"https://maps.app.goo.gl/w8PhqDhLwSHfYsK37?g_st=ipc","address":"Dafnes 700 11","categoryIds":["wineries-vineyards"],"categories":["Wineries & Vineyards"]},{"id":"wineriesVineyards_e1a29dba58c6","slug":"alexakis-s-a-alexakis-winery-e1a2","kind":"restaurant","name":"Alexakis S.A. - Alexakis Winery","lat":35.30223283392354,"lng":25.115833737445403,"url":"https://maps.app.goo.gl/yJ2MV2fN5rdteunH9?g_st=ipc","address":"104-106 Irinis & Filias, Peridi Metohi Heraklion Crete 715 00","categoryIds":["wineries-vineyards"],"categories":["Wineries & Vineyards"]},{"id":"wineriesVineyards_c0a0097ca7d1","slug":"scalarea-estate-c0a0","kind":"restaurant","name":"Scalarea Estate","lat":35.27599918818081,"lng":25.19305839713735,"url":"https://maps.app.goo.gl/NubfvqJ28uAYTWoX7?g_st=ipc","address":"Σκαλάνι 701 00","categoryIds":["wineries-vineyards"],"categories":["Wineries & Vineyards"]}],"nearby":[{"id":"wineriesVineyards_1e78873b8ebe","slug":"pnevmatikaki-s-a-1e78","kind":"restaurant","name":"PNEVMATIKAKI S.A.","lat":35.49514634531768,"lng":23.71327829803601,"url":"https://maps.app.goo.gl/osNQqbqujG8u5Npj7?g_st=ipc","address":"Drapanias 734 00","categoryIds":["wineries-vineyards"],"categories":["Wineries & Vineyards"],"distanceKm":6.869344163976059},{"id":"wineriesVineyards_6807d76cc581","slug":"manousakis-winery-6807","kind":"restaurant","name":"Manousakis Winery","lat":35.44928609215256,"lng":23.88714203573119,"url":"https://maps.app.goo.gl/rcCjRKaUHGWTfgjX9?g_st=ipc","address":"Βατόλακκος 730 05","categoryIds":["wineries-vineyards"],"categories":["Wineries & Vineyards"],"distanceKm":10.158107461867612},{"id":"greekRestaurants_5434fa5002e6","slug":"tavern-restaurant-hotel-arxontas-koutsomatados-5434","kind":"restaurant","name":"Tavern Restaurant Hotel Arxontas Koutsomatados","lat":35.40554475283456,"lng":23.68281950120623,"url":"https://maps.app.goo.gl/tgscAf7VVnueaRex6?g_st=ipc","address":"Κουτσοματαδος 734 00","categoryIds":["greek-restaurants"],"categories":["Greek Restaurants"],"distanceKm":10.38285396838022},{"id":"municipalities_08004ad1efaf","slug":"platanias-0800","kind":"municipality","name":"Πλατανιάς","lat":35.517,"lng":23.883,"region":"Δυτική Κρήτη","name_en":"Platanias","region_en":"West Crete","distanceKm":11.584224487874643},{"id":"municipalities_62af137be2d2","slug":"kissamos-62af","kind":"municipality","name":"Κίσσαμος","lat":35.493,"lng":23.653,"region":"Δυτική Κρήτη","name_en":"Kissamos","region_en":"West Crete","distanceKm":11.703526727407771},{"id":"municipalities_d3b3bd48a579","slug":"agia-marina-d3b3","kind":"municipality","name":"Αγία Μαρίνα","lat":35.515,"lng":23.915,"region":"Κρήτη","name_en":"Agia Marina","region_en":"Crete","distanceKm":14.00269854449934},{"id":"greekRestaurants_dd95a846bd00","slug":"taverna-gramvoysa-dd95","kind":"restaurant","name":"Ταβέρνα Γραμβούσα","lat":35.51332300936157,"lng":23.608418720167336,"url":"https://maps.app.goo.gl/zB6hp23GajJ65U8F9?g_st=ipc","address":"Εμμανουήλ Δεικτάκη 1, Καλυβιανή 734 00","categoryIds":["greek-restaurants"],"categories":["Greek Restaurants"],"distanceKm":16.266553921627644},{"id":"municipalities_4e60225f7fa0","slug":"falasarna-4e60","kind":"municipality","name":"Φαλάσαρνα","lat":35.49,"lng":23.588,"region":"Κρήτη","name_en":"Falasarna","region_en":"Crete","distanceKm":17.32588089026578},{"id":"mustSeeAttractions_87fa659eb90c","slug":"balos-beach-87fa","kind":"restaurant","name":"Balos Beach","lat":35.57925124423901,"lng":23.588718436351613,"url":"https://maps.app.goo.gl/f8pqZqUtkRrXFShb8?g_st=ipc","address":"Kissamos 734 00","categoryIds":["attractions"],"categories":["Must-See Attractions"],"distanceKm":21.49529567287952},{"id":"municipalities_c3a3f80c3d67","slug":"kandanos-selinoy-c3a3","kind":"municipality","name":"Κάνδανος - Σελίνου","lat":35.277,"lng":23.687,"region":"Δυτική Κρήτη","name_en":"Kandanos - Selino","region_en":"West Crete","distanceKm":21.89808734123519},{"id":"greekRestaurants_585e0390a5d3","slug":"ntoynias-585e","kind":"restaurant","name":"Ντουνιάς","lat":35.40906562971069,"lng":24.014822409059008,"url":"https://maps.app.goo.gl/fPzWW7jmw3vrMepH9?g_st=ipc","address":"Keramion, Νεροκούρος 731 00","categoryIds":["greek-restaurants"],"categories":["Greek Restaurants"],"distanceKm":22.38872402609145},{"id":"coffeeBrunchRestaurants_8cd2a3bebc65","slug":"red-jane-bakery-8cd2","kind":"restaurant","name":"Red Jαne Bakery","lat":35.51226915120583,"lng":24.01521028800191,"url":"https://maps.app.goo.gl/qBPXWtniji8hcKB88?g_st=ipc","address":"Kidonias 101, Chania 731 36","categoryIds":["coffee-brunch"],"categories":["Coffee & Brunch Spots"],"distanceKm":22.439131501752716},{"id":"municipalities_a217cf921275","slug":"chania-a217","kind":"municipality","name":"Χανιά","lat":35.5138,"lng":24.018,"aliases":["Chania","Hania","Χάνια","Χανιών","Χανια","Xania"],"region":"Δυτική Κρήτη","name_en":"Chania","region_en":"West Crete","distanceKm":22.727127530831545},{"id":"cheapEatsRestaurants_57bd67d6d5e4","slug":"delish-food-streat-story-57bd","kind":"restaurant","name":"Delish Food Streat Story","lat":35.515029891736845,"lng":24.02042482402925,"url":"https://maps.app.goo.gl/UfCwCDqjCiAuobpi9?g_st=ipc","address":"Tsouderon 69, Chania 731 32","categoryIds":["cheap-eats"],"categories":["Gyros & Cheap Eats"],"distanceKm":22.974829997993147},{"id":"cheapEatsRestaurants_620134dd9978","slug":"oasis-6201","kind":"restaurant","name":"Oasis","lat":35.51332964693983,"lng":24.021015604554556,"url":"https://maps.app.goo.gl/cmq1VkqB1tUYSWUX9?g_st=ipc","address":"Voloudaki 4, Chania 731 34","categoryIds":["cheap-eats"],"categories":["Gyros & Cheap Eats"],"distanceKm":22.977241300156667},{"id":"greekRestaurants_4a595232b3a3","slug":"o-koympes-4a59","kind":"restaurant","name":"Ο Κουμπές","lat":35.5043816279159,"lng":24.026404656039464,"url":"https://maps.app.goo.gl/aq1X1YzrveFNjWCR6?g_st=ipc","address":"Παναγούλη 1, Χανιά 731 34","categoryIds":["greek-restaurants"],"categories":["Greek Restaurants"],"distanceKm":23.2193265974886},{"id":"cheapEatsRestaurants_e3e8b9399916","slug":"chicktok-e3e8","kind":"restaurant","name":"Chicktok","lat":35.509944678509925,"lng":24.031396796267106,"url":"https://maps.app.goo.gl/BCA2nTq76iJ2grhB7?g_st=ipc","address":"Papanastasiou 2, Chania 731 34","categoryIds":["cheap-eats"],"categories":["Gyros & Cheap Eats"],"distanceKm":23.796792551043236},{"id":"fishTavernasRestaurants_052e930b9594","slug":"thalassino-ageri-052e","kind":"restaurant","name":"Thalassino Ageri","lat":35.519850213268185,"lng":24.037118927264085,"url":"https://maps.app.goo.gl/6SKxxTD4XKy95nvdA?g_st=ipc","address":"Vivilaki str 35 Tabakaria, Chania 731 33","categoryIds":["fish-tavernas","luxury-dining"],"categories":["Fish Tavernas","Luxury Dining"],"legacySlugs":["thalassino-ageri-7d75"],"distanceKm":24.573969734553714},{"id":"municipalities_0ffa5a36fefc","slug":"palaiochora-0ffa","kind":"municipality","name":"Παλαιοχώρα","lat":35.2308,"lng":23.6839,"aliases":["Παλαιοχωρα","Paleohora"],"region":"Δυτική Κρήτη","name_en":"Paleochora","region_en":"West Crete","distanceKm":26.828995934461858},{"id":"vegetarianRestaurants_17922606ce48","slug":"thirdeye-1792","kind":"restaurant","name":"ThirdEye","lat":35.23035637395369,"lng":23.680431168077206,"url":"https://maps.app.goo.gl/3unNAK47vshJHbgj7?g_st=ipc","address":"Griechenland, Epar.Od. Strovlon-Paleochoras 28, Paleochora 730 01","categoryIds":["vegetarian"],"categories":["Vegetarian Friendly Restaurants"],"distanceKm":26.97511730771105},{"id":"municipalities_ebc0891e3ed9","slug":"elafonisi-ebc0","kind":"municipality","name":"Ελαφονήσι","lat":35.2722,"lng":23.542,"region":"Κρήτη","name_en":"Elafonisi","region_en":"Crete","distanceKm":29.767933029721664}],"mentionedGuides":[],"canonicalSlug":"anoskeli-winery-3079","enrichment":{"summary_en":"Anoskeli Winery is a curated restaurant in Greece in the Wineries & Vineyards collection. It is connected to 0 nearby Googlementor picks to help travelers build a stronger local route.","summary_el":"Anoskeli Winery είναι ένα επιλεγμένο σημείο φαγητού στην περιοχή Greece και ανήκει στη συλλογή Wineries & Vineyards. Συνδέεται με 0 κοντινές προτάσεις του Googlementor για πιο ολοκληρωμένη εμπειρία.","vibe_tags":["curated","wine-moment"],"best_for":["first-time visitors","food lovers"],"visit_moments":["lunch stop","dinner stop"],"practical_note":"Address and direct map link are available for easy turn-by-turn access.","nearby_walkable_count":0,"nearby_count_2km":0,"confidence":0.9},"areaContext":null,"intentContexts":[]},"__N_SSG":true}