{"pageProps":{"entity":{"id":"dessertsRestaurants_ce9de85fc0a1","slug":"aristokratikon-epich-ap-to-1928-syntagma-athina-ce9d","kind":"restaurant","name":"Αριστοκρατικόν (Επιχ. απ'το 1928) - Σύνταγμα, Αθήνα","lat":37.97685312862056,"lng":23.732864293474787,"url":"https://maps.app.goo.gl/ZpgyyzyeJjW4e7Y58?g_st=ipc","address":"Βουλής 7, Αθήνα 105 62","categoryIds":["desserts"],"categories":["Dessert Shops"]},"sameCategory":[{"id":"dessertsRestaurants_c341ccbd87e0","slug":"ariston-lompotesis-c341","kind":"restaurant","name":"ΑΡΙΣΤΟΝ ΛΟΜΠΟΤΕΣΗΣ","lat":37.97670511785389,"lng":23.732649290748736,"url":"https://maps.app.goo.gl/GQVtxtBLY3rpmzsa9?g_st=ipc","address":"Βουλής 10, Αθήνα 105 62","categoryIds":["desserts","vegetarian"],"categories":["Dessert Shops","Vegetarian Friendly Restaurants"],"legacySlugs":["ariston-lompotesis-daef"]},{"id":"dessertsRestaurants_ecf6d66518c8","slug":"oggi-officina-gelato-gusto-italiano-athens-ecf6","kind":"restaurant","name":"Oggi - Officina Gelato Gusto Italiano, Athens","lat":37.97609425961556,"lng":23.73264733165775,"url":"https://maps.app.goo.gl/tFchspxKZcFEKXjf6?g_st=ipc","address":"Βουλής 17, Αθήνα 105 63","categoryIds":["desserts"],"categories":["Dessert Shops"]},{"id":"dessertsRestaurants_9b5ef29493b0","slug":"fystiki-shop-downtown-9b5e","kind":"restaurant","name":"Fystiki Shop Downtown","lat":37.97606272763876,"lng":23.7332915007465,"url":"https://maps.app.goo.gl/kHKQgnoXfNFn8vtP9?g_st=ipc","address":"Ερμού &, Νίκης 4, Αθήνα 105 63","categoryIds":["desserts"],"categories":["Dessert Shops"]},{"id":"dessertsRestaurants_eb9f02ba5b47","slug":"choureal-choux-profiterole-eb9f","kind":"restaurant","name":"CHOUREAL - Choux & Profiterole","lat":37.97617972861017,"lng":23.73180056203846,"url":"https://maps.app.goo.gl/qEAK3Nkr3LyPuUwh9?g_st=ipc","address":"Διομείας 2 &, Ερμού 18, Αθήνα 105 63","categoryIds":["desserts"],"categories":["Dessert Shops"]},{"id":"dessertsRestaurants_fb018ad3c271","slug":"baklavas-fb01","kind":"restaurant","name":"Baklavas","lat":37.975429717960225,"lng":23.733177865867727,"url":"https://maps.app.goo.gl/JsVLmYGPmMaYJGiKA?g_st=ipc","address":"Νίκης 10, Αθήνα 105 63","categoryIds":["desserts"],"categories":["Dessert Shops"]},{"id":"dessertsRestaurants_2434d906577a","slug":"le-greche-syntagma-2434","kind":"restaurant","name":"Le Greche Syntagma","lat":37.975295473634475,"lng":23.732572121627147,"url":"https://maps.app.goo.gl/8ERFwaLDZCRWvw329?g_st=ipc","address":"Μητροπόλεως 16, Αθήνα 105 63","categoryIds":["desserts"],"categories":["Dessert Shops"]},{"id":"dessertsRestaurants_dd2783c4061c","slug":"my-cookie-dough-athens-dd27","kind":"restaurant","name":"My Cookie Dough Athens","lat":37.97549732457017,"lng":23.731646460060947,"url":"https://maps.app.goo.gl/h3es1mjnAZfnhipp6?g_st=ipc","address":"Petraki 7, Athina 105 63","categoryIds":["desserts"],"categories":["Dessert Shops"]},{"id":"dessertsRestaurants_5b8f8c355ff9","slug":"smyrni-baklava-5b8f","kind":"restaurant","name":"Smyrni Baklava","lat":37.9752937454741,"lng":23.73138268254239,"url":"https://maps.app.goo.gl/gwLnHFtKf8mGiYH8A?g_st=ipc","address":"Μητροπόλεως 25, Αθήνα 105 57","categoryIds":["desserts"],"categories":["Dessert Shops"]},{"id":"dessertsRestaurants_46c9cba5969e","slug":"sweet-nolan-46c9","kind":"restaurant","name":"Sweet Nolan","lat":37.9747984209274,"lng":23.73248311530336,"url":"https://maps.app.goo.gl/vVwFTAJ3a7QrKyTr5?g_st=ipc","address":"Απόλλωνος 6Β, Αθήνα 105 57","categoryIds":["desserts"],"categories":["Dessert Shops"]},{"id":"dessertsRestaurants_1924a0d216d5","slug":"sol-bake-and-coffee-project-athens-1924","kind":"restaurant","name":"Sol Bake and Coffee Project - Athens","lat":37.978160024245575,"lng":23.730562902712155,"url":"https://maps.app.goo.gl/b6SrDJp3RTtqrXM58?g_st=ic","address":"Πραξιτέλους 11, Chavriou 9, Athina 105 62","categoryIds":["desserts"],"categories":["Dessert Shops"]},{"id":"dessertsRestaurants_02af5db1ffaa","slug":"overoll-croissanterie-02af","kind":"restaurant","name":"Overoll Croissanterie","lat":37.9788693032848,"lng":23.729688539887693,"url":"https://maps.app.goo.gl/eMRJKRxLBxxiGu628?g_st=ipc","address":"Πραξιτέλους 27, Αθήνα 105 60","categoryIds":["desserts"],"categories":["Dessert Shops"]},{"id":"dessertsRestaurants_0b6ae51a593c","slug":"koykoyvagia-0b6a","kind":"restaurant","name":"Κουκουβάγια","lat":37.97736767389115,"lng":23.728413094267065,"url":"https://maps.app.goo.gl/CMZY3dTRrJ7tTadz6?g_st=ipc","address":"Σκουζέ 1, Αθήνα 105 60","categoryIds":["desserts"],"categories":["Dessert Shops"]}],"nearby":[{"id":"coffeeBrunchRestaurants_10f7636fb183","slug":"fillo-10f7","kind":"restaurant","name":"Fillo","lat":37.97664924966537,"lng":23.732881855883917,"url":"https://maps.app.goo.gl/kXhn28aSgrw8SgU47?g_st=ipc","address":"105 62, Βουλής 11, Αθήνα 105 62","categoryIds":["coffee-brunch"],"categories":["Coffee & Brunch Spots"],"distanceKm":0.022722507877514706},{"id":"dessertsRestaurants_c341ccbd87e0","slug":"ariston-lompotesis-c341","kind":"restaurant","name":"ΑΡΙΣΤΟΝ ΛΟΜΠΟΤΕΣΗΣ","lat":37.97670511785389,"lng":23.732649290748736,"url":"https://maps.app.goo.gl/GQVtxtBLY3rpmzsa9?g_st=ipc","address":"Βουλής 10, Αθήνα 105 62","categoryIds":["desserts","vegetarian"],"categories":["Dessert Shops","Vegetarian Friendly Restaurants"],"legacySlugs":["ariston-lompotesis-daef"],"distanceKm":0.02502009668198636},{"id":"mexicanRestaurants_855638776a76","slug":"tekila-8556","kind":"restaurant","name":"Tekila","lat":37.97697304778162,"lng":23.733460625726625,"url":"https://maps.app.goo.gl/CAhgNENSirDV1fWq7?g_st=ipc","address":"Κολοκοτρώνη 3, Αθήνα 105 62","categoryIds":["mexican"],"categories":["Mexican Restaurants"],"distanceKm":0.05394282233579161},{"id":"coffeeBrunchRestaurants_34ae78424cdb","slug":"abuelo-34ae","kind":"restaurant","name":"Abuelo","lat":37.977278007040915,"lng":23.732254640031748,"url":"https://maps.app.goo.gl/mtDzW4EBiKS3shLM8?g_st=ipc","address":"Κολοκοτρώνη 11, Αθήνα 105 62","categoryIds":["coffee-brunch"],"categories":["Coffee & Brunch Spots"],"distanceKm":0.07132642016635038},{"id":"luxuryDiningRestaurants_c75b4f75eed4","slug":"geco-athens-c75b","kind":"restaurant","name":"Geco Athens","lat":37.97686179118327,"lng":23.732026538746123,"url":"https://maps.app.goo.gl/p3ytMHs2cKCwK2j76?g_st=ipc","address":"Λέκκα 14, Αθήνα 105 62","categoryIds":["luxury-dining"],"categories":["Luxury Dining"],"distanceKm":0.07343588979032323},{"id":"cheapEatsRestaurants_1bc4d9fd56dd","slug":"harry-s-kitchen-1bc4","kind":"restaurant","name":"Harry's Kitchen","lat":37.97623023407263,"lng":23.732424722550896,"url":"https://maps.app.goo.gl/4ThbHca8EWSeyv4f9?g_st=ipc","address":"Αθανασίου Αξαρλιάν 2, Αθήνα 105 63","categoryIds":["cheap-eats"],"categories":["Gyros & Cheap Eats"],"distanceKm":0.07925773266823552},{"id":"dessertsRestaurants_ecf6d66518c8","slug":"oggi-officina-gelato-gusto-italiano-athens-ecf6","kind":"restaurant","name":"Oggi - Officina Gelato Gusto Italiano, Athens","lat":37.97609425961556,"lng":23.73264733165775,"url":"https://maps.app.goo.gl/tFchspxKZcFEKXjf6?g_st=ipc","address":"Βουλής 17, Αθήνα 105 63","categoryIds":["desserts"],"categories":["Dessert Shops"],"distanceKm":0.08649872283218853},{"id":"dessertsRestaurants_9b5ef29493b0","slug":"fystiki-shop-downtown-9b5e","kind":"restaurant","name":"Fystiki Shop Downtown","lat":37.97606272763876,"lng":23.7332915007465,"url":"https://maps.app.goo.gl/kHKQgnoXfNFn8vtP9?g_st=ipc","address":"Ερμού &, Νίκης 4, Αθήνα 105 63","categoryIds":["desserts"],"categories":["Dessert Shops"],"distanceKm":0.09553291903426278},{"id":"italianRestaurants_e7c94ca15e1b","slug":"granello-pizza-italiana-e7c9","kind":"restaurant","name":"Granello - Pizza Italiana","lat":37.97667761548528,"lng":23.73173801660532,"url":"https://maps.app.goo.gl/nkhWXfUCf8UqXp5W9?g_st=ipc","address":"Περικλέους 18, Αθήνα 105 62","categoryIds":["italian"],"categories":["Italian Restaurants"],"distanceKm":0.10062942052136933},{"id":"italianRestaurants_41ab3f71a154","slug":"aliola-s-ermou-41ab","kind":"restaurant","name":"Aliola’s Ermou","lat":37.97633249966058,"lng":23.7318293724108,"url":"https://maps.app.goo.gl/4FHfDnNt7PhJxhxK6?g_st=ipc","address":"Ερμού 18 &, Διομείας 2, Αθήνα 105 63","categoryIds":["italian"],"categories":["Italian Restaurants"],"distanceKm":0.10761040726731487},{"id":"rooftopLoungesRestaurants_986af6d41f8f","slug":"ermou-18-beyond-the-horizon-986a","kind":"restaurant","name":"Ermou 18 Beyond the Horizon","lat":37.97612467035227,"lng":23.731892472806617,"url":"https://maps.app.goo.gl/29x8TUkS1Zi5ckeK6?g_st=ipc","address":"Ermou 18 Beyond the Horizon","categoryIds":["rooftop-lounges"],"categories":["Rooftop Lounges"],"distanceKm":0.11754544770559228},{"id":"coffeeBrunchRestaurants_eb79294668c4","slug":"ermou-18-beyond-the-horizon-eb79","kind":"restaurant","name":"Ermou 18 Beyond the Horizon","lat":37.97612271055357,"lng":23.731891623776487,"url":"https://maps.app.goo.gl/2L1MqjzdZCmDsrCj6?g_st=ipc","address":"Ερμού 18, Αθήνα 105 63","categoryIds":["coffee-brunch"],"categories":["Coffee & Brunch Spots"],"distanceKm":0.11774959402046659},{"id":"cheapEatsRestaurants_fa954f16db19","slug":"i-kantina-tis-karagiorgi-servias-o-kritikos-fa95","kind":"restaurant","name":"Η καντίνα της Καραγιώργη Σερβίας (Ο Κρητικός)","lat":37.97642356412653,"lng":23.734100321342698,"url":"https://maps.app.goo.gl/EeFjaZknqeTjfN8V6?g_st=ipc","address":"Καραγιώργη Σερβίας 2, Αθήνα 105 62","categoryIds":["cheap-eats"],"categories":["Gyros & Cheap Eats"],"distanceKm":0.11840105291537253},{"id":"dessertsRestaurants_eb9f02ba5b47","slug":"choureal-choux-profiterole-eb9f","kind":"restaurant","name":"CHOUREAL - Choux & Profiterole","lat":37.97617972861017,"lng":23.73180056203846,"url":"https://maps.app.goo.gl/qEAK3Nkr3LyPuUwh9?g_st=ipc","address":"Διομείας 2 &, Ερμού 18, Αθήνα 105 63","categoryIds":["desserts"],"categories":["Dessert Shops"],"distanceKm":0.11958238108655257},{"id":"coffeeBrunchRestaurants_75593e6eed28","slug":"pura-vida-athens-7559","kind":"restaurant","name":"PURA VIDA athens","lat":37.97668183849927,"lng":23.73150959247157,"url":"https://maps.app.goo.gl/e9ktUnuxp3FdRJyF8?g_st=ipc","address":"Περικλέους 24-26, Αθήνα 105 62","categoryIds":["coffee-brunch"],"categories":["Coffee & Brunch Spots"],"distanceKm":0.12025817449166498},{"id":"cheapEatsRestaurants_7f568e47c0a8","slug":"fuddy-duddy-7f56","kind":"restaurant","name":"FUDDY DUDDY","lat":37.97744212384706,"lng":23.73144118284602,"url":"https://maps.app.goo.gl/vVmR4bTFHYKewmjK9?g_st=ipc","address":"Λέκκα 32, Αθήνα 105 62","categoryIds":["cheap-eats"],"categories":["Gyros & Cheap Eats"],"distanceKm":0.14088429762809235},{"id":"rooftopLoungesRestaurants_a85e8793b95e","slug":"galaxy-bar-a85e","kind":"restaurant","name":"Galaxy Bar","lat":37.97799760915879,"lng":23.73380131955468,"url":"https://maps.app.goo.gl/onyhWrgj9TNpbXLX8?g_st=ipc","address":"Σταδίου 10, Αθήνα 105 62","categoryIds":["rooftop-lounges"],"categories":["Rooftop Lounges"],"distanceKm":0.15146145597634544},{"id":"rooftopLoungesRestaurants_fb4de5c9639b","slug":"elysium-athens-rooftop-dining-cocktails-fb4d","kind":"restaurant","name":"Elysium Athens Rooftop | Dining & Cocktails","lat":37.97568079594514,"lng":23.731930908514958,"url":"https://maps.app.goo.gl/XadarqG8B9MPBT9e7?g_st=ipc","address":"15-17, Ερμού 105 63, Αθήνα","categoryIds":["rooftop-lounges"],"categories":["Rooftop Lounges"],"distanceKm":0.15390357368076196},{"id":"coffeeBrunchRestaurants_3321b1393c9d","slug":"s-agapw-coffee-wine-and-love-3321","kind":"restaurant","name":"S’agapw Coffee Wine and Love","lat":37.97818149501619,"lng":23.732268569349888,"url":"https://maps.app.goo.gl/oYaBfSgA7BG2s8ph8?g_st=ipc","address":"Ανθίμου Γαζή 15, Αθήνα 105 61","categoryIds":["coffee-brunch"],"categories":["Coffee & Brunch Spots"],"distanceKm":0.15666506913437678},{"id":"dessertsRestaurants_fb018ad3c271","slug":"baklavas-fb01","kind":"restaurant","name":"Baklavas","lat":37.975429717960225,"lng":23.733177865867727,"url":"https://maps.app.goo.gl/JsVLmYGPmMaYJGiKA?g_st=ipc","address":"Νίκης 10, Αθήνα 105 63","categoryIds":["desserts"],"categories":["Dessert Shops"],"distanceKm":0.16064474096895448},{"id":"italianRestaurants_15f54ac83ec4","slug":"gloria-gati-15f5","kind":"restaurant","name":"Gloria Gati","lat":37.97802514944533,"lng":23.731662994218254,"url":"https://maps.app.goo.gl/VyAef5tB1eVm8LECA?g_st=ipc","address":"Πλ. Αγίου Γεωργίου Καρύτση 6, Αθήνα 105 61","categoryIds":["italian"],"categories":["Italian Restaurants"],"distanceKm":0.16754331237159534},{"id":"dessertsRestaurants_2434d906577a","slug":"le-greche-syntagma-2434","kind":"restaurant","name":"Le Greche Syntagma","lat":37.975295473634475,"lng":23.732572121627147,"url":"https://maps.app.goo.gl/8ERFwaLDZCRWvw329?g_st=ipc","address":"Μητροπόλεως 16, Αθήνα 105 63","categoryIds":["desserts"],"categories":["Dessert Shops"],"distanceKm":0.17508634622165767},{"id":"asianRestaurants_c5be8384da5c","slug":"hanoi-athens-authentic-vietnamese-food-c5be","kind":"restaurant","name":"HANOI ATHENS - AUTHENTIC VIETNAMESE FOOD","lat":37.97561643327209,"lng":23.73154671347612,"url":"https://maps.app.goo.gl/WvsC9Ebt7yScnxNH8?g_st=ipc","address":"Πετράκη 12, Αθήνα 105 63","categoryIds":["asian","vegetarian"],"categories":["Asian Restaurants","Vegetarian Friendly Restaurants"],"legacySlugs":["hanoi-athens-authentic-vietnamese-food-1e56"],"distanceKm":0.17957594342574282},{"id":"coffeeBrunchRestaurants_a3e6dda2655d","slug":"tazza-caffe-a3e6","kind":"restaurant","name":"Tazza caffe","lat":37.975499371808404,"lng":23.73172660898901,"url":"https://maps.app.goo.gl/uGLfA2cFXs7RueeS6?g_st=ipc","address":"Πετράκη 5, Αθήνα 105 63","categoryIds":["coffee-brunch"],"categories":["Coffee & Brunch Spots"],"distanceKm":0.18056445411641564}],"mentionedGuides":[{"slug":"athens-airport-to-city-guide-el","title":"Πώς να Πάτε από το Αεροδρόμιο της Αθήνας στο Κέντρο"},{"slug":"athens-airport-to-city-guide","title":"Getting From Athens Airport to the City Center"},{"slug":"athens-hop-on-hop-off-guide-el","title":"Οδηγός για τα Hop-On-Hop-Off Λεωφορεία της Αθήνας"},{"slug":"athens-hop-on-hop-off-guide","title":"Ultimate Guide to Athens Hop-On-Hop-Off Bus Tours"},{"slug":"athens-layover-6-hours-guide-el","title":"Πώς να Αξιοποιήσετε 6 Ώρες Αναμονής στην Αθήνα"},{"slug":"athens-layover-6-hours-guide","title":"How to Spend a 6 Hour Layover in Athens"},{"slug":"best-greek-souvenirs-athens-el","title":"Καλύτερα Ελληνικά Σουβενίρ στην Αθήνα: Οδηγός Αγορών"},{"slug":"best-greek-souvenirs-athens","title":"Best Greek Souvenirs in Athens: Shopping Guide"}],"canonicalSlug":"aristokratikon-epich-ap-to-1928-syntagma-athina-ce9d","enrichment":{"summary_en":"Αριστοκρατικόν (Επιχ. απ'το 1928) - Σύνταγμα, Αθήνα is a curated restaurant in Αθήνα 105 62 in the Dessert Shops collection. It is connected to 298 nearby Googlementor picks to help travelers build a stronger local route.","summary_el":"Αριστοκρατικόν (Επιχ. απ'το 1928) - Σύνταγμα, Αθήνα είναι ένα επιλεγμένο σημείο φαγητού στην περιοχή Αθήνα 105 62 και ανήκει στη συλλογή Dessert Shops. Συνδέεται με 298 κοντινές προτάσεις του Googlementor για πιο ολοκληρωμένη εμπειρία.","vibe_tags":["curated","sweet-stop"],"best_for":["first-time visitors","food lovers"],"visit_moments":["afternoon break","after dinner"],"practical_note":"Address and direct map link are available for easy turn-by-turn access.","nearby_walkable_count":298,"nearby_count_2km":655,"confidence":0.98},"areaContext":{"slug":"syntagma","name":"Syntagma","nameEl":"Σύνταγμα"},"intentContexts":[{"href":"/desserts/syntagma","label":"Dessert Shops in Syntagma","categorySlug":"desserts","categoryName":"Dessert Shops","areaSlug":"syntagma","areaName":"Syntagma","areaNameEl":"Σύνταγμα"}]},"__N_SSG":true}