{"pageProps":{"entity":{"id":"greekRestaurants_854af5844b5d","slug":"athmar-854a","kind":"restaurant","name":"Αθμάρ","lat":37.639145778049105,"lng":25.04198852214129,"url":"https://maps.app.goo.gl/89sj6fRtcg34nfx16?g_st=ipc","address":"Τήνου, Πύργος 842 01","categoryIds":["greek-restaurants"],"categories":["Greek Restaurants"]},"sameCategory":[{"id":"greekRestaurants_f1c703fa9088","slug":"sima-f1c7","kind":"restaurant","name":"Sima","lat":37.640391826641014,"lng":25.040013069732986,"url":"https://maps.app.goo.gl/3px2jqkoAcSm4AFa7?g_st=ipc","address":"Πύργος 842 01","categoryIds":["greek-restaurants"],"categories":["Greek Restaurants"]},{"id":"greekRestaurants_9bd6eb0516c5","slug":"foy-foy-9bd6","kind":"restaurant","name":"ΦΟΥ-ΦΟΥ","lat":37.62122057124332,"lng":25.052979875664423,"url":"https://maps.app.goo.gl/TPj9fHVZDWJCm6NZA?g_st=ipc","address":"Isternia, Tinos 842 01, Tinos Island 842 01 Υστερνια, 842 01","categoryIds":["greek-restaurants"],"categories":["Greek Restaurants"]},{"id":"greekRestaurants_94cb9a9dd94a","slug":"stin-ammo-allios-94cb","kind":"restaurant","name":"Στην Άμμο...αλλιώς","lat":37.615358360450664,"lng":25.042685964832707,"url":"https://maps.app.goo.gl/3Pr5rMprS5Yppvz26?g_st=ipc","address":"Επαρχιακή οδός Τήνου, Όρμος Υστερνίων 842 00","categoryIds":["greek-restaurants"],"categories":["Greek Restaurants"]},{"id":"greekRestaurants_838d0d66a841","slug":"svoura-tinos-838d","kind":"restaurant","name":"Svoura Tinos","lat":37.601268553117535,"lng":25.144221464428426,"url":"https://maps.app.goo.gl/V4vVEqRbyhJ55CDHA?g_st=ipc","address":"Οδός Κώμης, Κώμη 842 00","categoryIds":["greek-restaurants"],"categories":["Greek Restaurants"]},{"id":"greekRestaurants_9fd04aa91df9","slug":"katoi-sto-smardakito-9fd0","kind":"restaurant","name":"Κατώι στο Σμαρδάκιτο","lat":37.58545068761989,"lng":25.14517970131365,"url":"https://maps.app.goo.gl/uYvTXyHmVcZNJNpY7?g_st=ipc","address":"Σμαρδάκιτο 842 00","categoryIds":["greek-restaurants"],"categories":["Greek Restaurants"]},{"id":"greekRestaurants_5f9836018bd2","slug":"majorana-tinos-5f98","kind":"restaurant","name":"Majorana Tinos","lat":37.60853974046837,"lng":25.163273293292903,"url":"https://maps.app.goo.gl/e55FM2zsVXQpSNvD6?g_st=ipc","address":"Οδός Αγάπης 1, Τήνος 842 00","categoryIds":["greek-restaurants"],"categories":["Greek Restaurants"]},{"id":"greekRestaurants_947625a45be1","slug":"choreytra-9476","kind":"restaurant","name":"Χορεύτρα","lat":37.57812719431085,"lng":25.148363122123474,"url":"https://maps.app.goo.gl/WmyveBjvkGgoho4z9?g_st=ipc","address":"Κάμπος 842 00","categoryIds":["greek-restaurants"],"categories":["Greek Restaurants"]},{"id":"greekRestaurants_172ea4764db5","slug":"taverna-kafe-glyka-to-agnanti-172e","kind":"restaurant","name":"Ταβερνα-καφε-γλυκα το Αγνάντι","lat":37.565898907413874,"lng":25.1560402932862,"url":"https://maps.app.goo.gl/8XiQyQLYGgA9F42f6?g_st=ipc","address":"Κτικαδος 38, Δήμος Εξωμβούργου 842 00","categoryIds":["greek-restaurants"],"categories":["Greek Restaurants"]},{"id":"greekRestaurants_edeac11ea4d1","slug":"amiseli-edea","kind":"restaurant","name":"Αμισέλι","lat":37.57655586774317,"lng":25.195728111727593,"url":"https://maps.app.goo.gl/CTunTWCctmqFu2mZ6?g_st=ipc","address":"Unnamed Road, Στενή 842 00","categoryIds":["greek-restaurants"],"categories":["Greek Restaurants"]},{"id":"greekRestaurants_fa84c80207a5","slug":"cantina-analogue-bohemian-wine-gallery-tinos-fa84","kind":"restaurant","name":"Cantina Analogue Bohemian WIne Gallery Tinos","lat":37.538912232681554,"lng":25.16067525735608,"url":"https://maps.app.goo.gl/3WjrNZFhDCFeorz98?g_st=ipc","address":"Καρολου, Βιτάλη 5, Τήνος 842 00","categoryIds":["greek-restaurants"],"categories":["Greek Restaurants"]},{"id":"greekRestaurants_5411c28e3480","slug":"myrtilo-bistro-5411","kind":"restaurant","name":"Μύρτιλο bistro","lat":37.538868934363514,"lng":25.16069378342922,"url":"https://maps.app.goo.gl/skwxRn9YNPogPQ1XA?g_st=ipc","address":"Βιτάλη, Αφεντούλη και, Τήνος 842 00","categoryIds":["greek-restaurants"],"categories":["Greek Restaurants"]},{"id":"greekRestaurants_9b03e2c7dda1","slug":"tereza-9b03","kind":"restaurant","name":"Τερέζα","lat":37.58336832133397,"lng":25.202195929124645,"url":"https://maps.app.goo.gl/zNss9ojqUKW1DC9s6?g_st=ipc","address":"Μυρσινη 842 00","categoryIds":["greek-restaurants"],"categories":["Greek Restaurants"]}],"nearby":[{"id":"dessertsRestaurants_757fe603b972","slug":"to-kentrikon-757f","kind":"restaurant","name":"Το Κεντρικόν","lat":37.63921354793122,"lng":25.04200584233484,"url":"https://maps.app.goo.gl/MoMdkmCiYwwuTbUi7?g_st=ipc","address":"Unnamed Road, Πύργος 842 01","categoryIds":["desserts"],"categories":["Dessert Shops"],"distanceKm":0.00768844258410568},{"id":"greekRestaurants_f1c703fa9088","slug":"sima-f1c7","kind":"restaurant","name":"Sima","lat":37.640391826641014,"lng":25.040013069732986,"url":"https://maps.app.goo.gl/3px2jqkoAcSm4AFa7?g_st=ipc","address":"Πύργος 842 01","categoryIds":["greek-restaurants"],"categories":["Greek Restaurants"],"distanceKm":0.22238015851285972},{"id":"fishTavernasRestaurants_d5a2190de0c2","slug":"tama-d5a2","kind":"restaurant","name":"Táma","lat":37.651655752579366,"lng":25.051591259144875,"url":"https://maps.app.goo.gl/FhoWaSrsyrypuExG8?g_st=ipc","address":"Όρμος Πανόρμου 842 01","categoryIds":["fish-tavernas"],"categories":["Fish Tavernas"],"distanceKm":1.627829678566308},{"id":"coffeeBrunchRestaurants_5f5634aa7ab6","slug":"mayou-all-day-bar-5f56","kind":"restaurant","name":"Mayou all day bar","lat":37.6225070567129,"lng":25.05248500203228,"url":"https://maps.app.goo.gl/MQWdjK1DGr9YXoey5?g_st=ipc","address":"Isternia, Tinos 842 01, Tinos Island 842 01","categoryIds":["coffee-brunch"],"categories":["Coffee & Brunch Spots"],"distanceKm":2.0681950867113024},{"id":"coffeeBrunchRestaurants_4b0dd01f9ddd","slug":"exo-meria-4b0d","kind":"restaurant","name":"Exo meria","lat":37.621680604479764,"lng":25.051831582375698,"url":"https://maps.app.goo.gl/o27dRVLq4yNqsqfV6?g_st=ipc","address":"Isternia 842 01","categoryIds":["coffee-brunch"],"categories":["Coffee & Brunch Spots"],"distanceKm":2.126702937082251},{"id":"greekRestaurants_9bd6eb0516c5","slug":"foy-foy-9bd6","kind":"restaurant","name":"ΦΟΥ-ΦΟΥ","lat":37.62122057124332,"lng":25.052979875664423,"url":"https://maps.app.goo.gl/TPj9fHVZDWJCm6NZA?g_st=ipc","address":"Isternia, Tinos 842 01, Tinos Island 842 01 Υστερνια, 842 01","categoryIds":["greek-restaurants"],"categories":["Greek Restaurants"],"distanceKm":2.2157848668590208},{"id":"greekRestaurants_94cb9a9dd94a","slug":"stin-ammo-allios-94cb","kind":"restaurant","name":"Στην Άμμο...αλλιώς","lat":37.615358360450664,"lng":25.042685964832707,"url":"https://maps.app.goo.gl/3Pr5rMprS5Yppvz26?g_st=ipc","address":"Επαρχιακή οδός Τήνου, Όρμος Υστερνίων 842 00","categoryIds":["greek-restaurants"],"categories":["Greek Restaurants"],"distanceKm":2.645753198100173},{"id":"fishTavernasRestaurants_5745f4ec9e6d","slug":"to-thalassaki-5745","kind":"restaurant","name":"To Θαλασσάκι","lat":37.615230690872465,"lng":25.0428843541274,"url":"https://maps.app.goo.gl/eqUQ8oiZuscvzKLaA?g_st=ipc","address":"bay, Isternia 842 01","categoryIds":["fish-tavernas"],"categories":["Fish Tavernas"],"distanceKm":2.6604063780995926},{"id":"luxuryDiningRestaurants_1d0300f3d6a7","slug":"o-ntinos-1d03","kind":"restaurant","name":"O Ntinos","lat":37.59381409443961,"lng":25.069991170783855,"url":"https://maps.app.goo.gl/P7xp29Uhw71Tk9J3A?g_st=ipc","address":"Όρμος Γιαννάκη, Kardiani 842 01","categoryIds":["luxury-dining"],"categories":["Luxury Dining"],"distanceKm":5.611732910394483},{"id":"greekRestaurants_838d0d66a841","slug":"svoura-tinos-838d","kind":"restaurant","name":"Svoura Tinos","lat":37.601268553117535,"lng":25.144221464428426,"url":"https://maps.app.goo.gl/V4vVEqRbyhJ55CDHA?g_st=ipc","address":"Οδός Κώμης, Κώμη 842 00","categoryIds":["greek-restaurants"],"categories":["Greek Restaurants"],"distanceKm":9.940485118625643},{"id":"greekRestaurants_9fd04aa91df9","slug":"katoi-sto-smardakito-9fd0","kind":"restaurant","name":"Κατώι στο Σμαρδάκιτο","lat":37.58545068761989,"lng":25.14517970131365,"url":"https://maps.app.goo.gl/uYvTXyHmVcZNJNpY7?g_st=ipc","address":"Σμαρδάκιτο 842 00","categoryIds":["greek-restaurants"],"categories":["Greek Restaurants"],"distanceKm":10.875072627269718},{"id":"greekRestaurants_5f9836018bd2","slug":"majorana-tinos-5f98","kind":"restaurant","name":"Majorana Tinos","lat":37.60853974046837,"lng":25.163273293292903,"url":"https://maps.app.goo.gl/e55FM2zsVXQpSNvD6?g_st=ipc","address":"Οδός Αγάπης 1, Τήνος 842 00","categoryIds":["greek-restaurants"],"categories":["Greek Restaurants"],"distanceKm":11.210637871257235},{"id":"greekRestaurants_947625a45be1","slug":"choreytra-9476","kind":"restaurant","name":"Χορεύτρα","lat":37.57812719431085,"lng":25.148363122123474,"url":"https://maps.app.goo.gl/WmyveBjvkGgoho4z9?g_st=ipc","address":"Κάμπος 842 00","categoryIds":["greek-restaurants"],"categories":["Greek Restaurants"],"distanceKm":11.568895068538769},{"id":"coffeeBrunchRestaurants_75655a70677b","slug":"krok-mesie-all-day-bistrot-proino-brunch-sto-chorio-7565","kind":"restaurant","name":"Κροκ Μεσιέ | All day Bistrot {Πρωινό & Brunch στο χωριό}","lat":37.58939959185263,"lng":25.160526432646503,"url":"https://maps.app.goo.gl/PWyPVsJkGM6y8EdR9?g_st=ipc","address":"Epar.Od. Tripotamou-Kallonis, Krokos 842 00","categoryIds":["coffee-brunch"],"categories":["Coffee & Brunch Spots"],"distanceKm":11.815777405493083},{"id":"greekRestaurants_172ea4764db5","slug":"taverna-kafe-glyka-to-agnanti-172e","kind":"restaurant","name":"Ταβερνα-καφε-γλυκα το Αγνάντι","lat":37.565898907413874,"lng":25.1560402932862,"url":"https://maps.app.goo.gl/8XiQyQLYGgA9F42f6?g_st=ipc","address":"Κτικαδος 38, Δήμος Εξωμβούργου 842 00","categoryIds":["greek-restaurants"],"categories":["Greek Restaurants"],"distanceKm":12.933955671793905},{"id":"coffeeBrunchRestaurants_1dd5e3fc998c","slug":"kafe-nai-1dd5","kind":"restaurant","name":"καφέ-ναι","lat":37.59217889938765,"lng":25.17817299063689,"url":"https://maps.app.goo.gl/fceHF61HD8ctgCdK7?g_st=ipc","address":"Unnamed Road, Volakas 842 00","categoryIds":["coffee-brunch"],"categories":["Coffee & Brunch Spots"],"distanceKm":13.082716059106328},{"id":"coffeeBrunchRestaurants_d86c8a19693a","slug":"kloyki-klouki-d86c","kind":"restaurant","name":"Κλούκι (Klouki)","lat":37.58260089712488,"lng":25.191149960754956,"url":"https://maps.app.goo.gl/GBkSRUkYZhjgkkFo9?g_st=ipc","address":"Φαλατάδος 842 00","categoryIds":["coffee-brunch"],"categories":["Coffee & Brunch Spots"],"distanceKm":14.565909773692796},{"id":"greekRestaurants_edeac11ea4d1","slug":"amiseli-edea","kind":"restaurant","name":"Αμισέλι","lat":37.57655586774317,"lng":25.195728111727593,"url":"https://maps.app.goo.gl/CTunTWCctmqFu2mZ6?g_st=ipc","address":"Unnamed Road, Στενή 842 00","categoryIds":["greek-restaurants"],"categories":["Greek Restaurants"],"distanceKm":15.22645084232583},{"id":"greekRestaurants_fa84c80207a5","slug":"cantina-analogue-bohemian-wine-gallery-tinos-fa84","kind":"restaurant","name":"Cantina Analogue Bohemian WIne Gallery Tinos","lat":37.538912232681554,"lng":25.16067525735608,"url":"https://maps.app.goo.gl/3WjrNZFhDCFeorz98?g_st=ipc","address":"Καρολου, Βιτάλη 5, Τήνος 842 00","categoryIds":["greek-restaurants"],"categories":["Greek Restaurants"],"distanceKm":15.283461740631136},{"id":"coffeeBrunchRestaurants_e5ec2340781f","slug":"cantina-analogue-bohemian-wine-gallery-tinos-e5ec","kind":"restaurant","name":"Cantina Analogue Bohemian WIne Gallery Tinos","lat":37.53889977873259,"lng":25.160674453389994,"url":"https://maps.app.goo.gl/zgVordiqFYChj8ee9?g_st=ipc","address":"Καρολου, Vitali 5, Tinos 842 00","categoryIds":["coffee-brunch"],"categories":["Coffee & Brunch Spots"],"distanceKm":15.284423776859978},{"id":"greekRestaurants_5411c28e3480","slug":"myrtilo-bistro-5411","kind":"restaurant","name":"Μύρτιλο bistro","lat":37.538868934363514,"lng":25.16069378342922,"url":"https://maps.app.goo.gl/skwxRn9YNPogPQ1XA?g_st=ipc","address":"Βιτάλη, Αφεντούλη και, Τήνος 842 00","categoryIds":["greek-restaurants"],"categories":["Greek Restaurants"],"distanceKm":15.288091915460784},{"id":"coffeeBrunchRestaurants_efaa1eb785fb","slug":"antilalos-efaa","kind":"restaurant","name":"Antilalos","lat":37.53878225540917,"lng":25.160792308573363,"url":"https://maps.app.goo.gl/JZWV3eGAAkm1yYKZ9?g_st=ipc","address":"Αφεντούλη, Paxamadi και, Tinos 842 00","categoryIds":["coffee-brunch"],"categories":["Coffee & Brunch Spots"],"distanceKm":15.301064911200042},{"id":"coffeeBrunchRestaurants_7f2ed8602049","slug":"moxa-espresso-bar-7f2e","kind":"restaurant","name":"Moxa Espresso Bar","lat":37.53892047512739,"lng":25.161704068402724,"url":"https://maps.app.goo.gl/WEWXxoC44GxvXT9t9?g_st=ipc","address":"ΝΙΚΗΦΟΡΟΥ ΛΥΤΡΑ 10, Tinos 842 00","categoryIds":["coffee-brunch"],"categories":["Coffee & Brunch Spots"],"distanceKm":15.344965196755215},{"id":"dessertsRestaurants_059711f45839","slug":"mesklies-zacharoplasteio-tinos-0597","kind":"restaurant","name":"Μεσκλιές ζαχαροπλαστείο Τήνος","lat":37.53782261822991,"lng":25.160738844151368,"url":"https://maps.app.goo.gl/F9giWnJkDkh2tKMi8?g_st=ipc","address":"Επαρ.Οδ. Τήνου-Καλλονής 1876, Τήνος 842 00","categoryIds":["desserts"],"categories":["Dessert Shops"],"distanceKm":15.375905086052173}],"mentionedGuides":[],"canonicalSlug":"athmar-854a","enrichment":{"summary_en":"Αθμάρ is a curated restaurant in Πύργος 842 01 in the Greek Restaurants collection. It is connected to 2 nearby Googlementor picks to help travelers build a stronger local route.","summary_el":"Αθμάρ είναι ένα επιλεγμένο σημείο φαγητού στην περιοχή Πύργος 842 01 και ανήκει στη συλλογή Greek Restaurants. Συνδέεται με 2 κοντινές προτάσεις του Googlementor για πιο ολοκληρωμένη εμπειρία.","vibe_tags":["curated"],"best_for":["first-time visitors","food lovers"],"visit_moments":["lunch stop","dinner stop"],"practical_note":"Address and direct map link are available for easy turn-by-turn access.","nearby_walkable_count":2,"nearby_count_2km":3,"confidence":0.9},"areaContext":null,"intentContexts":[]},"__N_SSG":true}