{"pageProps":{"entity":{"id":"coffeeBrunchRestaurants_ea5204c1a6d8","slug":"boken-athens-ea52","kind":"restaurant","name":"Boken Athens","lat":37.98455750232933,"lng":23.733083600431524,"url":"https://maps.app.goo.gl/L42dwqLWL7TpGc5a8?g_st=ipc","address":"Εμμανουήλ Μπενάκη 40, Αθήνα 106 78","categoryIds":["coffee-brunch"],"categories":["Coffee & Brunch Spots"]},"sameCategory":[{"id":"coffeeBrunchRestaurants_728ff1b5d2a5","slug":"motiv-728f","kind":"restaurant","name":"MOTIV","lat":37.98356771821389,"lng":23.731211011656264,"url":"https://maps.app.goo.gl/cfAQd1ZN4MrBL9T99?g_st=ipc","address":"Εμμανουήλ Μπενάκη 20, Αθήνα 106 78","categoryIds":["coffee-brunch"],"categories":["Coffee & Brunch Spots"]},{"id":"coffeeBrunchRestaurants_36f81684a0dd","slug":"kolor-36f8","kind":"restaurant","name":"kolor.","lat":37.98351287018702,"lng":23.730837222364755,"url":"https://maps.app.goo.gl/p5U6oKL1b1TdeuVD9?g_st=ipc","address":"Εμμανουήλ Μπενάκη 7-9, Αθήνα 106 78","categoryIds":["coffee-brunch"],"categories":["Coffee & Brunch Spots"]},{"id":"coffeeBrunchRestaurants_24a3c9b03a04","slug":"behold-theman-24a3","kind":"restaurant","name":"behold theman","lat":37.986871883204095,"lng":23.73489020906335,"url":"https://maps.app.goo.gl/avUBs2LwMous6Xs97?g_st=ipc","address":"Ιδεοχώρος, Στουρνάρη 6, Αθήνα 106 83","categoryIds":["coffee-brunch"],"categories":["Coffee & Brunch Spots"]},{"id":"coffeeBrunchRestaurants_d36dcbf8db8e","slug":"nuffsaid-athens-d36d","kind":"restaurant","name":"NuffSaid.Athens","lat":37.983130427686646,"lng":23.736758649889097,"url":"https://maps.app.goo.gl/HmGsxR2qGDJfvBKs6?g_st=ipc","address":"Διδότου 31, Αθήνα 106 80","categoryIds":["coffee-brunch"],"categories":["Coffee & Brunch Spots"]},{"id":"coffeeBrunchRestaurants_fbce3a8d9ac7","slug":"free-thinking-zone-fbce","kind":"restaurant","name":"Free Thinking Zone","lat":37.982167427382876,"lng":23.7367442995071,"url":"https://maps.app.goo.gl/MVnbPnESdj5g5dLr8?g_st=ipc","address":"106 80, Skoufa 64 &, Γριβαίων 1, Αθήνα 106 80","categoryIds":["coffee-brunch"],"categories":["Coffee & Brunch Spots"]},{"id":"coffeeBrunchRestaurants_6ecc469a1225","slug":"the-black-salami-microbakery-6ecc","kind":"restaurant","name":"The Black Salami Microbakery","lat":37.98610295066266,"lng":23.73813379013077,"url":"https://maps.app.goo.gl/HJ9cCZfV3LeKP7U3A?g_st=ipc","address":"Ζωοδόχου Πηγής 71, Αθήνα 106 81","categoryIds":["coffee-brunch"],"categories":["Coffee & Brunch Spots"]},{"id":"coffeeBrunchRestaurants_8e0209d5d821","slug":"efimerida-ath-8e02","kind":"restaurant","name":"Εφημερίδα ATH","lat":37.97982401641368,"lng":23.734805099489133,"url":"https://maps.app.goo.gl/Kv2HqL5VxXf39c5Y7?g_st=ipc","address":"Βησσαρίωνος 9, Αθήνα 106 72","categoryIds":["coffee-brunch"],"categories":["Coffee & Brunch Spots"]},{"id":"coffeeBrunchRestaurants_467447d36a44","slug":"montakioy-4674","kind":"restaurant","name":"ΜΟΝΤΑΚΙΟΥ","lat":37.979477424699695,"lng":23.732289365097284,"url":"https://maps.app.goo.gl/CeF2nsyqfmvgyLPC9?g_st=ipc","address":"Σταδίου 30, Αθήνα 105 64","categoryIds":["coffee-brunch"],"categories":["Coffee & Brunch Spots"]},{"id":"coffeeBrunchRestaurants_ab1d021ea45b","slug":"muse-bistro-ab1d","kind":"restaurant","name":"Muse Bistro","lat":37.97978388430184,"lng":23.72982150044081,"url":"https://maps.app.goo.gl/S3SNQHHwiWFuHc2N6?g_st=ipc","address":"Aristidou 3, Athina 105 59","categoryIds":["coffee-brunch"],"categories":["Coffee & Brunch Spots"]},{"id":"coffeeBrunchRestaurants_9ae1dd6e7d5a","slug":"psomas-n-mokka-kafekopteio-a-e-e-9ae1","kind":"restaurant","name":"ΨΩΜΑΣ, Ν., \"ΜΟΚΚΑ ΚΑΦΕΚΟΠΤΕΙΟ\" Α.Ε.Ε.","lat":37.98083447984655,"lng":23.727407040678795,"url":"https://maps.app.goo.gl/oAY3rXKoej3BQGy39?g_st=ipc","address":"Αθηνάς 44, Αθήνα 105 51","categoryIds":["coffee-brunch"],"categories":["Coffee & Brunch Spots"]},{"id":"coffeeBrunchRestaurants_03891d56076e","slug":"odori-0389","kind":"restaurant","name":"Odori","lat":37.97922436265169,"lng":23.729754698272135,"url":"https://maps.app.goo.gl/Wa5G5txL7dyLZjDX9?g_st=ipc","address":"Σκουλενίου 2, Αθήνα 105 61","categoryIds":["coffee-brunch","italian"],"categories":["Coffee & Brunch Spots","Italian Restaurants"],"legacySlugs":["odori-0301"]},{"id":"coffeeBrunchRestaurants_ed24a7ddbf8d","slug":"the-makers-ed24","kind":"restaurant","name":"The Makers","lat":37.979293464451835,"lng":23.729075477305056,"url":"https://maps.app.goo.gl/ckVaWVRSL5xpfiAs8?g_st=ipc","address":"Πραξιτέλους 37, Αθήνα 105 60","categoryIds":["coffee-brunch"],"categories":["Coffee & Brunch Spots"]}],"nearby":[{"id":"fishTavernasRestaurants_f3208ead9a15","slug":"oyzeri-i-lesvos-f320","kind":"restaurant","name":"Ουζερί Η Λέσβος","lat":37.98449752332163,"lng":23.73299796536249,"url":"https://maps.app.goo.gl/zGLD1EQEqkqawMvG7?g_st=ipc","address":"Εμμανουήλ Μπενάκη 38, Αθήνα 106 78","categoryIds":["fish-tavernas"],"categories":["Fish Tavernas"],"distanceKm":0.010040314524604656},{"id":"cheapEatsRestaurants_cab7e72e3b11","slug":"psitopoleion-giorgos-manos-cab7","kind":"restaurant","name":"Ψητοπωλείον Γιώργος - Μάνος","lat":37.9855993281782,"lng":23.733208439532696,"url":"https://maps.app.goo.gl/jYKrRJuSFDD632N47?g_st=ipc","address":"Θεμιστοκλέους 39, Αθήνα 106 77","categoryIds":["cheap-eats"],"categories":["Gyros & Cheap Eats"],"distanceKm":0.1163612585678313},{"id":"vegetarianRestaurants_90f93033da7a","slug":"up-kyttariki-threpsi-90f9","kind":"restaurant","name":"UP - Κυτταρική Θρέψη","lat":37.984784636631375,"lng":23.731547822244607,"url":"https://maps.app.goo.gl/GaPAS9YHhNwunuDSA?g_st=ipc","address":"Ακαδημίας 91 &, Themistokleous, Athina 106 77","categoryIds":["vegetarian"],"categories":["Vegetarian Friendly Restaurants"],"distanceKm":0.13694637392070794},{"id":"burgersRestaurants_293449c2193c","slug":"exberg-2934","kind":"restaurant","name":"Exberg","lat":37.985722017039464,"lng":23.73377568835493,"url":"https://maps.app.goo.gl/671QPGYqt87fhozt8?g_st=ipc","address":"Θεμιστοκλέους 56, Αθήνα 106 81","categoryIds":["burgers"],"categories":["Burger Spots"],"distanceKm":0.14299021014224078},{"id":"vegetarianRestaurants_ad1aabfd0107","slug":"cookoomela-grill-vegan-ad1a","kind":"restaurant","name":"Cookoomela Grill Vegan","lat":37.985828644021424,"lng":23.73352687550602,"url":"https://maps.app.goo.gl/QbLppt3u9uZg36Xi6?g_st=ipc","address":"Θεμιστοκλέους 43, Αθήνα 106 83","categoryIds":["vegetarian"],"categories":["Vegetarian Friendly Restaurants"],"distanceKm":0.146586160127946},{"id":"vegetarianRestaurants_77e942c763e9","slug":"magic-kitchen-chortofagia-themistokleoys-kentro-77e9","kind":"restaurant","name":"Magic Kitchen Χορτοφαγία Θεμιστοκλέους Κέντρο","lat":37.98582880467768,"lng":23.733583710090212,"url":"https://maps.app.goo.gl/ZQqCgQBx8g5Gjgrh7?g_st=ipc","address":"Θεμιστοκλέους 45, Αθήνα 106 82","categoryIds":["vegetarian"],"categories":["Vegetarian Friendly Restaurants"],"distanceKm":0.14800127069229896},{"id":"cheapEatsRestaurants_6b9bfc66a8e4","slug":"lacantina-streetfood-6b9b","kind":"restaurant","name":"Lacantina streetfood","lat":37.98418112510836,"lng":23.734735469259256,"url":"https://maps.app.goo.gl/in5jozRVDDW97jJc8?g_st=ipc","address":"Ζωοδόχου Πηγής 24, Αθήνα 106 81","categoryIds":["cheap-eats"],"categories":["Gyros & Cheap Eats"],"distanceKm":0.1507000989706279},{"id":"cheapEatsRestaurants_5338053c1323","slug":"cocoretsi-5338","kind":"restaurant","name":"Cocoretsi","lat":37.984933091622935,"lng":23.73142125517845,"url":"https://maps.app.goo.gl/sz7bawT1imNu9L696?g_st=ipc","address":"Ακαδημίας 95, Αθήνα 106 77","categoryIds":["cheap-eats"],"categories":["Gyros & Cheap Eats"],"distanceKm":0.15155748203186378},{"id":"vegetarianRestaurants_49bc3b76300b","slug":"falafelo-street-food-49bc","kind":"restaurant","name":"Falafelo Street Food","lat":37.98589482225123,"lng":23.733448804787468,"url":"https://maps.app.goo.gl/R4ear5h1EDzpwe8Y8?g_st=ipc","address":"Σουλτάνη 2-4, Αθήνα 106 83","categoryIds":["vegetarian"],"categories":["Vegetarian Friendly Restaurants"],"distanceKm":0.15210873091355767},{"id":"burgersRestaurants_c839a7ca9229","slug":"prigkipas-c839","kind":"restaurant","name":"Πρiγκιπας","lat":37.983677017107105,"lng":23.73451147367233,"url":"https://maps.app.goo.gl/fEvt3vsxx19nFxqw8?g_st=ipc","address":"Χαρ. Τρικούπη 23, Αθήνα 106 81","categoryIds":["burgers","cheap-eats"],"categories":["Burger Spots","Gyros & Cheap Eats"],"legacySlugs":["prigkipas-f678"],"distanceKm":0.15888939557267764},{"id":"dessertsRestaurants_1784b9fa852d","slug":"baklamania-1784","kind":"restaurant","name":"Baklamania","lat":37.985982058793134,"lng":23.733879471082627,"url":"https://maps.app.goo.gl/dVejuM8qJpCUsYq38?g_st=ipc","address":"Θεμιστοκλέους 49, Αθήνα 106 83","categoryIds":["desserts"],"categories":["Dessert Shops"],"distanceKm":0.1730802539196831},{"id":"fishTavernasRestaurants_94c27f69eb82","slug":"trata-94c2","kind":"restaurant","name":"ΤΡΑΤΑ","lat":37.9842462216536,"lng":23.73093735061636,"url":"https://maps.app.goo.gl/hterjoYbDhkZzWVF7?g_st=ipc","address":"Νικηταρά, Αθήνα 106 78","categoryIds":["fish-tavernas"],"categories":["Fish Tavernas"],"distanceKm":0.19125849294057837},{"id":"greekRestaurants_eec032d0bea1","slug":"atitamos-eec0","kind":"restaurant","name":"Ατίταμος","lat":37.98622715652684,"lng":23.73236663557607,"url":"https://maps.app.goo.gl/VfeckYbAHrSRw3Qo8","address":"Καποδιστρίου 2, Αθήνα 106 83","categoryIds":["greek-restaurants"],"categories":["Greek Restaurants"],"distanceKm":0.1960020009186162},{"id":"dessertsRestaurants_0a4575669b20","slug":"sorolop-0a45","kind":"restaurant","name":"Sorolop","lat":37.98564970745245,"lng":23.73486137468713,"url":"https://maps.app.goo.gl/JHNfHtwZtaTRv5c86?g_st=ipc","address":"Ανδρέα Μεταξά 17, Αθήνα 106 81","categoryIds":["desserts"],"categories":["Dessert Shops"],"distanceKm":0.1975469405779765},{"id":"coffeeBrunchRestaurants_728ff1b5d2a5","slug":"motiv-728f","kind":"restaurant","name":"MOTIV","lat":37.98356771821389,"lng":23.731211011656264,"url":"https://maps.app.goo.gl/cfAQd1ZN4MrBL9T99?g_st=ipc","address":"Εμμανουήλ Μπενάκη 20, Αθήνα 106 78","categoryIds":["coffee-brunch"],"categories":["Coffee & Brunch Spots"],"distanceKm":0.19760416607723486},{"id":"vegetarianRestaurants_4f70d2b2123b","slug":"filomila-vegeterian-food-4f70","kind":"restaurant","name":"Filomila Vegeterian Food","lat":37.9853717765479,"lng":23.73508897094766,"url":"https://maps.app.goo.gl/JYkwhsRENEnEtjgHA?g_st=ipc","address":"Ανδρέα Μεταξά 13, Αθήνα 106 81","categoryIds":["vegetarian"],"categories":["Vegetarian Friendly Restaurants"],"distanceKm":0.19770406749877248},{"id":"greekRestaurants_5d1d35aa177d","slug":"gioysoyroym-5d1d","kind":"restaurant","name":"Γιουσουρούμ","lat":37.98634442442922,"lng":23.733413179378076,"url":"https://maps.app.goo.gl/jh9iV3W2AMUY6Pev5","address":"Σουλτάνη 11, Αθήνα 106 82","categoryIds":["greek-restaurants"],"categories":["Greek Restaurants"],"distanceKm":0.20078514266288702},{"id":"greekRestaurants_56884a3a4523","slug":"i-kriti-pl-kaniggos-5688","kind":"restaurant","name":"Η Κρήτη, πλ. Κανιγγος","lat":37.985209028957776,"lng":23.730887169410018,"url":"https://maps.app.goo.gl/QasSnVbzBbfxtArw5","address":"Βερανζέρου 5, Αθήνα 106 77","categoryIds":["greek-restaurants"],"categories":["Greek Restaurants"],"distanceKm":0.20567844101413457},{"id":"fishTavernasRestaurants_9e5577c171da","slug":"i-stoa-allios-9e55","kind":"restaurant","name":"Η Στοά Αλλιώς","lat":37.984455169051934,"lng":23.73057480489291,"url":"https://maps.app.goo.gl/SAabW9ijLcFRSozJ6?g_st=ipc","address":"Γαμβέτα 14, Αθήνα 106 77","categoryIds":["fish-tavernas"],"categories":["Fish Tavernas"],"distanceKm":0.22016836489267874},{"id":"cheapEatsRestaurants_7a147c673f5b","slug":"soyvlaki-i-leivadia-7a14","kind":"restaurant","name":"Σουβλάκι Η Λειβαδιά","lat":37.984552486382015,"lng":23.7305119942548,"url":"https://maps.app.goo.gl/DMoZEUMYCkZLa2k59?g_st=ipc","address":"Κάνιγγος 2-4, Αθήνα 106 77","categoryIds":["cheap-eats"],"categories":["Gyros & Cheap Eats"],"distanceKm":0.22537946697298505},{"id":"cheapEatsRestaurants_724c8ca91031","slug":"mangal-724c","kind":"restaurant","name":"Mangal","lat":37.98648075392058,"lng":23.733903117356245,"url":"https://maps.app.goo.gl/fZ3o2N67Ya2WA1aQA?g_st=ipc","address":"Σολωμού 12, Αθήνα 106 83","categoryIds":["cheap-eats"],"categories":["Gyros & Cheap Eats"],"distanceKm":0.22559430236449637},{"id":"dessertsRestaurants_ba20d8faff31","slug":"craquelin-ba20","kind":"restaurant","name":"Craquelin","lat":37.9865815151158,"lng":23.732749024802267,"url":"https://maps.app.goo.gl/m9Z1VRpp25owhfSz8?g_st=ipc","address":"Σολωμού 23, Αθήνα 106 82","categoryIds":["desserts"],"categories":["Dessert Shops"],"distanceKm":0.22696205675391484},{"id":"coffeeBrunchRestaurants_36f81684a0dd","slug":"kolor-36f8","kind":"restaurant","name":"kolor.","lat":37.98351287018702,"lng":23.730837222364755,"url":"https://maps.app.goo.gl/p5U6oKL1b1TdeuVD9?g_st=ipc","address":"Εμμανουήλ Μπενάκη 7-9, Αθήνα 106 78","categoryIds":["coffee-brunch"],"categories":["Coffee & Brunch Spots"],"distanceKm":0.22858936387041145},{"id":"italianRestaurants_f3fa54dd222e","slug":"mystic-pizza-pasta-f3fa","kind":"restaurant","name":"Mystic Pizza & Pasta","lat":37.98571885741884,"lng":23.735343296198398,"url":"https://maps.app.goo.gl/1SJBX6YThtp2jdfQ8?g_st=ipc","address":"Εμμανουήλ Μπενάκη 76, Αθήνα 106 81","categoryIds":["italian"],"categories":["Italian Restaurants"],"distanceKm":0.2364244980603732}],"mentionedGuides":[{"slug":"tap-water-safe-greece-el","title":"Είναι Ασφαλές να Πίνετε Νερό Βρύσης στην Ελλάδα;"},{"slug":"tap-water-safe-greece","title":"Is Tap Water Safe to Drink in Greece?"},{"slug":"traveling-to-greece-on-a-budget-el","title":"Ταξιδι στην Ελλαδα με μικρο budget"},{"slug":"traveling-to-greece-on-a-budget","title":"Traveling to Greece on a Budget"}],"canonicalSlug":"boken-athens-ea52","enrichment":{"summary_en":"Boken Athens is a curated restaurant in Αθήνα 106 78 in the Coffee & Brunch Spots collection. It is connected to 123 nearby Googlementor picks to help travelers build a stronger local route.","summary_el":"Boken Athens είναι ένα επιλεγμένο σημείο φαγητού στην περιοχή Αθήνα 106 78 και ανήκει στη συλλογή Coffee & Brunch Spots. Συνδέεται με 123 κοντινές προτάσεις του Googlementor για πιο ολοκληρωμένη εμπειρία.","vibe_tags":["curated","daytime-favorite"],"best_for":["first-time visitors","food lovers"],"visit_moments":["early morning","late brunch"],"practical_note":"Address and direct map link are available for easy turn-by-turn access.","nearby_walkable_count":123,"nearby_count_2km":578,"confidence":0.98},"areaContext":{"slug":"exarcheia","name":"Exarcheia","nameEl":"Εξάρχεια"},"intentContexts":[{"href":"/brunch/exarcheia","label":"Coffee & Brunch Spots in Exarcheia","categorySlug":"brunch","categoryName":"Coffee & Brunch Spots","areaSlug":"exarcheia","areaName":"Exarcheia","areaNameEl":"Εξάρχεια"}]},"__N_SSG":true}