{"pageProps":{"entity":{"id":"greekRestaurants_f28bb3ae0783","slug":"gioyvetsakia-f28b","kind":"restaurant","name":"Γιουβετσάκια","lat":37.88563428778149,"lng":23.75438021161349,"url":"https://maps.app.goo.gl/tvw66LvtdqTpBCKw9","address":"Moreos 45 & Ithomis 20, Γλυφάδα 165 61","categoryIds":["greek-restaurants"],"categories":["Greek Restaurants"]},"sameCategory":[{"id":"greekRestaurants_1210e06dbe2b","slug":"meli-ladi-1210","kind":"restaurant","name":"Μέλι & Λάδι","lat":37.87699204463285,"lng":23.76367728627069,"url":"https://maps.app.goo.gl/CPZ65sur6LLxmT9J6","address":"Δημ. Γούναρη 144, Γλυφάδα 165 62","categoryIds":["greek-restaurants"],"categories":["Greek Restaurants"]},{"id":"greekRestaurants_b64cf8867729","slug":"tefariki-b64c","kind":"restaurant","name":"Τεφαρίκι","lat":37.871857113105406,"lng":23.752753345977908,"url":"https://maps.app.goo.gl/mcH8XPhdX39hW6V59","address":"Ξενοφώντος 28, Γλυφάδα 166 75","categoryIds":["greek-restaurants"],"categories":["Greek Restaurants"]},{"id":"greekRestaurants_b6c15b677224","slug":"to-drami-b6c1","kind":"restaurant","name":"To Drami","lat":37.86297028796149,"lng":23.75634712220573,"url":"https://maps.app.goo.gl/HFhEeo24Fzrwgfb98?g_st=ipc","address":"Laodikis 22, Glifada 166 74","categoryIds":["greek-restaurants"],"categories":["Greek Restaurants"]},{"id":"greekRestaurants_0d2e578d4137","slug":"sasmos-kritiko-estiatorio-0d2e","kind":"restaurant","name":"Σασμός Κρητικό Εστιατόριο","lat":37.86096099153773,"lng":23.750381646450872,"url":"https://maps.app.goo.gl/hFF1UKLboDX66HUH8","address":"Γρ. Λαμπράκη 1-3, Γλυφάδα 166 75","categoryIds":["greek-restaurants"],"categories":["Greek Restaurants"]},{"id":"greekRestaurants_f2b28136b406","slug":"ethos-athens-f2b2","kind":"restaurant","name":"Ethos Athens","lat":37.86060943582202,"lng":23.752891201537246,"url":"https://maps.app.goo.gl/xMQQbpjUHPQdMrpg6?g_st=ipc","address":"Zisimopoulou 10, Glifada 166 74","categoryIds":["greek-restaurants"],"categories":["Greek Restaurants"]},{"id":"greekRestaurants_2c46fb9be459","slug":"basegrill-2c46","kind":"restaurant","name":"Basegrill","lat":37.860629906056765,"lng":23.752227328267114,"url":"https://maps.app.goo.gl/Mg499qYpRgDUfYMg9","address":"Ζησιμοπούλου 5, Γλυφάδα 166 74","categoryIds":["greek-restaurants","luxury-dining"],"categories":["Greek Restaurants","Luxury Dining"],"legacySlugs":["basegrill-e825"]},{"id":"greekRestaurants_fd7a28a0649b","slug":"pasiphae-fd7a","kind":"restaurant","name":"PASIPHAE","lat":37.85781169380274,"lng":23.753685400099858,"url":"https://maps.app.goo.gl/w2UaAYT95xemDfAx9?g_st=ipc","address":"Lazaraki 63, Glifada 166 74","categoryIds":["greek-restaurants"],"categories":["Greek Restaurants"]},{"id":"greekRestaurants_4272f358b681","slug":"mantri-mountain-resto-4272","kind":"restaurant","name":"Mantri Mountain Resto","lat":37.90889434818902,"lng":23.77519106611033,"url":"https://maps.app.goo.gl/NEovPiofbnzr8Awb8","address":"Βαρδουσίων 29, Γλυφάδα 165 62","categoryIds":["greek-restaurants"],"categories":["Greek Restaurants"]},{"id":"greekRestaurants_4c001bebcf5a","slug":"kyria-oyrania-taverna-4c00","kind":"restaurant","name":"Κυρία Ουρανία Ταβέρνα","lat":37.92057877935982,"lng":23.755542263928948,"url":"https://maps.app.goo.gl/ps7BDEvG27yAVuTL8","address":"Ηρ. Πολυτεχνείου 85, Ηλιούπολη 163 42","categoryIds":["greek-restaurants"],"categories":["Greek Restaurants"]},{"id":"greekRestaurants_d3958d32f2a3","slug":"lotza-to-kalamaki-spiti-toy-d395","kind":"restaurant","name":"Λοτζα - Το Καλαμάκι Σπίτι Του","lat":37.92519193178049,"lng":23.751255406437117,"url":"https://maps.app.goo.gl/Dnr9SzVdyH6c3w6d7","address":"Λεωφ. Κυπρίων Ηρώων 57, Ηλιούπολη 163 41","categoryIds":["greek-restaurants"],"categories":["Greek Restaurants"]},{"id":"cheapEatsRestaurants_9e38740e23c2","slug":"o-proedros-alimos-9e38","kind":"restaurant","name":"ο Πρόεδρος (Άλιμος)","lat":37.912881112573395,"lng":23.714106306735346,"url":"https://maps.app.goo.gl/nwzgkAPXAUQ2k7tQ7?g_st=ipc","address":"Άλιμος, Λεωφ. Καλαμακίου 26, Αθήνα 174 55","categoryIds":["cheap-eats","greek-restaurants"],"categories":["Gyros & Cheap Eats","Greek Restaurants"],"legacySlugs":["o-proedros-alimos-797f"]},{"id":"greekRestaurants_5c488f0d8ce0","slug":"ether-athens-5c48","kind":"restaurant","name":"Ether Athens","lat":37.9300575683433,"lng":23.752395520807372,"url":"https://maps.app.goo.gl/X42jFmXfj3xf7XFx9","address":"Πριάμου 2, Ηλιούπολη 163 41","categoryIds":["greek-restaurants"],"categories":["Greek Restaurants"]}],"nearby":[{"id":"fishTavernasRestaurants_3cf7850d662e","slug":"to-agkistri-3cf7","kind":"restaurant","name":"Το Αγκίστρι","lat":37.88417743586951,"lng":23.75467629204283,"url":"https://maps.app.goo.gl/tT9ydwBCoa2EgT5d7?g_st=ipc","address":"Παλμύρας 2, Γλυφάδα 165 61","categoryIds":["fish-tavernas"],"categories":["Fish Tavernas"],"distanceKm":0.16406523951454666},{"id":"cheapEatsRestaurants_685be47e5df7","slug":"to-ariston-685b","kind":"restaurant","name":"Το Άριστον","lat":37.88039754118748,"lng":23.75713413104173,"url":"https://maps.app.goo.gl/4zqMC4Phrwrov3rL6?g_st=ipc","address":"Σοφίας Βέμπο 22, Γλυφάδα 166 75","categoryIds":["cheap-eats"],"categories":["Gyros & Cheap Eats"],"distanceKm":0.6304658670813409},{"id":"dessertsRestaurants_b4416b6328f3","slug":"sovolos-zacharoplasteio-foyrnos-b441","kind":"restaurant","name":"Sovolos - Ζαχαροπλαστείο - Φούρνος","lat":37.88041660741069,"lng":23.757712624330377,"url":"https://maps.app.goo.gl/P3uyZ1oH1pSEfex39?g_st=ipc","address":"Σοφίας Βέμπο 29, Γλυφάδα 165 61","categoryIds":["desserts"],"categories":["Dessert Shops"],"distanceKm":0.6497241552308268},{"id":"cheapEatsRestaurants_25ffd4c0ef7f","slug":"elliniko-soyvlaki-ap-to1990-25ff","kind":"restaurant","name":"Ελληνικό Σουβλάκι (απ'το1990)","lat":37.892191582868755,"lng":23.75361437896675,"url":"https://maps.app.goo.gl/RAbojGiNVh4trirv7?g_st=ipc","address":"Λεωφ. Ιασωνίδου 40, Ελληνικό 167 77","categoryIds":["cheap-eats"],"categories":["Gyros & Cheap Eats"],"distanceKm":0.7322286395064727},{"id":"cheapEatsRestaurants_f4150c2850c0","slug":"i-leivadia-f415","kind":"restaurant","name":"Η Λειβαδιά","lat":37.87979270265205,"lng":23.758582732685436,"url":"https://maps.app.goo.gl/BFkQxfbJJTqb7Qp87?g_st=ipc","address":"Ανδρέα Παπανδρέου 126, Γλυφάδα 165 61","categoryIds":["cheap-eats"],"categories":["Gyros & Cheap Eats"],"distanceKm":0.7469624877245808},{"id":"italianRestaurants_18486d8f87b6","slug":"mamy-blue-pizza-napoletana-glyfada-1848","kind":"restaurant","name":"Mamy Blue - Pizza Napoletana Glyfada","lat":37.8796152626329,"lng":23.758507788324675,"url":"https://maps.app.goo.gl/Viv8JcHoZX8wKXaV9?g_st=ipc","address":"Ανδρέα Παπανδρέου 126, Γλυφάδα 165 61","categoryIds":["italian"],"categories":["Italian Restaurants"],"distanceKm":0.7610295982712696},{"id":"cheapEatsRestaurants_14277405021c","slug":"aristofanis-geyseis-estiatoria-psitopoleia-ano-glyfada-1427","kind":"restaurant","name":"Αριστοφάνης Γεύσεις | Εστιατόρια | Ψητοπωλεία Άνω Γλυφάδα","lat":37.890796486374335,"lng":23.76076987782631,"url":"https://maps.app.goo.gl/vR5rdW1p8psGAbRc7?g_st=ipc","address":"Δημ. Γούναρη 46, Ελληνικό 167 77","categoryIds":["cheap-eats"],"categories":["Gyros & Cheap Eats"],"distanceKm":0.8024394538333426},{"id":"dessertsRestaurants_f3a8bc3cdfa9","slug":"ourse-athens-f3a8","kind":"restaurant","name":"Ourse Athens","lat":37.88207729717418,"lng":23.76284471292179,"url":"https://maps.app.goo.gl/diDUu1LQKinrZXQT9?g_st=ipc","address":"Μυστρά 39, Γλυφάδα 165 61","categoryIds":["desserts"],"categories":["Dessert Shops"],"distanceKm":0.8415884701024028},{"id":"asianRestaurants_84fbfd57e68e","slug":"ryotei-118-84fb","kind":"restaurant","name":"Ryōtei 118","lat":37.879367097165485,"lng":23.763308738653866,"url":"https://maps.app.goo.gl/XC6EcCoyBojTFzQp9?g_st=ipc","address":"Δημ. Γούναρη 118, Γλυφάδα 166 74","categoryIds":["asian","burgers"],"categories":["Asian Restaurants","Burger Spots"],"legacySlugs":["ryotei-118-5acf"],"distanceKm":1.048647498771003},{"id":"burgersRestaurants_ba4a0b5f3045","slug":"ryotei118-ba4a","kind":"restaurant","name":"Ryōtei118","lat":37.87936856839685,"lng":23.763367179515893,"url":"https://maps.app.goo.gl/jQiZ1pYw63j3q8zG9","address":"Dim. Gounari 118, Glifada 166 74","categoryIds":["burgers"],"categories":["Burger Spots"],"distanceKm":1.0523772673697167},{"id":"burgersRestaurants_9c2f22b0606b","slug":"hashtag-burger-9c2f","kind":"restaurant","name":"Hashtag#Burger","lat":37.89371001882756,"lng":23.763217485797266,"url":"https://maps.app.goo.gl/BsuHdbYYc8dsSTwn8?g_st=ipc","address":"Γεωρ. Γεννηματά 26, Γλυφάδα 165 62","categoryIds":["burgers","cheap-eats"],"categories":["Burger Spots","Gyros & Cheap Eats"],"legacySlugs":["hashtag-burger-30dc"],"distanceKm":1.1865010461515706},{"id":"familyFriendly_824dcd75a264","slug":"the-ellinikon-experience-park-824d","kind":"restaurant","name":"The Ellinikon Experience Park","lat":37.889532923626724,"lng":23.741777435195917,"url":"https://maps.app.goo.gl/sqeFJaUrDmxw1UqF7?g_st=ipc","address":"Ελληνικό 167 77","categoryIds":["family-friendly"],"categories":["Kid Friendly Locations"],"distanceKm":1.1879074115156567},{"id":"dessertsRestaurants_1f8a84ec27ef","slug":"zacharoplasteio-melina-1f8a","kind":"restaurant","name":"Ζαχαροπλαστείο Μελίνα","lat":37.89634457510765,"lng":23.75272103741247,"url":"https://maps.app.goo.gl/q1hfQmUdAxU7F42R6?g_st=ipc","address":"Τριπόλεως 65, Ελληνικό 167 77","categoryIds":["desserts"],"categories":["Dessert Shops"],"distanceKm":1.199796618641593},{"id":"municipalities_4714f1907ab8","slug":"elliniko-4714","kind":"municipality","name":"Ελληνικό","lat":37.892,"lng":23.743,"region":"Νότια Προάστια","name_en":"Elliniko","region_en":"Southern Suburbs","distanceKm":1.2240848806560654},{"id":"greekRestaurants_1210e06dbe2b","slug":"meli-ladi-1210","kind":"restaurant","name":"Μέλι & Λάδι","lat":37.87699204463285,"lng":23.76367728627069,"url":"https://maps.app.goo.gl/CPZ65sur6LLxmT9J6","address":"Δημ. Γούναρη 144, Γλυφάδα 165 62","categoryIds":["greek-restaurants"],"categories":["Greek Restaurants"],"distanceKm":1.260653997683104},{"id":"burgersRestaurants_797126963f1f","slug":"amam-estiatorio-glyfada-7971","kind":"restaurant","name":"ΑΜΑΜ - ΕΣΤΙΑΤΟΡΙΟ - ΓΛΥΦΑΔΑ","lat":37.895880681449796,"lng":23.761095559330744,"url":"https://maps.app.goo.gl/fAsTx4mwCTHC78t86?g_st=ipc","address":"Γεωρ. Γεννηματά 11, Γλυφάδα 165 62","categoryIds":["burgers","cheap-eats"],"categories":["Burger Spots","Gyros & Cheap Eats"],"legacySlugs":["amam-estiatorio-glyfada-af98"],"distanceKm":1.282722814777229},{"id":"municipalities_3d9dbd89e718","slug":"glyfada-3d9d","kind":"municipality","name":"Γλυφάδα","lat":37.8782,"lng":23.743,"aliases":["Glyfada","Gliphada","Γλυφαδα","Glifada"],"region":"Νότια Προάστια","name_en":"Glyfada","region_en":"Southern Suburbs","distanceKm":1.2964949271930335},{"id":"dessertsRestaurants_2e03a8c9e4e0","slug":"sovolos-zacharoplasteio-foyrnos-2e03","kind":"restaurant","name":"Sovolos - Ζαχαροπλαστείο - Φούρνος","lat":37.87485505079695,"lng":23.763836128858856,"url":"https://maps.app.goo.gl/RXXKnkZNGbvAgkTW6?g_st=ipc","address":"Δημ. Γούναρη 158, Γλυφάδα 166 74","categoryIds":["desserts"],"categories":["Dessert Shops"],"distanceKm":1.4578669376903706},{"id":"dessertsRestaurants_040357268baa","slug":"galaktopoleio-stamoy-0403","kind":"restaurant","name":"Γαλακτοπωλείο ΣΤΑΜΟΥ","lat":37.874588254746484,"lng":23.763954006260555,"url":"https://maps.app.goo.gl/sGysojdMKvQUw51Q7?g_st=ipc","address":"Δημ. Γούναρη 160, Γλυφάδα 166 74","categoryIds":["desserts"],"categories":["Dessert Shops"],"distanceKm":1.4881711645786895},{"id":"asianRestaurants_f6ce39f326eb","slug":"noodle-bar-glyfada-f6ce","kind":"restaurant","name":"NOODLE BAR ΓΛΥΦΑΔΑ","lat":37.872037331445135,"lng":23.752155686687118,"url":"https://maps.app.goo.gl/GoKuSs69HC1RbxyBA?g_st=ipc","address":"Ξενοφώντος 20, Γλυφάδα 166 75","categoryIds":["asian"],"categories":["Asian Restaurants"],"distanceKm":1.524466637669024},{"id":"greekRestaurants_b64cf8867729","slug":"tefariki-b64c","kind":"restaurant","name":"Τεφαρίκι","lat":37.871857113105406,"lng":23.752753345977908,"url":"https://maps.app.goo.gl/mcH8XPhdX39hW6V59","address":"Ξενοφώντος 28, Γλυφάδα 166 75","categoryIds":["greek-restaurants"],"categories":["Greek Restaurants"],"distanceKm":1.5385917326938243},{"id":"cheapEatsRestaurants_fda4a4f93016","slug":"psitopoleio-to-pyrnari-fda4","kind":"restaurant","name":"Ψητοπωλείο «Το Πυρνάρι»","lat":37.874394232840224,"lng":23.766043784078654,"url":"https://maps.app.goo.gl/qS5CXA1L9CMHWtaN7?g_st=ipc","address":"Ανθέων 33, Γλυφάδα 166 74","categoryIds":["cheap-eats"],"categories":["Gyros & Cheap Eats"],"distanceKm":1.6155439314381639},{"id":"cheapEatsRestaurants_833c862346f4","slug":"virtuoso-enjoyment-833c","kind":"restaurant","name":"Virtuoso_enjoyment","lat":37.90017783194547,"lng":23.749997183633212,"url":"https://maps.app.goo.gl/7nLwDeMLLVCCJGGAA?g_st=ipc","address":"Μαρίνου Γερουλάνου 126, Αργυρούπολη 164 52","categoryIds":["cheap-eats"],"categories":["Gyros & Cheap Eats"],"distanceKm":1.6622757961904489},{"id":"monasteriesChurches_ea257ea66588","slug":"ieros-kathedrikos-naos-agias-triados-ano-glyfadas-ea25","kind":"restaurant","name":"Ιερός Καθεδρικός Ναός Αγίας Τριάδος Άνω Γλυφάδας","lat":37.87276703155996,"lng":23.76655825797858,"url":"https://maps.app.goo.gl/SpsszvBBtaBzKcAW9?g_st=ipc","address":"Αγίας ΤΡΙΑΔΑΣ &, Αρετής 78, Γλυφάδα 166 74","categoryIds":["monasteries-churches"],"categories":["Monasteries & Spiritual Sites"],"distanceKm":1.7859200201838987}],"mentionedGuides":[],"canonicalSlug":"gioyvetsakia-f28b","enrichment":{"summary_en":"Γιουβετσάκια is a curated restaurant in Γλυφάδα 165 61 in the Greek Restaurants collection. It is connected to 6 nearby Googlementor picks to help travelers build a stronger local route.","summary_el":"Γιουβετσάκια είναι ένα επιλεγμένο σημείο φαγητού στην περιοχή Γλυφάδα 165 61 και ανήκει στη συλλογή Greek Restaurants. Συνδέεται με 6 κοντινές προτάσεις του Googlementor για πιο ολοκληρωμένη εμπειρία.","vibe_tags":["curated"],"best_for":["first-time visitors","food lovers"],"visit_moments":["lunch stop","dinner stop"],"practical_note":"Address and direct map link are available for easy turn-by-turn access.","nearby_walkable_count":6,"nearby_count_2km":25,"confidence":0.98},"areaContext":{"slug":"elliniko","name":"Elliniko","nameEl":"Ελληνικό"},"intentContexts":[]},"__N_SSG":true}