{"pageProps":{"entity":{"id":"cheapEatsRestaurants_59fb21ba5f98","slug":"hobos-street-grill-59fb","kind":"restaurant","name":"Hobos Street Grill","lat":38.04249747641086,"lng":23.753515339761147,"url":"https://maps.app.goo.gl/YHJtEHPvQRVXwD3F7?g_st=ipc","address":"Λεωφ. Ηρακλείου 254, Νέα Ιωνία 142 31","categoryIds":["cheap-eats"],"categories":["Gyros & Cheap Eats"]},"sameCategory":[{"id":"cheapEatsRestaurants_58791178b56b","slug":"draminos-5879","kind":"restaurant","name":"Δραμινός","lat":38.03491475648599,"lng":23.754928540856955,"url":"https://maps.app.goo.gl/uhi56PKbCSVGMvqf8?g_st=ipc","address":"Σινώπης 62, Νέα Ιωνία 142 33","categoryIds":["cheap-eats"],"categories":["Gyros & Cheap Eats"]},{"id":"burgersRestaurants_08ca7d0bda51","slug":"koutsi-katsika-street-food-nea-filadelfeia-08ca","kind":"restaurant","name":"Koutsi Katsika Street Food Νέα Φιλαδέλφεια","lat":38.03629712914596,"lng":23.73867302573474,"url":"https://maps.app.goo.gl/XqS8cuX3SxVKDWRr8?g_st=ipc","address":"Λεωφ. Δεκελείας 109, Νέα Φιλαδέλφεια Αττικής 143 41","categoryIds":["burgers","cheap-eats"],"categories":["Burger Spots","Gyros & Cheap Eats"],"legacySlugs":["koutsi-katsika-street-food-nea-filadelfeia-2553"]},{"id":"cheapEatsRestaurants_5f9d5dd343a6","slug":"ypoyrgeio-geyseon-soyvlaki-psita-5f9d","kind":"restaurant","name":"ΥΠΟΥΡΓΕΙΟ ΓΕΥΣΕΩΝ-Σουβλάκι,Ψητά","lat":38.04303394507047,"lng":23.771779772357615,"url":"https://maps.app.goo.gl/LCrvDRPpRco2nVuF9?g_st=ipc","address":"Φιλοθέης 67, Ηράκλειο 141 21","categoryIds":["cheap-eats","greek-restaurants"],"categories":["Gyros & Cheap Eats","Greek Restaurants"],"legacySlugs":["ypoyrgeio-geyseon-soyvlaki-psita-5023"]},{"id":"asianRestaurants_b60f010973e9","slug":"street-wok-b60f","kind":"restaurant","name":"Street wok","lat":38.03415849667832,"lng":23.737420165783373,"url":"https://maps.app.goo.gl/Cza8DpNsdEHX73EB8?g_st=ipc","address":"Βρυούλων 4, Νέα Φιλαδέλφεια Αττικής 143 41","categoryIds":["asian","cheap-eats"],"categories":["Asian Restaurants","Gyros & Cheap Eats"],"legacySlugs":["street-wok-ae06"]},{"id":"cheapEatsRestaurants_93852e0ca98a","slug":"i-vromiara-the-gourmet-street-food-nea-filadelfeia-9385","kind":"restaurant","name":"Η Βρωμιάρα - The Gourmet Street Food - Νεα Φιλαδέλφεια","lat":38.03438911435279,"lng":23.73692338806855,"url":"https://maps.app.goo.gl/Q23dgN65gryr9fpi7?g_st=ipc","address":"Βρυούλων 5, Νέα Φιλαδέλφεια Αττικής 143 41","categoryIds":["cheap-eats"],"categories":["Gyros & Cheap Eats"]},{"id":"cheapEatsRestaurants_708ba2b3a806","slug":"eyripidis-1955-708b","kind":"restaurant","name":"Ευριπίδης 1955","lat":38.03354736852586,"lng":23.737489018536408,"url":"https://maps.app.goo.gl/oALQiKiSKqqQt7VE8?g_st=ipc","address":"Λεωφ. Δεκελείας 83, Νέα Φιλαδέλφεια Αττικής 143 41","categoryIds":["cheap-eats"],"categories":["Gyros & Cheap Eats"]},{"id":"cheapEatsRestaurants_8e920e95e567","slug":"slum-it-8e92","kind":"restaurant","name":"Slum it","lat":38.034971479219536,"lng":23.73628101866516,"url":"https://maps.app.goo.gl/m2fyvmtGXXiGevuC6?g_st=ipc","address":"Βρυούλων 15, Νέα Φιλαδέλφεια Αττικής 143 41","categoryIds":["cheap-eats"],"categories":["Gyros & Cheap Eats"]},{"id":"cheapEatsRestaurants_f3077615404b","slug":"kantina-o-alekos-f307","kind":"restaurant","name":"Καντίνα \"ο Αλεκος\"","lat":38.04208740467577,"lng":23.77486464859004,"url":"https://maps.app.goo.gl/4oCtgVQEesHACQsu8?g_st=ipc","address":"Μαρίνου Αντύπα 47, Ηράκλειο 141 21","categoryIds":["cheap-eats"],"categories":["Gyros & Cheap Eats"]},{"id":"cheapEatsRestaurants_7b6d49968714","slug":"nikos-o-kalavrytinos-7b6d","kind":"restaurant","name":"Νίκος ο Καλαβρυτινός","lat":38.024001161887576,"lng":23.75301292455858,"url":"https://maps.app.goo.gl/cmE54PPQGsdzvzgz5?g_st=ipc","address":"Εκάβης 63, Γαλάτσι 111 46","categoryIds":["cheap-eats"],"categories":["Gyros & Cheap Eats"]},{"id":"cheapEatsRestaurants_84f34ec821dd","slug":"o-stefanos-soyvlakia-84f3","kind":"restaurant","name":"Ο ΣΤΕΦΑΝΟΣ ΣΟΥΒΛΑΚΙΑ","lat":38.045163297484955,"lng":23.729228755056532,"url":"https://maps.app.goo.gl/Uog41UVXEyuZaDfdA?g_st=ipc","address":"Δεληγιάννη 71, Άγιοι Ανάργυροι 135 62","categoryIds":["cheap-eats"],"categories":["Gyros & Cheap Eats"]},{"id":"cheapEatsRestaurants_cbf0a0d9c1b3","slug":"lamprinaki-cbf0","kind":"restaurant","name":"Λαμπρινάκι","lat":38.0224148920344,"lng":23.747555518536878,"url":"https://maps.app.goo.gl/M5T9Z6KajRqpaNBA7?g_st=ipc","address":"Τράλλεων 67, Αθήνα 111 42","categoryIds":["cheap-eats"],"categories":["Gyros & Cheap Eats"]},{"id":"cheapEatsRestaurants_204d68c7c535","slug":"to-ariston-204d","kind":"restaurant","name":"ΤΟ ΑΡΙΣΤΟΝ","lat":38.022955608499146,"lng":23.735820169983455,"url":"https://maps.app.goo.gl/TRT4ewxJ6pQL8ffBA?g_st=ipc","address":"Πατησίων 349, Αθήνα 111 44","categoryIds":["cheap-eats"],"categories":["Gyros & Cheap Eats"]}],"nearby":[{"id":"dessertsRestaurants_265283fa47ed","slug":"zacharoplasteio-ta-gioylia-2652","kind":"restaurant","name":"Ζαχαροπλαστείο Τα Γιούλια","lat":38.04320708683717,"lng":23.75268041981327,"url":"https://maps.app.goo.gl/yT8dXGYHeqfAeL4K8?g_st=ipc","address":"Μεσολογγίου 24, Νέα Ιωνία 142 31","categoryIds":["desserts"],"categories":["Dessert Shops"],"distanceKm":0.10757254165730064},{"id":"coffeeBrunchRestaurants_e705f1112f3d","slug":"dimitra-goynaridi-e705","kind":"restaurant","name":"Δήμητρα Γουναρίδη","lat":38.04165697380787,"lng":23.75123284178688,"url":"https://maps.app.goo.gl/b5dp6jq3caW91FoHA?g_st=ipc","address":"Ευαγγελικής Σχολής 5, Νέα Ιωνία 142 31","categoryIds":["coffee-brunch"],"categories":["Coffee & Brunch Spots"],"distanceKm":0.22065433598069067},{"id":"coffeeBrunchRestaurants_a5983b685dbd","slug":"to-peinirli-tis-neas-ionias-a598","kind":"restaurant","name":"To Peinirli tis Neas Ionias","lat":38.039553570278855,"lng":23.75782693390007,"url":"https://maps.app.goo.gl/Dgayt5WtWZw7apFh8?g_st=ic","address":"Ramnountos 76, Nea Ionia 142 34","categoryIds":["coffee-brunch"],"categories":["Coffee & Brunch Spots"],"distanceKm":0.49972480459380286},{"id":"dessertsRestaurants_4ba5b007aaee","slug":"san-zachari-4ba5","kind":"restaurant","name":"Σαν Ζάχαρη","lat":38.0467822413905,"lng":23.750604774962436,"url":"https://maps.app.goo.gl/hEf4BAiafjzg3vVT6?g_st=ipc","address":"Ελ. Βενιζέλου 119, Νέα Ιωνία 142 31","categoryIds":["desserts"],"categories":["Dessert Shops"],"distanceKm":0.5403341964143156},{"id":"familyFriendly_9c22759cd93a","slug":"alsos-neas-filadelfeias-9c22","kind":"restaurant","name":"Άλσος Νέας Φιλαδέλφειας","lat":38.042763651734646,"lng":23.744714870891837,"url":"https://maps.app.goo.gl/xdffZruJ9uqfJ5wx8?g_st=ipc","address":"Λεωφ. Δεκελείας 152, Αθήνα 143 42","categoryIds":["family-friendly"],"categories":["Kid Friendly Locations"],"distanceKm":0.7712413572905215},{"id":"municipalities_a312b31dd129","slug":"nea-ionia-a312","kind":"municipality","name":"Νέα Ιωνία","lat":38.0357,"lng":23.7573,"aliases":["Nea Ionia","Νεα Ιωνια"],"region":"Βόρεια Προάστια","name_en":"Nea Ionia","region_en":"Northern Suburbs","distanceKm":0.8253227909424038},{"id":"cheapEatsRestaurants_58791178b56b","slug":"draminos-5879","kind":"restaurant","name":"Δραμινός","lat":38.03491475648599,"lng":23.754928540856955,"url":"https://maps.app.goo.gl/uhi56PKbCSVGMvqf8?g_st=ipc","address":"Σινώπης 62, Νέα Ιωνία 142 33","categoryIds":["cheap-eats"],"categories":["Gyros & Cheap Eats"],"distanceKm":0.8521948741494688},{"id":"dessertsRestaurants_f7f9c93c456d","slug":"zacharoplasteio-ta-gioylia-f7f9","kind":"restaurant","name":"Ζαχαροπλαστείο Τα Γιούλια","lat":38.04173959626081,"lng":23.76335652551234,"url":"https://maps.app.goo.gl/7AogHoPypPVPFN8p7?g_st=ipc","address":"Αλέκου Παναγούλη 74, Νέα Ιωνία 141 21","categoryIds":["desserts"],"categories":["Dessert Shops"],"distanceKm":0.8659272179675844},{"id":"greekRestaurants_dbfa615cdf88","slug":"mparmpalias-soyvlaki-kempap-dbfa","kind":"restaurant","name":"Μπαρμπαλιάς Σουβλάκι Κεμπάπ","lat":38.04986386180613,"lng":23.749800777909947,"url":"https://maps.app.goo.gl/1KoD7wRkjTyAQA5aA","address":"Ελ. Βενιζέλου 146, Νέα Ιωνία 142 31","categoryIds":["greek-restaurants"],"categories":["Greek Restaurants"],"distanceKm":0.8813265349113513},{"id":"greekRestaurants_977106c0152b","slug":"familokal-fagadiko-9771","kind":"restaurant","name":"Φαμιλόκαλ Φαγάδικο","lat":38.045110031748486,"lng":23.742897004373283,"url":"https://maps.app.goo.gl/cQhPg66yiWYq8LYP6","address":"Στρατάρχου Αλεξάνδρου Παπάγου 12, Νέα Φιλαδέλφεια Αττικής 143 42","categoryIds":["greek-restaurants"],"categories":["Greek Restaurants"],"distanceKm":0.9741751014446177},{"id":"greekRestaurants_65b8685c50a4","slug":"gidi-65b8","kind":"restaurant","name":"Γίδι","lat":38.052246918082005,"lng":23.750952362138648,"url":"https://maps.app.goo.gl/hMR86s9rhghZRxgi8","address":"Τατοΐου 17, Μεταμόρφωση 144 51","categoryIds":["greek-restaurants"],"categories":["Greek Restaurants"],"distanceKm":1.1070757206890016},{"id":"dessertsRestaurants_b154c59ad342","slug":"zacharoplasteio-ta-gioylia-b154","kind":"restaurant","name":"Ζαχαροπλαστείο Τα Γιούλια","lat":38.03375679792758,"lng":23.760132906851105,"url":"https://maps.app.goo.gl/c3VhnGmj4UK6Mp8j6?g_st=ipc","address":"Αναγεννήσεως 49-51, Νέα Ιωνία 142 33","categoryIds":["desserts"],"categories":["Dessert Shops"],"distanceKm":1.1315930360640467},{"id":"burgersRestaurants_b7d172dd6af6","slug":"serial-grillers-b7d1","kind":"restaurant","name":"Serial Grillers","lat":38.04771274952107,"lng":23.76539665009085,"url":"https://maps.app.goo.gl/DKedv8F3cHKd27me9?g_st=ipc","address":"Νεότητος 4, Ηράκλειο 141 22","categoryIds":["burgers"],"categories":["Burger Spots"],"distanceKm":1.1911333598383926},{"id":"italianRestaurants_d84ce5fee7c0","slug":"piazza-d-amore-d84c","kind":"restaurant","name":"Piazza D'Amore","lat":38.046873886500826,"lng":23.765946699532154,"url":"https://maps.app.goo.gl/m24wKNSPTHZaNPpA9?g_st=ipc","address":"28ης Οκτωβρίου 8, Ηράκλειο 141 21","categoryIds":["italian"],"categories":["Italian Restaurants"],"distanceKm":1.1924249509364528},{"id":"dessertsRestaurants_ee67f4c4f773","slug":"galaktopoleio-stamoy-ee67","kind":"restaurant","name":"Γαλακτοπωλείο ΣΤΑΜΟΥ","lat":38.050308447326216,"lng":23.764543130470138,"url":"https://maps.app.goo.gl/ct5eAdJBTvtvp5Kb6?g_st=ipc","address":"Λεωφ. Ηρακλείου 388, Ηράκλειο 141 22","categoryIds":["desserts"],"categories":["Dessert Shops"],"distanceKm":1.2988028570738126},{"id":"greekRestaurants_32d9fbbeb9ef","slug":"to-karagatsi-32d9","kind":"restaurant","name":"Το Καραγάτσι","lat":38.039818289814335,"lng":23.738940522044075,"url":"https://maps.app.goo.gl/8aQhSfNrT1Z9qqEm7","address":"Αγίου Ιωάννου 1, Νέα Φιλαδέλφεια Αττικής 143 42","categoryIds":["greek-restaurants"],"categories":["Greek Restaurants"],"distanceKm":1.3106753860915896},{"id":"italianRestaurants_ae6165c67299","slug":"pastabar-ae61","kind":"restaurant","name":"pastabar","lat":38.03729506274719,"lng":23.739505873670616,"url":"https://maps.app.goo.gl/bRqX3YLuyGMaGs896?g_st=ipc","address":"Λεωφ. Δεκελείας 136, Νέα Φιλαδέλφεια Αττικής 143 41","categoryIds":["italian"],"categories":["Italian Restaurants"],"distanceKm":1.3564207269792257},{"id":"fishTavernasRestaurants_391097bf7912","slug":"mezedopoleio-psarotaverna-karavidas-3910","kind":"restaurant","name":"Μεζεδοπωλείο Ψαροταβέρνα Καραβίδας","lat":38.03096216854331,"lng":23.75947032164881,"url":"https://maps.app.goo.gl/JGxgiBHhNLEpm7F8A?g_st=ipc","address":"Δεμιρδεσίου 89, Νέα Ιωνία 142 33","categoryIds":["fish-tavernas"],"categories":["Fish Tavernas"],"distanceKm":1.3846410214441147},{"id":"greekRestaurants_5791bc32c9f3","slug":"steki-patakia-5791","kind":"restaurant","name":"Στέκι Πατακιά","lat":38.03119466857524,"lng":23.76015883612339,"url":"https://maps.app.goo.gl/cYha3bisyCdwkZ4aA","address":"Δεμιρδεσίου 93, Νέα Ιωνία 142 33","categoryIds":["greek-restaurants"],"categories":["Greek Restaurants"],"distanceKm":1.3849580535025656},{"id":"coffeeBrunchRestaurants_51893d66518d","slug":"mimosa-neighborhood-bistrot-5189","kind":"restaurant","name":"mimosa neighborhood bistrot","lat":38.03853139699867,"lng":23.737753049309227,"url":"https://maps.app.goo.gl/KBvxE1xtgNdKgvxY8?g_st=ipc","address":"Efesou, Μουδανιών &, Νέα Φιλαδέλφεια Αττικής 143 41","categoryIds":["coffee-brunch"],"categories":["Coffee & Brunch Spots"],"distanceKm":1.449108887686952},{"id":"burgersRestaurants_08ca7d0bda51","slug":"koutsi-katsika-street-food-nea-filadelfeia-08ca","kind":"restaurant","name":"Koutsi Katsika Street Food Νέα Φιλαδέλφεια","lat":38.03629712914596,"lng":23.73867302573474,"url":"https://maps.app.goo.gl/XqS8cuX3SxVKDWRr8?g_st=ipc","address":"Λεωφ. Δεκελείας 109, Νέα Φιλαδέλφεια Αττικής 143 41","categoryIds":["burgers","cheap-eats"],"categories":["Burger Spots","Gyros & Cheap Eats"],"legacySlugs":["koutsi-katsika-street-food-nea-filadelfeia-2553"],"distanceKm":1.4713549131496866},{"id":"asianRestaurants_a37aef170d67","slug":"koyasan-in-philadelphia-a37a","kind":"restaurant","name":"KoYaSan in Philadelphia","lat":38.03582601502679,"lng":23.738913649887014,"url":"https://maps.app.goo.gl/pE1beFfDZ9181rp76?g_st=ipc","address":"Λεωφ. Δεκελείας 122, Νέα Φιλαδέλφεια Αττικής 143 41","categoryIds":["asian"],"categories":["Asian Restaurants"],"distanceKm":1.4783558924211306},{"id":"greekRestaurants_4afe4ac40aa7","slug":"piatsa-mezedaki-4afe","kind":"restaurant","name":"Πιάτσα Μεζεδάκι","lat":38.03382490224538,"lng":23.74027260435793,"url":"https://maps.app.goo.gl/NQUdrufxEoMofvYP9","address":"Ιωνίας 35 και, Προύσης 15, Νέα Φιλαδέλφεια Αττικής 143 41","categoryIds":["greek-restaurants"],"categories":["Greek Restaurants"],"distanceKm":1.5083137312141377},{"id":"coffeeBrunchRestaurants_1dc06dcd5307","slug":"libertine-drinkery-1dc0","kind":"restaurant","name":"Libertine drinkery","lat":38.035181855146,"lng":23.738539611236607,"url":"https://maps.app.goo.gl/8mxrF5SroX8mcG5e8?g_st=ipc","address":"Λεωφ. Δεκελείας 114, Νέα Φιλαδέλφεια Αττικής 143 41","categoryIds":["coffee-brunch"],"categories":["Coffee & Brunch Spots"],"distanceKm":1.543308691986092}],"mentionedGuides":[],"canonicalSlug":"hobos-street-grill-59fb","enrichment":{"summary_en":"Hobos Street Grill is a curated restaurant in Νέα Ιωνία 142 31 in the Gyros & Cheap Eats collection. It is connected to 5 nearby Googlementor picks to help travelers build a stronger local route.","summary_el":"Hobos Street Grill είναι ένα επιλεγμένο σημείο φαγητού στην περιοχή Νέα Ιωνία 142 31 και ανήκει στη συλλογή Gyros & Cheap Eats. Συνδέεται με 5 κοντινές προτάσεις του Googlementor για πιο ολοκληρωμένη εμπειρία.","vibe_tags":["curated","budget-friendly"],"best_for":["first-time visitors","food lovers","budget travelers"],"visit_moments":["lunch stop","dinner stop"],"practical_note":"Address and direct map link are available for easy turn-by-turn access.","nearby_walkable_count":5,"nearby_count_2km":43,"confidence":0.98},"areaContext":{"slug":"nea-ionia","name":"Nea Ionia","nameEl":"Νέα Ιωνία"},"intentContexts":[{"href":"/cheap-eats/nea-ionia","label":"Gyros & Cheap Eats in Nea Ionia","categorySlug":"cheap-eats","categoryName":"Gyros & Cheap Eats","areaSlug":"nea-ionia","areaName":"Nea Ionia","areaNameEl":"Νέα Ιωνία"}]},"__N_SSG":true}