{"pageProps":{"entity":{"id":"monasteriesChurches_ab2f1ef6db23","slug":"iera-moni-kaisarianis-ab2f","kind":"restaurant","name":"Ιερά Μονή Καισαριανής","lat":37.96085617263528,"lng":23.798163534107264,"url":"https://maps.app.goo.gl/tKzi13MSJeMrbus97?g_st=ipc","address":"Καισαριανή 161 22","categoryIds":["monasteries-churches"],"categories":["Monasteries & Spiritual Sites"]},"sameCategory":[{"id":"monasteriesChurches_f9758a225b79","slug":"iera-moni-taxiarchon-asterioy-f975","kind":"restaurant","name":"Ιερά Μονή Ταξιαρχών Αστερίου","lat":37.96963791637043,"lng":23.811299998354023,"url":"https://maps.app.goo.gl/3bMH4x4NEyFmUZJ97?g_st=ipc","address":"Ζωγράφου 157 72","categoryIds":["monasteries-churches"],"categories":["Monasteries & Spiritual Sites"]},{"id":"monasteriesChurches_2be0515299ae","slug":"iera-moni-agioy-ioannoy-prodromoy-karea-2be0","kind":"restaurant","name":"Ιερά Μονή Αγίου Ιωάννου Προδρόμου Καρέα","lat":37.94196286966367,"lng":23.778600784098284,"url":"https://maps.app.goo.gl/sjaYoN5Vu2UjZVSx6?g_st=ipc","address":"Καρέας, Βύρωνας 162 33","categoryIds":["monasteries-churches"],"categories":["Monasteries & Spiritual Sites"]},{"id":"monasteriesChurches_55ac212b36ef","slug":"ieros-naos-agioy-georgioy-lykavittoy-55ac","kind":"restaurant","name":"Ιερός Ναός Αγίου Γεωργίου Λυκαβηττού","lat":37.981958638170035,"lng":23.74338468366007,"url":"https://maps.app.goo.gl/V1br63hybrfVnEiCA?g_st=ipc","address":"Αθήνα 114 71","categoryIds":["monasteries-churches"],"categories":["Monasteries & Spiritual Sites"]},{"id":"monasteriesChurches_caa9124a394d","slug":"ieros-naos-agion-isidoron-lykavittoy-caa9","kind":"restaurant","name":"Ιερός Ναός Αγίων Ισιδώρων Λυκαβηττού","lat":37.982296617522,"lng":23.742795127887568,"url":"https://maps.app.goo.gl/vi4b8bvA5jdYKcqf9?g_st=ipc","address":"Μονοπατι Λυκαβηττου, Αθήνα 114 71","categoryIds":["monasteries-churches","attractions"],"categories":["Monasteries & Spiritual Sites","Must-See Attractions"],"legacySlugs":["ieros-naos-agion-isidoron-lykavittoy-361f"]},{"id":"monasteriesChurches_4b11b4e1cf5d","slug":"ieros-naos-agioy-dionysioy-areopagitoy-polioychoy-athinon-4b11","kind":"restaurant","name":"Ιερός Ναός Αγίου Διονυσίου Αρεοπαγίτου, Πολιούχου Αθηνών","lat":37.97972265813733,"lng":23.73873188558116,"url":"https://maps.app.goo.gl/m2sqAvFCJXsVJyjB8?g_st=ipc","address":"Σκουφά 34, Αθήνα 106 72","categoryIds":["monasteries-churches"],"categories":["Monasteries & Spiritual Sites"]},{"id":"monasteriesChurches_70c088ccf077","slug":"ieros-naos-agias-foteinis-ilisoy-70c0","kind":"restaurant","name":"Ιερός Ναός Αγίας Φωτεινής Ιλισού","lat":37.96759253152895,"lng":23.734352593011444,"url":"https://maps.app.goo.gl/jdAdCNX9K2HoSujs9?g_st=ipc","address":"Αρδηττού 3, Αθήνα 105 57","categoryIds":["monasteries-churches"],"categories":["Monasteries & Spiritual Sites"]},{"id":"monasteriesChurches_20d9168100a7","slug":"iera-moni-agioy-ioannoy-toy-kynigoy-20d9","kind":"restaurant","name":"Ιερά Μονή Αγίου Ιωάννου του Κυνηγού","lat":38.00278956163498,"lng":23.836715813242602,"url":"https://maps.app.goo.gl/TkGr97r8sSTcdTYu9?g_st=ipc","address":"Ανατολικής Μεσογείου, Αγ. Παρασκευή 153 42","categoryIds":["monasteries-churches"],"categories":["Monasteries & Spiritual Sites"]},{"id":"monasteriesChurches_10f29f7ed669","slug":"ieros-naos-agioy-nikolaoy-ragkava-10f2","kind":"restaurant","name":"Ιερός Ναός Αγίου Νικολάου Ραγκαβά","lat":37.972457611954724,"lng":23.729131060991204,"url":"https://maps.app.goo.gl/HnQHckK1xrE13jmu5?g_st=ipc","address":"Πρυτανείου 1, Αθήνα 105 58","categoryIds":["monasteries-churches"],"categories":["Monasteries & Spiritual Sites"]},{"id":"monasteriesChurches_37c0d5b10bef","slug":"ieros-mitropolitikos-naos-eyaggelismoy-tis-theotokoy-37c0","kind":"restaurant","name":"Ιερός Μητροπολιτικός Ναός Ευαγγελισμού της Θεοτόκου","lat":37.975376487881356,"lng":23.72984816695813,"url":"https://maps.app.goo.gl/MUAqskRD72AoRTQJA?g_st=ipc","address":"E056 105, Αθήνα 118 54","categoryIds":["monasteries-churches"],"categories":["Monasteries & Spiritual Sites"]},{"id":"monasteriesChurches_8533fc9b9b94","slug":"ieros-naos-agion-anargyron-kolokynthi-metochion-panagioy-tafoy-8533","kind":"restaurant","name":"Ιερός Ναός Αγίων Αναργύρων Κολοκύνθη - Μετόχιον Παναγίου Τάφου","lat":37.97293435768165,"lng":23.728208879310362,"url":"https://maps.app.goo.gl/nKcEJuoZ25jXrQqeA?g_st=ipc","address":"Ερεχθέως 18, Αθήνα 105 56","categoryIds":["monasteries-churches"],"categories":["Monasteries & Spiritual Sites"]},{"id":"monasteriesChurches_532a88c17ded","slug":"ieros-naos-agioy-dimitrioy-532a","kind":"restaurant","name":"Ιερός Ναός Αγίου Δημητρίου","lat":37.939612390639354,"lng":23.731409160406493,"url":"https://maps.app.goo.gl/NQFZSQ6EDz4WiEjk6?g_st=ipc","address":"Λεωφ. Αγίου Δημητρίου 117, Αγ. Δημήτριος Αττικής 173 43","categoryIds":["monasteries-churches"],"categories":["Monasteries & Spiritual Sites"]},{"id":"monasteriesChurches_33b82b7e9f7b","slug":"ieros-panepistimiakos-naos-eisodion-tis-theotokoy-kapnikarea-33b8","kind":"restaurant","name":"Ιερός Πανεπιστημιακός Ναός Εισοδίων της Θεοτόκου (Καπνικαρέα)","lat":37.97637980025147,"lng":23.72861650689245,"url":"https://maps.app.goo.gl/7LkLpxAa7L7V3fr8A?g_st=ipc","address":"Πλ. Καπνικαρέας 3, Αθήνα 105 63","categoryIds":["monasteries-churches"],"categories":["Monasteries & Spiritual Sites"]}],"nearby":[{"id":"coffeeBrunchRestaurants_6490fab080eb","slug":"anapsyktirio-kalopoyla-6490","kind":"restaurant","name":"Αναψυκτήριο Καλοπούλα","lat":37.96354797529962,"lng":23.804248106884938,"url":"https://maps.app.goo.gl/uXF6EF7MznZrK5Jb9?g_st=ipc","address":"Unnamed Road, Καισαριανή","categoryIds":["coffee-brunch"],"categories":["Coffee & Brunch Spots"],"distanceKm":0.6116603165906592},{"id":"municipalities_b1ae4c3dd84d","slug":"kaisariani-b1ae","kind":"municipality","name":"Καισαριανή","lat":37.9667,"lng":23.7833,"aliases":["Kesariani"],"region":"Κέντρο Αθήνας","name_en":"Kaisariani","region_en":"Athens Center","distanceKm":1.4560651563274059},{"id":"monasteriesChurches_f9758a225b79","slug":"iera-moni-taxiarchon-asterioy-f975","kind":"restaurant","name":"Ιερά Μονή Ταξιαρχών Αστερίου","lat":37.96963791637043,"lng":23.811299998354023,"url":"https://maps.app.goo.gl/3bMH4x4NEyFmUZJ97?g_st=ipc","address":"Ζωγράφου 157 72","categoryIds":["monasteries-churches"],"categories":["Monasteries & Spiritual Sites"],"distanceKm":1.5098688426311024},{"id":"greekRestaurants_a9322c09c3bf","slug":"kopsidi-kaisariani-a932","kind":"restaurant","name":"Κοψίδι Καισαριανή","lat":37.96646380448841,"lng":23.772981113467992,"url":"https://maps.app.goo.gl/CbctoDQWoy2zSwT78","address":"Λεωφ. Εθ. Αντιστάσεως 240, Αθήνα 161 22","categoryIds":["greek-restaurants"],"categories":["Greek Restaurants"],"distanceKm":2.2940157391214155},{"id":"dessertsRestaurants_e0203acd657d","slug":"kreperi-mpoem-e020","kind":"restaurant","name":"Κρεπερί Μποεμ","lat":37.976396515703,"lng":23.775114076679657,"url":"https://maps.app.goo.gl/SwofWM31tTZW4hKH9?g_st=ipc","address":"Λεωφ. Στρατάρχου Αλεξάνδρου Παπάγου 126, Ζωγράφου 157 73","categoryIds":["desserts"],"categories":["Dessert Shops"],"distanceKm":2.6586682803817543},{"id":"monasteriesChurches_2be0515299ae","slug":"iera-moni-agioy-ioannoy-prodromoy-karea-2be0","kind":"restaurant","name":"Ιερά Μονή Αγίου Ιωάννου Προδρόμου Καρέα","lat":37.94196286966367,"lng":23.778600784098284,"url":"https://maps.app.goo.gl/sjaYoN5Vu2UjZVSx6?g_st=ipc","address":"Καρέας, Βύρωνας 162 33","categoryIds":["monasteries-churches"],"categories":["Monasteries & Spiritual Sites"],"distanceKm":2.712140295771141},{"id":"municipalities_9a7f68490e58","slug":"vyronas-9a7f","kind":"municipality","name":"Βύρωνας","lat":37.9667,"lng":23.7667,"aliases":["Vyronas","Vyrona","Βυρωνας","Vironas","Byron"],"region":"Νότια Προάστια","name_en":"Vyronas","region_en":"Southern Suburbs","distanceKm":2.833791800499252},{"id":"fishTavernasRestaurants_86f548233faf","slug":"mpalkoni-stis-kyklades-86f5","kind":"restaurant","name":"ΜΠΑΛΚΟΝΙ ΣΤΙΣ ΚΥΚΛΑΔΕΣ","lat":37.943007346903,"lng":23.772380593489483,"url":"https://maps.app.goo.gl/FNypnyT1fTicRews8?g_st=ipc","address":"Π. Μελά 13, Βύρωνας 162 33","categoryIds":["fish-tavernas"],"categories":["Fish Tavernas"],"distanceKm":3.008252520052843},{"id":"greekRestaurants_6d8ba6e8459c","slug":"o-tsompanakos-6d8b","kind":"restaurant","name":"Ο Τσομπανάκος","lat":37.96567041818392,"lng":23.763543849190544,"url":"https://maps.app.goo.gl/D1121EC8pmNBFqbK9","address":"Ανακρέοντος 2, Καισαριανή 161 22","categoryIds":["greek-restaurants"],"categories":["Greek Restaurants"],"distanceKm":3.081841541037218},{"id":"cheapEatsRestaurants_d88ce6fa51b6","slug":"kempap-paradosiako-d88c","kind":"restaurant","name":"Κεμπάπ Παραδοσιακό","lat":37.97476714198204,"lng":23.766791010773026,"url":"https://maps.app.goo.gl/PPUd3JeoTmqcayFz5?g_st=ipc","address":"Αμμοχώστου 4, Ζωγράφου 157 71","categoryIds":["cheap-eats"],"categories":["Gyros & Cheap Eats"],"distanceKm":3.155317689150488},{"id":"coffeeBrunchRestaurants_43e0979c68c8","slug":"oze-athens-43e0","kind":"restaurant","name":"oZé Athens","lat":37.97844398978006,"lng":23.767461364777404,"url":"https://maps.app.goo.gl/vEEphseUhHsbhVWs9?g_st=ipc","address":"Παπάγου 56, Ζωγράφου 157 71","categoryIds":["coffee-brunch"],"categories":["Coffee & Brunch Spots"],"distanceKm":3.326843512673342},{"id":"coffeeBrunchRestaurants_8ebbeeadfb00","slug":"jerry-s-8ebb","kind":"restaurant","name":"JERRY’S","lat":37.99081436071943,"lng":23.798622930452883,"url":"https://maps.app.goo.gl/s7TjtfQj1q9s9Tnk8?g_st=ipc","address":"Εθ. Αμύνης 27, Παπάγου 156 69","categoryIds":["coffee-brunch","vegetarian"],"categories":["Coffee & Brunch Spots","Vegetarian Friendly Restaurants"],"legacySlugs":["jerry-s-4010"],"distanceKm":3.3314418863041846},{"id":"coffeeBrunchRestaurants_767a9009c272","slug":"mademoiselle-coffee-brunch-767a","kind":"restaurant","name":"Mademoiselle Coffee & Brunch","lat":37.954517599815006,"lng":23.760305394672425,"url":"https://maps.app.goo.gl/swhTHqBQtRNT8ZAx6?g_st=ipc","address":"Μαγνησίας 91, Βύρωνας 162 33","categoryIds":["coffee-brunch"],"categories":["Coffee & Brunch Spots"],"distanceKm":3.393157572742644},{"id":"cheapEatsRestaurants_08d52517e6fc","slug":"mparmpa-mitsos-vyronas-08d5","kind":"restaurant","name":"Μπάρμπα Μήτσος Βύρωνας","lat":37.95390974598432,"lng":23.759679171308928,"url":"https://maps.app.goo.gl/1eSEWa3g6EhnDAvb6?g_st=ipc","address":"Επταλόφου 88, Βύρωνας 162 33","categoryIds":["cheap-eats"],"categories":["Gyros & Cheap Eats"],"distanceKm":3.461348860688358},{"id":"coffeeBrunchRestaurants_8adec72ceea5","slug":"o-vrazilianos-8ade","kind":"restaurant","name":"Ο Βραζιλιάνος","lat":37.97904208015633,"lng":23.766074567747406,"url":"https://maps.app.goo.gl/5D1SdokXMKCgvPB27?g_st=ipc","address":"Παπάγου 37, Ζωγράφου 157 73","categoryIds":["coffee-brunch"],"categories":["Coffee & Brunch Spots"],"distanceKm":3.4643167031891307},{"id":"burgersRestaurants_1d9dede89409","slug":"hippy-joe-1d9d","kind":"restaurant","name":"Hippy Joe","lat":37.95458600508715,"lng":23.75943276506492,"url":"https://maps.app.goo.gl/crkq6yzRLRbaTy288?g_st=ipc","address":"Καραολή και Δημητρίου 5, Βύρωνας 162 31","categoryIds":["burgers"],"categories":["Burger Spots"],"distanceKm":3.4664922396759112},{"id":"cheapEatsRestaurants_51e57b41d79c","slug":"chrysanthos-51e5","kind":"restaurant","name":"Χρύσανθος","lat":37.980767151919686,"lng":23.76756797039495,"url":"https://maps.app.goo.gl/cG4RSw44nHayWytd9?g_st=ipc","address":"Γεωρ. Παπανδρέου 50, Ζωγράφου 157 73","categoryIds":["cheap-eats"],"categories":["Gyros & Cheap Eats"],"distanceKm":3.477725347867876},{"id":"mexicanRestaurants_7f0e3c29626a","slug":"o-mexikanos-7f0e","kind":"restaurant","name":"Ο Μεξικανός","lat":37.98186119461787,"lng":23.768203133980027,"url":"https://maps.app.goo.gl/bgqno3epSEAwFEp1A?g_st=ipc","address":"157 73, Γεωρ. Παπανδρέου 47, Ζωγράφου 157 73","categoryIds":["mexican"],"categories":["Mexican Restaurants"],"distanceKm":3.514598261175684},{"id":"greekRestaurants_d05f0b437e54","slug":"osonoypo-d05f","kind":"restaurant","name":"Οσονούπω","lat":37.968722862920075,"lng":23.75908756393202,"url":"https://maps.app.goo.gl/HBqT7hbWLLfdjPem9","address":"Πλ. Αναγεννήσεως 2, Καισαριανή 161 21","categoryIds":["greek-restaurants"],"categories":["Greek Restaurants"],"distanceKm":3.5355089928043197},{"id":"mexicanRestaurants_246d0cbd5711","slug":"kaisaras-mpar-kaisaras-bar-246d","kind":"restaurant","name":"Καίσαρας Μπαρ - Kaisaras Bar","lat":37.96879437306453,"lng":23.758782238098565,"url":"https://maps.app.goo.gl/dNnjqQMeoX6QVGm38?g_st=ipc","address":"Πλατεία Παναγιώτη Μακρή 7-9, Καισαριανή 161 21","categoryIds":["mexican"],"categories":["Mexican Restaurants"],"distanceKm":3.563409031174281},{"id":"cheapEatsRestaurants_69bbfb44507d","slug":"papigko-69bb","kind":"restaurant","name":"Πάπιγκο","lat":37.9930301423727,"lng":23.798961270934143,"url":"https://maps.app.goo.gl/7eU14tbuLV6n9imX7?g_st=ipc","address":"25ης Μαρτίου 9, Χολαργός 155 61","categoryIds":["cheap-eats"],"categories":["Gyros & Cheap Eats"],"distanceKm":3.578265432371302},{"id":"familyFriendly_7679184c0c6a","slug":"alsos-papagoy-7679","kind":"restaurant","name":"Άλσος Παπάγου","lat":37.99340202683861,"lng":23.794076076253262,"url":"https://maps.app.goo.gl/rJbRGPSSoVw8phSo6?g_st=ipc","address":"Κορυτσάς 31, Παπάγου 156 69","categoryIds":["family-friendly"],"categories":["Kid Friendly Locations"],"distanceKm":3.6366243954631323},{"id":"italianRestaurants_98c72b583c4b","slug":"nonna-edda-98c7","kind":"restaurant","name":"Nonna Edda","lat":37.968437805608076,"lng":23.757681215549333,"url":"https://maps.app.goo.gl/QWSrhfiNkAJznHfQA?g_st=ipc","address":"Λεωφ. Εθ. Αντιστάσεως 62, Καισαριανή 161 21","categoryIds":["italian"],"categories":["Italian Restaurants"],"distanceKm":3.647641388595002},{"id":"cheapEatsRestaurants_b8837f726b0e","slug":"avraam-cholargos-b883","kind":"restaurant","name":"Αβραάμ Χολαργός","lat":37.99365661341766,"lng":23.796975079778093,"url":"https://maps.app.goo.gl/njaacvURe6u87qaX6?g_st=ipc","address":"Αναστάσεως 111, Χολαργός 155 61","categoryIds":["cheap-eats"],"categories":["Gyros & Cheap Eats"],"distanceKm":3.648729861147718}],"mentionedGuides":[],"canonicalSlug":"iera-moni-kaisarianis-ab2f","enrichment":{"summary_en":"Ιερά Μονή Καισαριανής is a curated restaurant in Greece in the Monasteries & Spiritual Sites collection. It is connected to 1 nearby Googlementor picks to help travelers build a stronger local route.","summary_el":"Ιερά Μονή Καισαριανής είναι ένα επιλεγμένο σημείο φαγητού στην περιοχή Greece και ανήκει στη συλλογή Monasteries & Spiritual Sites. Συνδέεται με 1 κοντινές προτάσεις του Googlementor για πιο ολοκληρωμένη εμπειρία.","vibe_tags":["curated"],"best_for":["first-time visitors","food lovers"],"visit_moments":["lunch stop","dinner stop"],"practical_note":"Address and direct map link are available for easy turn-by-turn access.","nearby_walkable_count":1,"nearby_count_2km":3,"confidence":0.9},"areaContext":{"slug":"kaisariani","name":"Kaisariani","nameEl":"Καισαριανή"},"intentContexts":[{"href":"/monasteries-churches/kaisariani","label":"Monasteries & Spiritual Sites in Kaisariani","categorySlug":"monasteries-churches","categoryName":"Monasteries & Spiritual Sites","areaSlug":"kaisariani","areaName":"Kaisariani","areaNameEl":"Καισαριανή"}]},"__N_SSG":true}