{"pageProps":{"entity":{"id":"greekRestaurants_a175a16286e2","slug":"kafeneion-stoy-giannoy-a175","kind":"restaurant","name":"Καφενείον στου Γιαννου","lat":38.046932367246974,"lng":22.58624645586887,"url":"https://maps.app.goo.gl/n81icmGiqF55MhN98?g_st=ipc","address":"Επαρ.Οδ. Ξυλόκαστρου - Τρικάλων - Μάννας 98, Ρίζα 204 00","categoryIds":["greek-restaurants"],"categories":["Greek Restaurants"]},"sameCategory":[{"id":"greekRestaurants_6e1edbbc32a8","slug":"pinakoti-taverna-karagiorgas-giorgos-trikala-6e1e","kind":"restaurant","name":"ΠΙΝΑΚΩΤΗ - ΤΑΒΕΡΝΑ - ΚΑΡΑΓΙΩΡΓΑΣ ΓΙΩΡΓΟΣ - ΤΡΙΚΑΛΑ","lat":38.004187278321304,"lng":22.477741138877853,"url":"https://maps.app.goo.gl/8P84uhf2Yr8DKThH6?g_st=ipc","address":"Μεσαία Τρίκαλα Κορινθίας, Τρίκαλα Κορινθίας 204 00","categoryIds":["greek-restaurants"],"categories":["Greek Restaurants"]},{"id":"greekRestaurants_835a2fadf39b","slug":"oti-kalo-trikala-korinthias-835a","kind":"restaurant","name":"Ότι Καλό Τρίκαλα Κορινθίας","lat":38.00119259116245,"lng":22.476512941008874,"url":"https://maps.app.goo.gl/aMf3djkW1SnkD1iHA?g_st=ipc","address":"Μεσαία Συνοικία, Άνω Τρίκαλα 204 00","categoryIds":["greek-restaurants"],"categories":["Greek Restaurants"]},{"id":"greekRestaurants_0ed04ce88e4f","slug":"opos-palia-0ed0","kind":"restaurant","name":"Όπως Παλιά","lat":37.99779308645516,"lng":22.469905216572432,"url":"https://maps.app.goo.gl/2NRqYruuAnhXjJdA6?g_st=ipc","address":"Μέση Συνοικία Τρικάλων 204 00","categoryIds":["greek-restaurants"],"categories":["Greek Restaurants"]},{"id":"greekRestaurants_65157136702c","slug":"psitosynantisi-6515","kind":"restaurant","name":"ΨΗΤΟσυνάντηση","lat":37.99548753109514,"lng":22.468480126219713,"url":"https://maps.app.goo.gl/5CaRxHJhbSNeKFiP7?g_st=ipc","address":"Επαρ.Οδ. Ξυλόκαστρου - Τρικάλων - Μάννας, Μέση Συνοικία Τρικάλων 204 00","categoryIds":["greek-restaurants"],"categories":["Greek Restaurants"]},{"id":"greekRestaurants_eebc58d0b57c","slug":"to-chani-toy-chania-eebc","kind":"restaurant","name":"Το Χάνι του Χανιά","lat":37.989969507417065,"lng":22.466125395415034,"url":"https://maps.app.goo.gl/dDmXsZAdKbWgFjjT6?g_st=ipc","address":"Άνω Τρίκαλα, 204 00","categoryIds":["greek-restaurants"],"categories":["Greek Restaurants"]},{"id":"greekRestaurants_7e3395541ef7","slug":"ellas-7e33","kind":"restaurant","name":"Ελλάς","lat":38.025725060862264,"lng":22.73285830482763,"url":"https://maps.app.goo.gl/1U76XKVBxExMEULE7?g_st=ipc","address":"Παλαιά Ε.Ο. Κορίνθου Πατρών 16, Κάτω Διμηνιό, Κιάτο 202 00","categoryIds":["greek-restaurants"],"categories":["Greek Restaurants"]},{"id":"greekRestaurants_7e187d76eed9","slug":"taverna-agiannis-goyrnopoyla-7e18","kind":"restaurant","name":"ΤΑΒΕΡΝΑ ΑΓΙΑΝΝΗΣ ΓΟΥΡΝΟΠΟΥΛΑ","lat":37.99600590320037,"lng":22.763769354956416,"url":"https://maps.app.goo.gl/TAEgeZnnDvDXP5b27?g_st=ipc","address":"Αθηνών 190, Κιάτο 202 00","categoryIds":["greek-restaurants"],"categories":["Greek Restaurants"]},{"id":"greekRestaurants_f0875a0de3a8","slug":"eviva-taverna-f087","kind":"restaurant","name":"Εβίβα Ταβέρνα","lat":37.94826596142861,"lng":22.791019779670105,"url":"https://maps.app.goo.gl/D8Mr8bUZPttfMux47?g_st=ipc","address":"Επαρ.Οδ. Βραχατίου - Νεμέας 255, Βοχαϊκό 200 06","categoryIds":["greek-restaurants"],"categories":["Greek Restaurants"]},{"id":"greekRestaurants_b760cd0c2463","slug":"chavon-restobar-b760","kind":"restaurant","name":"Chavon Restobar","lat":37.96210160412795,"lng":22.806527700162825,"url":"https://maps.app.goo.gl/gHNgPE2wUtHLY6F1A?g_st=ipc","address":"Parodos Andrea Lazana 101, Βραχάτι 200 06","categoryIds":["greek-restaurants"],"categories":["Greek Restaurants"]},{"id":"greekRestaurants_3eb1dd9f3c34","slug":"taverna-aggeliki-3eb1","kind":"restaurant","name":"Ταβέρνα Αγγελική","lat":38.06658415392425,"lng":22.338919570518915,"url":"https://maps.app.goo.gl/WLaC7Mj54zxdUu1s6?g_st=ipc","address":"Σινεβρό 250 10","categoryIds":["greek-restaurants"],"categories":["Greek Restaurants"]},{"id":"greekRestaurants_999a38347b72","slug":"17-choria-999a","kind":"restaurant","name":"17 Χωριά","lat":37.821379737670235,"lng":22.662966793394837,"url":"https://maps.app.goo.gl/JMfmZXakmTgFrEhd7?g_st=ipc","address":"Δερβενακίων 12, Νεμέα 205 00","categoryIds":["greek-restaurants"],"categories":["Greek Restaurants"]},{"id":"greekRestaurants_2229596e0e1c","slug":"sofos-2229","kind":"restaurant","name":"Sofos","lat":37.8214332020111,"lng":22.663718153863066,"url":"https://maps.app.goo.gl/dwiyoJBZoJnwyzi76?g_st=ipc","address":"Δερβενακίων, Νεμέα 205 00","categoryIds":["greek-restaurants"],"categories":["Greek Restaurants"]}],"nearby":[{"id":"municipalities_12398cf79798","slug":"xylokastro-eyrostini-1239","kind":"municipality","name":"Ξυλόκαστρο - Ευρωστίνη","lat":38.0833,"lng":22.6333,"region":"Κορινθία","name_en":"Xylokastro - Evrostini","region_en":"Corinthia","distanceKm":5.772497252793344},{"id":"familyFriendly_81af9329fc37","slug":"kentro-eleytheris-ippasias-81af","kind":"restaurant","name":"Κεντρο Ελεύθερης Ιππασίας","lat":38.01371091852879,"lng":22.49660964449245,"url":"https://maps.app.goo.gl/Jk42DbsK7YsoCuVL6?g_st=ipc","address":"Epar.Od. Xilokastrou - Trikalon - Mannas, Ξυλόκαστρο 204 00","categoryIds":["family-friendly"],"categories":["Kid Friendly Locations"],"distanceKm":8.676631010113132},{"id":"wineriesVineyards_542024b64466","slug":"ktima-papargyrioy-5420","kind":"restaurant","name":"Κτήμα Παπαργυρίου","lat":38.018936342010846,"lng":22.689015035366058,"url":"https://maps.app.goo.gl/CGseBU489tpRFbra7?g_st=ipc","address":"Lalioti Corinthias, Κιάτο 202 00","categoryIds":["wineries-vineyards"],"categories":["Wineries & Vineyards"],"distanceKm":9.523954307777077},{"id":"greekRestaurants_6e1edbbc32a8","slug":"pinakoti-taverna-karagiorgas-giorgos-trikala-6e1e","kind":"restaurant","name":"ΠΙΝΑΚΩΤΗ - ΤΑΒΕΡΝΑ - ΚΑΡΑΓΙΩΡΓΑΣ ΓΙΩΡΓΟΣ - ΤΡΙΚΑΛΑ","lat":38.004187278321304,"lng":22.477741138877853,"url":"https://maps.app.goo.gl/8P84uhf2Yr8DKThH6?g_st=ipc","address":"Μεσαία Τρίκαλα Κορινθίας, Τρίκαλα Κορινθίας 204 00","categoryIds":["greek-restaurants"],"categories":["Greek Restaurants"],"distanceKm":10.626458878838138},{"id":"greekRestaurants_835a2fadf39b","slug":"oti-kalo-trikala-korinthias-835a","kind":"restaurant","name":"Ότι Καλό Τρίκαλα Κορινθίας","lat":38.00119259116245,"lng":22.476512941008874,"url":"https://maps.app.goo.gl/aMf3djkW1SnkD1iHA?g_st=ipc","address":"Μεσαία Συνοικία, Άνω Τρίκαλα 204 00","categoryIds":["greek-restaurants"],"categories":["Greek Restaurants"],"distanceKm":10.874661696602542},{"id":"greekRestaurants_0ed04ce88e4f","slug":"opos-palia-0ed0","kind":"restaurant","name":"Όπως Παλιά","lat":37.99779308645516,"lng":22.469905216572432,"url":"https://maps.app.goo.gl/2NRqYruuAnhXjJdA6?g_st=ipc","address":"Μέση Συνοικία Τρικάλων 204 00","categoryIds":["greek-restaurants"],"categories":["Greek Restaurants"],"distanceKm":11.563429119329543},{"id":"greekRestaurants_65157136702c","slug":"psitosynantisi-6515","kind":"restaurant","name":"ΨΗΤΟσυνάντηση","lat":37.99548753109514,"lng":22.468480126219713,"url":"https://maps.app.goo.gl/5CaRxHJhbSNeKFiP7?g_st=ipc","address":"Επαρ.Οδ. Ξυλόκαστρου - Τρικάλων - Μάννας, Μέση Συνοικία Τρικάλων 204 00","categoryIds":["greek-restaurants"],"categories":["Greek Restaurants"],"distanceKm":11.795909220836577},{"id":"greekRestaurants_eebc58d0b57c","slug":"to-chani-toy-chania-eebc","kind":"restaurant","name":"Το Χάνι του Χανιά","lat":37.989969507417065,"lng":22.466125395415034,"url":"https://maps.app.goo.gl/dDmXsZAdKbWgFjjT6?g_st=ipc","address":"Άνω Τρίκαλα, 204 00","categoryIds":["greek-restaurants"],"categories":["Greek Restaurants"],"distanceKm":12.281953364435038},{"id":"greekRestaurants_7e3395541ef7","slug":"ellas-7e33","kind":"restaurant","name":"Ελλάς","lat":38.025725060862264,"lng":22.73285830482763,"url":"https://maps.app.goo.gl/1U76XKVBxExMEULE7?g_st=ipc","address":"Παλαιά Ε.Ο. Κορίνθου Πατρών 16, Κάτω Διμηνιό, Κιάτο 202 00","categoryIds":["greek-restaurants"],"categories":["Greek Restaurants"],"distanceKm":13.054917634265715},{"id":"greekRestaurants_7e187d76eed9","slug":"taverna-agiannis-goyrnopoyla-7e18","kind":"restaurant","name":"ΤΑΒΕΡΝΑ ΑΓΙΑΝΝΗΣ ΓΟΥΡΝΟΠΟΥΛΑ","lat":37.99600590320037,"lng":22.763769354956416,"url":"https://maps.app.goo.gl/TAEgeZnnDvDXP5b27?g_st=ipc","address":"Αθηνών 190, Κιάτο 202 00","categoryIds":["greek-restaurants"],"categories":["Greek Restaurants"],"distanceKm":16.54946457725594},{"id":"municipalities_f416e3da4569","slug":"kiato-f416","kind":"municipality","name":"Κιάτο","lat":37.974,"lng":22.751,"region":"Κορινθία","name_en":"Kiato","region_en":"Corinthia","distanceKm":16.55628778088856},{"id":"fishTavernasRestaurants_8e7680f38e05","slug":"esperos-ichthys-psarotaverna-8e76","kind":"restaurant","name":"Έσπερος ΙΧΘΥΣ Ψαροταβέρνα","lat":38.13318899935724,"lng":22.423103842089304,"url":"https://maps.app.goo.gl/vF6q9SxKr2jVHXpy7?g_st=ipc","address":"Derveni 200 09","categoryIds":["fish-tavernas"],"categories":["Fish Tavernas"],"distanceKm":17.19994612897029},{"id":"municipalities_5f8e38dfed51","slug":"sikyonion-5f8e","kind":"municipality","name":"Σικυωνίων","lat":37.95,"lng":22.75,"region":"Κορινθία","name_en":"Sikyonion","region_en":"Corinthia","distanceKm":17.946107176544103},{"id":"familyFriendly_52cd4997ee89","slug":"farma-ampelos-vochaikou-52cd","kind":"restaurant","name":"FARMA AMPELOS VOCHAIKOU","lat":37.932680344972496,"lng":22.771047365230917,"url":"https://maps.app.goo.gl/cQ3vrm4TKeMAyCsq6?g_st=ipc","address":"ΑΓΡΟΤΙΚΗ ΟΔΟΣ, Βοχαϊκό 200 06","categoryIds":["family-friendly"],"categories":["Kid Friendly Locations"],"distanceKm":20.58339851111944},{"id":"greekRestaurants_f0875a0de3a8","slug":"eviva-taverna-f087","kind":"restaurant","name":"Εβίβα Ταβέρνα","lat":37.94826596142861,"lng":22.791019779670105,"url":"https://maps.app.goo.gl/D8Mr8bUZPttfMux47?g_st=ipc","address":"Επαρ.Οδ. Βραχατίου - Νεμέας 255, Βοχαϊκό 200 06","categoryIds":["greek-restaurants"],"categories":["Greek Restaurants"],"distanceKm":21.03170281460128},{"id":"wineriesVineyards_b00a536153f6","slug":"semeli-estate-ktima-semeli-b00a","kind":"restaurant","name":"Semeli Estate | Κτήμα Σεμέλη","lat":37.87119800007677,"lng":22.67941642720224,"url":"https://maps.app.goo.gl/zETqXnjPfU3pMwmA8?g_st=ipc","address":"Επαρ.Οδ. Κιάτου - Νεμέας, Κούτσι 205 00","categoryIds":["wineries-vineyards"],"categories":["Wineries & Vineyards"],"distanceKm":21.17932445023072},{"id":"greekRestaurants_b760cd0c2463","slug":"chavon-restobar-b760","kind":"restaurant","name":"Chavon Restobar","lat":37.96210160412795,"lng":22.806527700162825,"url":"https://maps.app.goo.gl/gHNgPE2wUtHLY6F1A?g_st=ipc","address":"Parodos Andrea Lazana 101, Βραχάτι 200 06","categoryIds":["greek-restaurants"],"categories":["Greek Restaurants"],"distanceKm":21.482191665656828},{"id":"familyFriendly_32cb5d544c31","slug":"area-synest-32cb","kind":"restaurant","name":"Area Synest","lat":38.06576851291907,"lng":22.340295581454182,"url":"https://maps.app.goo.gl/o23ir2rREaRUFiwK9?g_st=ipc","address":"Epar.Od. Agorianis-Koronias, Sinevro 250 10","categoryIds":["family-friendly"],"categories":["Kid Friendly Locations"],"distanceKm":21.635944860244354},{"id":"greekRestaurants_3eb1dd9f3c34","slug":"taverna-aggeliki-3eb1","kind":"restaurant","name":"Ταβέρνα Αγγελική","lat":38.06658415392425,"lng":22.338919570518915,"url":"https://maps.app.goo.gl/WLaC7Mj54zxdUu1s6?g_st=ipc","address":"Σινεβρό 250 10","categoryIds":["greek-restaurants"],"categories":["Greek Restaurants"],"distanceKm":21.76465780857754},{"id":"wineriesVineyards_44279fa455a5","slug":"gaia-winery-nemea-4427","kind":"restaurant","name":"Gaia Winery Nemea","lat":37.85612300690931,"lng":22.670580052988402,"url":"https://maps.app.goo.gl/ZgmCy9JQ7Vrkbz1r9?g_st=ipc","address":"Κούτσι 205 00","categoryIds":["wineries-vineyards"],"categories":["Wineries & Vineyards"],"distanceKm":22.468642401028376},{"id":"fishTavernasRestaurants_bedd9566b385","slug":"thealos-thealos-bedd","kind":"restaurant","name":"Θέαλος - Thealos","lat":37.94991846803997,"lng":22.83722013675207,"url":"https://maps.app.goo.gl/Aaq7XhnhCgZUhsH29?g_st=ipc","address":"Unnamed Rd, Kato Assos 200 06","categoryIds":["fish-tavernas"],"categories":["Fish Tavernas"],"distanceKm":24.49477674933679},{"id":"wineriesVineyards_239a4e029aee","slug":"venikos-wine-window-wine-tours-tastings-239a","kind":"restaurant","name":"Venikos Wine Window, Wine Tours & Tastings","lat":37.821663923892565,"lng":22.663321715457876,"url":"https://maps.app.goo.gl/ZMmJXxpaMciuZeCj6?g_st=ipc","address":"Plateia Iroon 3, Νεμέα 205 00","categoryIds":["wineries-vineyards"],"categories":["Wineries & Vineyards"],"distanceKm":25.944744053332922},{"id":"greekRestaurants_999a38347b72","slug":"17-choria-999a","kind":"restaurant","name":"17 Χωριά","lat":37.821379737670235,"lng":22.662966793394837,"url":"https://maps.app.goo.gl/JMfmZXakmTgFrEhd7?g_st=ipc","address":"Δερβενακίων 12, Νεμέα 205 00","categoryIds":["greek-restaurants"],"categories":["Greek Restaurants"],"distanceKm":25.967174585886784},{"id":"greekRestaurants_2229596e0e1c","slug":"sofos-2229","kind":"restaurant","name":"Sofos","lat":37.8214332020111,"lng":22.663718153863066,"url":"https://maps.app.goo.gl/dwiyoJBZoJnwyzi76?g_st=ipc","address":"Δερβενακίων, Νεμέα 205 00","categoryIds":["greek-restaurants"],"categories":["Greek Restaurants"],"distanceKm":25.978588208529846}],"mentionedGuides":[],"canonicalSlug":"kafeneion-stoy-giannoy-a175","enrichment":{"summary_en":"Καφενείον στου Γιαννου is a curated restaurant in Ρίζα 204 00 in the Greek Restaurants collection. It is connected to 0 nearby Googlementor picks to help travelers build a stronger local route.","summary_el":"Καφενείον στου Γιαννου είναι ένα επιλεγμένο σημείο φαγητού στην περιοχή Ρίζα 204 00 και ανήκει στη συλλογή Greek Restaurants. Συνδέεται με 0 κοντινές προτάσεις του Googlementor για πιο ολοκληρωμένη εμπειρία.","vibe_tags":["curated"],"best_for":["first-time visitors","food lovers"],"visit_moments":["lunch stop","dinner stop"],"practical_note":"Address and direct map link are available for easy turn-by-turn access.","nearby_walkable_count":0,"nearby_count_2km":0,"confidence":0.9},"areaContext":null,"intentContexts":[]},"__N_SSG":true}