{"pageProps":{"entity":{"id":"italianRestaurants_cdb970122a35","slug":"kasmir-cdb9","kind":"restaurant","name":"Kasmir","lat":38.900597180204656,"lng":21.771398412012726,"url":"https://maps.app.goo.gl/tGER5rSkLzH68JTw8?g_st=ipc","address":"Mesabelia, Korischades 361 00","categoryIds":["italian"],"categories":["Italian Restaurants"]},"sameCategory":[{"id":"italianRestaurants_13db7f7dfac4","slug":"loulis-taste-project-13db","kind":"restaurant","name":"Loulis Taste Project","lat":38.83362395321285,"lng":20.707875524974906,"url":"https://maps.app.goo.gl/tNzSrPjrJVJbBhbr6?g_st=ipc","address":"Loulis Taste Project","categoryIds":["italian"],"categories":["Italian Restaurants"]},{"id":"italianRestaurants_f83f25bf777f","slug":"nonna-rossa-f83f","kind":"restaurant","name":"Nonna Rossa","lat":39.64111484868426,"lng":22.41428751769153,"url":"https://maps.app.goo.gl/ETYecXBUFzQCRmS47?g_st=ipc","address":"Skilosofou 9, Larisa 412 21","categoryIds":["italian"],"categories":["Italian Restaurants"]},{"id":"italianRestaurants_c53ee4efcd79","slug":"pasta-la-vista-kala-nera-c53e","kind":"restaurant","name":"Pasta La Vista KALA NERA","lat":39.3056996345145,"lng":23.120100052879696,"url":"https://maps.app.goo.gl/tYaU41CZfgnnQu8V7","address":"Kala Nera 370 10","categoryIds":["italian"],"categories":["Italian Restaurants"]},{"id":"italianRestaurants_9f740af053b2","slug":"filomila-9f74","kind":"restaurant","name":"Filomila","lat":39.28501094493868,"lng":20.39762732442374,"url":"https://maps.app.goo.gl/q6frpMcS63aQ6eSu5?g_st=ipc","address":"Filomila","categoryIds":["italian"],"categories":["Italian Restaurants"]},{"id":"italianRestaurants_0856ecb11f91","slug":"la-cucina-di-maria-0856","kind":"restaurant","name":"La Cucina di Maria","lat":39.16258431460264,"lng":23.488686516582533,"url":"https://maps.app.goo.gl/MBu7u1d7kC6PuBVm8?g_st=ipc","address":"Πλατεία Τριών Ιεραρχών, Skiathos 370 02","categoryIds":["italian"],"categories":["Italian Restaurants"]},{"id":"italianRestaurants_221ef1307bb3","slug":"lupo-trattoria-221e","kind":"restaurant","name":"Lupo Trattoria","lat":38.46311896550072,"lng":23.590229926533073,"url":"https://maps.app.goo.gl/DESesA1yAU2maSDx7?g_st=ipc","address":"Βουδούρη 6, Χαλκίδα 341 00","categoryIds":["italian"],"categories":["Italian Restaurants"]},{"id":"italianRestaurants_0d133bb8af27","slug":"itria-cucina-italiana-restaurant-0d13","kind":"restaurant","name":"ITRIA Cucina Italiana Restaurant","lat":37.567386909343334,"lng":22.797290266729004,"url":"https://maps.app.goo.gl/HHmGQxRgnuihmTyY7?g_st=ipc","address":"Boumpoulinas 81, Nafplio 211 00","categoryIds":["italian"],"categories":["Italian Restaurants"]},{"id":"italianRestaurants_62cf2e5c270d","slug":"la-gratella-62cf","kind":"restaurant","name":"La Gratella","lat":37.56708420040735,"lng":22.796775177187325,"url":"https://maps.app.goo.gl/wA9xzqnbmvvq1Bqo8?g_st=ipc","address":"Vasilissis Olgas, Nafplio 211 00","categoryIds":["italian"],"categories":["Italian Restaurants"]},{"id":"italianRestaurants_74b63c612882","slug":"il-porto-74b6","kind":"restaurant","name":"Il Porto","lat":37.56732416244355,"lng":22.800888651268885,"url":"https://maps.app.goo.gl/vWaWFumGBn6ey64P6?g_st=ipc","address":"Μπουμπουλίνας 43, Ναύπλιο 211 00","categoryIds":["italian"],"categories":["Italian Restaurants"]},{"id":"italianRestaurants_ca939fad1a78","slug":"la-tavola-calda-ca93","kind":"restaurant","name":"La Tavola Calda","lat":39.623370627858776,"lng":19.923005947570733,"url":"https://maps.app.goo.gl/ENRUpZHsLbcTwuH2A?g_st=ipc","address":"Giotopoulou 10-12, Kerkira 491 00","categoryIds":["italian"],"categories":["Italian Restaurants"]},{"id":"italianRestaurants_c67f741fc9ba","slug":"pitsaria-achilleion-c67f","kind":"restaurant","name":"ΠΙΤΣΑΡΙΑ ΑΧΙΛΛΕΙΟΝ","lat":37.96332108068363,"lng":23.493487796737526,"url":"https://maps.app.goo.gl/xb88QciDkgCY4ycv8?g_st=ipc","address":"Λεωφ. Ακτή Καραϊσκάκη 24, Σαλαμίνα 189 00","categoryIds":["italian"],"categories":["Italian Restaurants"]},{"id":"italianRestaurants_764eadc47084","slug":"pizza-days-ano-liosion-764e","kind":"restaurant","name":"Pizza Days - Άνω Λιοσίων","lat":38.08738762293733,"lng":23.705019354443774,"url":"https://maps.app.goo.gl/j8oAF5aTcAufPq229?g_st=ipc","address":"Πηνειού 38, Άνω Λιόσια 133 41","categoryIds":["italian"],"categories":["Italian Restaurants"]}],"nearby":[{"id":"coffeeBrunchRestaurants_0e2616bd7fc7","slug":"saloon-park-0e26","kind":"restaurant","name":"Saloon Park","lat":38.90092398449493,"lng":21.77279442117925,"url":"https://maps.app.goo.gl/ou4ZLrrH5JymyBSH7?g_st=ipc","address":"3ο χιλ Καρπενησίου Προυσσου, Karpenisi 361 00","categoryIds":["coffee-brunch","family-friendly"],"categories":["Coffee & Brunch Spots","Kid Friendly Locations"],"legacySlugs":["saloon-park-ea50"],"distanceKm":0.12615189790114825},{"id":"greekRestaurants_00acd58871fd","slug":"parko-kefalovryso-00ac","kind":"restaurant","name":"Πάρκο Κεφαλόβρυσο","lat":38.89684310507032,"lng":21.782192032592697,"url":"https://maps.app.goo.gl/UMhtP2NgQ48sj1Ey8?g_st=ipc","address":"2ο χλμ. Καρπενησίου-Προυσού, Καρπενήσι 361 00","categoryIds":["greek-restaurants"],"categories":["Greek Restaurants"],"distanceKm":1.0230939564778883},{"id":"coffeeBrunchRestaurants_1257c9be30ac","slug":"villaggio-cafe-meze-1257","kind":"restaurant","name":"Villaggio café - mezé","lat":38.903233129898815,"lng":21.759044154104334,"url":"https://maps.app.goo.gl/TYafQiUuDWknuAyTA?g_st=ipc","address":"ΚΟΡΥΣΧΑΔΕΣ 1, Karpenisi 361 00","categoryIds":["coffee-brunch"],"categories":["Coffee & Brunch Spots"],"distanceKm":1.1085197071306547},{"id":"municipalities_1d4b51456d77","slug":"karpenisi-1d4b","kind":"municipality","name":"Καρπενήσι","lat":38.9167,"lng":21.7833,"region":"Στερεά Ελλάδα","name_en":"Karpenisi","region_en":"Central Greece","distanceKm":2.065565555389314},{"id":"municipalities_d6c7bd09305e","slug":"karpenisi-d6c7","kind":"municipality","name":"Καρπενήσι","lat":38.912,"lng":21.797,"region":"Ορεινοί Προορισμοί","name_en":"Karpenisi","region_en":"Mountain Destinations","distanceKm":2.5524746829645486},{"id":"dessertsRestaurants_29d96cbe3da8","slug":"glykoplasteio-29d9","kind":"restaurant","name":"Glykoplasteío","lat":38.91264896054346,"lng":21.80246572954374,"url":"https://maps.app.goo.gl/c3y6StatonhrUYj26?g_st=ipc","address":"1ο χιλιόμετρο Εθνικής Οδού Καρπενησίου Λαμίας, Καρπενήσι, Karpenisi 361 00","categoryIds":["desserts"],"categories":["Dessert Shops"],"distanceKm":3.003721583067908},{"id":"coffeeBrunchRestaurants_7763ea7d7b5d","slug":"the-paradosiakon-traditional-7763","kind":"restaurant","name":"The Paradosiakón (Traditional)","lat":38.912425769319995,"lng":21.803412059232368,"url":"https://maps.app.goo.gl/ZSCvQWpooUkkCF4K7?g_st=ipc","address":"Eolou 1, Karpenisi 361 00","categoryIds":["coffee-brunch"],"categories":["Coffee & Brunch Spots"],"distanceKm":3.0664993849246924},{"id":"greekRestaurants_eba980ff28b5","slug":"taverna-psistaria-freideriki-eba9","kind":"restaurant","name":"Ταβέρνα Ψησταριά Φρειδερίκη","lat":38.87285394230774,"lng":21.75976720346808,"url":"https://maps.app.goo.gl/DUv6ASUURdJKUqvX9?g_st=ipc","address":"Κλαυσί 361 00","categoryIds":["greek-restaurants"],"categories":["Greek Restaurants"],"distanceKm":3.245015706804838},{"id":"coffeeBrunchRestaurants_5fe3af39ab2b","slug":"825-eat-and-coffee-karpenissi-5fe3","kind":"restaurant","name":"825 eat and coffee Karpenissi","lat":38.879552565898926,"lng":21.74418375846026,"url":"https://maps.app.goo.gl/RS2SUMtbtY8WCrnF9?g_st=ipc","address":"Voutyro 361 00","categoryIds":["coffee-brunch"],"categories":["Coffee & Brunch Spots"],"distanceKm":3.3202018848797104},{"id":"greekRestaurants_5c3142c7d0fe","slug":"i-taverna-tis-kyra-zois-5c31","kind":"restaurant","name":"Η ταβέρνα της κυρά Ζωής","lat":38.9091706754785,"lng":21.810542639127807,"url":"https://maps.app.goo.gl/zkHGuBDnpHGCsSvs7?g_st=ipc","address":"ΑΡΧΙΜΑΝΔΡΙΤΟΥ ΠΑΠΑΝΙΚΟΛΑΟΥ 1, Καρπενήσι 361 00","categoryIds":["greek-restaurants"],"categories":["Greek Restaurants"],"distanceKm":3.5187805804986496},{"id":"coffeeBrunchRestaurants_4e2dd1d22431","slug":"to-kafe-tis-charas-4e2d","kind":"restaurant","name":"Το καφέ της Χαράς","lat":38.86839469803581,"lng":21.760838169390635,"url":"https://maps.app.goo.gl/rmkYbTkw4mzL6Ws7A?g_st=ipc","address":"Κλαυσί 361 00","categoryIds":["coffee-brunch"],"categories":["Coffee & Brunch Spots"],"distanceKm":3.6955747940083925},{"id":"greekRestaurants_a07698beb6f6","slug":"to-choriatiko-nasiopoylos-a076","kind":"restaurant","name":"Το Χωριάτικο Νασιόπουλος","lat":38.842767533520004,"lng":21.735734322174586,"url":"https://maps.app.goo.gl/r9NwSZEqGNG3NMHz8?g_st=ipc","address":"Νέο Μικρό Χωριό 361 00","categoryIds":["greek-restaurants"],"categories":["Greek Restaurants"],"distanceKm":7.1331703556461346},{"id":"greekRestaurants_2db78cb8d961","slug":"chani-panetsoy-tavern-est-1884-2db7","kind":"restaurant","name":"Χάνι Πανέτσου - Tavern est. 1884","lat":38.924405703995355,"lng":21.929530373358407,"url":"https://maps.app.goo.gl/965nvpi16xp3euYk6?g_st=ipc","address":"52 χλμ, ΕΟ Λαμίας Καρπενησίου, Μεσαία Καψή 350 17","categoryIds":["greek-restaurants"],"categories":["Greek Restaurants"],"distanceKm":13.935581962686843}],"mentionedGuides":[],"canonicalSlug":"kasmir-cdb9","enrichment":{"summary_en":"Kasmir is a curated restaurant in Korischades 361 00 in the Italian Restaurants collection. It is connected to 1 nearby Googlementor picks to help travelers build a stronger local route.","summary_el":"Kasmir είναι ένα επιλεγμένο σημείο φαγητού στην περιοχή Korischades 361 00 και ανήκει στη συλλογή Italian Restaurants. Συνδέεται με 1 κοντινές προτάσεις του Googlementor για πιο ολοκληρωμένη εμπειρία.","vibe_tags":["curated"],"best_for":["first-time visitors","food lovers"],"visit_moments":["lunch stop","dinner stop"],"practical_note":"Address and direct map link are available for easy turn-by-turn access.","nearby_walkable_count":1,"nearby_count_2km":3,"confidence":0.9},"areaContext":null,"intentContexts":[]},"__N_SSG":true}