{"pageProps":{"entity":{"id":"greekRestaurants_4c45a183d4c2","slug":"kelari-4c45","kind":"restaurant","name":"Κελάρι","lat":38.03175556375287,"lng":22.10930942954511,"url":"https://maps.app.goo.gl/JGLvLQeBc1WEWSz87?g_st=ipc","address":"Lochia Kapota 19, Kalavrita 250 01","categoryIds":["greek-restaurants"],"categories":["Greek Restaurants"]},"sameCategory":[{"id":"greekRestaurants_4c4401a7e8ee","slug":"oi-moyries-4c44","kind":"restaurant","name":"Οι Μουριές","lat":37.896633092738924,"lng":22.12341346377816,"url":"https://maps.app.goo.gl/42bbkghREKadwJ7d7?g_st=ipc","address":"Epar.Od. Kalavriton-Filias 12, Klitoria 250 07","categoryIds":["greek-restaurants"],"categories":["Greek Restaurants"]},{"id":"greekRestaurants_3eb1dd9f3c34","slug":"taverna-aggeliki-3eb1","kind":"restaurant","name":"Ταβέρνα Αγγελική","lat":38.06658415392425,"lng":22.338919570518915,"url":"https://maps.app.goo.gl/WLaC7Mj54zxdUu1s6?g_st=ipc","address":"Σινεβρό 250 10","categoryIds":["greek-restaurants"],"categories":["Greek Restaurants"]},{"id":"greekRestaurants_c2f3bf63f9d6","slug":"trikrina-c2f3","kind":"restaurant","name":"Τρίκρηνα","lat":37.908133647835946,"lng":22.32453249327104,"url":"https://maps.app.goo.gl/eeiwiRoH3oKaZhjc6?g_st=ipc","address":"Unnamed Road,, Φενεός 200 14","categoryIds":["greek-restaurants"],"categories":["Greek Restaurants"]},{"id":"greekRestaurants_eebc58d0b57c","slug":"to-chani-toy-chania-eebc","kind":"restaurant","name":"Το Χάνι του Χανιά","lat":37.989969507417065,"lng":22.466125395415034,"url":"https://maps.app.goo.gl/dDmXsZAdKbWgFjjT6?g_st=ipc","address":"Άνω Τρίκαλα, 204 00","categoryIds":["greek-restaurants"],"categories":["Greek Restaurants"]},{"id":"greekRestaurants_65157136702c","slug":"psitosynantisi-6515","kind":"restaurant","name":"ΨΗΤΟσυνάντηση","lat":37.99548753109514,"lng":22.468480126219713,"url":"https://maps.app.goo.gl/5CaRxHJhbSNeKFiP7?g_st=ipc","address":"Επαρ.Οδ. Ξυλόκαστρου - Τρικάλων - Μάννας, Μέση Συνοικία Τρικάλων 204 00","categoryIds":["greek-restaurants"],"categories":["Greek Restaurants"]},{"id":"greekRestaurants_0ed04ce88e4f","slug":"opos-palia-0ed0","kind":"restaurant","name":"Όπως Παλιά","lat":37.99779308645516,"lng":22.469905216572432,"url":"https://maps.app.goo.gl/2NRqYruuAnhXjJdA6?g_st=ipc","address":"Μέση Συνοικία Τρικάλων 204 00","categoryIds":["greek-restaurants"],"categories":["Greek Restaurants"]},{"id":"greekRestaurants_835a2fadf39b","slug":"oti-kalo-trikala-korinthias-835a","kind":"restaurant","name":"Ότι Καλό Τρίκαλα Κορινθίας","lat":38.00119259116245,"lng":22.476512941008874,"url":"https://maps.app.goo.gl/aMf3djkW1SnkD1iHA?g_st=ipc","address":"Μεσαία Συνοικία, Άνω Τρίκαλα 204 00","categoryIds":["greek-restaurants"],"categories":["Greek Restaurants"]},{"id":"greekRestaurants_6e1edbbc32a8","slug":"pinakoti-taverna-karagiorgas-giorgos-trikala-6e1e","kind":"restaurant","name":"ΠΙΝΑΚΩΤΗ - ΤΑΒΕΡΝΑ - ΚΑΡΑΓΙΩΡΓΑΣ ΓΙΩΡΓΟΣ - ΤΡΙΚΑΛΑ","lat":38.004187278321304,"lng":22.477741138877853,"url":"https://maps.app.goo.gl/8P84uhf2Yr8DKThH6?g_st=ipc","address":"Μεσαία Τρίκαλα Κορινθίας, Τρίκαλα Κορινθίας 204 00","categoryIds":["greek-restaurants"],"categories":["Greek Restaurants"]},{"id":"greekRestaurants_7c9f07a3160d","slug":"maniatis-restaurant-7c9f","kind":"restaurant","name":"MANIATIS RESTAURANT","lat":37.68177813612369,"lng":22.029455603164294,"url":"https://maps.app.goo.gl/XpSe1XvM3UDbKs8K7?g_st=ipc","address":"Λαγκάδια 220 03","categoryIds":["greek-restaurants"],"categories":["Greek Restaurants"]},{"id":"greekRestaurants_85ac3be3e822","slug":"paradosiaki-taverna-o-pantelis-85ac","kind":"restaurant","name":"Παραδοσιακή Ταβέρνα Ο Παντελής","lat":37.66932870704655,"lng":22.182333342140492,"url":"https://maps.app.goo.gl/cvHML6eFSjSNc5Sb7?g_st=ipc","address":"Βυτίνα 220 10","categoryIds":["greek-restaurants"],"categories":["Greek Restaurants"]},{"id":"greekRestaurants_a175a16286e2","slug":"kafeneion-stoy-giannoy-a175","kind":"restaurant","name":"Καφενείον στου Γιαννου","lat":38.046932367246974,"lng":22.58624645586887,"url":"https://maps.app.goo.gl/n81icmGiqF55MhN98?g_st=ipc","address":"Επαρ.Οδ. Ξυλόκαστρου - Τρικάλων - Μάννας 98, Ρίζα 204 00","categoryIds":["greek-restaurants"],"categories":["Greek Restaurants"]},{"id":"greekRestaurants_3078ffee852c","slug":"koympoyris-1970-3078","kind":"restaurant","name":"Κουμπούρης 1970","lat":37.68399722999656,"lng":22.295929513779615,"url":"https://maps.app.goo.gl/YMUJHncJTMJQozvE7?g_st=ipc","address":"ΕΟ74 10, Λεβίδι 220 02","categoryIds":["greek-restaurants"],"categories":["Greek Restaurants"]}],"nearby":[{"id":"municipalities_b6d325cfd313","slug":"kalavryta-b6d3","kind":"municipality","name":"Καλάβρυτα","lat":38.0333,"lng":22.1167,"aliases":["Καλαβρυτα"],"region":"Πελοπόννησος","name_en":"Kalavryta","region_en":"Peloponnese","distanceKm":0.6696890040251299},{"id":"wineriesVineyards_84ebef8f5b21","slug":"ktima-mega-spilaio-84eb","kind":"restaurant","name":"Κτήμα Μέγα Σπήλαιο","lat":38.112838077733514,"lng":22.169404735261367,"url":"https://maps.app.goo.gl/qGAsm3q6PmBPN3TK6?g_st=ipc","address":"Επαρ.Οδ. Πούντας - Καλαβρύτων, Egialia 250 01","categoryIds":["wineries-vineyards"],"categories":["Wineries & Vineyards"],"distanceKm":10.438424382484866},{"id":"familyFriendly_f5a054e30c6e","slug":"cherryland-ktima-fokaeon-f5a0","kind":"restaurant","name":"CHERRYLAND - ΚΤΗΜΑ ΦΩΚΑΕΩΝ","lat":38.12752130997816,"lng":22.216601874987493,"url":"https://maps.app.goo.gl/Lr7uMbC7sLXRLEP9A?g_st=ipc","address":"Epar.Od. Pountas - Kalavriton, Kernitsa 250 03","categoryIds":["family-friendly"],"categories":["Kid Friendly Locations"],"distanceKm":14.19808943591653},{"id":"greekRestaurants_4c4401a7e8ee","slug":"oi-moyries-4c44","kind":"restaurant","name":"Οι Μουριές","lat":37.896633092738924,"lng":22.12341346377816,"url":"https://maps.app.goo.gl/42bbkghREKadwJ7d7?g_st=ipc","address":"Epar.Od. Kalavriton-Filias 12, Klitoria 250 07","categoryIds":["greek-restaurants"],"categories":["Greek Restaurants"],"distanceKm":15.075722085208408},{"id":"familyFriendly_9b2bda8df9e3","slug":"nymfes-9b2b","kind":"restaurant","name":"Νύμφες","lat":37.99541884225497,"lng":22.275355626093795,"url":"https://maps.app.goo.gl/V3SkPjW9XHfNjwvSA?g_st=ipc","address":"Ζαρούχλα - Φενεός, Zarouchla 250 06","categoryIds":["family-friendly"],"categories":["Kid Friendly Locations"],"distanceKm":15.097442481242702},{"id":"wineriesVineyards_f80526daec5c","slug":"oinopoieio-tetramythos-f805","kind":"restaurant","name":"Οινοποιείο Τετράμυθος","lat":38.13861434975287,"lng":22.235631269922283,"url":"https://maps.app.goo.gl/n9FxLvDHw2tR949F6?g_st=ipc","address":"8ο ΧΛΜ ΕΠΑΡΧΙΑΚΗΣ ΟΔΟΥ, Επαρ.Οδ. Πούντας - Καλαβρύτων, Άνω Διακοπτό 250 03","categoryIds":["wineries-vineyards"],"categories":["Wineries & Vineyards"],"distanceKm":16.2301041281041},{"id":"greekRestaurants_3eb1dd9f3c34","slug":"taverna-aggeliki-3eb1","kind":"restaurant","name":"Ταβέρνα Αγγελική","lat":38.06658415392425,"lng":22.338919570518915,"url":"https://maps.app.goo.gl/WLaC7Mj54zxdUu1s6?g_st=ipc","address":"Σινεβρό 250 10","categoryIds":["greek-restaurants"],"categories":["Greek Restaurants"],"distanceKm":20.475171362660202},{"id":"familyFriendly_32cb5d544c31","slug":"area-synest-32cb","kind":"restaurant","name":"Area Synest","lat":38.06576851291907,"lng":22.340295581454182,"url":"https://maps.app.goo.gl/o23ir2rREaRUFiwK9?g_st=ipc","address":"Epar.Od. Agorianis-Koronias, Sinevro 250 10","categoryIds":["family-friendly"],"categories":["Kid Friendly Locations"],"distanceKm":20.57674571074659},{"id":"wineriesVineyards_b10486ff2d64","slug":"rouvalis-wines-oinoforos-a-e-b104","kind":"restaurant","name":"ROUVALIS WINES (ΟΙΝΟΦΟΡΟΣ Α.Ε.)","lat":38.22055000984663,"lng":22.089166676944025,"url":"https://maps.app.goo.gl/znCHsxFPu7zWUC1b9?g_st=ipc","address":"Αίγιο 251 00","categoryIds":["wineries-vineyards"],"categories":["Wineries & Vineyards"],"distanceKm":21.066793057053975},{"id":"greekRestaurants_c2f3bf63f9d6","slug":"trikrina-c2f3","kind":"restaurant","name":"Τρίκρηνα","lat":37.908133647835946,"lng":22.32453249327104,"url":"https://maps.app.goo.gl/eeiwiRoH3oKaZhjc6?g_st=ipc","address":"Unnamed Road,, Φενεός 200 14","categoryIds":["greek-restaurants"],"categories":["Greek Restaurants"],"distanceKm":23.342836853042016},{"id":"municipalities_8571c9b3ef03","slug":"aigio-8571","kind":"municipality","name":"Αίγιο","lat":38.249,"lng":22.105,"aliases":["Aigio","Egio"],"region":"Δυτική Ελλάδα","name_en":"Aigio","region_en":"Western Greece","distanceKm":24.15941893638446},{"id":"wineriesVineyards_8d14b59ec1a3","slug":"ampelones-rira-rira-vineyards-8d14","kind":"restaurant","name":"Αμπελώνες Ρίρα - Rira Vineyards","lat":38.29370777982869,"lng":22.008479102079523,"url":"https://maps.app.goo.gl/wH1yAZZ9D7nhcAqLA?g_st=ipc","address":"ΠΕΟ, Ν.Ε.Ο. Πατρών - Αθηνών, Νέος Ερινεός 250 09","categoryIds":["wineries-vineyards"],"categories":["Wineries & Vineyards"],"distanceKm":30.43249981876206}],"mentionedGuides":[],"canonicalSlug":"kelari-4c45","enrichment":{"summary_en":"Κελάρι is a curated restaurant in Kalavrita 250 01 in the Greek Restaurants collection. It is connected to 1 nearby Googlementor picks to help travelers build a stronger local route.","summary_el":"Κελάρι είναι ένα επιλεγμένο σημείο φαγητού στην περιοχή Kalavrita 250 01 και ανήκει στη συλλογή Greek Restaurants. Συνδέεται με 1 κοντινές προτάσεις του Googlementor για πιο ολοκληρωμένη εμπειρία.","vibe_tags":["curated"],"best_for":["first-time visitors","food lovers"],"visit_moments":["lunch stop","dinner stop"],"practical_note":"Address and direct map link are available for easy turn-by-turn access.","nearby_walkable_count":1,"nearby_count_2km":1,"confidence":0.9},"areaContext":null,"intentContexts":[]},"__N_SSG":true}