{"pageProps":{"entity":{"id":"municipalities_c2a6f966632a","slug":"kerkyra-c2a6","kind":"municipality","name":"Κέρκυρα","lat":39.6243,"lng":19.9217,"aliases":["Kerkira","Corcyra","Κερκύρα","Κερκύρη","Κερκυρα","Kerkyra","Corfou"],"region":"Ιόνιο","name_en":"Corfu","region_en":"Ionian Islands"},"sameCategory":[],"nearby":[{"id":"dessertsRestaurants_672e57be6b02","slug":"solo-gelato-672e","kind":"restaurant","name":"Solo Gelato","lat":39.62449131411604,"lng":19.92192848556591,"url":"https://maps.app.goo.gl/75zMv1NcKb3QY9T4A?g_st=ipc","address":"Michail Theotoki 3, Kerkira 491 00","categoryIds":["desserts"],"categories":["Dessert Shops"],"distanceKm":0.028904963131329887},{"id":"dessertsRestaurants_c84a0048c110","slug":"papagiorgis-patiserie-gelateria-c84a","kind":"restaurant","name":"Papagiorgis Patiserie-Gelateria","lat":39.624442580854314,"lng":19.922449483485316,"url":"https://maps.app.goo.gl/tsC3kM3FwzybS2zd6?g_st=ipc","address":"Nikiforou Theotoki 32, Kerkira 491 00","categoryIds":["desserts"],"categories":["Dessert Shops"],"distanceKm":0.06611992518989944},{"id":"cheapEatsRestaurants_bc792aeec77f","slug":"pitta-pappou-bc79","kind":"restaurant","name":"Pitta pappou","lat":39.62391916981706,"lng":19.9227027256586,"url":"https://maps.app.goo.gl/3x2uABEYb4yf4U9ZA?g_st=ipc","address":"ΑΓΙΩΝ ΠΑΝΤΩΝ 12, agion panton 12, Kerkira 491 00","categoryIds":["cheap-eats"],"categories":["Gyros & Cheap Eats"],"distanceKm":0.09575345423789232},{"id":"cheapEatsRestaurants_22e46faae4a1","slug":"di-santo-premium-sandwiches-22e4","kind":"restaurant","name":"Di Santo Premium Sandwiches","lat":39.6237687550092,"lng":19.923112693259046,"url":"https://maps.app.goo.gl/bBz55JsBTZudAbHR9?g_st=ipc","address":"Evgeniou Voulgareos 3, Kerkira 491 00","categoryIds":["cheap-eats"],"categories":["Gyros & Cheap Eats"],"distanceKm":0.13464363243695834},{"id":"italianRestaurants_ca939fad1a78","slug":"la-tavola-calda-ca93","kind":"restaurant","name":"La Tavola Calda","lat":39.623370627858776,"lng":19.923005947570733,"url":"https://maps.app.goo.gl/ENRUpZHsLbcTwuH2A?g_st=ipc","address":"Giotopoulou 10-12, Kerkira 491 00","categoryIds":["italian"],"categories":["Italian Restaurants"],"distanceKm":0.15228324639257043},{"id":"luxuryDiningRestaurants_456832c19fa5","slug":"spianada-meats-greens-4568","kind":"restaurant","name":"Spianada Meats & Greens","lat":39.62310170311375,"lng":19.923385713237856,"url":"https://maps.app.goo.gl/PRwrcwQFNPVZjFsk6?g_st=ipc","address":"Kapodistriou 32, Kerkira 491 00","categoryIds":["luxury-dining"],"categories":["Luxury Dining"],"distanceKm":0.19646634309266958},{"id":"luxuryDiningRestaurants_447de7bad692","slug":"venetian-well-447d","kind":"restaurant","name":"Venetian Well","lat":39.62641881073211,"lng":19.921842707953036,"url":"https://maps.app.goo.gl/HLnA6MPvVh9foYtK6?g_st=ipc","address":"Πλατεια Λίλη Δεσύλλα 1, Kerkira 491 00","categoryIds":["luxury-dining"],"categories":["Luxury Dining"],"distanceKm":0.23591782152789817},{"id":"greekRestaurants_9f5022be5281","slug":"to-tavernaki-tis-marinas-9f50","kind":"restaurant","name":"Το Ταβερνάκι της Μαρίνας","lat":39.62492333562477,"lng":19.9188396620582,"url":"https://maps.app.goo.gl/zBELB5QbZJL4Jsk99?g_st=ipc","address":"Βελισσαρίου 35, Κέρκυρα 491 00","categoryIds":["greek-restaurants"],"categories":["Greek Restaurants"],"distanceKm":0.25459497531280223},{"id":"coffeeBrunchRestaurants_a96c83f91f07","slug":"kumquat-speciality-coffee-brunch-cocktails-a96c","kind":"restaurant","name":"Kumquat / speciality coffee / brunch / cocktails","lat":39.62122356019077,"lng":19.919537643557778,"url":"https://maps.app.goo.gl/3cEBJnGDVun8x3Pu5?g_st=ipc","address":"Σπύρου Σαμαρά 3 και, Kerkira 491 00","categoryIds":["coffee-brunch"],"categories":["Coffee & Brunch Spots"],"distanceKm":0.38900154480387694},{"id":"luxuryDiningRestaurants_a41bdee807ed","slug":"ora-day-a41b","kind":"restaurant","name":"Ora Day","lat":39.62198349556085,"lng":19.925172942691578,"url":"https://maps.app.goo.gl/XLhEQFknHoz231GF7?g_st=ipc","address":"Agoniston Politechniou, Kerkira 491 00","categoryIds":["luxury-dining"],"categories":["Luxury Dining"],"distanceKm":0.39348091441727556},{"id":"mustSeeAttractions_95bea16be675","slug":"old-town-of-corfu-95be","kind":"restaurant","name":"Old Town of Corfu","lat":39.62343987783881,"lng":19.92891594231962,"url":"https://maps.app.goo.gl/iFY1Kcc4UwLiyRGc7?g_st=ipc","address":"Corfu 491 00","categoryIds":["attractions"],"categories":["Must-See Attractions"],"distanceKm":0.6253848990641089},{"id":"coffeeBrunchRestaurants_02639bfe1e4a","slug":"cafe-kanoni-0263","kind":"restaurant","name":"Cafe Kanoni","lat":39.59150641307164,"lng":19.917314978086413,"url":"https://maps.app.goo.gl/RBi9fUSj1gvzz2E86?g_st=ipc","address":"κανόνι, Kerkira 491 00","categoryIds":["coffee-brunch"],"categories":["Coffee & Brunch Spots"],"distanceKm":3.665778965483868},{"id":"familyFriendly_e515147a29e0","slug":"aqualand-e515","kind":"restaurant","name":"Aqualand","lat":39.61697908099727,"lng":19.837429719404867,"url":"https://maps.app.goo.gl/NQ1AwXiEg5oZQg359?g_st=ipc","address":"Agios Ioannis 491 00","categoryIds":["family-friendly"],"categories":["Kid Friendly Locations"],"distanceKm":7.26364630746085},{"id":"mexicanRestaurants_09c0e00bc62f","slug":"picante-mexican-cocktail-bar-09c0","kind":"restaurant","name":"Picante Mexican - Cocktail Bar","lat":39.54688963792196,"lng":19.912527827268715,"url":"https://maps.app.goo.gl/gry6ZeCUAGqm9E3X7?g_st=ipc","address":"Benitses 490 84","categoryIds":["mexican"],"categories":["Mexican Restaurants"],"distanceKm":8.643452345535923},{"id":"luxuryDiningRestaurants_c23fed298e67","slug":"etrusco-c23f","kind":"restaurant","name":"Etrusco","lat":39.6891414540143,"lng":19.834904657627558,"url":"https://maps.app.goo.gl/x3VsqPUTtkawiKFC7?g_st=ipc","address":"Κάτω Κορακιάνα 490 83","categoryIds":["luxury-dining"],"categories":["Luxury Dining"],"distanceKm":10.353443827094251},{"id":"luxuryDiningRestaurants_4ac0f5cb2cce","slug":"makris-restaurant-4ac0","kind":"restaurant","name":"Makris Restaurant","lat":39.490901721836174,"lng":19.92628299466604,"url":"https://maps.app.goo.gl/GPZUEnWWjrQuRVWr7?g_st=ipc","address":"Miramare Beach, Moraitika 491 00","categoryIds":["luxury-dining"],"categories":["Luxury Dining"],"distanceKm":14.838414328802338},{"id":"coffeeBrunchRestaurants_8ce44b297b18","slug":"la-grotta-bar-8ce4","kind":"restaurant","name":"La Grotta Bar","lat":39.67381089427264,"lng":19.718606911052376,"url":"https://maps.app.goo.gl/HyZmnveaEpuiN62j8?g_st=ipc","address":"La Grotta Bay, Paleokastritsa 490 83","categoryIds":["coffee-brunch"],"categories":["Coffee & Brunch Spots"],"distanceKm":18.23883584271607},{"id":"municipalities_3976b9119f68","slug":"palaiokastritsa-3976","kind":"municipality","name":"Παλαιοκαστρίτσα","lat":39.6778,"lng":19.7139,"aliases":["Παλαιοκαστριτσα","Palaiokastritsa"],"region":"Ιόνιο","name_en":"Paleokastritsa","region_en":"Ionian Islands","distanceKm":18.758849591733696},{"id":"coffeeBrunchRestaurants_207254fa5966","slug":"bakalokafenio-michalas-kostas-2072","kind":"restaurant","name":"Bakalokafenio - Michalas Kostas","lat":39.681013717064104,"lng":19.71063796584377,"url":"https://maps.app.goo.gl/YrUQcKuXeVaBkqFR7?g_st=ipc","address":"Lakones 490 83","categoryIds":["coffee-brunch"],"categories":["Coffee & Brunch Spots"],"distanceKm":19.138275174624734},{"id":"coffeeBrunchRestaurants_aa7bbba77011","slug":"dolce-cafe-aa7b","kind":"restaurant","name":"Dolce Café","lat":39.68046834433433,"lng":19.703113468558957,"url":"https://maps.app.goo.gl/uW2pukpfg5XpBrAM9?g_st=ipc","address":"Lakones 490 83","categoryIds":["coffee-brunch"],"categories":["Coffee & Brunch Spots"],"distanceKm":19.728413803146537},{"id":"fishTavernasRestaurants_700d8feb6ab1","slug":"andromeda-restaurant-700d","kind":"restaurant","name":"Andromeda Restaurant","lat":39.79259047776619,"lng":19.8046234596079,"url":"https://maps.app.goo.gl/jMHKwGmxZZd6mhuh8?g_st=ipc","address":"Άγιος Στέφανος επίσκεψης, Acharavi 491 00","categoryIds":["fish-tavernas"],"categories":["Fish Tavernas"],"distanceKm":21.22449920300698},{"id":"dessertsRestaurants_51c501b69bcd","slug":"cosy-51c5","kind":"restaurant","name":"Cosy","lat":39.42695341977823,"lng":19.943982019426304,"url":"https://maps.app.goo.gl/tLH5nMQN5TJtaAzM8?g_st=ipc","address":"Αγ. Γεώργιος 490 80","categoryIds":["desserts"],"categories":["Dessert Shops"],"distanceKm":22.027000764207337},{"id":"municipalities_761b6508fb52","slug":"paxoi-761b","kind":"municipality","name":"Παξοί","lat":39.1969,"lng":20.1863,"region":"Ιόνιο","name_en":"Paxoi","region_en":"Ionian Islands","distanceKm":52.68146401501204},{"id":"municipalities_1d2e36065111","slug":"leykada-1d2e","kind":"municipality","name":"Λευκάδα","lat":38.83,"lng":20.71,"region":"Ιόνιο","name_en":"Lefkada","region_en":"Ionian Islands","distanceKm":111.40537524209898}],"mentionedGuides":[{"slug":"choose-perfect-greek-island-el","title":"Πώς να Επιλέξετε το Ιδανικό Ελληνικό Νησί"},{"slug":"greece-2026-holidays-guide-el","title":"Ελλάδα 2026: Αργίες & Εκδηλώσεις"},{"slug":"greece-weather-swimming-ferry-guide-el","title":"Πότε να Επισκεφτείτε την Ελλάδα: Καιρός & Κολύμπι"}],"canonicalSlug":"kerkyra-c2a6","enrichment":{"summary_en":"Κέρκυρα is a curated neighborhood area in Ιόνιο. It is connected to 11 nearby Googlementor picks to help travelers build a stronger local route.","summary_el":"Κέρκυρα είναι ένα επιλεγμένο σημείο ενδιαφέροντος στην περιοχή Ιόνιο. Συνδέεται με 11 κοντινές προτάσεις του Googlementor για πιο ολοκληρωμένη εμπειρία.","vibe_tags":["local-neighborhood","base-for-exploring"],"best_for":["first-time visitors","walk-and-explore days","return visitors"],"visit_moments":["late morning walks","sunset exploration"],"practical_note":"11 curated places are within walkable distance from this area center.","nearby_walkable_count":11,"nearby_count_2km":11,"confidence":0.6},"areaContext":{"slug":"kerkyra","name":"Corfu","nameEl":"Κέρκυρα"},"intentContexts":[]},"__N_SSG":true}