{"pageProps":{"entity":{"id":"municipalities_c1f706b91268","slug":"kilkis-c1f7","kind":"municipality","name":"Κιλκίς","lat":40.99,"lng":22.875,"region":"Κεντρική Μακεδονία","name_en":"Kilkis","region_en":"Central Macedonia"},"sameCategory":[],"nearby":[{"id":"familyFriendly_bde356affb96","slug":"pony-park-bde3","kind":"restaurant","name":"Pony park","lat":40.771648089590926,"lng":22.997360084589175,"url":"https://maps.app.goo.gl/g2acMrTmNxKzTfi17?g_st=ic","address":"14χλμ ΠΕΟ, EO Thessalonikis Serron, Oreokastro 572 00","categoryIds":["family-friendly"],"categories":["Kid Friendly Locations"],"distanceKm":26.36895626357011},{"id":"greekRestaurants_25aab707dbe6","slug":"taverna-charisis-25aa","kind":"restaurant","name":"Ταβέρνα Χαρίσης","lat":40.74300735227225,"lng":22.865911910966187,"url":"https://maps.app.goo.gl/Kjqd8y15rnvwbGch8?g_st=ipc","address":"Έναντι Γυμνασίου Νεοχωρούδας, Νεοχωρούδα 545 00","categoryIds":["greek-restaurants"],"categories":["Greek Restaurants"],"distanceKm":27.474959625776666},{"id":"municipalities_a63748723842","slug":"oraiokastro-a637","kind":"municipality","name":"Ωραιόκαστρο","lat":40.7303,"lng":22.9086,"region":"Περιαστική Ζώνη","name_en":"Oraiokastro","region_en":"Suburban Zone","distanceKm":29.015240611331553},{"id":"fishTavernasRestaurants_403462b419e4","slug":"tsipouro-restaurants-germanos-4034","kind":"restaurant","name":"Tsipouro Restaurants \"Germanos\"","lat":40.731011417439056,"lng":22.920109091479663,"url":"https://maps.app.goo.gl/Q6ReNhghxPSgvRJX6","address":"Leof. Dimokratias 41, Oreokastro 570 13","categoryIds":["fish-tavernas"],"categories":["Fish Tavernas"],"distanceKm":29.047000033247237},{"id":"greekRestaurants_b650f3fa3a9f","slug":"xrysikos-restaurant-b650","kind":"restaurant","name":"Xrysikos Restaurant","lat":40.724131299619074,"lng":22.908510129508898,"url":"https://maps.app.goo.gl/aewn1jT9fs3LU3he8?g_st=ipc","address":"Agias Paraskevis 9, Paleokastro 570 13","categoryIds":["greek-restaurants"],"categories":["Greek Restaurants"],"distanceKm":29.697277761634187},{"id":"dessertsRestaurants_2fe15f278a42","slug":"roxane-2fe1","kind":"restaurant","name":"Rōxánē","lat":40.72277068014523,"lng":22.90986284593618,"url":"https://maps.app.goo.gl/vbfuQxUAYJbahN6L9?g_st=ipc","address":"P. Mela 5, Paleokastro 570 13","categoryIds":["desserts"],"categories":["Dessert Shops"],"distanceKm":29.858851890411785},{"id":"greekRestaurants_a2bd75aa1df9","slug":"faidimos-a2bd","kind":"restaurant","name":"Φαίδιμος","lat":40.72205390492354,"lng":22.92535107333131,"url":"https://maps.app.goo.gl/zYo3CVk2Wm5dkqA19?g_st=ipc","address":"Κονταξοπούλου, & Θεσσαλονίκης 98, Ωραιόκαστρο 570 13","categoryIds":["greek-restaurants"],"categories":["Greek Restaurants"],"distanceKm":30.093678094518832},{"id":"greekRestaurants_1c6ced72e5ed","slug":"elodia-1c6c","kind":"restaurant","name":"ΕΛΩΔΙΑ","lat":41.212021463133844,"lng":23.095465241850924,"url":"https://maps.app.goo.gl/hUMzMe5vpXeYXPXQ6?g_st=ipc","address":"Κερκίνη, Σέρρες 620 55","categoryIds":["greek-restaurants"],"categories":["Greek Restaurants"],"distanceKm":30.833941417083846},{"id":"greekRestaurants_17cef827b899","slug":"taverna-to-dasaki-17ce","kind":"restaurant","name":"Ταβερνα «Το Δασάκι»","lat":40.80638459339834,"lng":23.15458647220637,"url":"https://maps.app.goo.gl/cAQYorK6aGGwHnMc7?g_st=ipc","address":"Πέντε Βρύσες 572 00","categoryIds":["greek-restaurants"],"categories":["Greek Restaurants"],"distanceKm":31.129763107024807},{"id":"municipalities_e6545e4b650e","slug":"lagkadas-e654","kind":"municipality","name":"Λαγκαδάς","lat":40.75,"lng":23.0667,"region":"Περιαστική Ζώνη","name_en":"Lagadás","region_en":"Suburban Zone","distanceKm":31.17706423977306},{"id":"greekRestaurants_613ab2641dd9","slug":"taverna-5fi-613a","kind":"restaurant","name":"Ταβέρνα 5φί","lat":40.74907903716035,"lng":23.066364932799573,"url":"https://maps.app.goo.gl/3qh7CW8XVMvCgUAy9?g_st=ipc","address":"Σεραφειμ Τσακμάνη 35, Λαγκαδάς 572 00","categoryIds":["greek-restaurants"],"categories":["Greek Restaurants"],"distanceKm":31.250307519082472},{"id":"familyFriendly_4e467d7db3ce","slug":"perivallontiko-parko-dervenioy-4e46","kind":"restaurant","name":"Περιβαλλοντικό Πάρκο Δερβενίου","lat":40.7144477049586,"lng":22.966013369993284,"url":"https://maps.app.goo.gl/12YHRaQcoWEy1dcC6?g_st=ipc","address":"Mygdonia 545 00","categoryIds":["family-friendly"],"categories":["Kid Friendly Locations"],"distanceKm":31.58177058755157},{"id":"greekRestaurants_94eb03121644","slug":"taverna-samlis-94eb","kind":"restaurant","name":"Ταβέρνα Σαμλής","lat":40.756202298461545,"lng":23.127784841351406,"url":"https://maps.app.goo.gl/cevX5dogkFtBYM156?g_st=ipc","address":"Μαρκ. Μπότσαρη 4, Kolchiko 572 00","categoryIds":["greek-restaurants"],"categories":["Greek Restaurants"],"distanceKm":33.57975605850728},{"id":"municipalities_f3be9936c38b","slug":"chalkidona-f3be","kind":"municipality","name":"Χαλκηδόνα","lat":40.736,"lng":22.608,"aliases":["Xalkidona"],"region":"Περιαστική Ζώνη","name_en":"Chalkidona","region_en":"Suburban Zone","distanceKm":36.08095470066596},{"id":"familyFriendly_d34de8d9d566","slug":"kerkini-lake-national-park-d34d","kind":"restaurant","name":"Kerkini Lake National Park","lat":41.25926151784883,"lng":23.14040332719198,"url":"https://maps.app.goo.gl/HMY8KCD3WrpUh6xp6?g_st=ipc","address":"Κερκίνη, 620 55","categoryIds":["family-friendly","attractions"],"categories":["Kid Friendly Locations","Must-See Attractions"],"legacySlugs":["kerkini-lake-national-park-65d9"],"distanceKm":37.29106880990882},{"id":"municipalities_cfaa6a6444bc","slug":"aridaia-cfaa","kind":"municipality","name":"Αριδαία","lat":40.9333,"lng":22.05,"region":"Κεντρική Μακεδονία","name_en":"Aridaia","region_en":"Central Macedonia","distanceKm":69.56021159921752},{"id":"municipalities_68933443b9ec","slug":"naoysa-6893","kind":"municipality","name":"Νάουσα","lat":40.624,"lng":22.144,"region":"Κεντρική Μακεδονία","name_en":"Naousa","region_en":"Central Macedonia","distanceKm":73.7665256512183},{"id":"municipalities_447a33d90dfe","slug":"polygyros-447a","kind":"municipality","name":"Πολύγυρος","lat":40.3167,"lng":23.5167,"region":"Κεντρική Μακεδονία","name_en":"Polygyros","region_en":"Central Macedonia","distanceKm":92.38764358084839},{"id":"municipalities_48180ac7ab6a","slug":"kavala-4818","kind":"municipality","name":"Καβάλα","lat":40.937,"lng":24.406,"region":"Κεντρική Μακεδονία","name_en":"Kavala","region_en":"Central Macedonia","distanceKm":128.6858128805242}],"mentionedGuides":[],"canonicalSlug":"kilkis-c1f7","enrichment":{"summary_en":"Κιλκίς is a curated neighborhood area in Κεντρική Μακεδονία. It is connected to 0 nearby Googlementor picks to help travelers build a stronger local route.","summary_el":"Κιλκίς είναι ένα επιλεγμένο σημείο ενδιαφέροντος στην περιοχή Κεντρική Μακεδονία. Συνδέεται με 0 κοντινές προτάσεις του Googlementor για πιο ολοκληρωμένη εμπειρία.","vibe_tags":["local-neighborhood","base-for-exploring"],"best_for":["first-time visitors","walk-and-explore days","return visitors"],"visit_moments":["late morning walks","sunset exploration"],"practical_note":"0 curated places are within walkable distance from this area center.","nearby_walkable_count":0,"nearby_count_2km":0,"confidence":0.55},"areaContext":null,"intentContexts":[]},"__N_SSG":true}