{"pageProps":{"entity":{"id":"municipalities_b778a42c77bf","slug":"kyllini-b778","kind":"municipality","name":"Κυλλήνη","lat":37.9333,"lng":21.15,"region":"Ηλεία","name_en":"Kyllini","region_en":"Ilia"},"sameCategory":[],"nearby":[{"id":"municipalities_a76f9b7cca3a","slug":"andravida-a76f","kind":"municipality","name":"Ανδραβίδα","lat":37.95,"lng":21.2333,"region":"Δυτική Ελλάδα","name_en":"Andravida","region_en":"Western Greece","distanceKm":7.537116820239315},{"id":"familyFriendly_cde43bca33b7","slug":"grecotel-la-riviera-at-riviera-olympia-aqua-park-cde4","kind":"restaurant","name":"Grecotel La Riviera at Riviera Olympia & Aqua Park","lat":37.85820173121935,"lng":21.11005718262559,"url":"https://maps.app.goo.gl/QGXbvqJ5SBN9ww289?g_st=ipc","address":"Λουτρά Κυλλήνης 270 50","categoryIds":["family-friendly"],"categories":["Kid Friendly Locations"],"distanceKm":9.056254268155824},{"id":"coffeeBrunchRestaurants_e7e97fb2d3e5","slug":"anemos-cafe-bar-e7e9","kind":"restaurant","name":"Anemos Cafe Bar","lat":37.77116024105471,"lng":21.29250825374054,"url":"https://maps.app.goo.gl/M2pxCK9uxiBVApkD7?g_st=ipc","address":"Kourouta 272 00","categoryIds":["coffee-brunch"],"categories":["Coffee & Brunch Spots"],"distanceKm":21.945414718588697},{"id":"municipalities_a02aac135dae","slug":"amaliada-a02a","kind":"municipality","name":"Αμαλιάδα","lat":37.75,"lng":21.3333,"region":"Δυτική Ελλάδα","name_en":"Amaliada","region_en":"Western Greece","distanceKm":25.97120966717669},{"id":"luxuryDiningRestaurants_297c60e6e419","slug":"prosilio-restaurant-297c","kind":"restaurant","name":"Prosilio Restaurant","lat":37.788001222025756,"lng":20.899925444650034,"url":"https://maps.app.goo.gl/ubyLMAurXvicrjVq5?g_st=ipc","address":"Ag. Panton 15, Zakinthos 291 00","categoryIds":["luxury-dining"],"categories":["Luxury Dining"],"distanceKm":27.25803699489343},{"id":"municipalities_baf5b688aa1e","slug":"zakynthos-baf5","kind":"municipality","name":"Ζάκυνθος","lat":37.787,"lng":20.899,"aliases":["Zakynthos","Zante","Ζακύνθη","Ζακύνθια","Ζακυνθος","Ζακυνθο"],"region":"Ιόνιο","name_en":"Zakynthos","region_en":"Ionian Islands","distanceKm":27.389611289627197},{"id":"coffeeBrunchRestaurants_ebff8d600624","slug":"jenkins-lounge-eatery-ebff","kind":"restaurant","name":"Jenkins Lounge Eatery","lat":37.786543893628924,"lng":20.898568985854595,"url":"https://maps.app.goo.gl/1TG8uMAi1MTZQgiY8?g_st=ipc","address":"Psaron 3, Zakinthos 291 00","categoryIds":["coffee-brunch"],"categories":["Coffee & Brunch Spots"],"distanceKm":27.450236388923045},{"id":"coffeeBrunchRestaurants_4e218b55f113","slug":"madisons-kitchen-bar-4e21","kind":"restaurant","name":"Madisons Kitchen Bar","lat":37.78371523709895,"lng":20.898097278049377,"url":"https://maps.app.goo.gl/Anc3Yu4uRzD8XagR9?g_st=ipc","address":"Lomvardou 36, Zakinthos 291 00","categoryIds":["coffee-brunch"],"categories":["Coffee & Brunch Spots"],"distanceKm":27.671798191428415},{"id":"greekRestaurants_b11ec83ff251","slug":"windmill-restaurant-vasilikos-b11e","kind":"restaurant","name":"Windmill Restaurant Vasilikos","lat":37.740610146426334,"lng":20.948246366300793,"url":"https://maps.app.goo.gl/V9M7P1MyavrnAWWj7?g_st=ipc","address":"Ζάκυνθος 291 00","categoryIds":["greek-restaurants"],"categories":["Greek Restaurants"],"distanceKm":27.80263120154675},{"id":"greekRestaurants_86504f0faf2d","slug":"taverna-kanalos-8650","kind":"restaurant","name":"Ταβέρνα Κανάλος","lat":37.74512607213738,"lng":20.917628670414246,"url":"https://maps.app.goo.gl/ebFS85SgPTyHbVcT9?g_st=ipc","address":"Ζάκυνθος 291 00","categoryIds":["greek-restaurants"],"categories":["Greek Restaurants"],"distanceKm":29.226698713184582},{"id":"coffeeBrunchRestaurants_b487e1e8e4bb","slug":"la-mer-b487","kind":"restaurant","name":"La Mer","lat":38.15655535964722,"lng":21.36777415023951,"url":"https://maps.app.goo.gl/ijDMxEmSaLdDH7FR8?g_st=ipc","address":"Larisos 270 52","categoryIds":["coffee-brunch"],"categories":["Coffee & Brunch Spots"],"distanceKm":31.304122866940432},{"id":"wineriesVineyards_a7f0cdaf8e6a","slug":"ktima-merkoyri-a7f0","kind":"restaurant","name":"Κτήμα Μερκούρη","lat":37.676880743241625,"lng":21.30977411314664,"url":"https://maps.app.goo.gl/xmLZkxqWeDCDbXeVA?g_st=ipc","address":"M8G5+FM, Κορακοχώρι 271 00","categoryIds":["wineries-vineyards"],"categories":["Wineries & Vineyards"],"distanceKm":31.780492865882366}],"mentionedGuides":[],"canonicalSlug":"kyllini-b778","enrichment":{"summary_en":"Κυλλήνη is a curated neighborhood area in Ηλεία. It is connected to 0 nearby Googlementor picks to help travelers build a stronger local route.","summary_el":"Κυλλήνη είναι ένα επιλεγμένο σημείο ενδιαφέροντος στην περιοχή Ηλεία. Συνδέεται με 0 κοντινές προτάσεις του Googlementor για πιο ολοκληρωμένη εμπειρία.","vibe_tags":["local-neighborhood","base-for-exploring"],"best_for":["first-time visitors","walk-and-explore days","return visitors"],"visit_moments":["late morning walks","sunset exploration"],"practical_note":"0 curated places are within walkable distance from this area center.","nearby_walkable_count":0,"nearby_count_2km":0,"confidence":0.55},"areaContext":null,"intentContexts":[]},"__N_SSG":true}