{"pageProps":{"entity":{"id":"municipalities_3ce43969ff54","slug":"lesvos-3ce4","kind":"municipality","name":"Λέσβος","lat":39.165,"lng":26.28,"aliases":["Λεσβος","Μυτιλήνη","Μυτιληνη"],"region":"Βόρειο Αιγαίο","name_en":"Lesvos","region_en":"North Aegean"},"sameCategory":[],"nearby":[{"id":"fishTavernasRestaurants_f9e04647b52c","slug":"traditional-seafood-tavern-o-nontas-f9e0","kind":"restaurant","name":"Traditional seafood tavern o Nontas","lat":39.15391104091165,"lng":26.279429768715392,"url":"https://maps.app.goo.gl/HGXiHZbraHwDeFFm9?g_st=ipc","address":"Unnamed Rd,, Achladeri 813 00","categoryIds":["fish-tavernas"],"categories":["Fish Tavernas"],"distanceKm":1.234015788871314},{"id":"greekRestaurants_71de568949df","slug":"tryfon-71de","kind":"restaurant","name":"Τρύφων","lat":39.233311750817585,"lng":26.20811346170004,"url":"https://maps.app.goo.gl/5XLwFXMCDgdrHtKZ7?g_st=ipc","address":"ΕΟ Μυτιλήνης Καλλονής, Καλλονή 811 07","categoryIds":["greek-restaurants"],"categories":["Greek Restaurants"],"distanceKm":9.801540077955696},{"id":"municipalities_212cd83a627d","slug":"mytilini-212c","kind":"municipality","name":"Μυτιλήνη","lat":39.1117,"lng":26.5544,"region":"Βόρειο Αιγαίο","name_en":"Mytilene","region_en":"North Aegean","distanceKm":24.396579472928394},{"id":"fishTavernasRestaurants_39586f26f248","slug":"kafeneion-o-ermis-3958","kind":"restaurant","name":"Kafeneion O Ermis","lat":39.111645067065645,"lng":26.55736353945392,"url":"https://maps.app.goo.gl/AedknEgNXiKh3D7W7?g_st=ipc","address":"Kornarou 2, Mitilini 811 00","categoryIds":["fish-tavernas"],"categories":["Fish Tavernas"],"distanceKm":24.646071306811493},{"id":"municipalities_d661e87e8af2","slug":"oinoysses-d661","kind":"municipality","name":"Οινούσσες","lat":38.38,"lng":26.35,"region":"Βόρειο Αιγαίο","name_en":"Oinousses","region_en":"North Aegean","distanceKm":87.49869791178554},{"id":"municipalities_4af77743f0e9","slug":"chios-4af7","kind":"municipality","name":"Χίος","lat":38.367,"lng":26.135,"aliases":["Χιος","Xios"],"region":"Βόρειο Αιγαίο","name_en":"Chios","region_en":"North Aegean","distanceKm":89.619625958978},{"id":"municipalities_89f092af4fdd","slug":"limnos-89f0","kind":"municipality","name":"Λήμνος","lat":39.911,"lng":25.236,"region":"Βόρειο Αιγαίο","name_en":"Lemnos","region_en":"North Aegean","distanceKm":122.04746069848134},{"id":"municipalities_928b419eccb6","slug":"samos-928b","kind":"municipality","name":"Σάμος","lat":37.754,"lng":26.977,"aliases":["Σαμος"],"region":"Βόρειο Αιγαίο","name_en":"Samos","region_en":"North Aegean","distanceKm":168.2227725647843},{"id":"municipalities_e4734598fcc4","slug":"ikaria-e473","kind":"municipality","name":"Ικαρία","lat":37.6167,"lng":26.1667,"aliases":["Ικαρια"],"region":"Βόρειο Αιγαίο","name_en":"Ikaria","region_en":"North Aegean","distanceKm":172.44600242604238}],"mentionedGuides":[{"slug":"choose-perfect-greek-island-el","title":"Πώς να Επιλέξετε το Ιδανικό Ελληνικό Νησί"},{"slug":"choose-perfect-greek-island","title":"How to Choose the Perfect Greek Island for Your Trip"}],"canonicalSlug":"lesvos-3ce4","enrichment":{"summary_en":"Λέσβος is a curated neighborhood area in Βόρειο Αιγαίο. It is connected to 0 nearby Googlementor picks to help travelers build a stronger local route.","summary_el":"Λέσβος είναι ένα επιλεγμένο σημείο ενδιαφέροντος στην περιοχή Βόρειο Αιγαίο. Συνδέεται με 0 κοντινές προτάσεις του Googlementor για πιο ολοκληρωμένη εμπειρία.","vibe_tags":["local-neighborhood","base-for-exploring"],"best_for":["first-time visitors","walk-and-explore days","return visitors"],"visit_moments":["late morning walks","sunset exploration"],"practical_note":"0 curated places are within walkable distance from this area center.","nearby_walkable_count":0,"nearby_count_2km":1,"confidence":0.55},"areaContext":null,"intentContexts":[]},"__N_SSG":true}