{"pageProps":{"entity":{"id":"municipalities_2601b1f9b5a8","slug":"loytraki-perachora-ag-theodoroi-2601","kind":"municipality","name":"Λουτράκι - Περαχώρα - Αγ. Θεόδωροι","lat":37.9747,"lng":22.975,"region":"Κορινθία","name_en":"Loutraki - Perachora - Agioi Theodoroi","region_en":"Corinthia"},"sameCategory":[],"nearby":[{"id":"fishTavernasRestaurants_f1a82ca58a60","slug":"paolo-nikos-restaurant-f1a8","kind":"restaurant","name":"Paolo Nikos Restaurant","lat":37.97387325898538,"lng":22.97577321461108,"url":"https://maps.app.goo.gl/55rvgJM2cg2quvQr9?g_st=ipc","address":"Ποσειδώνος, Λουτράκι 203 00","categoryIds":["fish-tavernas"],"categories":["Fish Tavernas"],"distanceKm":0.1142123600244457},{"id":"fishTavernasRestaurants_ec6fbfb939ca","slug":"oyzeri-o-giannis-ec6f","kind":"restaurant","name":"Ουζερί ο Γιάννης","lat":37.97847865950633,"lng":22.976754663547947,"url":"https://maps.app.goo.gl/9WDCt3PAuTfMs7ke8?g_st=ipc","address":"Γεωρ. Λέκκα 3, Λουτράκι 203 00","categoryIds":["fish-tavernas"],"categories":["Fish Tavernas"],"distanceKm":0.4474311713410203},{"id":"greekRestaurants_87ece57093df","slug":"maistrali-87ec","kind":"restaurant","name":"Μαϊστράλι","lat":37.967119636762334,"lng":22.972511635572165,"url":"https://maps.app.goo.gl/TngD3F1b3PDVc4187?g_st=ipc","address":"Ποσειδώνος 81, Λουτράκι 203 00","categoryIds":["greek-restaurants"],"categories":["Greek Restaurants"],"distanceKm":0.8706635225785644},{"id":"monasteriesChurches_27ad1b8957bf","slug":"iera-moni-osioy-patapioy-27ad","kind":"restaurant","name":"Ιερά Μονή Οσίου Παταπίου","lat":37.995800173616075,"lng":22.97687851305677,"url":"https://maps.app.goo.gl/pK5oCv6PgGwT3qg66?g_st=ipc","address":"Σχολής Μηχανικού 26, Λουτράκι 203 00","categoryIds":["monasteries-churches"],"categories":["Monasteries & Spiritual Sites"],"distanceKm":2.352001286231658},{"id":"municipalities_27d87fc31abf","slug":"korinthos-27d8","kind":"municipality","name":"Κόρινθος","lat":37.9401,"lng":22.9513,"aliases":["Κορινθος"],"region":"Κορινθία","name_en":"Corinth","region_en":"Corinthia","distanceKm":4.372594923246964},{"id":"mustSeeAttractions_548e87d4f0b8","slug":"dioryga-tis-korinthoy-548e","kind":"restaurant","name":"Διώρυγα της Κορίνθου","lat":37.934260646159885,"lng":22.98428860726812,"url":"https://maps.app.goo.gl/cmoYHbzQvg5Nv9KN7?g_st=ipc","address":"Λουτράκι 203 00","categoryIds":["attractions"],"categories":["Must-See Attractions"],"distanceKm":4.569804724310786},{"id":"greekRestaurants_95a7c55fd3b7","slug":"panorama-95a7","kind":"restaurant","name":"PANORAMA","lat":38.00713857434971,"lng":22.938193442340463,"url":"https://maps.app.goo.gl/iZ1dcxAEfMtNzWnJ6?g_st=ipc","address":"Λουτράκι 203 00","categoryIds":["greek-restaurants"],"categories":["Greek Restaurants"],"distanceKm":4.838831227606119},{"id":"familyFriendly_8b9ba7b9f729","slug":"splash-waterpark-isthmos-8b9b","kind":"restaurant","name":"Splash Waterpark Isthmos","lat":37.92495583561113,"lng":22.991604427588854,"url":"https://maps.app.goo.gl/eqCZacM2mh9hh5mi8?g_st=ipc","address":"Ισθμού, Λουτράκι 203 00","categoryIds":["family-friendly"],"categories":["Kid Friendly Locations"],"distanceKm":5.719700312497064},{"id":"familyFriendly_382b225783e0","slug":"athloypoli-382b","kind":"restaurant","name":"Αθλούπολη","lat":37.92596676764985,"lng":22.950761882031436,"url":"https://maps.app.goo.gl/1hz4bXK4e1zKMcW19?g_st=ipc","address":"Θέση Μπαθαρίστρα, Δήμος Κορινθίων 201 00","categoryIds":["family-friendly"],"categories":["Kid Friendly Locations"],"distanceKm":5.820741617167806},{"id":"fishTavernasRestaurants_f33d801592a8","slug":"fanis-f33d","kind":"restaurant","name":"Φάνης","lat":37.93929883889628,"lng":22.920388237170222,"url":"https://maps.app.goo.gl/fTiUsZtuT7FzXx5m8?g_st=ipc","address":"Γεωρ. Παπανδρέου 87, Κόρινθος 201 00","categoryIds":["fish-tavernas"],"categories":["Fish Tavernas"],"distanceKm":6.1984515232085995},{"id":"cheapEatsRestaurants_0b1305dba65e","slug":"fytampanis-g-psitopoleio-soyvlatzidiko-0b13","kind":"restaurant","name":"Φυταμπανης Γ. Ψητοπωλειο - Σουβλατζιδικο","lat":37.92024228635265,"lng":22.99364053559187,"url":"https://maps.app.goo.gl/xoTkQyq8YGQpxjaU8?g_st=ipc","address":"ΕΟ Ισθμού Αρχαίας Επιδαύρου 21, Ίσθμια 200 10","categoryIds":["cheap-eats"],"categories":["Gyros & Cheap Eats"],"distanceKm":6.272139640603521},{"id":"burgersRestaurants_fc37c5f5cc99","slug":"diner-72-fc37","kind":"restaurant","name":"Diner 72","lat":37.92372598231459,"lng":23.045537436860897,"url":"https://maps.app.goo.gl/JBWKzEThZyPeN81d8?g_st=ipc","address":"Παλαιά ΕΟ Αθηνών Κορίνθου, Δήμος Λουτρακίου - Αγίων Θεοδώρων 200 03","categoryIds":["burgers"],"categories":["Burger Spots"],"distanceKm":8.389314882726397},{"id":"fishTavernasRestaurants_280f68f1857d","slug":"kavos-280f","kind":"restaurant","name":"Κάβος","lat":37.9019948722367,"lng":23.01292994879006,"url":"https://maps.app.goo.gl/PptKq3WRsYvpTsqu5?g_st=ipc","address":"Ίσθμια 201 00","categoryIds":["fish-tavernas","luxury-dining"],"categories":["Fish Tavernas","Luxury Dining"],"legacySlugs":["kavos-1d0d"],"distanceKm":8.74200176658919},{"id":"fishTavernasRestaurants_1987f39aed70","slug":"petrokaravo-kostas-doschoris-1987","kind":"restaurant","name":"Πετροκάραβο Κώστας Δόσχορης","lat":38.05084603587256,"lng":22.892852891023853,"url":"https://maps.app.goo.gl/mPqqGc7qF5ff2aPP9?g_st=ipc","address":"Κορινθιακός κόλπος Στέρνα, Loutraki Perachora 203 00","categoryIds":["fish-tavernas"],"categories":["Fish Tavernas"],"distanceKm":11.112314420957555},{"id":"mustSeeAttractions_10ed76689ca7","slug":"archaia-korinthos-10ed","kind":"restaurant","name":"Αρχαία Κόρινθος","lat":37.90716292407013,"lng":22.881429703730713,"url":"https://maps.app.goo.gl/Wa4GWgjzXVLMVAyZ7?g_st=ipc","address":"Αρχαία Κόρινθος 200 07","categoryIds":["attractions"],"categories":["Must-See Attractions"],"distanceKm":11.123257089054663},{"id":"mustSeeAttractions_6f7525d9828a","slug":"naos-toy-apollona-6f75","kind":"restaurant","name":"Ναός του Απόλλωνα","lat":37.905934819191934,"lng":22.879090197503242,"url":"https://maps.app.goo.gl/8vWipRURHj9oGwSj8?g_st=ipc","address":"Άργους 105, Αρχαία Κόρινθος 200 07","categoryIds":["attractions"],"categories":["Must-See Attractions"],"distanceKm":11.366911850791015},{"id":"fishTavernasRestaurants_bedd9566b385","slug":"thealos-thealos-bedd","kind":"restaurant","name":"Θέαλος - Thealos","lat":37.94991846803997,"lng":22.83722013675207,"url":"https://maps.app.goo.gl/Aaq7XhnhCgZUhsH29?g_st=ipc","address":"Unnamed Rd, Kato Assos 200 06","categoryIds":["fish-tavernas"],"categories":["Fish Tavernas"],"distanceKm":12.389190156501638},{"id":"greekRestaurants_cb449644830d","slug":"taverna-mpekos-cb44","kind":"restaurant","name":"ΤΑΒΕΡΝΑ ΜΠΕΚΟΣ","lat":37.882103671834614,"lng":22.89083633129398,"url":"https://maps.app.goo.gl/WFqWdQskbVXwmo339?g_st=ipc","address":"ΕΟ Κορίνθου Άργους 36, Σολομός 201 00","categoryIds":["greek-restaurants"],"categories":["Greek Restaurants"],"distanceKm":12.669028181175044},{"id":"fishTavernasRestaurants_08b5ab011888","slug":"almyriki-08b5","kind":"restaurant","name":"ΑΛΜΥΡΙΚΙ","lat":37.852743518617515,"lng":23.00215185401227,"url":"https://maps.app.goo.gl/hdAPtt1dSNxNigaPA?g_st=ipc","address":"R2X3+G5, Epar.Od. Moni Taxiarchon - Kato Almiri, Kato Almiri 201 00","categoryIds":["fish-tavernas"],"categories":["Fish Tavernas"],"distanceKm":13.768539282274734},{"id":"greekRestaurants_b760cd0c2463","slug":"chavon-restobar-b760","kind":"restaurant","name":"Chavon Restobar","lat":37.96210160412795,"lng":22.806527700162825,"url":"https://maps.app.goo.gl/gHNgPE2wUtHLY6F1A?g_st=ipc","address":"Parodos Andrea Lazana 101, Βραχάτι 200 06","categoryIds":["greek-restaurants"],"categories":["Greek Restaurants"],"distanceKm":14.83466317613744},{"id":"greekRestaurants_f0875a0de3a8","slug":"eviva-taverna-f087","kind":"restaurant","name":"Εβίβα Ταβέρνα","lat":37.94826596142861,"lng":22.791019779670105,"url":"https://maps.app.goo.gl/D8Mr8bUZPttfMux47?g_st=ipc","address":"Επαρ.Οδ. Βραχατίου - Νεμέας 255, Βοχαϊκό 200 06","categoryIds":["greek-restaurants"],"categories":["Greek Restaurants"],"distanceKm":16.39495940656964},{"id":"familyFriendly_52cd4997ee89","slug":"farma-ampelos-vochaikou-52cd","kind":"restaurant","name":"FARMA AMPELOS VOCHAIKOU","lat":37.932680344972496,"lng":22.771047365230917,"url":"https://maps.app.goo.gl/cQ3vrm4TKeMAyCsq6?g_st=ipc","address":"ΑΓΡΟΤΙΚΗ ΟΔΟΣ, Βοχαϊκό 200 06","categoryIds":["family-friendly"],"categories":["Kid Friendly Locations"],"distanceKm":18.48251202386933},{"id":"greekRestaurants_7e187d76eed9","slug":"taverna-agiannis-goyrnopoyla-7e18","kind":"restaurant","name":"ΤΑΒΕΡΝΑ ΑΓΙΑΝΝΗΣ ΓΟΥΡΝΟΠΟΥΛΑ","lat":37.99600590320037,"lng":22.763769354956416,"url":"https://maps.app.goo.gl/TAEgeZnnDvDXP5b27?g_st=ipc","address":"Αθηνών 190, Κιάτο 202 00","categoryIds":["greek-restaurants"],"categories":["Greek Restaurants"],"distanceKm":18.66328929367016},{"id":"municipalities_f416e3da4569","slug":"kiato-f416","kind":"municipality","name":"Κιάτο","lat":37.974,"lng":22.751,"region":"Κορινθία","name_en":"Kiato","region_en":"Corinthia","distanceKm":19.63451930713473}],"mentionedGuides":[],"canonicalSlug":"loytraki-perachora-ag-theodoroi-2601","enrichment":{"summary_en":"Λουτράκι - Περαχώρα - Αγ. Θεόδωροι is a curated neighborhood area in Κορινθία. It is connected to 2 nearby Googlementor picks to help travelers build a stronger local route.","summary_el":"Λουτράκι - Περαχώρα - Αγ. Θεόδωροι είναι ένα επιλεγμένο σημείο ενδιαφέροντος στην περιοχή Κορινθία. Συνδέεται με 2 κοντινές προτάσεις του Googlementor για πιο ολοκληρωμένη εμπειρία.","vibe_tags":["local-neighborhood","base-for-exploring"],"best_for":["first-time visitors","walk-and-explore days","return visitors"],"visit_moments":["late morning walks","sunset exploration"],"practical_note":"2 curated places are within walkable distance from this area center.","nearby_walkable_count":2,"nearby_count_2km":3,"confidence":0.55},"areaContext":null,"intentContexts":[]},"__N_SSG":true}