{"pageProps":{"entity":{"id":"asianRestaurants_4360c7ba70e3","slug":"microulee-4360","kind":"restaurant","name":"Microulee","lat":37.98699838431432,"lng":23.73426742337473,"url":"https://maps.app.goo.gl/KAcLL73vy6J6TTKv5?g_st=ipc","address":"Στουρνάρη 14, Αθήνα 106 83","categoryIds":["asian"],"categories":["Asian Restaurants"]},"sameCategory":[{"id":"asianRestaurants_ec91ac928fa7","slug":"nakama-sushi-bar-ec91","kind":"restaurant","name":"Nakama Sushi Bar","lat":37.98166443323037,"lng":23.7366555719328,"url":"https://maps.app.goo.gl/uHeeoqNeizUhJTXy6?g_st=ipc","address":"Μασσαλίας 5, Αθήνα 106 80","categoryIds":["asian"],"categories":["Asian Restaurants"]},{"id":"asianRestaurants_e45a00190680","slug":"nyx-japanese-rooftop-gastrobar-e45a","kind":"restaurant","name":"NYX Japanese Rooftop Gastrobar","lat":37.979692107976724,"lng":23.736124325689694,"url":"https://maps.app.goo.gl/Tg5ncVYwYwG98YZBA?g_st=ipc","address":"Ομήρου 19, Αθήνα 106 19","categoryIds":["asian","luxury-dining","rooftop-lounges"],"categories":["Asian Restaurants","Luxury Dining","Rooftop Lounges"],"legacySlugs":["nyx-japanese-rooftop-gastrobar-3e6e","nyx-japanese-rooftop-gastrobar-f14e"]},{"id":"asianRestaurants_145a81e4039e","slug":"akira-sushi-bar-athens-japanese-restaurant-145a","kind":"restaurant","name":"Akira Sushi Bar | Athens Japanese Restaurant","lat":37.979592346362566,"lng":23.73239256912945,"url":"https://maps.app.goo.gl/y6KSXjJTao7NPHZG8?g_st=ipc","address":"Σταδίου 30 &, Κοραή 4, Αθήνα 105 64","categoryIds":["asian"],"categories":["Asian Restaurants"]},{"id":"asianRestaurants_464e7e4c810b","slug":"tanpopo-464e","kind":"restaurant","name":"Tanpopo","lat":37.9795596589589,"lng":23.72974278108181,"url":"https://maps.app.goo.gl/H2M3yGFhApNA288V8?g_st=ipc","address":"Αριστείδου 1, Ευριπίδου 2, Αθήνα 105 59","categoryIds":["asian"],"categories":["Asian Restaurants"]},{"id":"asianRestaurants_427d94265987","slug":"shisan-sushi-bar-427d","kind":"restaurant","name":"Shisan Sushi Bar","lat":37.977337086650145,"lng":23.730266018891072,"url":"https://maps.app.goo.gl/nPpYrXs7ZyBAs7gx9?g_st=ipc","address":"Ρόμβης 24Α, Αθήνα 105 62","categoryIds":["asian"],"categories":["Asian Restaurants"]},{"id":"asianRestaurants_54f96c10eabf","slug":"shisan-sushi-bar-54f9","kind":"restaurant","name":"Shisan Sushi Bar","lat":37.97750088660989,"lng":23.729162812696888,"url":"https://maps.app.goo.gl/EXv9MbMpLAGJ5z8p9?g_st=ipc","address":"Καλαμιώτου 25, Αθήνα 106 81","categoryIds":["asian"],"categories":["Asian Restaurants"]},{"id":"asianRestaurants_3e39975f70d5","slug":"streetwok-3e39","kind":"restaurant","name":"StreetWok","lat":37.97689230907057,"lng":23.727592595188877,"url":"https://maps.app.goo.gl/qhpXyetVXaLisBEWA?g_st=ipc","address":"Αιόλου 21, Αθήνα 105 63","categoryIds":["asian","cheap-eats"],"categories":["Asian Restaurants","Gyros & Cheap Eats"],"legacySlugs":["streetwok-7239"]},{"id":"asianRestaurants_c5be8384da5c","slug":"hanoi-athens-authentic-vietnamese-food-c5be","kind":"restaurant","name":"HANOI ATHENS - AUTHENTIC VIETNAMESE FOOD","lat":37.97561643327209,"lng":23.73154671347612,"url":"https://maps.app.goo.gl/WvsC9Ebt7yScnxNH8?g_st=ipc","address":"Πετράκη 12, Αθήνα 105 63","categoryIds":["asian","vegetarian"],"categories":["Asian Restaurants","Vegetarian Friendly Restaurants"],"legacySlugs":["hanoi-athens-authentic-vietnamese-food-1e56"]},{"id":"asianRestaurants_11df834afa0a","slug":"axi-11df","kind":"restaurant","name":"AXI - 阿锡早点","lat":37.98134764148285,"lng":23.721168322095103,"url":"https://maps.app.goo.gl/BQFSgk7VHKmzvjWN9?g_st=ipc","address":"Athens, Greece, Akadimou, 104 36","categoryIds":["asian","cheap-eats"],"categories":["Asian Restaurants","Gyros & Cheap Eats"],"legacySlugs":["axi-8113"]},{"id":"asianRestaurants_d23972f8388f","slug":"noodle-shop-d239","kind":"restaurant","name":"Noodle Shop - 相遇面馆","lat":37.98145210842213,"lng":23.721054788106656,"url":"https://maps.app.goo.gl/Za9q8z3zwF4WhUQs8?g_st=ipc","address":"Ακαδήμου 4, Αθήνα 104 36","categoryIds":["asian"],"categories":["Asian Restaurants"]},{"id":"asianRestaurants_42df17dcd2e4","slug":"dosirak-42df","kind":"restaurant","name":"Dosirak","lat":37.97494107666411,"lng":23.732376863056064,"url":"https://maps.app.goo.gl/PwDtN3ePd5r7qvjc7?g_st=ipc","address":"Βουλής 33, Αθήνα 105 57","categoryIds":["asian"],"categories":["Asian Restaurants"]},{"id":"asianRestaurants_d1a59d966352","slug":"east-pearl-chinese-restaurant-d1a5","kind":"restaurant","name":"East Pearl Chinese restaurant","lat":37.97475497132636,"lng":23.732999717791024,"url":"https://maps.app.goo.gl/X4tWaVESeHdhnYpi6?g_st=ipc","address":"Απόλλωνος 2, Αθήνα 105 57","categoryIds":["asian"],"categories":["Asian Restaurants"]}],"nearby":[{"id":"cheapEatsRestaurants_cda079c65f38","slug":"lorda-cda0","kind":"restaurant","name":"Λόρδα","lat":37.986574816164286,"lng":23.734456878858524,"url":"https://maps.app.goo.gl/nBaQ33jw6JEZQp7X9?g_st=ipc","address":"Σπύρου Τρικούπη 3, Αθήνα 106 83","categoryIds":["cheap-eats"],"categories":["Gyros & Cheap Eats"],"distanceKm":0.04993957108744762},{"id":"coffeeBrunchRestaurants_24a3c9b03a04","slug":"behold-theman-24a3","kind":"restaurant","name":"behold theman","lat":37.986871883204095,"lng":23.73489020906335,"url":"https://maps.app.goo.gl/avUBs2LwMous6Xs97?g_st=ipc","address":"Ιδεοχώρος, Στουρνάρη 6, Αθήνα 106 83","categoryIds":["coffee-brunch"],"categories":["Coffee & Brunch Spots"],"distanceKm":0.05636338059712841},{"id":"cheapEatsRestaurants_724c8ca91031","slug":"mangal-724c","kind":"restaurant","name":"Mangal","lat":37.98648075392058,"lng":23.733903117356245,"url":"https://maps.app.goo.gl/fZ3o2N67Ya2WA1aQA?g_st=ipc","address":"Σολωμού 12, Αθήνα 106 83","categoryIds":["cheap-eats"],"categories":["Gyros & Cheap Eats"],"distanceKm":0.0658199078724055},{"id":"greekRestaurants_5d1d35aa177d","slug":"gioysoyroym-5d1d","kind":"restaurant","name":"Γιουσουρούμ","lat":37.98634442442922,"lng":23.733413179378076,"url":"https://maps.app.goo.gl/jh9iV3W2AMUY6Pev5","address":"Σουλτάνη 11, Αθήνα 106 82","categoryIds":["greek-restaurants"],"categories":["Greek Restaurants"],"distanceKm":0.10436719386768352},{"id":"dessertsRestaurants_1784b9fa852d","slug":"baklamania-1784","kind":"restaurant","name":"Baklamania","lat":37.985982058793134,"lng":23.733879471082627,"url":"https://maps.app.goo.gl/dVejuM8qJpCUsYq38?g_st=ipc","address":"Θεμιστοκλέους 49, Αθήνα 106 83","categoryIds":["desserts"],"categories":["Dessert Shops"],"distanceKm":0.11801396593550155},{"id":"mexicanRestaurants_5d5b665dab34","slug":"poncho-tacos-5d5b","kind":"restaurant","name":"Poncho TACOS","lat":37.986865601219684,"lng":23.73564152842256,"url":"https://maps.app.goo.gl/UDV48UEWHbvnBPVPA?g_st=ipc","address":"Θεμιστοκλέους 63, Αθήνα 106 83","categoryIds":["mexican"],"categories":["Mexican Restaurants"],"distanceKm":0.12132613513849282},{"id":"vegetarianRestaurants_7f7c33a1a56c","slug":"rozalia-7f7c","kind":"restaurant","name":"Ροζαλία","lat":37.98607917346581,"lng":23.735180101843408,"url":"https://maps.app.goo.gl/UngDLMKcNPzNvksZ6?g_st=ipc","address":"Βαλτετσίου 59, Αθήνα 106 81","categoryIds":["vegetarian"],"categories":["Vegetarian Friendly Restaurants"],"distanceKm":0.12978823819701193},{"id":"dessertsRestaurants_ba20d8faff31","slug":"craquelin-ba20","kind":"restaurant","name":"Craquelin","lat":37.9865815151158,"lng":23.732749024802267,"url":"https://maps.app.goo.gl/m9Z1VRpp25owhfSz8?g_st=ipc","address":"Σολωμού 23, Αθήνα 106 82","categoryIds":["desserts"],"categories":["Dessert Shops"],"distanceKm":0.14091264058846473},{"id":"vegetarianRestaurants_49bc3b76300b","slug":"falafelo-street-food-49bc","kind":"restaurant","name":"Falafelo Street Food","lat":37.98589482225123,"lng":23.733448804787468,"url":"https://maps.app.goo.gl/R4ear5h1EDzpwe8Y8?g_st=ipc","address":"Σουλτάνη 2-4, Αθήνα 106 83","categoryIds":["vegetarian"],"categories":["Vegetarian Friendly Restaurants"],"distanceKm":0.14214398327487143},{"id":"vegetarianRestaurants_77e942c763e9","slug":"magic-kitchen-chortofagia-themistokleoys-kentro-77e9","kind":"restaurant","name":"Magic Kitchen Χορτοφαγία Θεμιστοκλέους Κέντρο","lat":37.98582880467768,"lng":23.733583710090212,"url":"https://maps.app.goo.gl/ZQqCgQBx8g5Gjgrh7?g_st=ipc","address":"Θεμιστοκλέους 45, Αθήνα 106 82","categoryIds":["vegetarian"],"categories":["Vegetarian Friendly Restaurants"],"distanceKm":0.1431913018499394},{"id":"vegetarianRestaurants_ad1aabfd0107","slug":"cookoomela-grill-vegan-ad1a","kind":"restaurant","name":"Cookoomela Grill Vegan","lat":37.985828644021424,"lng":23.73352687550602,"url":"https://maps.app.goo.gl/QbLppt3u9uZg36Xi6?g_st=ipc","address":"Θεμιστοκλέους 43, Αθήνα 106 83","categoryIds":["vegetarian"],"categories":["Vegetarian Friendly Restaurants"],"distanceKm":0.14536202900944284},{"id":"burgersRestaurants_293449c2193c","slug":"exberg-2934","kind":"restaurant","name":"Exberg","lat":37.985722017039464,"lng":23.73377568835493,"url":"https://maps.app.goo.gl/671QPGYqt87fhozt8?g_st=ipc","address":"Θεμιστοκλέους 56, Αθήνα 106 81","categoryIds":["burgers"],"categories":["Burger Spots"],"distanceKm":0.1483241832910249},{"id":"greekRestaurants_82fedd8f5eb8","slug":"aylak-politiki-kouzina-82fe","kind":"restaurant","name":"Aylak Politiki Kouzina","lat":37.986296240543886,"lng":23.73577500465613,"url":"https://maps.app.goo.gl/8H5UM5CTNGhY6tCz8","address":"Εμμανουήλ Μπενάκη 73, Αθήνα 106 81","categoryIds":["greek-restaurants"],"categories":["Greek Restaurants"],"distanceKm":0.1534667504688374},{"id":"greekRestaurants_399d4f103d60","slug":"pakoymel-399d","kind":"restaurant","name":"Pακουμελ","lat":37.98611213872367,"lng":23.7356153825947,"url":"https://maps.app.goo.gl/ES9bhy4RguonMm8G8","address":"Εμμανουήλ Μπενάκη 71, Αθήνα 106 81","categoryIds":["greek-restaurants"],"categories":["Greek Restaurants"],"distanceKm":0.15384039232599117},{"id":"dessertsRestaurants_0a4575669b20","slug":"sorolop-0a45","kind":"restaurant","name":"Sorolop","lat":37.98564970745245,"lng":23.73486137468713,"url":"https://maps.app.goo.gl/JHNfHtwZtaTRv5c86?g_st=ipc","address":"Ανδρέα Μεταξά 17, Αθήνα 106 81","categoryIds":["desserts"],"categories":["Dessert Shops"],"distanceKm":0.15874307201494886},{"id":"italianRestaurants_f3fa54dd222e","slug":"mystic-pizza-pasta-f3fa","kind":"restaurant","name":"Mystic Pizza & Pasta","lat":37.98571885741884,"lng":23.735343296198398,"url":"https://maps.app.goo.gl/1SJBX6YThtp2jdfQ8?g_st=ipc","address":"Εμμανουήλ Μπενάκη 76, Αθήνα 106 81","categoryIds":["italian"],"categories":["Italian Restaurants"],"distanceKm":0.17068403876222463},{"id":"cheapEatsRestaurants_cab7e72e3b11","slug":"psitopoleion-giorgos-manos-cab7","kind":"restaurant","name":"Ψητοπωλείον Γιώργος - Μάνος","lat":37.9855993281782,"lng":23.733208439532696,"url":"https://maps.app.goo.gl/jYKrRJuSFDD632N47?g_st=ipc","address":"Θεμιστοκλέους 39, Αθήνα 106 77","categoryIds":["cheap-eats"],"categories":["Gyros & Cheap Eats"],"distanceKm":0.18114854593804383},{"id":"greekRestaurants_eec032d0bea1","slug":"atitamos-eec0","kind":"restaurant","name":"Ατίταμος","lat":37.98622715652684,"lng":23.73236663557607,"url":"https://maps.app.goo.gl/VfeckYbAHrSRw3Qo8","address":"Καποδιστρίου 2, Αθήνα 106 83","categoryIds":["greek-restaurants"],"categories":["Greek Restaurants"],"distanceKm":0.18736063667077932},{"id":"vegetarianRestaurants_4f70d2b2123b","slug":"filomila-vegeterian-food-4f70","kind":"restaurant","name":"Filomila Vegeterian Food","lat":37.9853717765479,"lng":23.73508897094766,"url":"https://maps.app.goo.gl/JYkwhsRENEnEtjgHA?g_st=ipc","address":"Ανδρέα Μεταξά 13, Αθήνα 106 81","categoryIds":["vegetarian"],"categories":["Vegetarian Friendly Restaurants"],"distanceKm":0.19467441613976338},{"id":"greekRestaurants_be06a546e935","slug":"giantes-be06","kind":"restaurant","name":"Γιάντες","lat":37.98561482975353,"lng":23.735926375159003,"url":"https://maps.app.goo.gl/LuGL5j7KgtCFWxmA8","address":"Βαλτετσίου 44, Αθήνα 106 81","categoryIds":["greek-restaurants","luxury-dining"],"categories":["Greek Restaurants","Luxury Dining"],"legacySlugs":["giantes-2f3a"],"distanceKm":0.21167440390564254},{"id":"cheapEatsRestaurants_0f0ae09c0d4e","slug":"guerilla-chef-burgers-0f0a","kind":"restaurant","name":"Guerilla Chef Burgers","lat":37.98671993993366,"lng":23.731787435580728,"url":"https://maps.app.goo.gl/K2QVLnm9vHS1E3cF9?g_st=ipc","address":"37.98671993993366, 23.731787435580728","categoryIds":["cheap-eats"],"categories":["Gyros & Cheap Eats"],"distanceKm":0.219536649586113},{"id":"burgersRestaurants_cd431d540de7","slug":"guerilla-chef-burgers-cd43","kind":"restaurant","name":"Guerilla Chef Burgers","lat":37.98670260429295,"lng":23.731789751446545,"url":"https://maps.app.goo.gl/dpwZgAJWWe2cfPeG9?g_st=ipc","address":"Σολωμού 33, Αθήνα 106 82","categoryIds":["burgers"],"categories":["Burger Spots"],"distanceKm":0.21961614418131037},{"id":"vegetarianRestaurants_ea997a3c2b69","slug":"handwich-athens-ea99","kind":"restaurant","name":"Handwich Athens","lat":37.98638339493441,"lng":23.731698144915832,"url":"https://maps.app.goo.gl/WwKS8hQTt3PyFTcN9?g_st=ipc","address":"Τζώρτζ 3, Αθήνα 106 82","categoryIds":["vegetarian"],"categories":["Vegetarian Friendly Restaurants"],"distanceKm":0.23532330246210767},{"id":"italianRestaurants_26c15b5688a4","slug":"valtezziana-2-0-26c1","kind":"restaurant","name":"Valtezziana 2.0","lat":37.985220488107345,"lng":23.735852167301612,"url":"https://maps.app.goo.gl/qNCJTFj4cbH4ymKR8?g_st=ipc","address":"Βαλτετσίου 41, Αθήνα 106 81","categoryIds":["italian"],"categories":["Italian Restaurants"],"distanceKm":0.24160268387821537}],"mentionedGuides":[],"canonicalSlug":"microulee-4360","enrichment":{"summary_en":"Microulee is a curated restaurant in Αθήνα 106 83 in the Asian Restaurants collection. It is connected to 80 nearby Googlementor picks to help travelers build a stronger local route.","summary_el":"Microulee είναι ένα επιλεγμένο σημείο φαγητού στην περιοχή Αθήνα 106 83 και ανήκει στη συλλογή Asian Restaurants. Συνδέεται με 80 κοντινές προτάσεις του Googlementor για πιο ολοκληρωμένη εμπειρία.","vibe_tags":["curated"],"best_for":["first-time visitors","food lovers"],"visit_moments":["lunch stop","dinner stop"],"practical_note":"Address and direct map link are available for easy turn-by-turn access.","nearby_walkable_count":80,"nearby_count_2km":537,"confidence":0.98},"areaContext":{"slug":"exarcheia","name":"Exarcheia","nameEl":"Εξάρχεια"},"intentContexts":[{"href":"/asian-restaurants/exarcheia","label":"Asian Restaurants in Exarcheia","categorySlug":"asian-restaurants","categoryName":"Asian Restaurants","areaSlug":"exarcheia","areaName":"Exarcheia","areaNameEl":"Εξάρχεια"}]},"__N_SSG":true}