{"pageProps":{"entity":{"id":"cheapEatsRestaurants_f41f24c34bd1","slug":"o-christaras-f41f","kind":"restaurant","name":"Ο Χρηστάρας","lat":38.06513658858884,"lng":23.770452923606605,"url":"https://maps.app.goo.gl/73hetj8YZUmHBV4M7?g_st=ipc","address":"κ, Δεξαμενής, Θεοτοκοπούλου και, Μεταμόρφωση 144 52","categoryIds":["cheap-eats"],"categories":["Gyros & Cheap Eats"]},"sameCategory":[{"id":"cheapEatsRestaurants_a0695ebe74bb","slug":"to-teleion-a069","kind":"restaurant","name":"Το Τέλειον","lat":38.05891347949006,"lng":23.77665689156842,"url":"https://maps.app.goo.gl/Q3YXwLTyLfeVdVYX6?g_st=ipc","address":"Λεωφ. Πλαπούτα 20, Ηράκλειο 141 22","categoryIds":["cheap-eats"],"categories":["Gyros & Cheap Eats"]},{"id":"cheapEatsRestaurants_dac5582833c7","slug":"taliban-street-food-dac5","kind":"restaurant","name":"Taliban Street Food","lat":38.06195061055415,"lng":23.783033784917546,"url":"https://maps.app.goo.gl/4yeaKT2EdHHJPxdj7?g_st=ipc","address":"Λεωφ. Αμαρουσίου 29, Λυκόβρυση 141 23","categoryIds":["cheap-eats"],"categories":["Gyros & Cheap Eats"]},{"id":"cheapEatsRestaurants_5f9d5dd343a6","slug":"ypoyrgeio-geyseon-soyvlaki-psita-5f9d","kind":"restaurant","name":"ΥΠΟΥΡΓΕΙΟ ΓΕΥΣΕΩΝ-Σουβλάκι,Ψητά","lat":38.04303394507047,"lng":23.771779772357615,"url":"https://maps.app.goo.gl/LCrvDRPpRco2nVuF9?g_st=ipc","address":"Φιλοθέης 67, Ηράκλειο 141 21","categoryIds":["cheap-eats","greek-restaurants"],"categories":["Gyros & Cheap Eats","Greek Restaurants"],"legacySlugs":["ypoyrgeio-geyseon-soyvlaki-psita-5023"]},{"id":"cheapEatsRestaurants_f527d097e08b","slug":"mpampis-soyvlatzidiko-f527","kind":"restaurant","name":"Μπάμπης (Σουβλατζίδικο)","lat":38.07798891290964,"lng":23.794191207475013,"url":"https://maps.app.goo.gl/FPtnwFuAA6xGZThWA?g_st=ipc","address":"Γεωρ. Λύρα 5, Κηφισιά 145 64","categoryIds":["cheap-eats"],"categories":["Gyros & Cheap Eats"]},{"id":"cheapEatsRestaurants_f3077615404b","slug":"kantina-o-alekos-f307","kind":"restaurant","name":"Καντίνα \"ο Αλεκος\"","lat":38.04208740467577,"lng":23.77486464859004,"url":"https://maps.app.goo.gl/4oCtgVQEesHACQsu8?g_st=ipc","address":"Μαρίνου Αντύπα 47, Ηράκλειο 141 21","categoryIds":["cheap-eats"],"categories":["Gyros & Cheap Eats"]},{"id":"cheapEatsRestaurants_59fb21ba5f98","slug":"hobos-street-grill-59fb","kind":"restaurant","name":"Hobos Street Grill","lat":38.04249747641086,"lng":23.753515339761147,"url":"https://maps.app.goo.gl/YHJtEHPvQRVXwD3F7?g_st=ipc","address":"Λεωφ. Ηρακλείου 254, Νέα Ιωνία 142 31","categoryIds":["cheap-eats"],"categories":["Gyros & Cheap Eats"]},{"id":"cheapEatsRestaurants_7db196676e19","slug":"karaflas-7db1","kind":"restaurant","name":"Καράφλας","lat":38.07655628972639,"lng":23.739456286868005,"url":"https://maps.app.goo.gl/DzK7LaFGANeLebDQ7?g_st=ipc","address":"Φιλαδέλφειας 56-58, Αχαρνές 136 71","categoryIds":["cheap-eats"],"categories":["Gyros & Cheap Eats"]},{"id":"cheapEatsRestaurants_484ec346fe11","slug":"souzi-tros-street-food-484e","kind":"restaurant","name":"SOUZI TROS street food","lat":38.0550996125921,"lng":23.804743752516742,"url":"https://maps.app.goo.gl/Q2YtxKh8LosNGyHJ6?g_st=ipc","address":"Σπύρου Λέκκα 9, Μαρούσι 151 24","categoryIds":["cheap-eats"],"categories":["Gyros & Cheap Eats"]},{"id":"cheapEatsRestaurants_8e2845b1b79c","slug":"to-elliniko-soyvlaki-8e28","kind":"restaurant","name":"Το Ελληνικό Σουβλάκι","lat":38.055611201936195,"lng":23.805858315965597,"url":"https://maps.app.goo.gl/GjgUbFCMPcughxPW6?g_st=ipc","address":"Διονύσου 19, Μαρούσι 151 24","categoryIds":["cheap-eats"],"categories":["Gyros & Cheap Eats"]},{"id":"cheapEatsRestaurants_372f0ee727b9","slug":"rigani-thymari-372f","kind":"restaurant","name":"Ρίγανη θυμάρι","lat":38.06157357464134,"lng":23.72960229805207,"url":"https://maps.app.goo.gl/Up1hU92hpZRnvgdJ8?g_st=ipc","address":"Αγίας Άννης 37, Αχαρνές 136 75","categoryIds":["cheap-eats"],"categories":["Gyros & Cheap Eats"]},{"id":"cheapEatsRestaurants_58791178b56b","slug":"draminos-5879","kind":"restaurant","name":"Δραμινός","lat":38.03491475648599,"lng":23.754928540856955,"url":"https://maps.app.goo.gl/uhi56PKbCSVGMvqf8?g_st=ipc","address":"Σινώπης 62, Νέα Ιωνία 142 33","categoryIds":["cheap-eats"],"categories":["Gyros & Cheap Eats"]},{"id":"cheapEatsRestaurants_843263490ea4","slug":"jackaroo-8432","kind":"restaurant","name":"Jackaroo","lat":38.04618103563096,"lng":23.807668129553196,"url":"https://maps.app.goo.gl/PgrDAEWAFbwF6go48?g_st=ipc","address":"Leof. Kifisias 70, Marousi 151 25","categoryIds":["cheap-eats"],"categories":["Gyros & Cheap Eats"]}],"nearby":[{"id":"dessertsRestaurants_35fad49944d3","slug":"oikogeneia-stayrati-35fa","kind":"restaurant","name":"Οικογένεια Σταυράτη","lat":38.064333617477246,"lng":23.775971928887216,"url":"https://maps.app.goo.gl/nFJr46bSggFggK8U6?g_st=ipc","address":"Λεωφ. Ηρακλείου 531, Ηράκλειο 141 22","categoryIds":["desserts"],"categories":["Dessert Shops"],"distanceKm":0.4913440855438661},{"id":"greekRestaurants_be5c399cb3b9","slug":"to-vietnam-be5c","kind":"restaurant","name":"Το Βιετνάμ","lat":38.0615311115762,"lng":23.764059030004713,"url":"https://maps.app.goo.gl/xC1aTbCCv97NuUkz6?g_st=ipc","address":"Agiou Konstantinou 18, Metamorfosi 144 52","categoryIds":["greek-restaurants"],"categories":["Greek Restaurants"],"distanceKm":0.6885260670547959},{"id":"cheapEatsRestaurants_a0695ebe74bb","slug":"to-teleion-a069","kind":"restaurant","name":"Το Τέλειον","lat":38.05891347949006,"lng":23.77665689156842,"url":"https://maps.app.goo.gl/Q3YXwLTyLfeVdVYX6?g_st=ipc","address":"Λεωφ. Πλαπούτα 20, Ηράκλειο 141 22","categoryIds":["cheap-eats"],"categories":["Gyros & Cheap Eats"],"distanceKm":0.8796843447067618},{"id":"familyFriendly_afe86b0c0ea7","slug":"game-project-afe8","kind":"restaurant","name":"GAME Project","lat":38.057383703991036,"lng":23.772780317559956,"url":"https://maps.app.goo.gl/XsjBK4zMnNMj3Syf6?g_st=ipc","address":"204, ELeftheriou Venizelou Str N, Αθήνα 141 22","categoryIds":["family-friendly"],"categories":["Kid Friendly Locations"],"distanceKm":0.8858349020234356},{"id":"dessertsRestaurants_91ba7ff0c788","slug":"galaktopoleio-stamoy-91ba","kind":"restaurant","name":"Γαλακτοπωλείο ΣΤΑΜΟΥ","lat":38.06327717225913,"lng":23.780942994591154,"url":"https://maps.app.goo.gl/rMwhBDoVuWArY4T36?g_st=ipc","address":"Λεωφ. Αμαρουσίου 29, Λυκόβρυση 141 23","categoryIds":["desserts"],"categories":["Dessert Shops"],"distanceKm":0.9413507500141955},{"id":"cheapEatsRestaurants_dac5582833c7","slug":"taliban-street-food-dac5","kind":"restaurant","name":"Taliban Street Food","lat":38.06195061055415,"lng":23.783033784917546,"url":"https://maps.app.goo.gl/4yeaKT2EdHHJPxdj7?g_st=ipc","address":"Λεωφ. Αμαρουσίου 29, Λυκόβρυση 141 23","categoryIds":["cheap-eats"],"categories":["Gyros & Cheap Eats"],"distanceKm":1.1569862133552637},{"id":"familyFriendly_814843d50658","slug":"k9-arena-8148","kind":"restaurant","name":"K9 Arena","lat":38.07105818937244,"lng":23.783776935008227,"url":"https://maps.app.goo.gl/x9xASynDZReucwX5A?g_st=ipc","address":"Χαλκίδος 15, Λυκόβρυση 141 23","categoryIds":["family-friendly"],"categories":["Kid Friendly Locations"],"distanceKm":1.3394226943856498},{"id":"municipalities_f5a6fd333493","slug":"metamorfosi-f5a6","kind":"municipality","name":"Μεταμόρφωση","lat":38.0612,"lng":23.7544,"aliases":["Metamorfosi","Metamorphosi","Μεταμορφωση"],"region":"Βόρεια Προάστια","name_en":"Metamorfosi","region_en":"Northern Suburbs","distanceKm":1.471980436745815},{"id":"municipalities_138c7310c224","slug":"lykovrysi-138c","kind":"municipality","name":"Λυκόβρυση","lat":38.065,"lng":23.788,"aliases":["Likovrysi","Likovrissi"],"region":"Βόρεια Προάστια","name_en":"Lykovrysi","region_en":"Northern Suburbs","distanceKm":1.536233813993725},{"id":"monasteriesChurches_5170cd1cd8e1","slug":"monastiri-agias-eirinis-chrysovalantoy-5170","kind":"restaurant","name":"Μοναστήρι Αγίας Ειρήνης Χρυσοβαλάντου","lat":38.0757087984453,"lng":23.784060169292047,"url":"https://maps.app.goo.gl/Kmbb6BYr6fSV4pFRA?g_st=ipc","address":"Δημητσάνας 1, Λυκόβρυση 141 23","categoryIds":["monasteries-churches"],"categories":["Monasteries & Spiritual Sites"],"distanceKm":1.6735707701383375},{"id":"familyFriendly_2b8da1a48e6d","slug":"paradise-park-2b8d","kind":"restaurant","name":"Paradise Park","lat":38.07150243306409,"lng":23.752975610444484,"url":"https://maps.app.goo.gl/gx1m825JjfkqNKfC6?g_st=ipc","address":"Ε.Ο. Κόμβος, Metamorfoseos 100, Acharnes 136 71","categoryIds":["family-friendly"],"categories":["Kid Friendly Locations"],"distanceKm":1.6857935868996914},{"id":"dessertsRestaurants_ee67f4c4f773","slug":"galaktopoleio-stamoy-ee67","kind":"restaurant","name":"Γαλακτοπωλείο ΣΤΑΜΟΥ","lat":38.050308447326216,"lng":23.764543130470138,"url":"https://maps.app.goo.gl/ct5eAdJBTvtvp5Kb6?g_st=ipc","address":"Λεωφ. Ηρακλείου 388, Ηράκλειο 141 22","categoryIds":["desserts"],"categories":["Dessert Shops"],"distanceKm":1.7280961335854785},{"id":"fishTavernasRestaurants_2930f14bae6f","slug":"psariston-2930","kind":"restaurant","name":"Ψάριστον","lat":38.05007046502227,"lng":23.781403693268317,"url":"https://maps.app.goo.gl/4KPzMCG1HKq5Gpdw6?g_st=ipc","address":"Καλαβρύτων 16, Ηράκλειο 141 21, 141 21","categoryIds":["fish-tavernas"],"categories":["Fish Tavernas"],"distanceKm":1.9302372880360015},{"id":"municipalities_3dd9311bd3cf","slug":"peyki-3dd9","kind":"municipality","name":"Πεύκη","lat":38.06,"lng":23.792,"aliases":["Pefki","Pefkakia","Πευκη","Peuki","Pefka"],"region":"Βόρεια Προάστια","name_en":"Pefki","region_en":"Northern Suburbs","distanceKm":1.9709752977924047},{"id":"burgersRestaurants_b7d172dd6af6","slug":"serial-grillers-b7d1","kind":"restaurant","name":"Serial Grillers","lat":38.04771274952107,"lng":23.76539665009085,"url":"https://maps.app.goo.gl/DKedv8F3cHKd27me9?g_st=ipc","address":"Νεότητος 4, Ηράκλειο 141 22","categoryIds":["burgers"],"categories":["Burger Spots"],"distanceKm":1.9873776846542008},{"id":"italianRestaurants_d84ce5fee7c0","slug":"piazza-d-amore-d84c","kind":"restaurant","name":"Piazza D'Amore","lat":38.046873886500826,"lng":23.765946699532154,"url":"https://maps.app.goo.gl/m24wKNSPTHZaNPpA9?g_st=ipc","address":"28ης Οκτωβρίου 8, Ηράκλειο 141 21","categoryIds":["italian"],"categories":["Italian Restaurants"],"distanceKm":2.0686927536613204},{"id":"dessertsRestaurants_11d8eb3a5116","slug":"solo-gelato-pefki-11d8","kind":"restaurant","name":"Solo Gelato Pefki","lat":38.058776038280556,"lng":23.79284350703131,"url":"https://maps.app.goo.gl/SjAsiViMGast8vsf9?g_st=ipc","address":"Σοφούλη 3, Πεύκη 151 21","categoryIds":["desserts"],"categories":["Dessert Shops"],"distanceKm":2.0839540204894513},{"id":"greekRestaurants_65b8685c50a4","slug":"gidi-65b8","kind":"restaurant","name":"Γίδι","lat":38.052246918082005,"lng":23.750952362138648,"url":"https://maps.app.goo.gl/hMR86s9rhghZRxgi8","address":"Τατοΐου 17, Μεταμόρφωση 144 51","categoryIds":["greek-restaurants"],"categories":["Greek Restaurants"],"distanceKm":2.229172752558106},{"id":"greekRestaurants_1ff9a64c2696","slug":"kempaptzidikon-mparmpalias-maroysi-1ff9","kind":"restaurant","name":"Κεμπαπτζιδικον Μπαρμπαλιάς Μαρούσι","lat":38.05149931311812,"lng":23.790028540438847,"url":"https://maps.app.goo.gl/NL3SuAhkVPXxocnF9","address":"Βύρωνος 19, Μαρούσι 151 22","categoryIds":["greek-restaurants"],"categories":["Greek Restaurants"],"distanceKm":2.2884335364817603},{"id":"familyFriendly_dcb80555b0c4","slug":"hakuna-matata-family-park-dcb8","kind":"restaurant","name":"Hakuna Matata Family Park","lat":38.07414614693604,"lng":23.79446488393812,"url":"https://maps.app.goo.gl/wTSkxqJ3qSwLG4aJA?g_st=ipc","address":"Αχαρνών 53, Κηφισιά 145 61","categoryIds":["family-friendly"],"categories":["Kid Friendly Locations"],"distanceKm":2.3285237851820266},{"id":"luxuryDiningRestaurants_8a047703e0fb","slug":"afropsaro-8a04","kind":"restaurant","name":"Αφρόψαρο","lat":38.04349613246651,"lng":23.771888846159882,"url":"https://maps.app.goo.gl/g7jbxhgYDYFvpnKX6?g_st=ipc","address":"Μαρίνου Αντύπα 62-66, Ηράκλειο 141 21","categoryIds":["luxury-dining"],"categories":["Luxury Dining"],"distanceKm":2.4095912050085997},{"id":"luxuryDiningRestaurants_bbebf7e68168","slug":"moo-casa-steak-lobster-bbeb","kind":"restaurant","name":"MOO CASA steak & lobster","lat":38.04344953562119,"lng":23.772025529553066,"url":"https://maps.app.goo.gl/HwBgLRsMdgFuqNJTA?g_st=ipc","address":"Marinou Antipa 66, Iraklio 141 21","categoryIds":["luxury-dining"],"categories":["Luxury Dining"],"distanceKm":2.4154181718594248},{"id":"coffeeBrunchRestaurants_37b671b3632a","slug":"alepou-37b6","kind":"restaurant","name":"Alepou","lat":38.060273733807854,"lng":23.79751630322254,"url":"https://maps.app.goo.gl/heYFVvSaJ4P8dDiS6?g_st=ipc","address":"Βαρβαρεσου, Πεύκη 151 21","categoryIds":["coffee-brunch"],"categories":["Coffee & Brunch Spots"],"distanceKm":2.430258263181454},{"id":"cheapEatsRestaurants_5f9d5dd343a6","slug":"ypoyrgeio-geyseon-soyvlaki-psita-5f9d","kind":"restaurant","name":"ΥΠΟΥΡΓΕΙΟ ΓΕΥΣΕΩΝ-Σουβλάκι,Ψητά","lat":38.04303394507047,"lng":23.771779772357615,"url":"https://maps.app.goo.gl/LCrvDRPpRco2nVuF9?g_st=ipc","address":"Φιλοθέης 67, Ηράκλειο 141 21","categoryIds":["cheap-eats","greek-restaurants"],"categories":["Gyros & Cheap Eats","Greek Restaurants"],"legacySlugs":["ypoyrgeio-geyseon-soyvlaki-psita-5023"],"distanceKm":2.460446141535232}],"mentionedGuides":[],"canonicalSlug":"o-christaras-f41f","enrichment":{"summary_en":"Ο Χρηστάρας is a curated restaurant in Μεταμόρφωση 144 52 in the Gyros & Cheap Eats collection. It is connected to 2 nearby Googlementor picks to help travelers build a stronger local route.","summary_el":"Ο Χρηστάρας είναι ένα επιλεγμένο σημείο φαγητού στην περιοχή Μεταμόρφωση 144 52 και ανήκει στη συλλογή Gyros & Cheap Eats. Συνδέεται με 2 κοντινές προτάσεις του Googlementor για πιο ολοκληρωμένη εμπειρία.","vibe_tags":["curated","budget-friendly"],"best_for":["first-time visitors","food lovers","budget travelers"],"visit_moments":["lunch stop","dinner stop"],"practical_note":"Address and direct map link are available for easy turn-by-turn access.","nearby_walkable_count":2,"nearby_count_2km":15,"confidence":0.9},"areaContext":{"slug":"metamorfosi","name":"Metamorfosi","nameEl":"Μεταμόρφωση"},"intentContexts":[{"href":"/cheap-eats/metamorfosi","label":"Gyros & Cheap Eats in Metamorfosi","categorySlug":"cheap-eats","categoryName":"Gyros & Cheap Eats","areaSlug":"metamorfosi","areaName":"Metamorfosi","areaNameEl":"Μεταμόρφωση"}]},"__N_SSG":true}