{"pageProps":{"entity":{"id":"greekRestaurants_8851a9198b0c","slug":"o-christoforos-8851","kind":"restaurant","name":"Ο Χριστόφορος","lat":37.84084854419875,"lng":23.927116302854657,"url":"https://maps.app.goo.gl/qHLpPbKqrYerTaBG8","address":"Μιχάλη Καλαβρυτινού 11, Καλύβια Θορικού 190 10","categoryIds":["greek-restaurants"],"categories":["Greek Restaurants"]},"sameCategory":[{"id":"greekRestaurants_2ecb7afbe3a2","slug":"taverna-o-moyroyzis-2ecb","kind":"restaurant","name":"Ταβέρνα ο Μουρούζης","lat":37.841203116649474,"lng":23.927040364485364,"url":"https://maps.app.goo.gl/ezdUi47iiXAnpXxY9","address":"Βασιλείου Γεωργάκη 2, Καλύβια Θορικού 190 10","categoryIds":["greek-restaurants"],"categories":["Greek Restaurants"]},{"id":"greekRestaurants_4897cd79b835","slug":"to-trigono-4897","kind":"restaurant","name":"Το Τρίγωνο","lat":37.842540231960264,"lng":23.92981276182192,"url":"https://maps.app.goo.gl/pPFdZPKhVShhMrpC6","address":"Αθηνων 36, Καλύβια Θορικού 190 10","categoryIds":["greek-restaurants"],"categories":["Greek Restaurants"]},{"id":"greekRestaurants_cc0b98bd06d3","slug":"gavrilis-taverna-cc0b","kind":"restaurant","name":"Γαβριλης Ταβερνα","lat":37.82834073423115,"lng":23.969307203160838,"url":"https://maps.app.goo.gl/bdVU3oQaAfncuVsN9","address":"Αγίου Δημητρίου, Κουβαράς 190 03","categoryIds":["greek-restaurants"],"categories":["Greek Restaurants"]},{"id":"greekRestaurants_69fc9f288c42","slug":"lazo-69fc","kind":"restaurant","name":"Λάζο","lat":37.808550661496035,"lng":23.978467603150243,"url":"https://maps.app.goo.gl/fKnjDEunWNjANCQ27","address":"Αθηνών Σουνίου 53, Κερατέα 190 01","categoryIds":["greek-restaurants"],"categories":["Greek Restaurants"]},{"id":"greekRestaurants_fbdca7941b9f","slug":"stafylomeli-fbdc","kind":"restaurant","name":"Σταφυλομέλι","lat":37.80427446071782,"lng":23.98986829628017,"url":"https://maps.app.goo.gl/aDeFKvVmZyVF7ZpSA","address":"Επαρ.Οδ. Κερατέας-Ανάβυσσου 77, Κερατέα 190 01","categoryIds":["greek-restaurants"],"categories":["Greek Restaurants"]},{"id":"greekRestaurants_d0fbec7a3dcb","slug":"melikokon-mezedopoleio-porto-rafti-d0fb","kind":"restaurant","name":"MELIKOKON - MEZEDOPOLEIO - PORTO RAFTI","lat":37.867136583168865,"lng":24.038674142484993,"url":"https://maps.app.goo.gl/52G1EjfGK3qFyDtY6?g_st=ipc","address":"Τέρμα, Leof. Avlakiou, Porto Rafti 190 03","categoryIds":["greek-restaurants"],"categories":["Greek Restaurants"]},{"id":"greekRestaurants_2f171b46e48c","slug":"taverna-tsolias-2f17","kind":"restaurant","name":"Ταβέρνα Τσολιάς","lat":37.834865053335534,"lng":23.79315959403436,"url":"https://maps.app.goo.gl/Pp2npdeDX3kaQbgD6","address":"Λεωφ. Βάρης 45, Βάρη 166 72","categoryIds":["greek-restaurants"],"categories":["Greek Restaurants"]},{"id":"greekRestaurants_d87acafe326d","slug":"ta-vlachika-d87a","kind":"restaurant","name":"Ta Vlachika","lat":37.834890045838,"lng":23.791941775154488,"url":"https://maps.app.goo.gl/VC2HFhV1wgWoJ7Ev7","address":"Leoforos Evelpidon, Πρεβέζης, Βάρη 166 72","categoryIds":["greek-restaurants"],"categories":["Greek Restaurants"]},{"id":"greekRestaurants_24ceffe54bf6","slug":"krokos-taverna-i-folia-24ce","kind":"restaurant","name":"Κροκος Ταβέρνα Η Φωλια","lat":37.941171044387104,"lng":23.86789220057886,"url":"https://maps.app.goo.gl/rsdLSf9DyCBtiGXo8","address":"Λεωφ. Λαυρίου 20 χλμ, Παιανία 190 02","categoryIds":["greek-restaurants"],"categories":["Greek Restaurants"]},{"id":"greekRestaurants_cce1cd728bae","slug":"loyizidis-estiatorio-voyliagmeni-cce1","kind":"restaurant","name":"Λουιζίδης Εστιατόριο Βουλιαγμένη","lat":37.813204547074946,"lng":23.78315032705324,"url":"https://maps.app.goo.gl/DrVjHpSB5fMFZXij9","address":"Ερμού 2, Βουλιαγμένη 166 71","categoryIds":["greek-restaurants"],"categories":["Greek Restaurants"]},{"id":"greekRestaurants_1210e06dbe2b","slug":"meli-ladi-1210","kind":"restaurant","name":"Μέλι & Λάδι","lat":37.87699204463285,"lng":23.76367728627069,"url":"https://maps.app.goo.gl/CPZ65sur6LLxmT9J6","address":"Δημ. Γούναρη 144, Γλυφάδα 165 62","categoryIds":["greek-restaurants"],"categories":["Greek Restaurants"]},{"id":"greekRestaurants_b6c15b677224","slug":"to-drami-b6c1","kind":"restaurant","name":"To Drami","lat":37.86297028796149,"lng":23.75634712220573,"url":"https://maps.app.goo.gl/HFhEeo24Fzrwgfb98?g_st=ipc","address":"Laodikis 22, Glifada 166 74","categoryIds":["greek-restaurants"],"categories":["Greek Restaurants"]}],"nearby":[{"id":"greekRestaurants_2ecb7afbe3a2","slug":"taverna-o-moyroyzis-2ecb","kind":"restaurant","name":"Ταβέρνα ο Μουρούζης","lat":37.841203116649474,"lng":23.927040364485364,"url":"https://maps.app.goo.gl/ezdUi47iiXAnpXxY9","address":"Βασιλείου Γεωργάκη 2, Καλύβια Θορικού 190 10","categoryIds":["greek-restaurants"],"categories":["Greek Restaurants"],"distanceKm":0.03998659739555312},{"id":"fishTavernasRestaurants_f7b6756d4a93","slug":"psaraki-f7b6","kind":"restaurant","name":"ψαΡΑΚΙ","lat":37.83998892168737,"lng":23.92872058927444,"url":"https://maps.app.goo.gl/RqqP9EwfK4qQLD1v5?g_st=ipc","address":"Ευαγγελίστριας, Καλύβια Θορικού 190 10","categoryIds":["fish-tavernas"],"categories":["Fish Tavernas"],"distanceKm":0.17024412993411164},{"id":"greekRestaurants_4897cd79b835","slug":"to-trigono-4897","kind":"restaurant","name":"Το Τρίγωνο","lat":37.842540231960264,"lng":23.92981276182192,"url":"https://maps.app.goo.gl/pPFdZPKhVShhMrpC6","address":"Αθηνων 36, Καλύβια Θορικού 190 10","categoryIds":["greek-restaurants"],"categories":["Greek Restaurants"],"distanceKm":0.3024057540341254},{"id":"municipalities_0343e4758ade","slug":"saronikos-0343","kind":"municipality","name":"Σαρωνικός","lat":37.8333,"lng":23.9333,"region":"Ανατολικά Προάστια","name_en":"Saronikos","region_en":"Eastern Suburbs","distanceKm":0.9997055988651515},{"id":"familyFriendly_c8ef51000921","slug":"margi-farm-c8ef","kind":"restaurant","name":"Margi Farm","lat":37.84874963465927,"lng":23.91294630423687,"url":"https://maps.app.goo.gl/LpauJpU7FAqyQdA8A?g_st=ipc","address":"Thorikou, Saronikos 190 10","categoryIds":["family-friendly"],"categories":["Kid Friendly Locations"],"distanceKm":1.5231539593865773},{"id":"greekRestaurants_cc0b98bd06d3","slug":"gavrilis-taverna-cc0b","kind":"restaurant","name":"Γαβριλης Ταβερνα","lat":37.82834073423115,"lng":23.969307203160838,"url":"https://maps.app.goo.gl/bdVU3oQaAfncuVsN9","address":"Αγίου Δημητρίου, Κουβαράς 190 03","categoryIds":["greek-restaurants"],"categories":["Greek Restaurants"],"distanceKm":3.957638309140932},{"id":"cheapEatsRestaurants_34ddf07c2336","slug":"estiatorio-psistaria-sotiris-34dd","kind":"restaurant","name":"Εστιατόριο Ψησταριά Σωτήρης","lat":37.87939587296456,"lng":23.933984566615596,"url":"https://maps.app.goo.gl/U5qLZ6nCR7tW5r3u7?g_st=ipc","address":"Μυριννουντος 10, Μαρκόπουλο Μεσογαίας 190 03","categoryIds":["cheap-eats"],"categories":["Gyros & Cheap Eats"],"distanceKm":4.32846993914021},{"id":"municipalities_a1757f1f5877","slug":"koropi-a175","kind":"municipality","name":"Κορωπί","lat":37.8833,"lng":23.9,"region":"Ανατολικά Προάστια","name_en":"Koropi","region_en":"Eastern Suburbs","distanceKm":5.286650789321046},{"id":"municipalities_96cb11c2edc9","slug":"lagonisi-96cb","kind":"municipality","name":"Λαγονήσι","lat":37.8053,"lng":23.8864,"region":"Νότια Αττική","name_en":"Lagonisi","region_en":"South Attica","distanceKm":5.330520579098869},{"id":"familyFriendly_1a210cb8c101","slug":"ippikos-omilos-koyvara-1a21","kind":"restaurant","name":"Ιππικός Όμιλος Κουβαρά","lat":37.827589338108154,"lng":23.987545277707177,"url":"https://maps.app.goo.gl/hsmq3SFgWsx53mPW7?g_st=ipc","address":"Αγίου Φανουρίου, Κουβαράς 190 03","categoryIds":["family-friendly"],"categories":["Kid Friendly Locations"],"distanceKm":5.507898814643435},{"id":"greekRestaurants_69fc9f288c42","slug":"lazo-69fc","kind":"restaurant","name":"Λάζο","lat":37.808550661496035,"lng":23.978467603150243,"url":"https://maps.app.goo.gl/fKnjDEunWNjANCQ27","address":"Αθηνών Σουνίου 53, Κερατέα 190 01","categoryIds":["greek-restaurants"],"categories":["Greek Restaurants"],"distanceKm":5.765456477533911},{"id":"dessertsRestaurants_630fa546c8bd","slug":"zacharoplasteio-th-e-k-a-630f","kind":"restaurant","name":"Ζαχαροπλαστείο Θ.Ε.Κ.Α.","lat":37.809996734741844,"lng":23.981187744739113,"url":"https://maps.app.goo.gl/k7AZJfKYi8WUV3oM9?g_st=ipc","address":"Επαρ.Οδ. Κερατέας-Κακής Θάλασσας, Κερατέα 190 01","categoryIds":["desserts"],"categories":["Dessert Shops"],"distanceKm":5.858598487835131},{"id":"cheapEatsRestaurants_d994fad95b5a","slug":"aroma-elladas-d994","kind":"restaurant","name":"Άρωμα Ελλάδας","lat":37.80578649121729,"lng":23.9833913286695,"url":"https://maps.app.goo.gl/cDRv243YonNg2qnB6?g_st=ipc","address":"Ευεργέτη Κωνσταντίνου Πρίφτη 57, Κερατέα 190 01","categoryIds":["cheap-eats"],"categories":["Gyros & Cheap Eats"],"distanceKm":6.295364841608546},{"id":"monasteriesChurches_74cb37d8010a","slug":"ieros-naos-agioy-dimitrioy-saronikoy-11os-ai-74cb","kind":"restaurant","name":"Ιερός Ναός Αγίου Δημητρίου Σαρωνικού (11ος αι.)","lat":37.807214865085356,"lng":23.869268370594398,"url":"https://maps.app.goo.gl/Yg4DX1pMZC5BvTyv9?g_st=ipc","address":"Αγίου Δημητρίου, Αγ. Μαρίνα 194 00","categoryIds":["monasteries-churches"],"categories":["Monasteries & Spiritual Sites"],"distanceKm":6.308939857064183},{"id":"greekRestaurants_fbdca7941b9f","slug":"stafylomeli-fbdc","kind":"restaurant","name":"Σταφυλομέλι","lat":37.80427446071782,"lng":23.98986829628017,"url":"https://maps.app.goo.gl/aDeFKvVmZyVF7ZpSA","address":"Επαρ.Οδ. Κερατέας-Ανάβυσσου 77, Κερατέα 190 01","categoryIds":["greek-restaurants"],"categories":["Greek Restaurants"],"distanceKm":6.849747061691019},{"id":"cheapEatsRestaurants_2fe91c5ec4e8","slug":"pita-lagonisi-2fe9","kind":"restaurant","name":"Πίτα Λαγονήσι","lat":37.787769077925994,"lng":23.886240321695578,"url":"https://maps.app.goo.gl/gnVwTeJ7a9GqoCGQ9?g_st=ipc","address":"Λεωφ. Καλυβίων 4, Σαρωνικός 190 10","categoryIds":["cheap-eats"],"categories":["Gyros & Cheap Eats"],"distanceKm":6.908605737398079},{"id":"fishTavernasRestaurants_531d3190b4cc","slug":"ta-kalamia-531d","kind":"restaurant","name":"Τα Καλάμια","lat":37.79114152759292,"lng":23.879331978178946,"url":"https://maps.app.goo.gl/UabcyR39Vi7C4sYK7?g_st=ipc","address":"Αθηνων, Καλύβια Θορικού 190 10","categoryIds":["fish-tavernas"],"categories":["Fish Tavernas"],"distanceKm":6.94034748304264},{"id":"fishTavernasRestaurants_01155b02f60d","slug":"kyra-popi-taverna-0115","kind":"restaurant","name":"Κυρά Πόπη Ταβέρνα","lat":37.78165801312647,"lng":23.89057104630703,"url":"https://maps.app.goo.gl/inr16Vqi6f4XARj86?g_st=ipc","address":"40.5, Λεωφ. Αθηνών Σουνίου, Καλύβια Θορικού 190 10","categoryIds":["fish-tavernas"],"categories":["Fish Tavernas"],"distanceKm":7.322937026523677},{"id":"wineriesVineyards_262c7717edc1","slug":"oinopoieio-papagiannakos-262c","kind":"restaurant","name":"Οινοποιείο Παπαγιαννάκος","lat":37.90457982525897,"lng":23.983420618508436,"url":"https://maps.app.goo.gl/nRd1KxMycS9cXqd6A?g_st=ipc","address":"Πυθαγόρα, Μαρκόπουλο Μεσογαίας 190 03","categoryIds":["wineries-vineyards"],"categories":["Wineries & Vineyards"],"distanceKm":8.639681754479538},{"id":"coffeeBrunchRestaurants_9c82093341f1","slug":"kazba-bar-kouzina-9c82","kind":"restaurant","name":"Kazba Bar Kouzina","lat":37.89105125077896,"lng":24.008282807805728,"url":"https://maps.app.goo.gl/RrMxEDqS2TizyDi36?g_st=ipc","address":"Λεωφ. Γ. Γρέγου 27, Πόρτο Ράφτη 190 03","categoryIds":["coffee-brunch"],"categories":["Coffee & Brunch Spots"],"distanceKm":9.051396248426062},{"id":"cheapEatsRestaurants_0c78537a51b9","slug":"pitta-fan-grill-0c78","kind":"restaurant","name":"ΠΙΤΤΑ FAN grill","lat":37.84574550115403,"lng":23.82243212849934,"url":"https://maps.app.goo.gl/xQ5Aqm4jpK3KEQLx8?g_st=ipc","address":"Λεωφ. Ευελπίδων 364, Κίτσι 194 00","categoryIds":["cheap-eats"],"categories":["Gyros & Cheap Eats"],"distanceKm":9.208399181588655},{"id":"luxuryDiningRestaurants_1aa0e3418df4","slug":"nakal-state-of-mind-1aa0","kind":"restaurant","name":"Nakal State of Mind","lat":37.86969888591183,"lng":24.027576175967926,"url":"https://maps.app.goo.gl/9YgR6NNiMCEfXVTc6?g_st=ipc","address":"Αυλακίου 100, Πόρτο Ράφτη 190 03","categoryIds":["luxury-dining"],"categories":["Luxury Dining"],"distanceKm":9.385216828081369},{"id":"coffeeBrunchRestaurants_5b4cddd34628","slug":"mparko-5b4c","kind":"restaurant","name":"Μπάρκο","lat":37.89368052857063,"lng":24.013107601829738,"url":"https://maps.app.goo.gl/eVBj1NWi5ai3UMgQ9?g_st=ipc","address":"Λεωφ. Γ. Γρέγου 57, Πόρτο Ράφτη 190 23","categoryIds":["coffee-brunch"],"categories":["Coffee & Brunch Spots"],"distanceKm":9.565043786444196},{"id":"greekRestaurants_d0fbec7a3dcb","slug":"melikokon-mezedopoleio-porto-rafti-d0fb","kind":"restaurant","name":"MELIKOKON - MEZEDOPOLEIO - PORTO RAFTI","lat":37.867136583168865,"lng":24.038674142484993,"url":"https://maps.app.goo.gl/52G1EjfGK3qFyDtY6?g_st=ipc","address":"Τέρμα, Leof. Avlakiou, Porto Rafti 190 03","categoryIds":["greek-restaurants"],"categories":["Greek Restaurants"],"distanceKm":10.221327247827768}],"mentionedGuides":[],"canonicalSlug":"o-christoforos-8851","enrichment":{"summary_en":"Ο Χριστόφορος is a curated restaurant in Καλύβια Θορικού 190 10 in the Greek Restaurants collection. It is connected to 3 nearby Googlementor picks to help travelers build a stronger local route.","summary_el":"Ο Χριστόφορος είναι ένα επιλεγμένο σημείο φαγητού στην περιοχή Καλύβια Θορικού 190 10 και ανήκει στη συλλογή Greek Restaurants. Συνδέεται με 3 κοντινές προτάσεις του Googlementor για πιο ολοκληρωμένη εμπειρία.","vibe_tags":["curated"],"best_for":["first-time visitors","food lovers"],"visit_moments":["lunch stop","dinner stop"],"practical_note":"Address and direct map link are available for easy turn-by-turn access.","nearby_walkable_count":3,"nearby_count_2km":5,"confidence":0.9},"areaContext":null,"intentContexts":[]},"__N_SSG":true}