{"pageProps":{"entity":{"id":"cheapEatsRestaurants_17e24777d3f9","slug":"o-giatros-tis-peinas-17e2","kind":"restaurant","name":"Ο Γιατρός της Πείνας","lat":37.9576250215062,"lng":23.729472460111847,"url":"https://maps.app.goo.gl/Rbxz8a7b6mXRVXtX9?g_st=ipc","address":"Ηλία Ηλιού 59, Αθήνα 117 44","categoryIds":["cheap-eats"],"categories":["Gyros & Cheap Eats"]},"sameCategory":[{"id":"cheapEatsRestaurants_cf76698c40fb","slug":"o-achilleas-cheiropoiitos-gyros-cf76","kind":"restaurant","name":"Ο Αχιλλέας (χειροποίητος γύρος)","lat":37.95973976836696,"lng":23.733064950731986,"url":"https://maps.app.goo.gl/SrhYjUikLgP2R2HT7?g_st=ipc","address":"Σπινθάρου 18, Αθήνα 117 43","categoryIds":["cheap-eats"],"categories":["Gyros & Cheap Eats"]},{"id":"cheapEatsRestaurants_d758a1864776","slug":"tomas-marios-ovelistirio-d758","kind":"restaurant","name":"ΤΟΜΑΣ ΜΑΡΙΟΣ ΟΒΕΛΙΣΤΗΡΙΟ","lat":37.95740701533671,"lng":23.72476747255489,"url":"https://maps.app.goo.gl/B8R43v1kbWhoCBdJ9?g_st=ipc","address":"Μήτρου Σαρκουδίνου 49, Αθήνα 117 44","categoryIds":["cheap-eats"],"categories":["Gyros & Cheap Eats"]},{"id":"cheapEatsRestaurants_15b8f9de5a02","slug":"robin-belgian-streetfood-15b8","kind":"restaurant","name":"Robin Belgian streetfood","lat":37.96249493210435,"lng":23.729203293671816,"url":"https://maps.app.goo.gl/4RTN9WGd3FCHQamG6?g_st=ipc","address":"Θεοδώρητου Βρεσθένης 31, Αθήνα 117 43","categoryIds":["cheap-eats"],"categories":["Gyros & Cheap Eats"]},{"id":"cheapEatsRestaurants_258b939a478f","slug":"psitopoleio-to-empeiro-258b","kind":"restaurant","name":"Ψητοπωλείο Το Έμπειρο","lat":37.96275771902048,"lng":23.72923609945131,"url":"https://maps.app.goo.gl/kpwhPwcxrACr1psm9?g_st=ipc","address":"Ηρακλέους 28, Αθήνα 117 43","categoryIds":["cheap-eats"],"categories":["Gyros & Cheap Eats"]},{"id":"cheapEatsRestaurants_104db32dd905","slug":"jackaroo-104d","kind":"restaurant","name":"Jackaroo","lat":37.96222285381352,"lng":23.7252636942005,"url":"https://maps.app.goo.gl/obvLVFRy5Vbt8DPS6?g_st=ipc","address":"Καλλιρρόης 73, Αθήνα 117 45","categoryIds":["cheap-eats"],"categories":["Gyros & Cheap Eats"]},{"id":"cheapEatsRestaurants_59f1048e980a","slug":"to-steki-toy-kosta-59f1","kind":"restaurant","name":"Το Στέκι του Κώστα","lat":37.95121107984788,"lng":23.735124045238276,"url":"https://maps.app.goo.gl/gtmBLN9nUzctuFYM8?g_st=ipc","address":"Αγίας Βαρβάρας 59, Δάφνη Αττικής 172 35","categoryIds":["cheap-eats"],"categories":["Gyros & Cheap Eats"]},{"id":"cheapEatsRestaurants_f167ae0efa67","slug":"kalyvas-oikogeneiako-psitopoleio-f167","kind":"restaurant","name":"Καλύβας οικογενειακό ψητοπωλείο","lat":37.962881286635515,"lng":23.721970322127277,"url":"https://maps.app.goo.gl/tfkKpGgKP9PAqPWX9?g_st=ipc","address":"Dimitrakopoulou 91-93, G Olymbiou 10, Athina 117 41","categoryIds":["cheap-eats"],"categories":["Gyros & Cheap Eats"]},{"id":"cheapEatsRestaurants_4de598be41da","slug":"johnie-hot-dog-syggroy-4de5","kind":"restaurant","name":"Johnie Hot Dog Συγγρού","lat":37.959239923680194,"lng":23.71954717101243,"url":"https://maps.app.goo.gl/WUCUWAGV3GyPBumi7?g_st=ipc","address":"Λεωφ. Ανδρέα Συγγρού 136, Καλλιθέα 176 71","categoryIds":["cheap-eats"],"categories":["Gyros & Cheap Eats"]},{"id":"cheapEatsRestaurants_d094097525b6","slug":"senor-picante-d094","kind":"restaurant","name":"Señor Picante","lat":37.965308606012925,"lng":23.726477821309263,"url":"https://maps.app.goo.gl/bZNApSKDTgmvuiXB7?g_st=ipc","address":"Φαλήρου 40, Αθήνα 117 42","categoryIds":["cheap-eats","mexican"],"categories":["Gyros & Cheap Eats","Mexican Restaurants"],"legacySlugs":["senor-picante-fbd3"]},{"id":"cheapEatsRestaurants_5e8824ccc538","slug":"kalamaki-bar-5e88","kind":"restaurant","name":"Kalamaki Bar","lat":37.9654765831714,"lng":23.725752010856876,"url":"https://maps.app.goo.gl/vMhM3YojNKaURqwX8?g_st=ipc","address":"Δημητρακοπούλου και, Δράκου 15, Αθήνα 117 42","categoryIds":["cheap-eats"],"categories":["Gyros & Cheap Eats"]},{"id":"cheapEatsRestaurants_abe36348d52a","slug":"guarantee-abe3","kind":"restaurant","name":"Guarantee","lat":37.96613348579953,"lng":23.726193428667294,"url":"https://maps.app.goo.gl/k43yGuJ8dK72yJAh8?g_st=ipc","address":"Βεΐκου 41, Αθήνα 117 42","categoryIds":["cheap-eats"],"categories":["Gyros & Cheap Eats"]},{"id":"cheapEatsRestaurants_ea477a96a248","slug":"ta-soyvlakia-tis-petmeza-souvlakia-petmeza-ea47","kind":"restaurant","name":"Τα ΣΟΥΒΛΑΚΙΑ της Πετμεζά souvlakia petmeza","lat":37.96653318144558,"lng":23.72792783847805,"url":"https://maps.app.goo.gl/wJbToSNnsHXBEELJ7?g_st=ipc","address":"Πετμεζά 2, Αθήνα 117 42","categoryIds":["cheap-eats"],"categories":["Gyros & Cheap Eats"]}],"nearby":[{"id":"municipalities_0eb5ad956816","slug":"neos-kosmos-0eb5","kind":"municipality","name":"Νέος Κόσμος","lat":37.9563,"lng":23.7289,"region":"Κέντρο Αθήνας","name_en":"Neos Kosmos","region_en":"Athens Center","distanceKm":0.15564971404304465},{"id":"cheapEatsRestaurants_cf76698c40fb","slug":"o-achilleas-cheiropoiitos-gyros-cf76","kind":"restaurant","name":"Ο Αχιλλέας (χειροποίητος γύρος)","lat":37.95973976836696,"lng":23.733064950731986,"url":"https://maps.app.goo.gl/SrhYjUikLgP2R2HT7?g_st=ipc","address":"Σπινθάρου 18, Αθήνα 117 43","categoryIds":["cheap-eats"],"categories":["Gyros & Cheap Eats"],"distanceKm":0.39305948812713054},{"id":"cheapEatsRestaurants_d758a1864776","slug":"tomas-marios-ovelistirio-d758","kind":"restaurant","name":"ΤΟΜΑΣ ΜΑΡΙΟΣ ΟΒΕΛΙΣΤΗΡΙΟ","lat":37.95740701533671,"lng":23.72476747255489,"url":"https://maps.app.goo.gl/B8R43v1kbWhoCBdJ9?g_st=ipc","address":"Μήτρου Σαρκουδίνου 49, Αθήνα 117 44","categoryIds":["cheap-eats"],"categories":["Gyros & Cheap Eats"],"distanceKm":0.4132145558790762},{"id":"italianRestaurants_bdaaf75d6c5e","slug":"canarino-bdaa","kind":"restaurant","name":"Canarino","lat":37.95905367625766,"lng":23.73382645635927,"url":"https://maps.app.goo.gl/kPu5BDkNuumunei99?g_st=ipc","address":"Ηλία Ηλιού 28, Αθήνα 117 43","categoryIds":["italian"],"categories":["Italian Restaurants"],"distanceKm":0.41346214218480976},{"id":"coffeeBrunchRestaurants_c191ebb5fd6a","slug":"teras-athens-c191","kind":"restaurant","name":"Teras Athens","lat":37.96132522695651,"lng":23.727704519576132,"url":"https://maps.app.goo.gl/Q7ocWz9NPgB5Zoaa6?g_st=ipc","address":"Θεοδώρητου Βρεσθένης 45, Αθήνα 117 43","categoryIds":["coffee-brunch"],"categories":["Coffee & Brunch Spots"],"distanceKm":0.4396708300104963},{"id":"cheapEatsRestaurants_15b8f9de5a02","slug":"robin-belgian-streetfood-15b8","kind":"restaurant","name":"Robin Belgian streetfood","lat":37.96249493210435,"lng":23.729203293671816,"url":"https://maps.app.goo.gl/4RTN9WGd3FCHQamG6?g_st=ipc","address":"Θεοδώρητου Βρεσθένης 31, Αθήνα 117 43","categoryIds":["cheap-eats"],"categories":["Gyros & Cheap Eats"],"distanceKm":0.542023285040373},{"id":"italianRestaurants_297de75e2491","slug":"la-bella-napoli-297d","kind":"restaurant","name":"La Bella Napoli","lat":37.95333874485214,"lng":23.726510881566565,"url":"https://maps.app.goo.gl/viysAA695txjhPLE6?g_st=ipc","address":"Ρουμπέση 64, Αθήνα 172 30","categoryIds":["italian"],"categories":["Italian Restaurants"],"distanceKm":0.5427542102542743},{"id":"burgersRestaurants_82d2f41d9265","slug":"big-nick-82d2","kind":"restaurant","name":"Big Nick","lat":37.956445331565305,"lng":23.73566615673783,"url":"https://maps.app.goo.gl/j5eRwkA5Uf2bwVHs7?g_st=ipc","address":"Λεωφόρος Βουλιαγμένης 145, Αθήνα 116 31","categoryIds":["burgers","vegetarian"],"categories":["Burger Spots","Vegetarian Friendly Restaurants"],"legacySlugs":["big-nick-ce09"],"distanceKm":0.5586458278737582},{"id":"cheapEatsRestaurants_258b939a478f","slug":"psitopoleio-to-empeiro-258b","kind":"restaurant","name":"Ψητοπωλείο Το Έμπειρο","lat":37.96275771902048,"lng":23.72923609945131,"url":"https://maps.app.goo.gl/kpwhPwcxrACr1psm9?g_st=ipc","address":"Ηρακλέους 28, Αθήνα 117 43","categoryIds":["cheap-eats"],"categories":["Gyros & Cheap Eats"],"distanceKm":0.571105979212424},{"id":"greekRestaurants_33a0b55abdc4","slug":"to-trikyklo-33a0","kind":"restaurant","name":"Το Τρικυκλο","lat":37.96243041130632,"lng":23.732361770965667,"url":"https://maps.app.goo.gl/iQ4V71S2t14KAPNM9","address":"Πυθέου 34-Θ.Γεωμετρου 1, Πυθέου 34, Αθήνα 117 43","categoryIds":["greek-restaurants"],"categories":["Greek Restaurants"],"distanceKm":0.5913362085737704},{"id":"coffeeBrunchRestaurants_191c759a08b3","slug":"roasting-warehouse-athens-191c","kind":"restaurant","name":"Roasting Warehouse Athens","lat":37.95668706209458,"lng":23.722828304668056,"url":"https://maps.app.goo.gl/fwCy3n7FRVzPEXwR8?g_st=ipc","address":"Ντελακρουά 2, Αθήνα 117 45","categoryIds":["coffee-brunch"],"categories":["Coffee & Brunch Spots"],"distanceKm":0.5917825880852552},{"id":"greekRestaurants_e9888507556f","slug":"fita-e988","kind":"restaurant","name":"Φιτα","lat":37.959800125380376,"lng":23.723270363621033,"url":"https://maps.app.goo.gl/dz2YxasHy4LnBQ668","address":"Ντουρμ 1, Αθήνα 117 45","categoryIds":["greek-restaurants"],"categories":["Greek Restaurants"],"distanceKm":0.5951147037568663},{"id":"greekRestaurants_c2d712c3a636","slug":"louiza-athens-c2d7","kind":"restaurant","name":"Louiza Athens","lat":37.958439423665176,"lng":23.722755568163475,"url":"https://maps.app.goo.gl/QPXwcnn7KEEcjqBb9","address":"Σφιγγός 13, Αθήνα 117 45","categoryIds":["greek-restaurants"],"categories":["Greek Restaurants"],"distanceKm":0.5958116382473028},{"id":"coffeeBrunchRestaurants_fb20c8dc39dd","slug":"louiza-athens-fb20","kind":"restaurant","name":"Louiza Athens","lat":37.95836602961577,"lng":23.722700242324212,"url":"https://maps.app.goo.gl/wDYFkKSw6y1KG4Ye8?g_st=ic","address":"Sfiggos 13, Athina 117 45","categoryIds":["coffee-brunch"],"categories":["Coffee & Brunch Spots"],"distanceKm":0.5994304081245968},{"id":"greekRestaurants_b3da8ddd3955","slug":"lostre-koyzina-b3da","kind":"restaurant","name":"Λοστρέ κουζίνα","lat":37.96258323945813,"lng":23.732334829769364,"url":"https://maps.app.goo.gl/T4yBbxnNyvkykNoS9","address":"Πυθέου 32, Αθήνα 117 43","categoryIds":["greek-restaurants"],"categories":["Greek Restaurants"],"distanceKm":0.605753101137066},{"id":"cheapEatsRestaurants_104db32dd905","slug":"jackaroo-104d","kind":"restaurant","name":"Jackaroo","lat":37.96222285381352,"lng":23.7252636942005,"url":"https://maps.app.goo.gl/obvLVFRy5Vbt8DPS6?g_st=ipc","address":"Καλλιρρόης 73, Αθήνα 117 45","categoryIds":["cheap-eats"],"categories":["Gyros & Cheap Eats"],"distanceKm":0.6305017501544626},{"id":"asianRestaurants_245947f00892","slug":"one-piece-sushi-noodlebar-2459","kind":"restaurant","name":"One Piece Sushi & NoodleBar","lat":37.95987156768248,"lng":23.736223837796196,"url":"https://maps.app.goo.gl/haanYsUxepJjZsmTA?g_st=ipc","address":"Ilia Iliou 6, Μενεκράτους 39, Αθήνα 116 36","categoryIds":["asian"],"categories":["Asian Restaurants"],"distanceKm":0.642461250050095},{"id":"rooftopLoungesRestaurants_eff063b05a76","slug":"premiere-restaurant-eff0","kind":"restaurant","name":"Premiere Restaurant","lat":37.95933669311001,"lng":23.721893436588108,"url":"https://maps.app.goo.gl/xdoJybpRxJKYAgbKA?g_st=ipc","address":"Λεωφ. Ανδρέα Συγγρού 89-93, Αθήνα 117 45","categoryIds":["rooftop-lounges"],"categories":["Rooftop Lounges"],"distanceKm":0.6911924365465981},{"id":"coffeeBrunchRestaurants_95dcd35af657","slug":"artopoieio-zacharoplasteio-arto-zymia-95dc","kind":"restaurant","name":"Αρτοποιείο Ζαχαροπλαστείο \"Αρτο..ζυμιά\"","lat":37.96420038301339,"lng":23.731208987347678,"url":"https://maps.app.goo.gl/FBqvEkq9TKnNFmzu9?g_st=ipc","address":"Αγλαονίκης 22, Αθήνα 117 43","categoryIds":["coffee-brunch","desserts"],"categories":["Coffee & Brunch Spots","Dessert Shops"],"legacySlugs":["artopoieio-zacharoplasteio-arto-zymia-afb8"],"distanceKm":0.7468285303539102},{"id":"asianRestaurants_38b8b7a5de82","slug":"garum-athens-38b8","kind":"restaurant","name":"Garum Athens","lat":37.96322815000365,"lng":23.734456659008355,"url":"https://maps.app.goo.gl/MU1e8JQujzPUM5ZN6","address":"Kelsou 10, Athina 116 36","categoryIds":["asian","luxury-dining"],"categories":["Asian Restaurants","Luxury Dining"],"legacySlugs":["garum-athens-dc2b"],"distanceKm":0.7609971077679293},{"id":"vegetarianRestaurants_663d79e21a0f","slug":"noa-poke-koukaki-663d","kind":"restaurant","name":"Noa Poke Koukaki","lat":37.962721066064105,"lng":23.72328239582356,"url":"https://maps.app.goo.gl/2BHN8JbCEv2oz4LT8?g_st=ipc","address":"Φαλήρου 84, Αθήνα 117 41","categoryIds":["vegetarian"],"categories":["Vegetarian Friendly Restaurants"],"distanceKm":0.7846045526615638},{"id":"coffeeBrunchRestaurants_6154e62b6cd6","slug":"mpel-rey-6154","kind":"restaurant","name":"Μπελ Ρεϋ","lat":37.96239606904346,"lng":23.722769926662476,"url":"https://maps.app.goo.gl/zGZShvHird8bq92Q9?g_st=ipc","address":"Φαλήρου 88, Αθήνα 117 41","categoryIds":["coffee-brunch"],"categories":["Coffee & Brunch Spots"],"distanceKm":0.7916683173850333},{"id":"coffeeBrunchRestaurants_946f8ff0112c","slug":"hippy-hippo-946f","kind":"restaurant","name":"Hippy Hippo","lat":37.96338312245576,"lng":23.724161260955565,"url":"https://maps.app.goo.gl/dGXFqUaPgJg6izKF7?g_st=ipc","address":"Αναστασίου Ζίννη 37, Αθήνα 117 41","categoryIds":["coffee-brunch"],"categories":["Coffee & Brunch Spots"],"distanceKm":0.7916827084189457},{"id":"italianRestaurants_5abecb9e2aaa","slug":"voylkanizater-5abe","kind":"restaurant","name":"Βουλκανιζατέρ","lat":37.96367095489114,"lng":23.724556596700353,"url":"https://maps.app.goo.gl/HebUjJkB8SUt6Xp36?g_st=ipc","address":"Οδυσσέα Ανδρούτσου 17, Αθήνα 117 41","categoryIds":["italian"],"categories":["Italian Restaurants"],"distanceKm":0.7985574678303733}],"mentionedGuides":[],"canonicalSlug":"o-giatros-tis-peinas-17e2","enrichment":{"summary_en":"Ο Γιατρός της Πείνας is a curated restaurant in Αθήνα 117 44 in the Gyros & Cheap Eats collection. It is connected to 24 nearby Googlementor picks to help travelers build a stronger local route.","summary_el":"Ο Γιατρός της Πείνας είναι ένα επιλεγμένο σημείο φαγητού στην περιοχή Αθήνα 117 44 και ανήκει στη συλλογή Gyros & Cheap Eats. Συνδέεται με 24 κοντινές προτάσεις του Googlementor για πιο ολοκληρωμένη εμπειρία.","vibe_tags":["curated","budget-friendly"],"best_for":["first-time visitors","food lovers","budget travelers"],"visit_moments":["lunch stop","dinner stop"],"practical_note":"Address and direct map link are available for easy turn-by-turn access.","nearby_walkable_count":24,"nearby_count_2km":286,"confidence":0.98},"areaContext":{"slug":"neos-kosmos","name":"Neos Kosmos","nameEl":"Νέος Κόσμος"},"intentContexts":[{"href":"/cheap-eats/neos-kosmos","label":"Gyros & Cheap Eats in Neos Kosmos","categorySlug":"cheap-eats","categoryName":"Gyros & Cheap Eats","areaSlug":"neos-kosmos","areaName":"Neos Kosmos","areaNameEl":"Νέος Κόσμος"}]},"__N_SSG":true}