{"pageProps":{"entity":{"id":"greekRestaurants_4a595232b3a3","slug":"o-koympes-4a59","kind":"restaurant","name":"Ο Κουμπές","lat":35.5043816279159,"lng":24.026404656039464,"url":"https://maps.app.goo.gl/aq1X1YzrveFNjWCR6?g_st=ipc","address":"Παναγούλη 1, Χανιά 731 34","categoryIds":["greek-restaurants"],"categories":["Greek Restaurants"]},"sameCategory":[{"id":"greekRestaurants_585e0390a5d3","slug":"ntoynias-585e","kind":"restaurant","name":"Ντουνιάς","lat":35.40906562971069,"lng":24.014822409059008,"url":"https://maps.app.goo.gl/fPzWW7jmw3vrMepH9?g_st=ipc","address":"Keramion, Νεροκούρος 731 00","categoryIds":["greek-restaurants"],"categories":["Greek Restaurants"]},{"id":"greekRestaurants_5e3d51ca0200","slug":"parasia-chania-vamos-parasia-chania-vamos-5e3d","kind":"restaurant","name":"Παρασιά Χανιά Βάμος- Parasia Chania Vamos","lat":35.4074884812459,"lng":24.18598092998549,"url":"https://maps.app.goo.gl/BmHbkuLGE1ioGoyp8?g_st=ipc","address":"διαλέξτε τον επαρχιακό δρόμο, Από Ρέθυμνο βγείτε δεξιά στην έξοδο στο ελαιουργειο Κανάκη και έπειτα πάρτε τον επαρχιακό δρόμο προς Παρασιά, Από, Βρύσες 730 08","categoryIds":["greek-restaurants"],"categories":["Greek Restaurants"]},{"id":"greekRestaurants_5434fa5002e6","slug":"tavern-restaurant-hotel-arxontas-koutsomatados-5434","kind":"restaurant","name":"Tavern Restaurant Hotel Arxontas Koutsomatados","lat":35.40554475283456,"lng":23.68281950120623,"url":"https://maps.app.goo.gl/tgscAf7VVnueaRex6?g_st=ipc","address":"Κουτσοματαδος 734 00","categoryIds":["greek-restaurants"],"categories":["Greek Restaurants"]},{"id":"greekRestaurants_dd95a846bd00","slug":"taverna-gramvoysa-dd95","kind":"restaurant","name":"Ταβέρνα Γραμβούσα","lat":35.51332300936157,"lng":23.608418720167336,"url":"https://maps.app.goo.gl/zB6hp23GajJ65U8F9?g_st=ipc","address":"Εμμανουήλ Δεικτάκη 1, Καλυβιανή 734 00","categoryIds":["greek-restaurants"],"categories":["Greek Restaurants"]},{"id":"greekRestaurants_b50a3b0926c1","slug":"raki-ba-raki-b50a","kind":"restaurant","name":"Raki Ba Raki","lat":35.370091171281985,"lng":24.473900295265366,"url":"https://maps.app.goo.gl/9dE1VSZKrMDMbd5q8?g_st=ipc","address":"Ραδαμάνθυος 16, Ρέθυμνο 741 31","categoryIds":["greek-restaurants"],"categories":["Greek Restaurants"]},{"id":"greekRestaurants_025e209eb62b","slug":"hasika-025e","kind":"restaurant","name":"Hasika","lat":35.36781760941864,"lng":24.474835852084063,"url":"https://maps.app.goo.gl/hVvx64ssnxuZvpzs7?g_st=ipc","address":"Αγίας Βαρβάρας 11-13, Ρέθυμνο 741 31","categoryIds":["greek-restaurants"],"categories":["Greek Restaurants"]},{"id":"greekRestaurants_640a14efa101","slug":"taverna-alekos-640a","kind":"restaurant","name":"Ταβέρνα Αλέκος","lat":35.30375888651602,"lng":24.459324408714505,"url":"https://maps.app.goo.gl/PgBU6UUwxg9oXgGh6?g_st=ipc","address":"Επαρ.Οδ. Ρέθυμνου-Αγίας Γαλήνης, Αρμένοι 741 50","categoryIds":["greek-restaurants"],"categories":["Greek Restaurants"]},{"id":"greekRestaurants_454ccdf9aa06","slug":"vrisi-restaurant-454c","kind":"restaurant","name":"Vrisi Restaurant","lat":35.19843251555281,"lng":24.402218916691474,"url":"https://maps.app.goo.gl/hnANNzynf7sfyaKTA?g_st=ipc","address":"Μύρθιος, 740 60","categoryIds":["greek-restaurants"],"categories":["Greek Restaurants"]},{"id":"greekRestaurants_f24ffdee3a33","slug":"i-taverna-toy-gianni-sto-kyparissi-f24f","kind":"restaurant","name":"Η ταβέρνα του Γιάννη στο Κυπαρίσσι","lat":35.19205483334649,"lng":25.077800899282035,"url":"https://maps.app.goo.gl/VdRwFKm52QBw7CuU8?g_st=ipc","address":"Κυπαρίσσι, Κυπάρισσος 715 00","categoryIds":["greek-restaurants"],"categories":["Greek Restaurants"]},{"id":"greekRestaurants_a50073ea32f7","slug":"peskesi-a500","kind":"restaurant","name":"Πεσκέσι","lat":35.34024406072665,"lng":25.132467165389027,"url":"https://maps.app.goo.gl/yUQNhdHvkcuWtksw6?g_st=ipc","address":"Καπετάν Χαραλάμπη 6-8, Ηράκλειο 712 02","categoryIds":["greek-restaurants"],"categories":["Greek Restaurants"]},{"id":"greekRestaurants_2a48d3a896e1","slug":"familia-2a48","kind":"restaurant","name":"Familia","lat":36.21964990983923,"lng":22.97851541774501,"url":"https://maps.app.goo.gl/gEg4qhnCavjQp4RQ8?g_st=ipc","address":"Φράτσια 801 00","categoryIds":["greek-restaurants"],"categories":["Greek Restaurants"]},{"id":"greekRestaurants_e7edc905ec04","slug":"taverna-afroditi-e7ed","kind":"restaurant","name":"Ταβέρνα Αφροδίτη","lat":35.04824214563024,"lng":25.489380915090635,"url":"https://maps.app.goo.gl/Hd6w5ARoLxjc8sSE7?g_st=ipc","address":"Κατω Σύμη Βιάννου, 1, Κάτω Σύμη 700 04","categoryIds":["greek-restaurants"],"categories":["Greek Restaurants"]}],"nearby":[{"id":"cheapEatsRestaurants_e3e8b9399916","slug":"chicktok-e3e8","kind":"restaurant","name":"Chicktok","lat":35.509944678509925,"lng":24.031396796267106,"url":"https://maps.app.goo.gl/BCA2nTq76iJ2grhB7?g_st=ipc","address":"Papanastasiou 2, Chania 731 34","categoryIds":["cheap-eats"],"categories":["Gyros & Cheap Eats"],"distanceKm":0.7660526326692134},{"id":"cheapEatsRestaurants_620134dd9978","slug":"oasis-6201","kind":"restaurant","name":"Oasis","lat":35.51332964693983,"lng":24.021015604554556,"url":"https://maps.app.goo.gl/cmq1VkqB1tUYSWUX9?g_st=ipc","address":"Voloudaki 4, Chania 731 34","categoryIds":["cheap-eats"],"categories":["Gyros & Cheap Eats"],"distanceKm":1.1081136140789436},{"id":"municipalities_a217cf921275","slug":"chania-a217","kind":"municipality","name":"Χανιά","lat":35.5138,"lng":24.018,"aliases":["Chania","Hania","Χάνια","Χανιών","Χανια","Xania"],"region":"Δυτική Κρήτη","name_en":"Chania","region_en":"West Crete","distanceKm":1.2944208883429433},{"id":"cheapEatsRestaurants_57bd67d6d5e4","slug":"delish-food-streat-story-57bd","kind":"restaurant","name":"Delish Food Streat Story","lat":35.515029891736845,"lng":24.02042482402925,"url":"https://maps.app.goo.gl/UfCwCDqjCiAuobpi9?g_st=ipc","address":"Tsouderon 69, Chania 731 32","categoryIds":["cheap-eats"],"categories":["Gyros & Cheap Eats"],"distanceKm":1.301882655045785},{"id":"coffeeBrunchRestaurants_8cd2a3bebc65","slug":"red-jane-bakery-8cd2","kind":"restaurant","name":"Red Jαne Bakery","lat":35.51226915120583,"lng":24.01521028800191,"url":"https://maps.app.goo.gl/qBPXWtniji8hcKB88?g_st=ipc","address":"Kidonias 101, Chania 731 36","categoryIds":["coffee-brunch"],"categories":["Coffee & Brunch Spots"],"distanceKm":1.3401265293085565},{"id":"fishTavernasRestaurants_052e930b9594","slug":"thalassino-ageri-052e","kind":"restaurant","name":"Thalassino Ageri","lat":35.519850213268185,"lng":24.037118927264085,"url":"https://maps.app.goo.gl/6SKxxTD4XKy95nvdA?g_st=ipc","address":"Vivilaki str 35 Tabakaria, Chania 731 33","categoryIds":["fish-tavernas","luxury-dining"],"categories":["Fish Tavernas","Luxury Dining"],"legacySlugs":["thalassino-ageri-7d75"],"distanceKm":1.9745754450372335},{"id":"coffeeBrunchRestaurants_4060062a68f1","slug":"carte-postale-4060","kind":"restaurant","name":"Carte Postale","lat":35.523454895956455,"lng":24.056556730944372,"url":"https://maps.app.goo.gl/5NWTh15BbgeGgYsx6?g_st=ipc","address":"Michail Kalorizikou 2, Chania 731 33","categoryIds":["coffee-brunch"],"categories":["Coffee & Brunch Spots"],"distanceKm":3.456265426573447},{"id":"italianRestaurants_d9cd36fbb3ef","slug":"don-rosario-restaurant-d9cd","kind":"restaurant","name":"Don Rosario Restaurant","lat":35.47882388836681,"lng":24.099356912172677,"url":"https://maps.app.goo.gl/bPiGaxVDa8GANuXW8?g_st=ipc","address":"Πλατάνι 732 00","categoryIds":["italian"],"categories":["Italian Restaurants"],"distanceKm":7.190188503418226},{"id":"municipalities_d3b3bd48a579","slug":"agia-marina-d3b3","kind":"municipality","name":"Αγία Μαρίνα","lat":35.515,"lng":23.915,"region":"Κρήτη","name_en":"Agia Marina","region_en":"Crete","distanceKm":10.152635979127915},{"id":"greekRestaurants_585e0390a5d3","slug":"ntoynias-585e","kind":"restaurant","name":"Ντουνιάς","lat":35.40906562971069,"lng":24.014822409059008,"url":"https://maps.app.goo.gl/fPzWW7jmw3vrMepH9?g_st=ipc","address":"Keramion, Νεροκούρος 731 00","categoryIds":["greek-restaurants"],"categories":["Greek Restaurants"],"distanceKm":10.650446442184322},{"id":"wineriesVineyards_218b1ae88a57","slug":"agia-triada-winery-218b","kind":"restaurant","name":"Αgia Triada Winery","lat":35.56054075236249,"lng":24.135001472011776,"url":"https://maps.app.goo.gl/75yFj7YEiVy8Cvdz7?g_st=ipc","address":"Μόνη Αγίας Τριάδος των Τζαγκαρόλων 731 00","categoryIds":["wineries-vineyards"],"categories":["Wineries & Vineyards"],"distanceKm":11.643078779377069},{"id":"municipalities_08004ad1efaf","slug":"platanias-0800","kind":"municipality","name":"Πλατανιάς","lat":35.517,"lng":23.883,"region":"Δυτική Κρήτη","name_en":"Platanias","region_en":"West Crete","distanceKm":13.055666011275054},{"id":"wineriesVineyards_6807d76cc581","slug":"manousakis-winery-6807","kind":"restaurant","name":"Manousakis Winery","lat":35.44928609215256,"lng":23.88714203573119,"url":"https://maps.app.goo.gl/rcCjRKaUHGWTfgjX9?g_st=ipc","address":"Βατόλακκος 730 05","categoryIds":["wineries-vineyards"],"categories":["Wineries & Vineyards"],"distanceKm":14.019829406189256},{"id":"greekRestaurants_5e3d51ca0200","slug":"parasia-chania-vamos-parasia-chania-vamos-5e3d","kind":"restaurant","name":"Παρασιά Χανιά Βάμος- Parasia Chania Vamos","lat":35.4074884812459,"lng":24.18598092998549,"url":"https://maps.app.goo.gl/BmHbkuLGE1ioGoyp8?g_st=ipc","address":"διαλέξτε τον επαρχιακό δρόμο, Από Ρέθυμνο βγείτε δεξιά στην έξοδο στο ελαιουργειο Κανάκη και έπειτα πάρτε τον επαρχιακό δρόμο προς Παρασιά, Από, Βρύσες 730 08","categoryIds":["greek-restaurants"],"categories":["Greek Restaurants"],"distanceKm":18.02740468719752},{"id":"municipalities_7c02ce6807c9","slug":"apokoronoy-7c02","kind":"municipality","name":"Αποκορώνου","lat":35.437,"lng":24.215,"region":"Δυτική Κρήτη","name_en":"Apokoronas","region_en":"West Crete","distanceKm":18.650113897808467},{"id":"wineriesVineyards_30791389b0f6","slug":"anoskeli-winery-3079","kind":"restaurant","name":"Anoskeli Winery","lat":35.460142479001455,"lng":23.77578731455054,"url":"https://maps.app.goo.gl/PgqU5uYf8bg9kRur9?g_st=ipc","address":"Ανώσκελη 730 02","categoryIds":["wineries-vineyards"],"categories":["Wineries & Vineyards"],"distanceKm":23.2193265974886},{"id":"wineriesVineyards_b838da26d565","slug":"dourakis-winery-b838","kind":"restaurant","name":"Dourakis Winery","lat":35.34955760746719,"lng":24.203022751558134,"url":"https://maps.app.goo.gl/RrgeX3PAEePKPZU79?g_st=ipc","address":"Alikampos, Apokoronou, CHANIA 730 07","categoryIds":["wineries-vineyards"],"categories":["Wineries & Vineyards"],"distanceKm":23.504743361763065},{"id":"familyFriendly_647731b73787","slug":"lake-kournas-6477","kind":"restaurant","name":"Lake Kournas","lat":35.33085393719484,"lng":24.275768556511693,"url":"https://maps.app.goo.gl/jBCqSTmypZMRabtf7?g_st=ipc","address":"Georgioupoli 730 07","categoryIds":["family-friendly"],"categories":["Kid Friendly Locations"],"distanceKm":29.714174006062567}],"mentionedGuides":[],"canonicalSlug":"o-koympes-4a59","enrichment":{"summary_en":"Ο Κουμπές is a curated restaurant in Χανιά 731 34 in the Greek Restaurants collection. It is connected to 1 nearby Googlementor picks to help travelers build a stronger local route.","summary_el":"Ο Κουμπές είναι ένα επιλεγμένο σημείο φαγητού στην περιοχή Χανιά 731 34 και ανήκει στη συλλογή Greek Restaurants. Συνδέεται με 1 κοντινές προτάσεις του Googlementor για πιο ολοκληρωμένη εμπειρία.","vibe_tags":["curated"],"best_for":["first-time visitors","food lovers"],"visit_moments":["lunch stop","dinner stop"],"practical_note":"Address and direct map link are available for easy turn-by-turn access.","nearby_walkable_count":1,"nearby_count_2km":6,"confidence":0.9},"areaContext":null,"intentContexts":[]},"__N_SSG":true}