{"pageProps":{"entity":{"id":"greekRestaurants_792b73e9842d","slug":"o-milas-estiatorio-792b","kind":"restaurant","name":"Ο ΜΗΛΑΣ ΕΣΤΙΑΤΟΡΙΟ","lat":37.31063309409623,"lng":24.373887108876595,"url":"https://maps.app.goo.gl/ZFv4HFHAU9qj4ohD7?g_st=ipc","address":"ΑΓΙΟΣ ΔΗΜΗΤΡΙΟΣ, Αγ. Δημήτριος 840 06","categoryIds":["greek-restaurants"],"categories":["Greek Restaurants"]},"sameCategory":[{"id":"greekRestaurants_ec533605b182","slug":"to-akrogiali-ec53","kind":"restaurant","name":"Το Ακρογιάλι","lat":37.311210551504175,"lng":24.374424292363123,"url":"https://maps.app.goo.gl/iE2gh5mtyHCHtnZs7","address":"Αγ. Δημήτριος 840 06","categoryIds":["greek-restaurants"],"categories":["Greek Restaurants"]},{"id":"greekRestaurants_463de52b148c","slug":"restaurant-cafe-manjavinos-463d","kind":"restaurant","name":"Restaurant-cafe 'MANJAVINOS'","lat":37.34603270151496,"lng":24.430502124554476,"url":"https://maps.app.goo.gl/nHY3UgamjzyyjZF98?g_st=ipc","address":"Unnamed Road, Κανάλα 840 06","categoryIds":["greek-restaurants"],"categories":["Greek Restaurants"]},{"id":"greekRestaurants_a37bbb119452","slug":"archipelagos-restaurant-rooms-a37b","kind":"restaurant","name":"Archipelagos Restaurant & Rooms","lat":37.34777052448201,"lng":24.434798293695515,"url":"https://maps.app.goo.gl/KodGYY1d4Cqjk63n9?g_st=ipc","address":"Κανάλα 840 06","categoryIds":["greek-restaurants"],"categories":["Greek Restaurants"]},{"id":"greekRestaurants_cf9861d9b1ba","slug":"fourles-cf98","kind":"restaurant","name":"Fourles","lat":37.38863369970779,"lng":24.397655998320165,"url":"https://maps.app.goo.gl/m4rPqMjHikQUW4So9?g_st=ipc","address":"Λιμάνι Μέριχα ΚΥΘΝΟΣ, Μεριχας 840 06","categoryIds":["greek-restaurants"],"categories":["Greek Restaurants"]},{"id":"greekRestaurants_432f5403f78b","slug":"chartino-karavi-432f","kind":"restaurant","name":"ΧΑΡΤΙΝΟ ΚΑΡΑΒΙ","lat":37.382790599679765,"lng":24.431004817048752,"url":"https://maps.app.goo.gl/6a5xfQQ1xwApv9Eb7?g_st=ipc","address":"Δρυοπίδα 840 06","categoryIds":["greek-restaurants"],"categories":["Greek Restaurants"]},{"id":"greekRestaurants_4500da731c6a","slug":"to-steki-toy-ntetzi-4500","kind":"restaurant","name":"Το Στέκι του Ντέτζη","lat":37.412472796893596,"lng":24.43096202247223,"url":"https://maps.app.goo.gl/s21k1zGHkiQiQg4s7?g_st=ipc","address":"Κύθνος 840 06","categoryIds":["greek-restaurants"],"categories":["Greek Restaurants"]},{"id":"greekRestaurants_3ecbeb295bc4","slug":"giagia-koykoy-kythnos-3ecb","kind":"restaurant","name":"ΓΙΑΓΙΑ ΚΟΥΚΟΥ Kythnos","lat":37.41258086001589,"lng":24.43247179288349,"url":"https://maps.app.goo.gl/9L488c2BBbXHP1Yz9?g_st=ipc","address":"Ανεμομυλος, Κύθνος 840 06","categoryIds":["greek-restaurants"],"categories":["Greek Restaurants"]},{"id":"greekRestaurants_df3695f3e140","slug":"koytsikos-estiatorio-df36","kind":"restaurant","name":"Κούτσικος - Εστιατόριο","lat":37.436774168152716,"lng":24.424568422123198,"url":"https://maps.app.goo.gl/PTJMDf8CPhT12on69?g_st=ipc","address":"37°26'11.4\"N 24°25'28., 1, Σιντική 623 00","categoryIds":["greek-restaurants"],"categories":["Greek Restaurants"]},{"id":"greekRestaurants_68a9f7400481","slug":"to-steki-68a9","kind":"restaurant","name":"Το Στέκι","lat":37.64076026825118,"lng":24.343071921982645,"url":"https://maps.app.goo.gl/Jg5K19uN9xk81De17?g_st=ipc","address":"Ιουλίδα, Κέα 840 02","categoryIds":["greek-restaurants"],"categories":["Greek Restaurants"]},{"id":"greekRestaurants_259ad1a4a416","slug":"i-meropi-259a","kind":"restaurant","name":"Η ΜΕΡΟΠΗ","lat":36.98892038412835,"lng":24.67563104680434,"url":"https://maps.app.goo.gl/6mzPsRRf26rUzcpT7?g_st=ipc","address":"Καμάρες 840 03","categoryIds":["greek-restaurants"],"categories":["Greek Restaurants"]},{"id":"greekRestaurants_9e0c5c2d6f56","slug":"o-simos-9e0c","kind":"restaurant","name":"Ο ΣΙΜΟΣ","lat":36.98874960651575,"lng":24.675797411728432,"url":"https://maps.app.goo.gl/LmWkmfGPjhMBpKoQ6?g_st=ipc","address":"Καμάρες 840 03","categoryIds":["greek-restaurants"],"categories":["Greek Restaurants"]},{"id":"fishTavernasRestaurants_721ec670613c","slug":"ora-baresto-721e","kind":"restaurant","name":"ORA baresto","lat":37.398407848807196,"lng":24.87840275006321,"url":"https://maps.app.goo.gl/gop1o8sLeZBAttGy7?g_st=ipc","address":"Επαρχιακή Οδός Ερμούπολης-Φοίνικων,Φοίνικας 841 00 ΣΥΡΟΣ, 841 00","categoryIds":["fish-tavernas","greek-restaurants"],"categories":["Fish Tavernas","Greek Restaurants"],"legacySlugs":["ora-baresto-aeef"]}],"nearby":[{"id":"greekRestaurants_ec533605b182","slug":"to-akrogiali-ec53","kind":"restaurant","name":"Το Ακρογιάλι","lat":37.311210551504175,"lng":24.374424292363123,"url":"https://maps.app.goo.gl/iE2gh5mtyHCHtnZs7","address":"Αγ. Δημήτριος 840 06","categoryIds":["greek-restaurants"],"categories":["Greek Restaurants"],"distanceKm":0.07987498677165801},{"id":"greekRestaurants_463de52b148c","slug":"restaurant-cafe-manjavinos-463d","kind":"restaurant","name":"Restaurant-cafe 'MANJAVINOS'","lat":37.34603270151496,"lng":24.430502124554476,"url":"https://maps.app.goo.gl/nHY3UgamjzyyjZF98?g_st=ipc","address":"Unnamed Road, Κανάλα 840 06","categoryIds":["greek-restaurants"],"categories":["Greek Restaurants"],"distanceKm":6.368103316446095},{"id":"greekRestaurants_a37bbb119452","slug":"archipelagos-restaurant-rooms-a37b","kind":"restaurant","name":"Archipelagos Restaurant & Rooms","lat":37.34777052448201,"lng":24.434798293695515,"url":"https://maps.app.goo.gl/KodGYY1d4Cqjk63n9?g_st=ipc","address":"Κανάλα 840 06","categoryIds":["greek-restaurants"],"categories":["Greek Restaurants"],"distanceKm":6.786608907058798},{"id":"municipalities_ddb6cfae0477","slug":"kythnos-ddb6","kind":"municipality","name":"Κύθνος","lat":37.3833,"lng":24.4167,"region":"Κυκλάδες","name_en":"Kythnos","region_en":"Cyclades","distanceKm":8.922571096754876},{"id":"greekRestaurants_cf9861d9b1ba","slug":"fourles-cf98","kind":"restaurant","name":"Fourles","lat":37.38863369970779,"lng":24.397655998320165,"url":"https://maps.app.goo.gl/m4rPqMjHikQUW4So9?g_st=ipc","address":"Λιμάνι Μέριχα ΚΥΘΝΟΣ, Μεριχας 840 06","categoryIds":["greek-restaurants"],"categories":["Greek Restaurants"],"distanceKm":8.924123210723083},{"id":"coffeeBrunchRestaurants_b5b417f95cd1","slug":"maistrali-b5b4","kind":"restaurant","name":"Maistrali","lat":37.38947704282166,"lng":24.39834020618754,"url":"https://maps.app.goo.gl/P46Mc4PY3VqCeaVF8?g_st=ipc","address":"Merihas 840 06","categoryIds":["coffee-brunch"],"categories":["Coffee & Brunch Spots"],"distanceKm":9.0295733772805},{"id":"mustSeeAttractions_e7d3f595ce74","slug":"spilaio-katafyki-e7d3","kind":"restaurant","name":"Σπήλαιο Καταφύκι","lat":37.381809266398925,"lng":24.430137129464182,"url":"https://maps.app.goo.gl/ihjdRvavpYz6Jjd5A?g_st=ipc","address":"Δρυοπίδα 840 06","categoryIds":["attractions"],"categories":["Must-See Attractions"],"distanceKm":9.346815721593035},{"id":"coffeeBrunchRestaurants_c2c74292ab30","slug":"hamsa-beach-bar-restaurant-c2c7","kind":"restaurant","name":"Hamsa Beach Bar - Restaurant","lat":37.39312552655256,"lng":24.3982581144625,"url":"https://maps.app.goo.gl/atz6NCMG1oEDawJu9?g_st=ipc","address":"Μαρτινακια Κυθνος, 840 06","categoryIds":["coffee-brunch"],"categories":["Coffee & Brunch Spots"],"distanceKm":9.422297853171074},{"id":"coffeeBrunchRestaurants_0b65408056cb","slug":"jagger-0b65","kind":"restaurant","name":"Jagger","lat":37.382500546041285,"lng":24.430664724576324,"url":"https://maps.app.goo.gl/1vCbzZRojT45SSX8A?g_st=ipc","address":"Dryopida 840 06","categoryIds":["coffee-brunch"],"categories":["Coffee & Brunch Spots"],"distanceKm":9.43670172857832},{"id":"greekRestaurants_432f5403f78b","slug":"chartino-karavi-432f","kind":"restaurant","name":"ΧΑΡΤΙΝΟ ΚΑΡΑΒΙ","lat":37.382790599679765,"lng":24.431004817048752,"url":"https://maps.app.goo.gl/6a5xfQQ1xwApv9Eb7?g_st=ipc","address":"Δρυοπίδα 840 06","categoryIds":["greek-restaurants"],"categories":["Greek Restaurants"],"distanceKm":9.480002167971707},{"id":"fishTavernasRestaurants_3dad4b7d5b53","slug":"arodou-seafood-taverna-3dad","kind":"restaurant","name":"Arodou Seafood Taverna","lat":37.39685622322288,"lng":24.459369243856617,"url":"https://maps.app.goo.gl/LBNaRdz7e7zbNDVz5?g_st=ipc","address":"Unnamed Road, Kithnos 840 06","categoryIds":["fish-tavernas"],"categories":["Fish Tavernas"],"distanceKm":12.20697899653667},{"id":"dessertsRestaurants_1f27ca8b7f3d","slug":"gigil-1f27","kind":"restaurant","name":"gigil","lat":37.41243516402313,"lng":24.430965794947877,"url":"https://maps.app.goo.gl/g3BuCBsD757ceaUU6?g_st=ipc","address":"Κύθνος 840 06","categoryIds":["desserts"],"categories":["Dessert Shops"],"distanceKm":12.393053214853175},{"id":"greekRestaurants_4500da731c6a","slug":"to-steki-toy-ntetzi-4500","kind":"restaurant","name":"Το Στέκι του Ντέτζη","lat":37.412472796893596,"lng":24.43096202247223,"url":"https://maps.app.goo.gl/s21k1zGHkiQiQg4s7?g_st=ipc","address":"Κύθνος 840 06","categoryIds":["greek-restaurants"],"categories":["Greek Restaurants"],"distanceKm":12.396739365218696},{"id":"coffeeBrunchRestaurants_e658f493120b","slug":"sourloulou-kythnos-e658","kind":"restaurant","name":"Sourloulou Kythnos","lat":37.41243148353528,"lng":24.43143339817302,"url":"https://maps.app.goo.gl/FGzjfcUPBsXsNNqj9?g_st=ipc","address":"Θεολόγος, Kithnos 840 06","categoryIds":["coffee-brunch"],"categories":["Coffee & Brunch Spots"],"distanceKm":12.409559571952396},{"id":"coffeeBrunchRestaurants_b37184d12246","slug":"margiora-b371","kind":"restaurant","name":"Margiora","lat":37.412930533564115,"lng":24.430074872526156,"url":"https://maps.app.goo.gl/6LXk9Z8yUCSVckb96?g_st=ipc","address":"Κύθνος 840 06","categoryIds":["coffee-brunch"],"categories":["Coffee & Brunch Spots"],"distanceKm":12.411666640399112},{"id":"coffeeBrunchRestaurants_aa05248e4e74","slug":"apokalipsi-kythnos-aa05","kind":"restaurant","name":"Apokalipsi Kythnos","lat":37.4124761463021,"lng":24.431457541279233,"url":"https://maps.app.goo.gl/AbpuvqbsTCXHg2oa7?g_st=ipc","address":"Κυκλαδες, Kithnos 840 06","categoryIds":["coffee-brunch"],"categories":["Coffee & Brunch Spots"],"distanceKm":12.414963478810169},{"id":"greekRestaurants_3ecbeb295bc4","slug":"giagia-koykoy-kythnos-3ecb","kind":"restaurant","name":"ΓΙΑΓΙΑ ΚΟΥΚΟΥ Kythnos","lat":37.41258086001589,"lng":24.43247179288349,"url":"https://maps.app.goo.gl/9L488c2BBbXHP1Yz9?g_st=ipc","address":"Ανεμομυλος, Κύθνος 840 06","categoryIds":["greek-restaurants"],"categories":["Greek Restaurants"],"distanceKm":12.462558125115374},{"id":"greekRestaurants_df3695f3e140","slug":"koytsikos-estiatorio-df36","kind":"restaurant","name":"Κούτσικος - Εστιατόριο","lat":37.436774168152716,"lng":24.424568422123198,"url":"https://maps.app.goo.gl/PTJMDf8CPhT12on69?g_st=ipc","address":"37°26'11.4\"N 24°25'28., 1, Σιντική 623 00","categoryIds":["greek-restaurants"],"categories":["Greek Restaurants"],"distanceKm":14.723876515147975},{"id":"fishTavernasRestaurants_b7db512b75ba","slug":"arias-restaurant-kythnos-b7db","kind":"restaurant","name":"Arias restaurant Kythnos","lat":37.43805920967631,"lng":24.433681333413276,"url":"https://maps.app.goo.gl/GWWwUXx8q4vncoUU7?g_st=ipc","address":"Unnamed Road, Ag. Irini, Kithnos 840 06","categoryIds":["fish-tavernas"],"categories":["Fish Tavernas"],"distanceKm":15.122240429790294},{"id":"wineriesVineyards_659a4688a423","slug":"oinopoieio-chrysolora-659a","kind":"restaurant","name":"Οινοποιείο Χρυσολωρά","lat":37.186843478967006,"lng":24.50813577853972,"url":"https://maps.app.goo.gl/Mb44SR4hNKDDndUD6?g_st=ipc","address":"Φλάσκος - Προφήτης Ηλίας, Σέριφος 840 05","categoryIds":["wineries-vineyards"],"categories":["Wineries & Vineyards"],"distanceKm":18.18428710328284},{"id":"municipalities_402e7912632b","slug":"serifos-402e","kind":"municipality","name":"Σέριφος","lat":37.1537,"lng":24.5197,"aliases":["Σεριφος"],"region":"Κυκλάδες","name_en":"Serifos","region_en":"Cyclades","distanceKm":21.70608626864417},{"id":"fishTavernasRestaurants_8969975257d9","slug":"kalis-seafood-restaurant-8969","kind":"restaurant","name":"Kalis Seafood Restaurant","lat":37.142642900528166,"lng":24.514223256740497,"url":"https://maps.app.goo.gl/tQ8KG4SFF8YgjTwr9?g_st=ipc","address":"Λιβάδι 840 05","categoryIds":["fish-tavernas"],"categories":["Fish Tavernas"],"distanceKm":22.43467817513182}],"mentionedGuides":[],"canonicalSlug":"o-milas-estiatorio-792b","enrichment":{"summary_en":"Ο ΜΗΛΑΣ ΕΣΤΙΑΤΟΡΙΟ is a curated restaurant in Αγ. Δημήτριος 840 06 in the Greek Restaurants collection. It is connected to 1 nearby Googlementor picks to help travelers build a stronger local route.","summary_el":"Ο ΜΗΛΑΣ ΕΣΤΙΑΤΟΡΙΟ είναι ένα επιλεγμένο σημείο φαγητού στην περιοχή Αγ. Δημήτριος 840 06 και ανήκει στη συλλογή Greek Restaurants. Συνδέεται με 1 κοντινές προτάσεις του Googlementor για πιο ολοκληρωμένη εμπειρία.","vibe_tags":["curated"],"best_for":["first-time visitors","food lovers"],"visit_moments":["lunch stop","dinner stop"],"practical_note":"Address and direct map link are available for easy turn-by-turn access.","nearby_walkable_count":1,"nearby_count_2km":1,"confidence":0.9},"areaContext":null,"intentContexts":[]},"__N_SSG":true}