{"pageProps":{"entity":{"id":"cheapEatsRestaurants_3ea6371d1865","slug":"ochsenkopf-german-delicatessen-3ea6","kind":"restaurant","name":"Ochsenkopf German Delicatessen","lat":40.634945471087235,"lng":22.941783687986916,"url":"https://maps.app.goo.gl/B68oxS5kPucvmKVy7?g_st=ipc","address":"Αγορά Μοδιανο, Thessaloniki 546 24","categoryIds":["cheap-eats"],"categories":["Gyros & Cheap Eats"]},"sameCategory":[{"id":"cheapEatsRestaurants_5ddb8d5c463a","slug":"kyrios-mpampatsikos-5ddb","kind":"restaurant","name":"Κύριος Μπαμπάτσικος","lat":40.63461122232153,"lng":22.941727966275263,"url":"https://maps.app.goo.gl/dBrKhYFMn7bdAAyAA?g_st=ipc","address":"Vasileos Irakleiou 33, Thessaloniki 546 24","categoryIds":["cheap-eats"],"categories":["Gyros & Cheap Eats"]},{"id":"cheapEatsRestaurants_2a4da9b1c110","slug":"grn-2a4d","kind":"restaurant","name":"ΓΡΝ","lat":40.634922554090494,"lng":22.9424405001041,"url":"https://maps.app.goo.gl/QeUW3QZjeTvschnB8?g_st=ipc","address":"Ermou 24, Thessaloniki 546 24","categoryIds":["cheap-eats"],"categories":["Gyros & Cheap Eats"]},{"id":"cheapEatsRestaurants_e9c2d48343e0","slug":"bombidia-bombs-e9c2","kind":"restaurant","name":"Bombídia - Bombs","lat":40.63441434318281,"lng":22.94206825187552,"url":"https://maps.app.goo.gl/a5enHSGzpNb2rYAJ7?g_st=ipc","address":"Vasileos Irakleiou 35, 37, Thessaloniki 546 24","categoryIds":["cheap-eats"],"categories":["Gyros & Cheap Eats"]},{"id":"cheapEatsRestaurants_0768eebe37ba","slug":"o-gyros-tis-aristoteloys-0768","kind":"restaurant","name":"Ο Γύρος της Αριστοτέλους","lat":40.63507047582695,"lng":22.94368729541851,"url":"https://maps.app.goo.gl/j8pVp1d58tFR3FKR6?g_st=ipc","address":"Aristotélous 24, Thessaloniki 546 23","categoryIds":["cheap-eats"],"categories":["Gyros & Cheap Eats"]},{"id":"cheapEatsRestaurants_d643220ae6b0","slug":"thess-bao-d643","kind":"restaurant","name":"Thess Bao","lat":40.633724315611715,"lng":22.93899137586201,"url":"https://maps.app.goo.gl/eQJvB2FMkUEghr9y7?g_st=ipc","address":"Kalapothaki 3, Thessaloniki 546 45","categoryIds":["cheap-eats"],"categories":["Gyros & Cheap Eats"]},{"id":"cheapEatsRestaurants_d0809c48801b","slug":"22-soyvlakia-d080","kind":"restaurant","name":"22 Σουβλάκια","lat":40.632325575157445,"lng":22.941533229878075,"url":"https://maps.app.goo.gl/dAaaqBN4npr7HBBU7?g_st=ipc","address":"Aristotelous Sq 8, Thessaloniki 546 23","categoryIds":["cheap-eats"],"categories":["Gyros & Cheap Eats"]},{"id":"cheapEatsRestaurants_e0434e3ff629","slug":"kyr-giorgis-e043","kind":"restaurant","name":"Kyr Giorgis","lat":40.63768120747627,"lng":22.942676100417227,"url":"https://maps.app.goo.gl/BFLYuybZSdJEwfK87?g_st=ipc","address":"Βενιζέλου 54, Thessaloniki 546 31","categoryIds":["cheap-eats"],"categories":["Gyros & Cheap Eats"]},{"id":"burgersRestaurants_d27855febf5e","slug":"cantina-manara-d278","kind":"restaurant","name":"Cantina Manara","lat":40.6371113197463,"lng":22.93922534676657,"url":"https://maps.app.goo.gl/51NLWv682h6DK989A?g_st=ipc","address":"Στοά, Ermou 1, Thessaloniki 546 25","categoryIds":["burgers","cheap-eats"],"categories":["Burger Spots","Gyros & Cheap Eats"],"legacySlugs":["cantina-manara-3308"]},{"id":"cheapEatsRestaurants_284a6ef1dfeb","slug":"the-last-slice-284a","kind":"restaurant","name":"The Last Slice","lat":40.63188753569458,"lng":22.94190837965703,"url":"https://maps.app.goo.gl/iyZQfPWo4E2pskqX8?g_st=ipc","address":"Proxenou Koromila 1, Thessaloniki 546 23","categoryIds":["cheap-eats","italian"],"categories":["Gyros & Cheap Eats","Italian Restaurants"],"legacySlugs":["the-last-slice-2302"]},{"id":"cheapEatsRestaurants_a9f190908032","slug":"i-vromiara-the-gourmet-street-food-thessaloniki-a9f1","kind":"restaurant","name":"Η Βρωμιάρα - The Gourmet Street Food | Θεσσαλονικη","lat":40.63730784042486,"lng":22.939114096509012,"url":"https://maps.app.goo.gl/Z7BYjUBJYcnFTaEm9?g_st=ipc","address":"Siggrou 7, Thessaloniki 546 25","categoryIds":["cheap-eats"],"categories":["Gyros & Cheap Eats"]},{"id":"cheapEatsRestaurants_7d5766fbf936","slug":"sesoula-street-food-7d57","kind":"restaurant","name":"SESOULA Street Food","lat":40.63477422793839,"lng":22.937577409662797,"url":"https://maps.app.goo.gl/831RBk3hM78pZN1a8?g_st=ipc","address":"Mitropoleos 6, Thessaloniki 546 25","categoryIds":["cheap-eats"],"categories":["Gyros & Cheap Eats"]},{"id":"cheapEatsRestaurants_763f0b4ef33d","slug":"pizza-poselli-763f","kind":"restaurant","name":"Pízza Poselli","lat":40.63738632422352,"lng":22.938994583377827,"url":"https://maps.app.goo.gl/msSh5RZw3k81mKHWA?g_st=ipc","address":"Vilara 2, Thessaloniki 546 25","categoryIds":["cheap-eats","italian"],"categories":["Gyros & Cheap Eats","Italian Restaurants"],"legacySlugs":["pizza-poselli-5cd4"]}],"nearby":[{"id":"burgersRestaurants_e1c3b2a2acd7","slug":"tarantino-modiano-e1c3","kind":"restaurant","name":"Tarantino Modiano","lat":40.63523520193276,"lng":22.941893523743314,"url":"https://maps.app.goo.gl/bUgobpjQbL4yxA2J7?g_st=ipc","address":"Vasileos Irakleiou 33, Thessaloniki 546 24","categoryIds":["burgers"],"categories":["Burger Spots"],"distanceKm":0.0335232713594132},{"id":"vegetarianRestaurants_32a8aea960ab","slug":"falafel-taste-middle-east-32a8","kind":"restaurant","name":"Falafel Taste Middle East","lat":40.63474906740278,"lng":22.94144363936892,"url":"https://maps.app.goo.gl/WjaRXr3X47WgLXLC6?g_st=ipc","address":"Agora Modiano, Vasileos Irakleiou 33, Thessaloniki 546 24","categoryIds":["vegetarian"],"categories":["Vegetarian Friendly Restaurants"],"distanceKm":0.03605983792187371},{"id":"cheapEatsRestaurants_5ddb8d5c463a","slug":"kyrios-mpampatsikos-5ddb","kind":"restaurant","name":"Κύριος Μπαμπάτσικος","lat":40.63461122232153,"lng":22.941727966275263,"url":"https://maps.app.goo.gl/dBrKhYFMn7bdAAyAA?g_st=ipc","address":"Vasileos Irakleiou 33, Thessaloniki 546 24","categoryIds":["cheap-eats"],"categories":["Gyros & Cheap Eats"],"distanceKm":0.03746301026158267},{"id":"greekRestaurants_4c3b01ea4aaf","slug":"bazagiazi-4c3b","kind":"restaurant","name":"Bazagiazi","lat":40.63449745236604,"lng":22.94197317773979,"url":"https://maps.app.goo.gl/aQvcxn9tCqZ7ihHN7?g_st=ipc","address":"Vasileos Irakleiou 35, Thessaloniki 546 24","categoryIds":["greek-restaurants"],"categories":["Greek Restaurants"],"distanceKm":0.05232061433522277},{"id":"cheapEatsRestaurants_2a4da9b1c110","slug":"grn-2a4d","kind":"restaurant","name":"ΓΡΝ","lat":40.634922554090494,"lng":22.9424405001041,"url":"https://maps.app.goo.gl/QeUW3QZjeTvschnB8?g_st=ipc","address":"Ermou 24, Thessaloniki 546 24","categoryIds":["cheap-eats"],"categories":["Gyros & Cheap Eats"],"distanceKm":0.05548231486115755},{"id":"cheapEatsRestaurants_e9c2d48343e0","slug":"bombidia-bombs-e9c2","kind":"restaurant","name":"Bombídia - Bombs","lat":40.63441434318281,"lng":22.94206825187552,"url":"https://maps.app.goo.gl/a5enHSGzpNb2rYAJ7?g_st=ipc","address":"Vasileos Irakleiou 35, 37, Thessaloniki 546 24","categoryIds":["cheap-eats"],"categories":["Gyros & Cheap Eats"],"distanceKm":0.06375367205822366},{"id":"fishTavernasRestaurants_34f5266090d9","slug":"frutti-di-mare-34f5","kind":"restaurant","name":"Frutti Di Mare","lat":40.63438694848729,"lng":22.940888460152426,"url":"https://maps.app.goo.gl/QXynDpqsYRkbv9EK8?g_st=ipc","address":"Komninon 20, Thessaloniki 546 24","categoryIds":["fish-tavernas"],"categories":["Fish Tavernas"],"distanceKm":0.09779393952315019},{"id":"dessertsRestaurants_dcc7c5a7a10c","slug":"proficherie-dcc7","kind":"restaurant","name":"PROFICHÉRIE","lat":40.635435050961,"lng":22.940491002950786,"url":"https://maps.app.goo.gl/vrmA8yCaVwtzavyo7?g_st=ic","address":"El. Venizelou 28, Thessaloniki 546 24","categoryIds":["desserts"],"categories":["Dessert Shops"],"distanceKm":0.12191009965012281},{"id":"coffeeBrunchRestaurants_c75ff3cb9f5e","slug":"rafiki-outdoors-c75f","kind":"restaurant","name":"Rafiki Outdoors","lat":40.63384593288072,"lng":22.94144670060357,"url":"https://maps.app.goo.gl/EDFEAtyxnASt6ymy5?g_st=ipc","address":"Tsimiski 33, Thessaloniki 546 34","categoryIds":["coffee-brunch"],"categories":["Coffee & Brunch Spots"],"distanceKm":0.12552640149765915},{"id":"greekRestaurants_34eb138bccb6","slug":"paradosiako-kafeneio-stoy-mitsoy-34eb","kind":"restaurant","name":"Παραδοσιακό Καφενείο \"Στου Μήτσου\"","lat":40.636086191912526,"lng":22.942334253020217,"url":"https://maps.app.goo.gl/ZPKuMKk4XbPFHKGh9?g_st=ipc","address":"Βλάλη 11, Θεσσαλονίκη 546 24","categoryIds":["greek-restaurants"],"categories":["Greek Restaurants"],"distanceKm":0.13508265695416122},{"id":"cheapEatsRestaurants_0768eebe37ba","slug":"o-gyros-tis-aristoteloys-0768","kind":"restaurant","name":"Ο Γύρος της Αριστοτέλους","lat":40.63507047582695,"lng":22.94368729541851,"url":"https://maps.app.goo.gl/j8pVp1d58tFR3FKR6?g_st=ipc","address":"Aristotélous 24, Thessaloniki 546 23","categoryIds":["cheap-eats"],"categories":["Gyros & Cheap Eats"],"distanceKm":0.16123216712523702},{"id":"dessertsRestaurants_e887adc877c7","slug":"choureal-choux-profiterole-e887","kind":"restaurant","name":"CHOUREAL - Choux & Profiterole","lat":40.63486867839386,"lng":22.939852872521865,"url":"https://maps.app.goo.gl/UwfdcZR8Tfa1XRB89?g_st=ipc","address":"El. Venizelou 20, Thessaloniki 546 24","categoryIds":["desserts"],"categories":["Dessert Shops"],"distanceKm":0.16315163787211243},{"id":"coffeeBrunchRestaurants_7c923e1edd56","slug":"mi-me-lismonei-art-cafe-7c92","kind":"restaurant","name":"Mi Me Lismonei Art Café","lat":40.63629409662354,"lng":22.940981395583297,"url":"https://maps.app.goo.gl/Wi79HnpxEWDrQr5A8?g_st=ipc","address":"El. Venizelou 23, Thessaloniki 546 24","categoryIds":["coffee-brunch"],"categories":["Coffee & Brunch Spots"],"distanceKm":0.16453348886983057},{"id":"rooftopLoungesRestaurants_37ff1d604564","slug":"ennea-rooftop-bar-37ff","kind":"restaurant","name":"Ennea Rooftop Bar","lat":40.63386856558694,"lng":22.943170697637683,"url":"https://maps.app.goo.gl/BC4vj2HMkPaRWUJY6?g_st=ipc","address":"MonAsty Thessaloniki Autograph Collection, Vasileos Irakleiou 45, Thessaloniki 546 23","categoryIds":["rooftop-lounges"],"categories":["Rooftop Lounges"],"distanceKm":0.16744487755052478},{"id":"greekRestaurants_ef089e0b68dd","slug":"i-royga-ef08","kind":"restaurant","name":"Η Ρούγα","lat":40.63643483313158,"lng":22.940620107093462,"url":"https://maps.app.goo.gl/doL5QTrJdXUeuhcb9?g_st=ipc","address":"Καρίπη 28, Θεσσαλονίκη 546 24","categoryIds":["greek-restaurants"],"categories":["Greek Restaurants"],"distanceKm":0.19252756467802828},{"id":"rooftopLoungesRestaurants_c00e2007b8c8","slug":"orizontes-roof-garden-c00e","kind":"restaurant","name":"Orizontes Roof Garden","lat":40.63324843271599,"lng":22.94121400261453,"url":"https://maps.app.goo.gl/k4RMBTJaYnWPwHrU7?g_st=ipc","address":"Aristotelous Sq 9, Thessaloniki 546 24","categoryIds":["rooftop-lounges"],"categories":["Rooftop Lounges"],"distanceKm":0.19472908741069644},{"id":"vegetarianRestaurants_2475d58129d5","slug":"roots-2475","kind":"restaurant","name":"rOOTS","lat":40.63467670599439,"lng":22.944084463130924,"url":"https://maps.app.goo.gl/rcikrHzBuB8MLxMXA?g_st=ipc","address":"Mpalanou 4, Thessaloniki 546 23","categoryIds":["vegetarian"],"categories":["Vegetarian Friendly Restaurants"],"distanceKm":0.19643330470940012},{"id":"dessertsRestaurants_fa6b1cda2935","slug":"terkenlis-fa6b","kind":"restaurant","name":"Terkenlis","lat":40.63318101509439,"lng":22.941941930979123,"url":"https://maps.app.goo.gl/x8RmTioRat9tbKBd8?g_st=ipc","address":"Tsimiski 30, Thessaloniki 546 36","categoryIds":["desserts"],"categories":["Dessert Shops"],"distanceKm":0.19665243587321457},{"id":"coffeeBrunchRestaurants_225892e0cbdd","slug":"the-garden-bar-2258","kind":"restaurant","name":"The Garden Bar","lat":40.63514609058183,"lng":22.939331222845976,"url":"https://maps.app.goo.gl/KEZ45GJ89m9DDXvb6?g_st=ipc","address":"Ag. Mina 16, Thessaloniki 546 24","categoryIds":["coffee-brunch"],"categories":["Coffee & Brunch Spots"],"distanceKm":0.20814484582144696},{"id":"luxuryDiningRestaurants_1c1d2a89028b","slug":"clochard-1c1d","kind":"restaurant","name":"Clochard","lat":40.63347961221164,"lng":22.940223853089645,"url":"https://maps.app.goo.gl/kbkr5X52jL9fcqFi7?g_st=ipc","address":"Κομνηνών 10, Mitropoleos 23, Thessaloniki 546 24","categoryIds":["luxury-dining"],"categories":["Luxury Dining"],"distanceKm":0.2095061907130969},{"id":"dessertsRestaurants_70ba1f9e9560","slug":"sokolata-agapitos-patisserie-1944-70ba","kind":"restaurant","name":"Sokolata Agapitos Patisserie 1944","lat":40.63465415609907,"lng":22.93927735818438,"url":"https://maps.app.goo.gl/M7U7vTzULNaTuLAg7?g_st=ic","address":"Tsimiski 10, Thessaloniki 546 24","categoryIds":["desserts"],"categories":["Dessert Shops"],"distanceKm":0.21395831017979489},{"id":"coffeeBrunchRestaurants_eb01fc18d144","slug":"mangiare-gastro-pizza-pasta-bar-eb01","kind":"restaurant","name":"Mangiare Gastro Pizza Pasta Bar","lat":40.63353783457787,"lng":22.939678053388604,"url":"https://maps.app.goo.gl/aWDb6qE5HF6MmFreA?g_st=ipc","address":"Mitropoleos 20, Thessaloniki 546 24","categoryIds":["coffee-brunch"],"categories":["Coffee & Brunch Spots"],"distanceKm":0.23679081006711664},{"id":"dessertsRestaurants_77934967676e","slug":"souffler-7793","kind":"restaurant","name":"Soufflér","lat":40.63479159488401,"lng":22.93892769842922,"url":"https://maps.app.goo.gl/BLrPEMBFAqcE5fZP6?g_st=ipc","address":"Rogkoti 4, Thessaloniki 546 24","categoryIds":["desserts"],"categories":["Dessert Shops"],"distanceKm":0.24160378025514842},{"id":"asianRestaurants_7b20ac80bba4","slug":"hanaya-sushi-7b20","kind":"restaurant","name":"Hanaya Sushi","lat":40.6345384090758,"lng":22.93892478438703,"url":"https://maps.app.goo.gl/QoHkvVMWp7YGca2T8?g_st=ipc","address":"Rogkoti 4, Thessaloniki 546 24 (Bourla-Levi Building)","categoryIds":["asian"],"categories":["Asian Restaurants"],"distanceKm":0.2454530249239442}],"mentionedGuides":[],"canonicalSlug":"ochsenkopf-german-delicatessen-3ea6","enrichment":{"summary_en":"Ochsenkopf German Delicatessen is a curated restaurant in Thessaloniki 546 24 in the Gyros & Cheap Eats collection. It is connected to 182 nearby Googlementor picks to help travelers build a stronger local route.","summary_el":"Ochsenkopf German Delicatessen είναι ένα επιλεγμένο σημείο φαγητού στην περιοχή Thessaloniki 546 24 και ανήκει στη συλλογή Gyros & Cheap Eats. Συνδέεται με 182 κοντινές προτάσεις του Googlementor για πιο ολοκληρωμένη εμπειρία.","vibe_tags":["curated","budget-friendly"],"best_for":["first-time visitors","food lovers","budget travelers"],"visit_moments":["lunch stop","dinner stop"],"practical_note":"Address and direct map link are available for easy turn-by-turn access.","nearby_walkable_count":182,"nearby_count_2km":263,"confidence":0.98},"areaContext":{"slug":"ladadika","name":"Ladadika","nameEl":"Λαδάδικα"},"intentContexts":[{"href":"/cheap-eats/ladadika","label":"Gyros & Cheap Eats in Ladadika","categorySlug":"cheap-eats","categoryName":"Gyros & Cheap Eats","areaSlug":"ladadika","areaName":"Ladadika","areaNameEl":"Λαδάδικα"}]},"__N_SSG":true}