{"pageProps":{"entity":{"id":"italianRestaurants_764eadc47084","slug":"pizza-days-ano-liosion-764e","kind":"restaurant","name":"Pizza Days - Άνω Λιοσίων","lat":38.08738762293733,"lng":23.705019354443774,"url":"https://maps.app.goo.gl/j8oAF5aTcAufPq229?g_st=ipc","address":"Πηνειού 38, Άνω Λιόσια 133 41","categoryIds":["italian"],"categories":["Italian Restaurants"]},"sameCategory":[{"id":"italianRestaurants_27d92444b722","slug":"goloso-acharnes-27d9","kind":"restaurant","name":"GOLOSO - ΑΧΑΡΝΕΣ","lat":38.09475606530576,"lng":23.739483205778253,"url":"https://maps.app.goo.gl/fx2nPPeJ6gGMBbSBA","address":"Agiou Eleftheriou 18, Acharnes 136 74","categoryIds":["italian"],"categories":["Italian Restaurants"]},{"id":"italianRestaurants_c7fad2a2b587","slug":"parco-pizza-c7fa","kind":"restaurant","name":"PARCO PIZZA","lat":38.04774854674856,"lng":23.728958951505486,"url":"https://maps.app.goo.gl/UiJhpTwk6oBuPXFx9?g_st=ipc","address":"Λεωφ. Δημοκρατίας 9, Καματερό 134 51","categoryIds":["italian"],"categories":["Italian Restaurants"]},{"id":"italianRestaurants_9ad90cbc1718","slug":"goloso-cucina-e-pizza-italiana-9ad9","kind":"restaurant","name":"Goloso Cucina e Pizza Italiana","lat":38.034154813582916,"lng":23.69590782983928,"url":"https://maps.app.goo.gl/pg641ieu7sSBX3fa7","address":"Petroupoleos 68-70, Petroupoli 131 23","categoryIds":["italian"],"categories":["Italian Restaurants"]},{"id":"italianRestaurants_f98d171cbc3e","slug":"la-greca-ilion-f98d","kind":"restaurant","name":"La Greca Ίλιον","lat":38.033370068810264,"lng":23.70123370557317,"url":"https://maps.app.goo.gl/Btmva8rtUGkuoUtX6?g_st=ipc","address":"Έκτορος 140, Ίλιον 131 23","categoryIds":["italian"],"categories":["Italian Restaurants"]},{"id":"italianRestaurants_ae6165c67299","slug":"pastabar-ae61","kind":"restaurant","name":"pastabar","lat":38.03729506274719,"lng":23.739505873670616,"url":"https://maps.app.goo.gl/bRqX3YLuyGMaGs896?g_st=ipc","address":"Λεωφ. Δεκελείας 136, Νέα Φιλαδέλφεια Αττικής 143 41","categoryIds":["italian"],"categories":["Italian Restaurants"]},{"id":"italianRestaurants_d84ce5fee7c0","slug":"piazza-d-amore-d84c","kind":"restaurant","name":"Piazza D'Amore","lat":38.046873886500826,"lng":23.765946699532154,"url":"https://maps.app.goo.gl/m24wKNSPTHZaNPpA9?g_st=ipc","address":"28ης Οκτωβρίου 8, Ηράκλειο 141 21","categoryIds":["italian"],"categories":["Italian Restaurants"]},{"id":"italianRestaurants_9807c76fa027","slug":"kamikaze-9807","kind":"restaurant","name":"KAMIKAZE","lat":38.0243124367211,"lng":23.753568534514113,"url":"https://maps.app.goo.gl/nGW44VsbXXjFk6eF7?g_st=ipc","address":"Ναρκίσσου 34-36, Γαλάτσι 111 46","categoryIds":["italian"],"categories":["Italian Restaurants"]},{"id":"italianRestaurants_1b88f38100c7","slug":"the-italians-peristeri-1b88","kind":"restaurant","name":"The italians_peristeri","lat":38.01175840681134,"lng":23.693124439008372,"url":"https://maps.app.goo.gl/EPn5hzC47NSHkek9A?g_st=ipc","address":"Αιμιλίου Βεάκη 46, Περιστέρι 121 34","categoryIds":["italian"],"categories":["Italian Restaurants"]},{"id":"italianRestaurants_b8dec0e1044a","slug":"makaroynes-exceptional-cuisine-b8de","kind":"restaurant","name":"Μακαρούνες (exceptional cuisine)","lat":38.01172277822911,"lng":23.691017826226332,"url":"https://maps.app.goo.gl/h2o6228dtCcx8xr98?g_st=ipc","address":"Αιμιλίου Βεάκη 70, Περιστέρι 121 34","categoryIds":["italian"],"categories":["Italian Restaurants"]},{"id":"italianRestaurants_602b491bd8e4","slug":"puff-daddy-pizzeria-602b","kind":"restaurant","name":"Puff Daddy Pizzeria","lat":38.06473867888921,"lng":23.799010812565253,"url":"https://maps.app.goo.gl/kgXB1etikXQDGo7k6?g_st=ipc","address":"Σκρα 16, Πεύκη 151 21","categoryIds":["italian"],"categories":["Italian Restaurants"]},{"id":"italianRestaurants_e4215b95fee5","slug":"la-greca-peristeri-e421","kind":"restaurant","name":"La Greca Περιστέρι","lat":38.010196542861046,"lng":23.67916957954494,"url":"https://maps.app.goo.gl/HJ2LMpj8kWkR6MSZ9?g_st=ipc","address":"Τζων Κέννεντυ 149, Περιστέρι 121 36","categoryIds":["italian"],"categories":["Italian Restaurants"]},{"id":"italianRestaurants_c18420cfda0e","slug":"pizzamore-c184","kind":"restaurant","name":"Pizzamore","lat":38.01171283477954,"lng":23.755383909223237,"url":"https://maps.app.goo.gl/kYHyarXW2TAM2VEr9?g_st=ipc","address":"Πρωτοπαπαδάκη 20, Γαλάτσι 111 47","categoryIds":["italian"],"categories":["Italian Restaurants"]}],"nearby":[{"id":"greekRestaurants_9919fac2ca6c","slug":"mezedopoleio-aney-oron-9919","kind":"restaurant","name":"Μεζεδοπωλείο Άνευ Όρων","lat":38.07817620964211,"lng":23.702197123618852,"url":"https://maps.app.goo.gl/hQsQJwctvni6scyCA","address":"Δημαρχείου 8, Άνω Λιόσια 133 41","categoryIds":["greek-restaurants"],"categories":["Greek Restaurants"],"distanceKm":1.0536264141527676},{"id":"municipalities_f5c02f2a2ecc","slug":"acharnes-f5c0","kind":"municipality","name":"Αχαρνές","lat":38.0833,"lng":23.7333,"region":"Βόρεια/Ανατολικά","name_en":"Acharnes","region_en":"North/East","distanceKm":2.5165298773961386},{"id":"greekRestaurants_ecad8f17d794","slug":"taverna-kitsaronas-ecad","kind":"restaurant","name":"Ταβέρνα Κιτσαρώνας","lat":38.081090797205825,"lng":23.73517147403274,"url":"https://maps.app.goo.gl/CdrwzhJ6AF8GwRvr7","address":"Π. Μελά 8, Αχαρνές 136 75","categoryIds":["greek-restaurants"],"categories":["Greek Restaurants"],"distanceKm":2.7302813277296765},{"id":"familyFriendly_d9ebf8b00250","slug":"athlitiko-parko-parnithas-kai-moyseio-palaion-epaggelmaton-d9eb","kind":"restaurant","name":"Αθλητικό Πάρκο Πάρνηθας και Μουσείο Παλαιών Επαγγελμάτων","lat":38.11083610723094,"lng":23.69169674427175,"url":"https://maps.app.goo.gl/J7UHi8dDFoMJKKUh7?g_st=ipc","address":"Ρόδων, Άνω Λιόσια 133 43","categoryIds":["family-friendly"],"categories":["Kid Friendly Locations"],"distanceKm":2.856106004730498},{"id":"dessertsRestaurants_8a872edfde79","slug":"galaktopoleio-stamoy-8a87","kind":"restaurant","name":"Γαλακτοπωλείο ΣΤΑΜΟΥ","lat":38.06113010578425,"lng":23.71402739614515,"url":"https://maps.app.goo.gl/yspbknaZbJ3DjmUr6?g_st=ipc","address":"Λ, Φυλής 70, Καματερό 134 51","categoryIds":["desserts"],"categories":["Dessert Shops"],"distanceKm":3.024303499598052},{"id":"dessertsRestaurants_48328c9fc5f0","slug":"galaktopoleio-stamoy-4832","kind":"restaurant","name":"Γαλακτοπωλείο ΣΤΑΜΟΥ","lat":38.07926600844486,"lng":23.73816605072715,"url":"https://maps.app.goo.gl/kVZvesD6UgeQooPB9?g_st=ipc","address":"Κωνσταντινουπόλεως 307, Αχαρνές 136 74","categoryIds":["desserts"],"categories":["Dessert Shops"],"distanceKm":3.038413510694257},{"id":"italianRestaurants_27d92444b722","slug":"goloso-acharnes-27d9","kind":"restaurant","name":"GOLOSO - ΑΧΑΡΝΕΣ","lat":38.09475606530576,"lng":23.739483205778253,"url":"https://maps.app.goo.gl/fx2nPPeJ6gGMBbSBA","address":"Agiou Eleftheriou 18, Acharnes 136 74","categoryIds":["italian"],"categories":["Italian Restaurants"],"distanceKm":3.1253728906143126},{"id":"cheapEatsRestaurants_7db196676e19","slug":"karaflas-7db1","kind":"restaurant","name":"Καράφλας","lat":38.07655628972639,"lng":23.739456286868005,"url":"https://maps.app.goo.gl/DzK7LaFGANeLebDQ7?g_st=ipc","address":"Φιλαδέλφειας 56-58, Αχαρνές 136 71","categoryIds":["cheap-eats"],"categories":["Gyros & Cheap Eats"],"distanceKm":3.2458062983409297},{"id":"municipalities_c865ad4efc46","slug":"fyli-c865","kind":"municipality","name":"Φυλή","lat":38.0833,"lng":23.6667,"region":"Δυτική Αττική","name_en":"Fyli","region_en":"West Attica","distanceKm":3.3843978213303094},{"id":"greekRestaurants_5d8a4cf10a66","slug":"o-laios-taverna-5d8a","kind":"restaurant","name":"Ο Λάιος Ταβέρνα","lat":38.10626654490386,"lng":23.736261492242534,"url":"https://maps.app.goo.gl/r5ZTDusqKfZ21E9b8","address":"Λεωφ. Κωνσταντίνου Καραμανλή 6, Αχαρνές 136 72","categoryIds":["greek-restaurants"],"categories":["Greek Restaurants"],"distanceKm":3.4468895035331677},{"id":"cheapEatsRestaurants_372f0ee727b9","slug":"rigani-thymari-372f","kind":"restaurant","name":"Ρίγανη θυμάρι","lat":38.06157357464134,"lng":23.72960229805207,"url":"https://maps.app.goo.gl/Up1hU92hpZRnvgdJ8?g_st=ipc","address":"Αγίας Άννης 37, Αχαρνές 136 75","categoryIds":["cheap-eats"],"categories":["Gyros & Cheap Eats"],"distanceKm":3.5874151003002126},{"id":"dessertsRestaurants_4106b45265a3","slug":"bueno-4106","kind":"restaurant","name":"Bueno","lat":38.101101437687646,"lng":23.743308167267262,"url":"https://maps.app.goo.gl/3f4yVgyuCXzvh6Ac6?g_st=ipc","address":"Leof. Kon/nou Karamanli 53, Acharnes 136 72","categoryIds":["desserts"],"categories":["Dessert Shops"],"distanceKm":3.681336865623886},{"id":"coffeeBrunchRestaurants_3e87c6ffcc50","slug":"bueno-3e87","kind":"restaurant","name":"Bueno","lat":38.101108774458396,"lng":23.743311119938365,"url":"https://maps.app.goo.gl/nWns9tgS4rLXo1Dm9?g_st=ipc","address":"Λεωφ. Κωνσταντίνου Καραμανλή 53, Αχαρνές 136 72","categoryIds":["coffee-brunch"],"categories":["Coffee & Brunch Spots"],"distanceKm":3.68190987648409},{"id":"monasteriesChurches_03a62bb89dba","slug":"iera-moni-agioy-kyprianoy-03a6","kind":"restaurant","name":"Ιερά Μονή Αγίου Κυπριανού","lat":38.11439120183363,"lng":23.677888094487148,"url":"https://maps.app.goo.gl/4CSBCi4A57QqcY1JA?g_st=ipc","address":"μονη, Αγ. Κυπριανού, Φυλή 133 51","categoryIds":["monasteries-churches"],"categories":["Monasteries & Spiritual Sites"],"distanceKm":3.827799792010988},{"id":"familyFriendly_2b5afed6feac","slug":"aidonakia-playcity-2b5a","kind":"restaurant","name":"Αηδονάκια PlayCity","lat":38.09606577414195,"lng":23.75333886341834,"url":"https://maps.app.goo.gl/66tZd4g5Ha8fLC1g6?g_st=ipc","address":"Ξενοδοχοϋπαλλήλων 22, Αχαρνές 136 72","categoryIds":["family-friendly"],"categories":["Kid Friendly Locations"],"distanceKm":4.337295058902934},{"id":"municipalities_88064bcfc221","slug":"kamatero-8806","kind":"municipality","name":"Καματερό","lat":38.05,"lng":23.72,"region":"Δυτικά Προάστια","name_en":"Kamatero","region_en":"Western Suburbs","distanceKm":4.359251108292101},{"id":"familyFriendly_2b8da1a48e6d","slug":"paradise-park-2b8d","kind":"restaurant","name":"Paradise Park","lat":38.07150243306409,"lng":23.752975610444484,"url":"https://maps.app.goo.gl/gx1m825JjfkqNKfC6?g_st=ipc","address":"Ε.Ο. Κόμβος, Metamorfoseos 100, Acharnes 136 71","categoryIds":["family-friendly"],"categories":["Kid Friendly Locations"],"distanceKm":4.55401470780115},{"id":"dessertsRestaurants_0891a505b36b","slug":"galaktopoleio-stamoy-0891","kind":"restaurant","name":"Γαλακτοπωλείο Στάμου","lat":38.11472562186031,"lng":23.74537333629416,"url":"https://maps.app.goo.gl/4FRYPvoU2rB5btZX8?g_st=ipc","address":"Θρακομακεδόνων 154, Αχαρνές 136 79","categoryIds":["desserts"],"categories":["Dessert Shops"],"distanceKm":4.659290404425873},{"id":"italianRestaurants_c7fad2a2b587","slug":"parco-pizza-c7fa","kind":"restaurant","name":"PARCO PIZZA","lat":38.04774854674856,"lng":23.728958951505486,"url":"https://maps.app.goo.gl/UiJhpTwk6oBuPXFx9?g_st=ipc","address":"Λεωφ. Δημοκρατίας 9, Καματερό 134 51","categoryIds":["italian"],"categories":["Italian Restaurants"],"distanceKm":4.880527285864564},{"id":"familyFriendly_901096bfa3e5","slug":"mitropolitiko-parko-antonis-tritsis-9010","kind":"restaurant","name":"Μητροπολιτικό Πάρκο Αντώνης Τρίτσης","lat":38.04448272470426,"lng":23.721863541204524,"url":"https://maps.app.goo.gl/ruiCqSWVCT4XLQ6T7?g_st=ipc","address":"Σπύρου Μουστακλή 23, Ίλιον 131 22","categoryIds":["family-friendly"],"categories":["Kid Friendly Locations"],"distanceKm":4.993502222494677},{"id":"cheapEatsRestaurants_84f34ec821dd","slug":"o-stefanos-soyvlakia-84f3","kind":"restaurant","name":"Ο ΣΤΕΦΑΝΟΣ ΣΟΥΒΛΑΚΙΑ","lat":38.045163297484955,"lng":23.729228755056532,"url":"https://maps.app.goo.gl/Uog41UVXEyuZaDfdA?g_st=ipc","address":"Δεληγιάννη 71, Άγιοι Ανάργυροι 135 62","categoryIds":["cheap-eats"],"categories":["Gyros & Cheap Eats"],"distanceKm":5.151311567673977},{"id":"municipalities_f5a6fd333493","slug":"metamorfosi-f5a6","kind":"municipality","name":"Μεταμόρφωση","lat":38.0612,"lng":23.7544,"aliases":["Metamorfosi","Metamorphosi","Μεταμορφωση"],"region":"Βόρεια Προάστια","name_en":"Metamorfosi","region_en":"Northern Suburbs","distanceKm":5.21183281240862},{"id":"familyFriendly_ee34f2b0b4d6","slug":"luna-park-aidonakia-s-a-ee34","kind":"restaurant","name":"Luna Park Aidonakia S.A.","lat":38.04298329114164,"lng":23.72412165922102,"url":"https://maps.app.goo.gl/7i1TWYeF8ZyU3Vq47?g_st=ipc","address":"Leof. Dimokratias, Agii Anargiri 131 22","categoryIds":["family-friendly"],"categories":["Kid Friendly Locations"],"distanceKm":5.21304913181184},{"id":"cheapEatsRestaurants_1eb67b7cda57","slug":"kempaptzidikon-o-mpotsaris-kreatofageion-1eb6","kind":"restaurant","name":"Κεμπαπτζίδικον ο Μπότσαρης Κρεατοφαγείον","lat":38.04278396237398,"lng":23.683368051113483,"url":"https://maps.app.goo.gl/b9xJL1JcpT29iJ776?g_st=ipc","address":"25ης Μαρτίου 75, Πετρούπολη 132 31","categoryIds":["cheap-eats"],"categories":["Gyros & Cheap Eats"],"distanceKm":5.309558401997352}],"mentionedGuides":[],"canonicalSlug":"pizza-days-ano-liosion-764e","enrichment":{"summary_en":"Pizza Days - Άνω Λιοσίων is a curated restaurant in Άνω Λιόσια 133 41 in the Italian Restaurants collection. It is connected to 0 nearby Googlementor picks to help travelers build a stronger local route.","summary_el":"Pizza Days - Άνω Λιοσίων είναι ένα επιλεγμένο σημείο φαγητού στην περιοχή Άνω Λιόσια 133 41 και ανήκει στη συλλογή Italian Restaurants. Συνδέεται με 0 κοντινές προτάσεις του Googlementor για πιο ολοκληρωμένη εμπειρία.","vibe_tags":["curated"],"best_for":["first-time visitors","food lovers"],"visit_moments":["lunch stop","dinner stop"],"practical_note":"Address and direct map link are available for easy turn-by-turn access.","nearby_walkable_count":0,"nearby_count_2km":1,"confidence":0.9},"areaContext":{"slug":"acharnes","name":"Acharnes","nameEl":"Αχαρνές"},"intentContexts":[]},"__N_SSG":true}