{"pageProps":{"entity":{"id":"fishTavernasRestaurants_b12448499c96","slug":"psarotaverna-chamolia-b124","kind":"restaurant","name":"Ψαροταβέρνα Χαμολιά","lat":37.920806600246216,"lng":24.027771872272915,"url":"https://maps.app.goo.gl/f74w2o4iUn9xQDDs8?g_st=ipc","address":"Κλειούς, Βραυρώνα 190 03","categoryIds":["fish-tavernas"],"categories":["Fish Tavernas"]},"sameCategory":[{"id":"fishTavernasRestaurants_69aafe29cadb","slug":"the-coral-69aa","kind":"restaurant","name":"The Coral","lat":37.93546332991727,"lng":24.012144070196292,"url":"https://maps.app.goo.gl/LrMfAiKJ9cCQAH6v7?g_st=ipc","address":"Leof. Vravronos 367, Artemis 190 16","categoryIds":["fish-tavernas"],"categories":["Fish Tavernas"]},{"id":"fishTavernasRestaurants_1101abe83696","slug":"mezedopoleio-i-chira-1101","kind":"restaurant","name":"Μεζεδοπωλείο «Η Χηρα»","lat":37.939079061504245,"lng":24.016183745998713,"url":"https://maps.app.goo.gl/ZtfRTs2EoQpXQkyy8?g_st=ipc","address":"Αγίου Κωνσταντίνου και Ελένης, Άρτεμις 190 16","categoryIds":["fish-tavernas"],"categories":["Fish Tavernas"]},{"id":"fishTavernasRestaurants_7e271dc392e1","slug":"xypolitos-7e27","kind":"restaurant","name":"Ξυπόλητος","lat":37.99242931751304,"lng":24.031438739737503,"url":"https://maps.app.goo.gl/Z6jt2F2sqvbCMw5DA?g_st=ipc","address":"25ης Μαρτίου Αγιος Νικολας, Άρτεμις 190 16","categoryIds":["fish-tavernas"],"categories":["Fish Tavernas"]},{"id":"fishTavernasRestaurants_e10a32c39c5a","slug":"tom-psarotaverna-e10a","kind":"restaurant","name":"TOM Psarotaverna","lat":37.83896686862904,"lng":24.048707414360276,"url":"https://maps.app.goo.gl/ofvaTy2Fz5my1RhL9?g_st=ipc","address":"Παραλία Κακής Θαλάσσης 190 01","categoryIds":["fish-tavernas"],"categories":["Fish Tavernas"]},{"id":"fishTavernasRestaurants_f7b6756d4a93","slug":"psaraki-f7b6","kind":"restaurant","name":"ψαΡΑΚΙ","lat":37.83998892168737,"lng":23.92872058927444,"url":"https://maps.app.goo.gl/RqqP9EwfK4qQLD1v5?g_st=ipc","address":"Ευαγγελίστριας, Καλύβια Θορικού 190 10","categoryIds":["fish-tavernas"],"categories":["Fish Tavernas"]},{"id":"fishTavernasRestaurants_d1fdd80a5c4e","slug":"akrogiali-d1fd","kind":"restaurant","name":"Ακρογιάλι","lat":38.07176023911009,"lng":23.99585573289976,"url":"https://maps.app.goo.gl/xsBV1faj5k58gwi47?g_st=ipc","address":"Μιαούλη 8, Νέα Μάκρη 190 05","categoryIds":["fish-tavernas"],"categories":["Fish Tavernas"]},{"id":"fishTavernasRestaurants_0b56e36ee289","slug":"trata-i-0b56","kind":"restaurant","name":"ΤΡΑΤΑ (Η)","lat":38.09030258735327,"lng":23.982252068927664,"url":"https://maps.app.goo.gl/4cT7yir2FyLEmVPB8?g_st=ipc","address":"Λεωφ. Ποσειδώνος 30, Νέα Μάκρη 190 05","categoryIds":["fish-tavernas"],"categories":["Fish Tavernas"]},{"id":"fishTavernasRestaurants_120bf543e9c4","slug":"to-plokami-120b","kind":"restaurant","name":"Το πλοκάμι","lat":38.09102735114395,"lng":23.981804303325717,"url":"https://maps.app.goo.gl/QuJBtKF3QD3n78sW8?g_st=ipc","address":"Λεωφ. Ποσειδώνος, Νέα Μάκρη 190 05","categoryIds":["fish-tavernas"],"categories":["Fish Tavernas"]},{"id":"fishTavernasRestaurants_531d3190b4cc","slug":"ta-kalamia-531d","kind":"restaurant","name":"Τα Καλάμια","lat":37.79114152759292,"lng":23.879331978178946,"url":"https://maps.app.goo.gl/UabcyR39Vi7C4sYK7?g_st=ipc","address":"Αθηνων, Καλύβια Θορικού 190 10","categoryIds":["fish-tavernas"],"categories":["Fish Tavernas"]},{"id":"fishTavernasRestaurants_01155b02f60d","slug":"kyra-popi-taverna-0115","kind":"restaurant","name":"Κυρά Πόπη Ταβέρνα","lat":37.78165801312647,"lng":23.89057104630703,"url":"https://maps.app.goo.gl/inr16Vqi6f4XARj86?g_st=ipc","address":"40.5, Λεωφ. Αθηνών Σουνίου, Καλύβια Θορικού 190 10","categoryIds":["fish-tavernas"],"categories":["Fish Tavernas"]},{"id":"fishTavernasRestaurants_c8d79ddce787","slug":"ayra-c8d7","kind":"restaurant","name":"Αύρα","lat":38.09393032588583,"lng":23.981355142971612,"url":"https://maps.app.goo.gl/Qd74p6vmhVLEfQxg7?g_st=ipc","address":"Τέρμα, Λεωφ. Ποσειδώνος, Νέα Μάκρη 190 05","categoryIds":["fish-tavernas"],"categories":["Fish Tavernas"]},{"id":"fishTavernasRestaurants_06b05ccb28e3","slug":"o-foros-psarotaverna-06b0","kind":"restaurant","name":"Ο Φόρος Ψαροταβέρνα","lat":37.730230476020374,"lng":24.052869189449837,"url":"https://maps.app.goo.gl/3QEEjs3jdS92q1p9A?g_st=ipc","address":"Θορικό 195 00","categoryIds":["fish-tavernas"],"categories":["Fish Tavernas"]}],"nearby":[{"id":"fishTavernasRestaurants_69aafe29cadb","slug":"the-coral-69aa","kind":"restaurant","name":"The Coral","lat":37.93546332991727,"lng":24.012144070196292,"url":"https://maps.app.goo.gl/LrMfAiKJ9cCQAH6v7?g_st=ipc","address":"Leof. Vravronos 367, Artemis 190 16","categoryIds":["fish-tavernas"],"categories":["Fish Tavernas"],"distanceKm":2.129529551911734},{"id":"fishTavernasRestaurants_1101abe83696","slug":"mezedopoleio-i-chira-1101","kind":"restaurant","name":"Μεζεδοπωλείο «Η Χηρα»","lat":37.939079061504245,"lng":24.016183745998713,"url":"https://maps.app.goo.gl/ZtfRTs2EoQpXQkyy8?g_st=ipc","address":"Αγίου Κωνσταντίνου και Ελένης, Άρτεμις 190 16","categoryIds":["fish-tavernas"],"categories":["Fish Tavernas"],"distanceKm":2.2718286657174365},{"id":"mustSeeAttractions_28785f0c1603","slug":"naos-vrayronias-artemidos-2878","kind":"restaurant","name":"Ναός Βραυρωνίας Αρτέμιδος","lat":37.925951413998256,"lng":23.993485515950447,"url":"https://maps.app.goo.gl/GHxTmYXX8KQuXnnF8?g_st=ipc","address":"Βραυρώνα 190 03","categoryIds":["attractions"],"categories":["Must-See Attractions"],"distanceKm":3.061330253837788},{"id":"coffeeBrunchRestaurants_5b4cddd34628","slug":"mparko-5b4c","kind":"restaurant","name":"Μπάρκο","lat":37.89368052857063,"lng":24.013107601829738,"url":"https://maps.app.goo.gl/eVBj1NWi5ai3UMgQ9?g_st=ipc","address":"Λεωφ. Γ. Γρέγου 57, Πόρτο Ράφτη 190 23","categoryIds":["coffee-brunch"],"categories":["Coffee & Brunch Spots"],"distanceKm":3.279201102830534},{"id":"coffeeBrunchRestaurants_9c82093341f1","slug":"kazba-bar-kouzina-9c82","kind":"restaurant","name":"Kazba Bar Kouzina","lat":37.89105125077896,"lng":24.008282807805728,"url":"https://maps.app.goo.gl/RrMxEDqS2TizyDi36?g_st=ipc","address":"Λεωφ. Γ. Γρέγου 27, Πόρτο Ράφτη 190 03","categoryIds":["coffee-brunch"],"categories":["Coffee & Brunch Spots"],"distanceKm":3.724351675802741},{"id":"municipalities_a9741c8ba56d","slug":"artemida-a974","kind":"municipality","name":"Αρτέμιδα","lat":37.95,"lng":24,"region":"Ανατολικά Προάστια","name_en":"Artemida","region_en":"Eastern Suburbs","distanceKm":4.058281032343634},{"id":"wineriesVineyards_262c7717edc1","slug":"oinopoieio-papagiannakos-262c","kind":"restaurant","name":"Οινοποιείο Παπαγιαννάκος","lat":37.90457982525897,"lng":23.983420618508436,"url":"https://maps.app.goo.gl/nRd1KxMycS9cXqd6A?g_st=ipc","address":"Πυθαγόρα, Μαρκόπουλο Μεσογαίας 190 03","categoryIds":["wineries-vineyards"],"categories":["Wineries & Vineyards"],"distanceKm":4.288819459354589},{"id":"luxuryDiningRestaurants_1aa0e3418df4","slug":"nakal-state-of-mind-1aa0","kind":"restaurant","name":"Nakal State of Mind","lat":37.86969888591183,"lng":24.027576175967926,"url":"https://maps.app.goo.gl/9YgR6NNiMCEfXVTc6?g_st=ipc","address":"Αυλακίου 100, Πόρτο Ράφτη 190 03","categoryIds":["luxury-dining"],"categories":["Luxury Dining"],"distanceKm":5.682944490284479},{"id":"greekRestaurants_d0fbec7a3dcb","slug":"melikokon-mezedopoleio-porto-rafti-d0fb","kind":"restaurant","name":"MELIKOKON - MEZEDOPOLEIO - PORTO RAFTI","lat":37.867136583168865,"lng":24.038674142484993,"url":"https://maps.app.goo.gl/52G1EjfGK3qFyDtY6?g_st=ipc","address":"Τέρμα, Leof. Avlakiou, Porto Rafti 190 03","categoryIds":["greek-restaurants"],"categories":["Greek Restaurants"],"distanceKm":6.044025932086853},{"id":"mexicanRestaurants_3d3eda2795fe","slug":"ancho-3d3e","kind":"restaurant","name":"Ancho","lat":37.93619879432701,"lng":23.947326529806652,"url":"https://maps.app.goo.gl/vZsWgNz2ht7aShcY9","address":"Attiki Odos, Spata Artemida 190 04","categoryIds":["mexican"],"categories":["Mexican Restaurants"],"distanceKm":7.260332348306771},{"id":"dessertsRestaurants_244c93cd072a","slug":"terkenlis-el-venizelos-afixeis-244c","kind":"restaurant","name":"Τερκενλής Ελ. Βενιζέλος - Αφίξεις","lat":37.93767356668546,"lng":23.9476854578976,"url":"https://maps.app.goo.gl/VzWCZGWnxpdFBbDj6?g_st=ipc","address":"Αττική Οδός, Δήμος Σπάτων - Αρτέμιδος 190 04","categoryIds":["desserts"],"categories":["Dessert Shops"],"distanceKm":7.27024191631998},{"id":"fishTavernasRestaurants_7e271dc392e1","slug":"xypolitos-7e27","kind":"restaurant","name":"Ξυπόλητος","lat":37.99242931751304,"lng":24.031438739737503,"url":"https://maps.app.goo.gl/Z6jt2F2sqvbCMw5DA?g_st=ipc","address":"25ης Μαρτίου Αγιος Νικολας, Άρτεμις 190 16","categoryIds":["fish-tavernas"],"categories":["Fish Tavernas"],"distanceKm":7.9705690673099845},{"id":"municipalities_0633126f3d11","slug":"rafina-0633","kind":"municipality","name":"Ραφήνα","lat":38,"lng":24,"region":"Ανατολικά Προάστια","name_en":"Rafina","region_en":"Eastern Suburbs","distanceKm":9.136302085434313},{"id":"fishTavernasRestaurants_e10a32c39c5a","slug":"tom-psarotaverna-e10a","kind":"restaurant","name":"TOM Psarotaverna","lat":37.83896686862904,"lng":24.048707414360276,"url":"https://maps.app.goo.gl/ofvaTy2Fz5my1RhL9?g_st=ipc","address":"Παραλία Κακής Θαλάσσης 190 01","categoryIds":["fish-tavernas"],"categories":["Fish Tavernas"],"distanceKm":9.28380945010828},{"id":"cheapEatsRestaurants_34ddf07c2336","slug":"estiatorio-psistaria-sotiris-34dd","kind":"restaurant","name":"Εστιατόριο Ψησταριά Σωτήρης","lat":37.87939587296456,"lng":23.933984566615596,"url":"https://maps.app.goo.gl/U5qLZ6nCR7tW5r3u7?g_st=ipc","address":"Μυριννουντος 10, Μαρκόπουλο Μεσογαίας 190 03","categoryIds":["cheap-eats"],"categories":["Gyros & Cheap Eats"],"distanceKm":9.429782526047626},{"id":"familyFriendly_72e5a0b3386d","slug":"sports-park-72e5","kind":"restaurant","name":"SPORTS PARK","lat":37.97421350979179,"lng":23.929458278036556,"url":"https://maps.app.goo.gl/Jbrq2A31UzDnM1Ro7?g_st=ipc","address":"1 χλμ Σπατών, Πικερμίου, Σπάτα 190 04","categoryIds":["family-friendly"],"categories":["Kid Friendly Locations"],"distanceKm":10.468175930929474},{"id":"familyFriendly_1a210cb8c101","slug":"ippikos-omilos-koyvara-1a21","kind":"restaurant","name":"Ιππικός Όμιλος Κουβαρά","lat":37.827589338108154,"lng":23.987545277707177,"url":"https://maps.app.goo.gl/hsmq3SFgWsx53mPW7?g_st=ipc","address":"Αγίου Φανουρίου, Κουβαράς 190 03","categoryIds":["family-friendly"],"categories":["Kid Friendly Locations"],"distanceKm":10.950148003980237},{"id":"greekRestaurants_cc0b98bd06d3","slug":"gavrilis-taverna-cc0b","kind":"restaurant","name":"Γαβριλης Ταβερνα","lat":37.82834073423115,"lng":23.969307203160838,"url":"https://maps.app.goo.gl/bdVU3oQaAfncuVsN9","address":"Αγίου Δημητρίου, Κουβαράς 190 03","categoryIds":["greek-restaurants"],"categories":["Greek Restaurants"],"distanceKm":11.491181377310207},{"id":"municipalities_c6945cf2f481","slug":"spata-c694","kind":"municipality","name":"Σπάτα","lat":37.95,"lng":23.9,"region":"Ανατολικά Προάστια","name_en":"Spata","region_en":"Eastern Suburbs","distanceKm":11.666302556613871},{"id":"luxuryDiningRestaurants_d905caa27f80","slug":"meat-the-stars-d905","kind":"restaurant","name":"Meat the Stars","lat":38.00243883538717,"lng":23.941476693248035,"url":"https://maps.app.goo.gl/wrkHDhigdmHrrokL8?g_st=ipc","address":"Λεωφ. Μαραθώνος 63, Πικέρμι 190 09","categoryIds":["luxury-dining"],"categories":["Luxury Dining"],"distanceKm":11.816451166713156},{"id":"municipalities_a1757f1f5877","slug":"koropi-a175","kind":"municipality","name":"Κορωπί","lat":37.8833,"lng":23.9,"region":"Ανατολικά Προάστια","name_en":"Koropi","region_en":"Eastern Suburbs","distanceKm":11.961288630989683},{"id":"familyFriendly_db6ace0662f1","slug":"aquapolis-athens-db6a","kind":"restaurant","name":"Aquapolis Athens","lat":37.97858312845216,"lng":23.91151007116057,"url":"https://maps.app.goo.gl/5Ru3eXW4yXz7efi98?g_st=ic","address":"Θέση Γιαλού, Spata 190 04","categoryIds":["family-friendly"],"categories":["Kid Friendly Locations"],"distanceKm":12.04967535809943},{"id":"dessertsRestaurants_a5a68f44450d","slug":"pagota-glyka-alma-a5a6","kind":"restaurant","name":"Παγωτά - Γλυκά ALMA","lat":37.99764401288888,"lng":23.928554302603118,"url":"https://maps.app.goo.gl/5u8wGdMD9tri8wLBA?g_st=ipc","address":"19o ΧΛΜ, Λεωφ. Μαραθώνος, Ήμερος Πεύκος 190 09","categoryIds":["desserts"],"categories":["Dessert Shops"],"distanceKm":12.19276530992125},{"id":"familyFriendly_8ed15a9c84d5","slug":"attica-zoological-park-8ed1","kind":"restaurant","name":"Attica Zoological Park","lat":37.98044022083859,"lng":23.910805906852257,"url":"https://maps.app.goo.gl/f6rw3vWAJG1aAtPU6?g_st=ipc","address":"Spata 190 04","categoryIds":["family-friendly"],"categories":["Kid Friendly Locations"],"distanceKm":12.212722892780299}],"mentionedGuides":[],"canonicalSlug":"psarotaverna-chamolia-b124","enrichment":{"summary_en":"Ψαροταβέρνα Χαμολιά is a curated restaurant in Βραυρώνα 190 03 in the Fish Tavernas collection. It is connected to 0 nearby Googlementor picks to help travelers build a stronger local route.","summary_el":"Ψαροταβέρνα Χαμολιά είναι ένα επιλεγμένο σημείο φαγητού στην περιοχή Βραυρώνα 190 03 και ανήκει στη συλλογή Fish Tavernas. Συνδέεται με 0 κοντινές προτάσεις του Googlementor για πιο ολοκληρωμένη εμπειρία.","vibe_tags":["curated","seafood-local"],"best_for":["first-time visitors","food lovers"],"visit_moments":["lunch stop","dinner stop"],"practical_note":"Address and direct map link are available for easy turn-by-turn access.","nearby_walkable_count":0,"nearby_count_2km":0,"confidence":0.9},"areaContext":null,"intentContexts":[]},"__N_SSG":true}