{"pageProps":{"entity":{"id":"fishTavernasRestaurants_defc11d1130f","slug":"psaravolada-restaurant-defc","kind":"restaurant","name":"Psaravolada Restaurant","lat":36.67157549974308,"lng":24.505578356845632,"url":"https://maps.app.goo.gl/ywWETxsWSPkbUx8eA?g_st=ipc","address":"Ψαραβολάδα, Αγία Κυριακη 848 00","categoryIds":["fish-tavernas"],"categories":["Fish Tavernas"]},"sameCategory":[{"id":"fishTavernasRestaurants_4051f6c5c5f1","slug":"yalos-sifnos-4051","kind":"restaurant","name":"Yalos Sifnos","lat":36.93198313076824,"lng":24.73092559432301,"url":"https://maps.app.goo.gl/hct1BV2oGe6F3cM97?g_st=ipc","address":"Πλατύς Γιαλός 840 03","categoryIds":["fish-tavernas"],"categories":["Fish Tavernas"]},{"id":"fishTavernasRestaurants_c2965cc0335d","slug":"maiolica-sifnos-c296","kind":"restaurant","name":"Maiòlica Sifnos","lat":36.93201088219794,"lng":24.731152746803176,"url":"https://maps.app.goo.gl/RsiuxKtR7W21BNnb8?g_st=ipc","address":"Πλατύς Γιαλός 840 03","categoryIds":["fish-tavernas","luxury-dining"],"categories":["Fish Tavernas","Luxury Dining"],"legacySlugs":["maiolica-sifnos-5a94"]},{"id":"fishTavernasRestaurants_4baa7d7d1366","slug":"omega3-4baa","kind":"restaurant","name":"Omega3","lat":36.932052168795934,"lng":24.731352405475214,"url":"https://maps.app.goo.gl/jioScJGAm2izK6a49?g_st=ipc","address":"Πλατύς Γιαλός 840 03","categoryIds":["fish-tavernas"],"categories":["Fish Tavernas"]},{"id":"fishTavernasRestaurants_0067c5728086","slug":"alyelo-bar-restaurant-0067","kind":"restaurant","name":"Alyelo Bar Restaurant","lat":36.944070932851574,"lng":24.75112565793777,"url":"https://maps.app.goo.gl/R8Jg72P8QchmsSubA?g_st=ipc","address":"Φάρος 840 03","categoryIds":["fish-tavernas"],"categories":["Fish Tavernas"]},{"id":"fishTavernasRestaurants_4864e8e3be1a","slug":"angie-seaside-restaurant-4864","kind":"restaurant","name":"ANGIE seaside restaurant","lat":36.944136259291675,"lng":24.751012764820505,"url":"https://maps.app.goo.gl/bGogp723rTJwR3cx7?g_st=ipc","address":"Φαρος, Faros 840 03","categoryIds":["fish-tavernas"],"categories":["Fish Tavernas"]},{"id":"fishTavernasRestaurants_d069945d0fb2","slug":"pelicanos-d069","kind":"restaurant","name":"Pelicanos","lat":36.94422039775623,"lng":24.751254852785607,"url":"https://maps.app.goo.gl/xbF6ZRisum4Kfmgz5?g_st=ipc","address":"beach, Faros 840 03","categoryIds":["fish-tavernas"],"categories":["Fish Tavernas"]},{"id":"fishTavernasRestaurants_ce3871da46c4","slug":"captain-george-ce38","kind":"restaurant","name":"Captain George","lat":36.972680765040145,"lng":24.746232108057637,"url":"https://maps.app.goo.gl/XvLMJtYJDb2Y3mQR7?g_st=ipc","address":"Κάστρο 840 03","categoryIds":["fish-tavernas"],"categories":["Fish Tavernas"]},{"id":"fishTavernasRestaurants_8969975257d9","slug":"kalis-seafood-restaurant-8969","kind":"restaurant","name":"Kalis Seafood Restaurant","lat":37.142642900528166,"lng":24.514223256740497,"url":"https://maps.app.goo.gl/tQ8KG4SFF8YgjTwr9?g_st=ipc","address":"Λιβάδι 840 05","categoryIds":["fish-tavernas"],"categories":["Fish Tavernas"]},{"id":"fishTavernasRestaurants_027f6761e133","slug":"apoplous-greek-restaurant-027f","kind":"restaurant","name":"Apoplous Greek Restaurant","lat":36.99681929753503,"lng":25.136496141109756,"url":"https://maps.app.goo.gl/Akkg1SwxQNzQ7Qxb7?g_st=ipc","address":"Αλυκη Παρος, Aliki 844 00","categoryIds":["fish-tavernas"],"categories":["Fish Tavernas"]},{"id":"fishTavernasRestaurants_1b4735e87a52","slug":"koubara-seafood-bar-restaurant-1b47","kind":"restaurant","name":"Koubara Seafood Bar Restaurant","lat":36.72514063337273,"lng":25.257265066552723,"url":"https://maps.app.goo.gl/kT2ULB9zvGfgQDHr6?g_st=ipc","address":"Κουμπάρα 840 01","categoryIds":["fish-tavernas"],"categories":["Fish Tavernas"]},{"id":"fishTavernasRestaurants_371770ae7cd1","slug":"taverna-mouragio-3717","kind":"restaurant","name":"Taverna Mouragio","lat":37.08418771728996,"lng":25.146730718001848,"url":"https://maps.app.goo.gl/ScnZGixdZ4dqUL3V6?g_st=ipc","address":"Παροικία - Παραλιακός Δρόμος Παροικίας Παρος, 844 00","categoryIds":["fish-tavernas"],"categories":["Fish Tavernas"]},{"id":"fishTavernasRestaurants_6ff9bd52a54d","slug":"ouzeri-halaris-6ff9","kind":"restaurant","name":"Ouzeri Halaris","lat":37.03514430348778,"lng":25.26011593103973,"url":"https://maps.app.goo.gl/cqX5H5Ys7cUSx38m7?g_st=ipc","address":"Epar.Od. Parikias-Piso Livadiou, Piso Livadi 844 00","categoryIds":["fish-tavernas"],"categories":["Fish Tavernas"]}],"nearby":[{"id":"dessertsRestaurants_227e46360090","slug":"aggeliki-ice-cream-shop-227e","kind":"restaurant","name":"Aggeliki ice cream shop","lat":36.724956307095454,"lng":24.446679354720963,"url":"https://maps.app.goo.gl/Lr6pCYmiGibrxw1B7?g_st=ipc","address":"Greece, Adamas 848 00","categoryIds":["desserts"],"categories":["Dessert Shops"],"distanceKm":7.925083744674632},{"id":"municipalities_89c635fb5cca","slug":"adamantas-89c6","kind":"municipality","name":"Αδάμαντας","lat":36.7236,"lng":24.4446,"region":"Μήλος","name_en":"Adamas","region_en":"Milos","distanceKm":7.9385890693576275},{"id":"luxuryDiningRestaurants_9f9cf29a5760","slug":"makris-milos-fine-dining-restaurant-9f9c","kind":"restaurant","name":"Makris Milos Fine Dining Restaurant","lat":36.744626545035004,"lng":24.481317634143164,"url":"https://maps.app.goo.gl/DyjWXnMeBVwqWcfy6?g_st=ipc","address":"Mytakas, Island 848 00","categoryIds":["luxury-dining"],"categories":["Luxury Dining"],"distanceKm":8.405882152389633},{"id":"municipalities_9168baac00c3","slug":"pollonia-9168","kind":"municipality","name":"Πολλώνια","lat":36.7534,"lng":24.5087,"region":"Μήλος","name_en":"Pollonia","region_en":"Milos","distanceKm":9.102723338147806},{"id":"wineriesVineyards_946eb8e58cb0","slug":"kostantakis-winery-946e","kind":"restaurant","name":"Kostantakis Winery","lat":36.75755644321186,"lng":24.52676070016812,"url":"https://maps.app.goo.gl/6jEcs57aPdcQLmi17?g_st=ipc","address":"Πολλώνια 848 00","categoryIds":["wineries-vineyards"],"categories":["Wineries & Vineyards"],"distanceKm":9.74530252044622},{"id":"municipalities_e18b28aacc13","slug":"milos-e18b","kind":"municipality","name":"Μήλος","lat":36.7446,"lng":24.426,"aliases":["Μηλος"],"region":"Κυκλάδες","name_en":"Milos","region_en":"Cyclades","distanceKm":10.782278059426059},{"id":"municipalities_af26c33fb168","slug":"plaka-milos-af26","kind":"municipality","name":"Πλάκα Μήλος","lat":36.744,"lng":24.425,"region":"Μήλος","name_en":"Plaka Milos","region_en":"Milos","distanceKm":10.791274554160097},{"id":"coffeeBrunchRestaurants_22ed699a380f","slug":"mosaic-milos-22ed","kind":"restaurant","name":"Mosaic Milos","lat":36.74431276131015,"lng":24.421917244173116,"url":"https://maps.app.goo.gl/5Mzweh8YnbTNhVaQ9?g_st=ipc","address":"Plaka 848 00","categoryIds":["coffee-brunch","rooftop-lounges"],"categories":["Coffee & Brunch Spots","Rooftop Lounges"],"legacySlugs":["mosaic-milos-55f4"],"distanceKm":11.001646821765302},{"id":"municipalities_927aa23a9fc7","slug":"kimolos-927a","kind":"municipality","name":"Κίμωλος","lat":36.7783,"lng":24.575,"aliases":["Κιμωλος"],"region":"Κυκλάδες","name_en":"Kimolos","region_en":"Cyclades","distanceKm":13.383272096830218},{"id":"greekRestaurants_95678f462cb1","slug":"okeanida-9567","kind":"restaurant","name":"Ωκεανίδα","lat":36.93305392530472,"lng":24.690130051637126,"url":"https://maps.app.goo.gl/PhqjSxYuDqrVS2dw6?g_st=ipc","address":"Βαθύ 840 03","categoryIds":["greek-restaurants"],"categories":["Greek Restaurants"],"distanceKm":33.39688908698088},{"id":"fishTavernasRestaurants_4051f6c5c5f1","slug":"yalos-sifnos-4051","kind":"restaurant","name":"Yalos Sifnos","lat":36.93198313076824,"lng":24.73092559432301,"url":"https://maps.app.goo.gl/hct1BV2oGe6F3cM97?g_st=ipc","address":"Πλατύς Γιαλός 840 03","categoryIds":["fish-tavernas"],"categories":["Fish Tavernas"],"distanceKm":35.22791265792978},{"id":"fishTavernasRestaurants_c2965cc0335d","slug":"maiolica-sifnos-c296","kind":"restaurant","name":"Maiòlica Sifnos","lat":36.93201088219794,"lng":24.731152746803176,"url":"https://maps.app.goo.gl/RsiuxKtR7W21BNnb8?g_st=ipc","address":"Πλατύς Γιαλός 840 03","categoryIds":["fish-tavernas","luxury-dining"],"categories":["Fish Tavernas","Luxury Dining"],"legacySlugs":["maiolica-sifnos-5a94"],"distanceKm":35.24196884990015},{"id":"fishTavernasRestaurants_4baa7d7d1366","slug":"omega3-4baa","kind":"restaurant","name":"Omega3","lat":36.932052168795934,"lng":24.731352405475214,"url":"https://maps.app.goo.gl/jioScJGAm2izK6a49?g_st=ipc","address":"Πλατύς Γιαλός 840 03","categoryIds":["fish-tavernas"],"categories":["Fish Tavernas"],"distanceKm":35.255870883372694},{"id":"greekRestaurants_556ba6aea8bf","slug":"to-steki-556b","kind":"restaurant","name":"Το Στέκι","lat":36.932144891987825,"lng":24.732143733490126,"url":"https://maps.app.goo.gl/V9M4s1KNBNRDerWW8?g_st=ipc","address":"Πλατύς Γυαλός, Σίφνος 840 03","categoryIds":["greek-restaurants"],"categories":["Greek Restaurants"],"distanceKm":35.304544085093255},{"id":"coffeeBrunchRestaurants_bd7fc0151f49","slug":"fasolu-restaurant-beach-bar-bd7f","kind":"restaurant","name":"Fasolu Restaurant - Beach Bar","lat":36.941116049216255,"lng":24.753293392899685,"url":"https://maps.app.goo.gl/Lb3CYfu5rPNFtURu7?g_st=ipc","address":"Fassolou Beach, 840 03","categoryIds":["coffee-brunch"],"categories":["Coffee & Brunch Spots"],"distanceKm":37.21117305461442},{"id":"fishTavernasRestaurants_0067c5728086","slug":"alyelo-bar-restaurant-0067","kind":"restaurant","name":"Alyelo Bar Restaurant","lat":36.944070932851574,"lng":24.75112565793777,"url":"https://maps.app.goo.gl/R8Jg72P8QchmsSubA?g_st=ipc","address":"Φάρος 840 03","categoryIds":["fish-tavernas"],"categories":["Fish Tavernas"],"distanceKm":37.36282889230633},{"id":"fishTavernasRestaurants_4864e8e3be1a","slug":"angie-seaside-restaurant-4864","kind":"restaurant","name":"ANGIE seaside restaurant","lat":36.944136259291675,"lng":24.751012764820505,"url":"https://maps.app.goo.gl/bGogp723rTJwR3cx7?g_st=ipc","address":"Φαρος, Faros 840 03","categoryIds":["fish-tavernas"],"categories":["Fish Tavernas"],"distanceKm":37.36283582798485},{"id":"fishTavernasRestaurants_d069945d0fb2","slug":"pelicanos-d069","kind":"restaurant","name":"Pelicanos","lat":36.94422039775623,"lng":24.751254852785607,"url":"https://maps.app.goo.gl/xbF6ZRisum4Kfmgz5?g_st=ipc","address":"beach, Faros 840 03","categoryIds":["fish-tavernas"],"categories":["Fish Tavernas"],"distanceKm":37.383024123362695}],"mentionedGuides":[],"canonicalSlug":"psaravolada-restaurant-defc","enrichment":{"summary_en":"Psaravolada Restaurant is a curated restaurant in Αγία Κυριακη 848 00 in the Fish Tavernas collection. It is connected to 0 nearby Googlementor picks to help travelers build a stronger local route.","summary_el":"Psaravolada Restaurant είναι ένα επιλεγμένο σημείο φαγητού στην περιοχή Αγία Κυριακη 848 00 και ανήκει στη συλλογή Fish Tavernas. Συνδέεται με 0 κοντινές προτάσεις του Googlementor για πιο ολοκληρωμένη εμπειρία.","vibe_tags":["curated","seafood-local"],"best_for":["first-time visitors","food lovers"],"visit_moments":["lunch stop","dinner stop"],"practical_note":"Address and direct map link are available for easy turn-by-turn access.","nearby_walkable_count":0,"nearby_count_2km":0,"confidence":0.9},"areaContext":null,"intentContexts":[]},"__N_SSG":true}