{"pageProps":{"entity":{"id":"fishTavernasRestaurants_a407d0c7dcab","slug":"restaurant-sidera-a407","kind":"restaurant","name":"Restaurant Sidera","lat":39.96314971393841,"lng":23.382915590015017,"url":"https://maps.app.goo.gl/xDr9PEeg36c9PLKh7?g_st=ipc","address":"Possidi 630 77","categoryIds":["fish-tavernas"],"categories":["Fish Tavernas"]},"sameCategory":[{"id":"fishTavernasRestaurants_698f5e3c9fb8","slug":"mple-seaside-gastrobar-698f","kind":"restaurant","name":"Mple Seaside Gastrobar","lat":39.996322262418225,"lng":23.38211842182523,"url":"https://maps.app.goo.gl/59Aq6jZbxYFVPEPU7?g_st=ipc","address":"Σκάλα Φούρκας 630 77","categoryIds":["fish-tavernas"],"categories":["Fish Tavernas"]},{"id":"fishTavernasRestaurants_283debb71041","slug":"glykanisos-283d","kind":"restaurant","name":"Γλυκάνισος","lat":40.005631717428024,"lng":23.415752772781822,"url":"https://maps.app.goo.gl/7zcGKcrt65G6bQFf6?g_st=ipc","address":"Fourka 630 77","categoryIds":["fish-tavernas"],"categories":["Fish Tavernas"]},{"id":"fishTavernasRestaurants_192fa7a5e6f3","slug":"trizoni-sea-treasures-192f","kind":"restaurant","name":"Trizoni Sea Treasures","lat":40.03314898834852,"lng":23.476924334583536,"url":"https://maps.app.goo.gl/TbVXDeBneUxZKZxp7?g_st=ipc","address":"Trizoni Sea Treasures, Kriopigi 630 77","categoryIds":["fish-tavernas"],"categories":["Fish Tavernas"]},{"id":"fishTavernasRestaurants_fbb17c01a708","slug":"oceanides-seafood-restaurant-fbb1","kind":"restaurant","name":"Oceanides Seafood Restaurant","lat":40.10031320438252,"lng":23.437354189641624,"url":"https://maps.app.goo.gl/qubazwv6QdLJPnuv6?g_st=ipc","address":"Epar.Od. Paliouriou-Afitou, Afitos 630 77","categoryIds":["fish-tavernas"],"categories":["Fish Tavernas"]},{"id":"fishTavernasRestaurants_8245d15ce972","slug":"thea-thalassa-8245","kind":"restaurant","name":"Thea Thalassa","lat":40.100933443260715,"lng":23.43657383110183,"url":"https://maps.app.goo.gl/M9XGJaEeSqKPrPLY9?g_st=ipc","address":"Greece, Afitos 630 77","categoryIds":["fish-tavernas"],"categories":["Fish Tavernas"]},{"id":"fishTavernasRestaurants_713eeba74062","slug":"to-kyma-713e","kind":"restaurant","name":"To Kyma","lat":40.102311716094015,"lng":23.436768440109095,"url":"https://maps.app.goo.gl/AnRAQzdyuWf59ypc6?g_st=ipc","address":"Epar.Od. Paliouriou-Afitou, Afitos 630 77","categoryIds":["fish-tavernas"],"categories":["Fish Tavernas"]},{"id":"fishTavernasRestaurants_8b035bb05924","slug":"villa-stasa-sea-restaurant-8b03","kind":"restaurant","name":"Villa Stasa Sea Restaurant","lat":39.925439038727305,"lng":23.588406494329757,"url":"https://maps.app.goo.gl/DN12c6YKymvAuHE9A?g_st=ipc","address":"Loutra, Agia Paraskeui, Kassandra Chalkidiki 630 85","categoryIds":["fish-tavernas"],"categories":["Fish Tavernas"]},{"id":"coffeeBrunchRestaurants_03429eb3012a","slug":"mamalouka-beach-bar-0342","kind":"restaurant","name":"Mamalouka Beach Bar","lat":39.99397355305258,"lng":23.600497598852627,"url":"https://maps.app.goo.gl/PoTnpjRujbpdssuq7?g_st=ipc","address":"Unnamed Road, Kassandra 630 85","categoryIds":["coffee-brunch","fish-tavernas"],"categories":["Coffee & Brunch Spots","Fish Tavernas"],"legacySlugs":["mamalouka-beach-bar-b8de"]},{"id":"fishTavernasRestaurants_d7ed2778e57d","slug":"fish-tavern-tsaparis-d7ed","kind":"restaurant","name":"Fish Tavern Tsaparis","lat":39.98759758204977,"lng":23.614455119611083,"url":"https://maps.app.goo.gl/Mv522SonrUt6TBiLA?g_st=ipc","address":"Unnamed Rd, Greece, Pefkochori 630 85","categoryIds":["fish-tavernas"],"categories":["Fish Tavernas"]},{"id":"fishTavernasRestaurants_30c8fe6bb67b","slug":"bakalis-30c8","kind":"restaurant","name":"Bakalis","lat":39.98870698412509,"lng":23.62008792284829,"url":"https://maps.app.goo.gl/TYraAejWnPa3R12Q9?g_st=ipc","address":"Pefkochori 630 85","categoryIds":["fish-tavernas"],"categories":["Fish Tavernas"]},{"id":"fishTavernasRestaurants_360fe5857213","slug":"marina-360f","kind":"restaurant","name":"Marina","lat":40.19552411690556,"lng":23.323836693602985,"url":"https://maps.app.goo.gl/6oh9CPXimxwQ4vdG6?g_st=ipc","address":"POTIDAIA, Nea Potidea 632 00","categoryIds":["fish-tavernas"],"categories":["Fish Tavernas"]},{"id":"fishTavernasRestaurants_6e9e7a8ffef9","slug":"ta-kymata-fresh-fish-seafood-restaurant-6e9e","kind":"restaurant","name":"Ta Kymata - Fresh Fish & Seafood Restaurant","lat":40.09465479356917,"lng":23.781009690936443,"url":"https://maps.app.goo.gl/2y3hfnQFk6jPWzpm7?g_st=ipc","address":"Ιωάννη, Karra, Neos Marmaras 630 81","categoryIds":["fish-tavernas"],"categories":["Fish Tavernas"]}],"nearby":[{"id":"coffeeBrunchRestaurants_f963fc29535a","slug":"eldoris-restaurant-beach-bar-possidi-f963","kind":"restaurant","name":"Eldoris Restaurant Beach Bar Possidi","lat":39.971163869266604,"lng":23.3680455032056,"url":"https://maps.app.goo.gl/XPRD9cmkNsd1XQCDA?g_st=ipc","address":"Possidi 630 77","categoryIds":["coffee-brunch"],"categories":["Coffee & Brunch Spots"],"distanceKm":1.5492040776473786},{"id":"greekRestaurants_85a9c3158d92","slug":"stoy-thanasi-85a9","kind":"restaurant","name":"Στου Θανάση","lat":39.97151226037513,"lng":23.40064685012255,"url":"https://maps.app.goo.gl/M587jr7jBknUvhmQ9?g_st=ipc","address":"Unnamed Road, Καλάνδρα 630 77","categoryIds":["greek-restaurants"],"categories":["Greek Restaurants"],"distanceKm":1.7742640349759333},{"id":"coffeeBrunchRestaurants_c8f5eed1bfbd","slug":"encore-beach-bar-c8f5","kind":"restaurant","name":"Encore Beach Bar","lat":39.97745669933178,"lng":23.37333323221752,"url":"https://maps.app.goo.gl/USkZzCwrNThX7hj88?g_st=ipc","address":"Αιγαιοπελαγίτικα, Posidi 630 77","categoryIds":["coffee-brunch"],"categories":["Coffee & Brunch Spots"],"distanceKm":1.788199079333991},{"id":"coffeeBrunchRestaurants_f9a995ba9231","slug":"zattero-seaside-bar-f9a9","kind":"restaurant","name":"Zattero Seaside Bar","lat":39.989902440234324,"lng":23.37887042765103,"url":"https://maps.app.goo.gl/d978qu99YawDBboB8?g_st=ipc","address":"Σκάλα Φούρκας 630 77","categoryIds":["coffee-brunch"],"categories":["Coffee & Brunch Spots"],"distanceKm":2.994670267480996},{"id":"fishTavernasRestaurants_698f5e3c9fb8","slug":"mple-seaside-gastrobar-698f","kind":"restaurant","name":"Mple Seaside Gastrobar","lat":39.996322262418225,"lng":23.38211842182523,"url":"https://maps.app.goo.gl/59Aq6jZbxYFVPEPU7?g_st=ipc","address":"Σκάλα Φούρκας 630 77","categoryIds":["fish-tavernas"],"categories":["Fish Tavernas"],"distanceKm":3.689244418428647},{"id":"fishTavernasRestaurants_283debb71041","slug":"glykanisos-283d","kind":"restaurant","name":"Γλυκάνισος","lat":40.005631717428024,"lng":23.415752772781822,"url":"https://maps.app.goo.gl/7zcGKcrt65G6bQFf6?g_st=ipc","address":"Fourka 630 77","categoryIds":["fish-tavernas"],"categories":["Fish Tavernas"],"distanceKm":5.490114598289098},{"id":"greekRestaurants_37aeec286967","slug":"o-zachos-37ae","kind":"restaurant","name":"Ο Ζάχος","lat":40.01217335149507,"lng":23.447184477767923,"url":"https://maps.app.goo.gl/zwVdQG5iLtPWd8BUA?g_st=ipc","address":"0, Κασσανδρηνό 630 77","categoryIds":["greek-restaurants"],"categories":["Greek Restaurants"],"distanceKm":7.726298009237521},{"id":"municipalities_c475d7743b5a","slug":"kryopigi-c475","kind":"municipality","name":"Κρυοπηγή","lat":40.0403,"lng":23.4507,"region":"Χαλκιδική","name_en":"Kryopigi","region_en":"Halkidiki","distanceKm":10.340724674781598},{"id":"fishTavernasRestaurants_192fa7a5e6f3","slug":"trizoni-sea-treasures-192f","kind":"restaurant","name":"Trizoni Sea Treasures","lat":40.03314898834852,"lng":23.476924334583536,"url":"https://maps.app.goo.gl/TbVXDeBneUxZKZxp7?g_st=ipc","address":"Trizoni Sea Treasures, Kriopigi 630 77","categoryIds":["fish-tavernas"],"categories":["Fish Tavernas"],"distanceKm":11.167380978036023},{"id":"greekRestaurants_33e109e116ef","slug":"i-plateia-tis-anthoylas-33e1","kind":"restaurant","name":"Η Πλατεία της Ανθούλας","lat":40.03314783613042,"lng":23.477056436374422,"url":"https://maps.app.goo.gl/MZZAF1dJsdusePjd6?g_st=ipc","address":"Main road, Κρυοπηγή 630 77","categoryIds":["greek-restaurants"],"categories":["Greek Restaurants"],"distanceKm":11.175363676187652},{"id":"greekRestaurants_5bb44ebf778d","slug":"metoxi-restaurant-5bb4","kind":"restaurant","name":"Metoxi restaurant","lat":40.065274134226456,"lng":23.39221583090552,"url":"https://maps.app.goo.gl/7wBDRqK9LUsGSLah7?g_st=ipc","address":"Κασσανδρεία 630 77","categoryIds":["greek-restaurants"],"categories":["Greek Restaurants"],"distanceKm":11.383304982935256},{"id":"coffeeBrunchRestaurants_2451ebf0828a","slug":"agora-beach-greek-kouzina-beach-bar-2451","kind":"restaurant","name":"Agora Beach - Greek Kouzina & Beach Bar","lat":40.05004401134577,"lng":23.47152357517926,"url":"https://maps.app.goo.gl/cd42keBiiYDufY3k8?g_st=ipc","address":"Κρυοπηγη Χαλκιδική 630 77","categoryIds":["coffee-brunch"],"categories":["Coffee & Brunch Spots"],"distanceKm":12.26026887072051},{"id":"coffeeBrunchRestaurants_9b3f9081336d","slug":"amaya-beach-club-9b3f","kind":"restaurant","name":"Amaya Beach Club","lat":40.026446407870004,"lng":23.507188076460846,"url":"https://maps.app.goo.gl/DziL4jUhyUbQGmrNA?g_st=ipc","address":"2GG4+9J, Pallini 630 85","categoryIds":["coffee-brunch"],"categories":["Coffee & Brunch Spots"],"distanceKm":12.712529555218163},{"id":"coffeeBrunchRestaurants_b84b53e707eb","slug":"crystal-beach-bar-b84b","kind":"restaurant","name":"Crystal Beach Bar","lat":40.02336409343884,"lng":23.51395324156485,"url":"https://maps.app.goo.gl/Q863Q6e1e1985SvJ9?g_st=ipc","address":"Unnamed Road, Kassandra 630 85","categoryIds":["coffee-brunch"],"categories":["Coffee & Brunch Spots"],"distanceKm":13.016948849382093},{"id":"dessertsRestaurants_3b5bf46add7e","slug":"terkenlis-3b5b","kind":"restaurant","name":"Terkenlis","lat":40.07236945700872,"lng":23.44461611117606,"url":"https://maps.app.goo.gl/HGnMQLpSqcLam8fR7?g_st=ipc","address":"Δημόσια, Θεσσαλονικής, Kallithea 630 77","categoryIds":["desserts"],"categories":["Dessert Shops"],"distanceKm":13.232570227910136},{"id":"greekRestaurants_5f291c18ffbb","slug":"dias-restaurant-5f29","kind":"restaurant","name":"Dias Restaurant","lat":40.06967513248834,"lng":23.453446118410188,"url":"https://maps.app.goo.gl/CuNAkyg2DXjQVmd46?g_st=ipc","address":"Καλλιθέα Κασσανδρεια, Κασσανδρεία 630 77","categoryIds":["greek-restaurants"],"categories":["Greek Restaurants"],"distanceKm":13.280905120913358},{"id":"coffeeBrunchRestaurants_95ba17233631","slug":"almira-beach-bar-95ba","kind":"restaurant","name":"Almira beach bar","lat":40.072040605174976,"lng":23.452332342777385,"url":"https://maps.app.goo.gl/E5yFsVWCjLx3EVVM8?g_st=ipc","address":"Kassandra 630 77","categoryIds":["coffee-brunch"],"categories":["Coffee & Brunch Spots"],"distanceKm":13.474093943285235},{"id":"coffeeBrunchRestaurants_aaacdfd97bc2","slug":"lemonis-bakery-aaac","kind":"restaurant","name":"Lemonis Bakery","lat":40.01696151934303,"lng":23.52512566073754,"url":"https://maps.app.goo.gl/xaGsvgZfv5mMRi2e6?g_st=ipc","address":"Polychrono 630 85","categoryIds":["coffee-brunch"],"categories":["Coffee & Brunch Spots"],"distanceKm":13.512319737299572},{"id":"cheapEatsRestaurants_c1994e1056ff","slug":"andoni-s-gyros-feed-c199","kind":"restaurant","name":"Andoni's Gyros Feed","lat":40.07464288630586,"lng":23.448992983256165,"url":"https://maps.app.goo.gl/L8R286xrXF2isCzv6?g_st=ipc","address":"Καλλιθέα 630 77","categoryIds":["cheap-eats"],"categories":["Gyros & Cheap Eats"],"distanceKm":13.614687401671754},{"id":"municipalities_9110079bb855","slug":"polychrono-9110","kind":"municipality","name":"Πολύχρονο","lat":40.0153,"lng":23.5327,"region":"Χαλκιδική","name_en":"Polichrono","region_en":"Halkidiki","distanceKm":14.016479602861596},{"id":"municipalities_c1cea04425ed","slug":"kallithea-chalkidiki-c1ce","kind":"municipality","name":"Καλλιθέα Χαλκιδική","lat":40.08,"lng":23.448,"region":"Χαλκιδική","name_en":"Kallithea Halkidiki","region_en":"Halkidiki","distanceKm":14.125778691426499},{"id":"greekRestaurants_9f92ac7d9fa1","slug":"kardamo-9f92","kind":"restaurant","name":"Kardamo","lat":40.097556175200374,"lng":23.437132587550042,"url":"https://maps.app.goo.gl/ePoWRBDG86ratDjz8?g_st=ipc","address":"Άφυτος 630 77","categoryIds":["greek-restaurants"],"categories":["Greek Restaurants"],"distanceKm":15.64197650013147},{"id":"greekRestaurants_2313eb757566","slug":"to-palio-rementzo-2313","kind":"restaurant","name":"To Palio Rementzo","lat":40.09848139695357,"lng":23.43773202901174,"url":"https://maps.app.goo.gl/2T1nNQxZML5ZNxhC9?g_st=ipc","address":"Άφυτος 630 77","categoryIds":["greek-restaurants"],"categories":["Greek Restaurants"],"distanceKm":15.755337732469437},{"id":"fishTavernasRestaurants_fbb17c01a708","slug":"oceanides-seafood-restaurant-fbb1","kind":"restaurant","name":"Oceanides Seafood Restaurant","lat":40.10031320438252,"lng":23.437354189641624,"url":"https://maps.app.goo.gl/qubazwv6QdLJPnuv6?g_st=ipc","address":"Epar.Od. Paliouriou-Afitou, Afitos 630 77","categoryIds":["fish-tavernas"],"categories":["Fish Tavernas"],"distanceKm":15.940595758061978}],"mentionedGuides":[],"canonicalSlug":"restaurant-sidera-a407","enrichment":{"summary_en":"Restaurant Sidera is a curated restaurant in Greece in the Fish Tavernas collection. It is connected to 0 nearby Googlementor picks to help travelers build a stronger local route.","summary_el":"Restaurant Sidera είναι ένα επιλεγμένο σημείο φαγητού στην περιοχή Greece και ανήκει στη συλλογή Fish Tavernas. Συνδέεται με 0 κοντινές προτάσεις του Googlementor για πιο ολοκληρωμένη εμπειρία.","vibe_tags":["curated","seafood-local"],"best_for":["first-time visitors","food lovers"],"visit_moments":["lunch stop","dinner stop"],"practical_note":"Address and direct map link are available for easy turn-by-turn access.","nearby_walkable_count":0,"nearby_count_2km":3,"confidence":0.9},"areaContext":null,"intentContexts":[]},"__N_SSG":true}