{"pageProps":{"entity":{"id":"vegetarianRestaurants_2475d58129d5","slug":"roots-2475","kind":"restaurant","name":"rOOTS","lat":40.63467670599439,"lng":22.944084463130924,"url":"https://maps.app.goo.gl/rcikrHzBuB8MLxMXA?g_st=ipc","address":"Mpalanou 4, Thessaloniki 546 23","categoryIds":["vegetarian"],"categories":["Vegetarian Friendly Restaurants"]},"sameCategory":[{"id":"vegetarianRestaurants_32a8aea960ab","slug":"falafel-taste-middle-east-32a8","kind":"restaurant","name":"Falafel Taste Middle East","lat":40.63474906740278,"lng":22.94144363936892,"url":"https://maps.app.goo.gl/WjaRXr3X47WgLXLC6?g_st=ipc","address":"Agora Modiano, Vasileos Irakleiou 33, Thessaloniki 546 24","categoryIds":["vegetarian"],"categories":["Vegetarian Friendly Restaurants"]},{"id":"vegetarianRestaurants_1e9851e5feae","slug":"handwich-1e98","kind":"restaurant","name":"HANDWICH","lat":40.63375897578191,"lng":22.947935333630785,"url":"https://maps.app.goo.gl/JccdCGeGNfXKNSwQ7?g_st=ipc","address":"Egnatia 112, Thessaloniki 546 22","categoryIds":["vegetarian"],"categories":["Vegetarian Friendly Restaurants"]},{"id":"dessertsRestaurants_a6a41ba19f78","slug":"exereton-a6a4","kind":"restaurant","name":"Exereton","lat":40.63128878529408,"lng":22.94431478557479,"url":"https://maps.app.goo.gl/gScJKVggjQfTPnLP8?g_st=ipc","address":"Mitropoleos 69, Thessaloniki 546 23","categoryIds":["desserts","vegetarian"],"categories":["Dessert Shops","Vegetarian Friendly Restaurants"],"legacySlugs":["exereton-e657"]},{"id":"vegetarianRestaurants_ae93f5705c93","slug":"mushroom-skg-ae93","kind":"restaurant","name":"mushroom skg","lat":40.63168703304935,"lng":22.946978697189547,"url":"https://maps.app.goo.gl/F7WJFJ3rEhib4fX86?g_st=ipc","address":"Zefxidos 10, Thessaloniki 546 22","categoryIds":["vegetarian"],"categories":["Vegetarian Friendly Restaurants"]},{"id":"coffeeBrunchRestaurants_1b425a72f2b5","slug":"join-juice-bars-1b42","kind":"restaurant","name":"JOIN Juice bars","lat":40.63111893989398,"lng":22.94663938125253,"url":"https://maps.app.goo.gl/N6nKzENHvyunx5Mi6?g_st=ipc","address":"Paleon Patron Germanou 10, Thessaloniki 546 22","categoryIds":["coffee-brunch","vegetarian"],"categories":["Coffee & Brunch Spots","Vegetarian Friendly Restaurants"],"legacySlugs":["join-juice-bars-6dea"]},{"id":"vegetarianRestaurants_06643fab1947","slug":"the-heavy-melon-to-vari-peponi-0664","kind":"restaurant","name":"The Heavy Melon - To vari peponi","lat":40.6309548038653,"lng":22.94951618640559,"url":"https://maps.app.goo.gl/6ZPuKUN8mPNN6b4C9?g_st=ipc","address":"Apellou 4, Thessaloniki 546 22","categoryIds":["vegetarian"],"categories":["Vegetarian Friendly Restaurants"]},{"id":"vegetarianRestaurants_8b165a3d11ad","slug":"tarantoula-8b16","kind":"restaurant","name":"Tarantoúla","lat":40.635244984518486,"lng":22.952246319112277,"url":"https://maps.app.goo.gl/8ipQFrqJVpwS17GS7?g_st=ipc","address":"Olympou 127, Thessaloniki 546 35","categoryIds":["vegetarian"],"categories":["Vegetarian Friendly Restaurants"]},{"id":"vegetarianRestaurants_b82222e81ca2","slug":"merry-berry-health-bar-b822","kind":"restaurant","name":"Merry Berry Health Bar","lat":40.62787788837935,"lng":22.947534537868144,"url":"https://maps.app.goo.gl/9NhW77pMY2C6xJxq8?g_st=ipc","address":"Dim. Gounari 5, Thessaloniki 546 22","categoryIds":["vegetarian"],"categories":["Vegetarian Friendly Restaurants"]},{"id":"coffeeBrunchRestaurants_459993a6b6f4","slug":"join-juice-bars-4599","kind":"restaurant","name":"JOIN juice bars","lat":40.62769069211422,"lng":22.947117280367095,"url":"https://maps.app.goo.gl/7fKny43wd3q96T1s5?g_st=ipc","address":"Leof. Nikis 73, Thessaloniki 546 22","categoryIds":["coffee-brunch","vegetarian"],"categories":["Coffee & Brunch Spots","Vegetarian Friendly Restaurants"],"legacySlugs":["join-juice-bars-c6f3"]},{"id":"vegetarianRestaurants_43af59721fc8","slug":"omg-in-skg-43af","kind":"restaurant","name":"OMG in SKG","lat":40.63186182844344,"lng":22.953097770969947,"url":"https://maps.app.goo.gl/b6twRtPbJbTuXUe26?g_st=ipc","address":"Episkopou Kitrous Nikolaou 1, Thessaloniki 546 35","categoryIds":["vegetarian"],"categories":["Vegetarian Friendly Restaurants"]},{"id":"vegetarianRestaurants_40634af2ec79","slug":"falafel-taste-middle-east-4063","kind":"restaurant","name":"Falafel Taste Middle East","lat":40.62785484140031,"lng":22.949330420414434,"url":"https://maps.app.goo.gl/bHy6BTfdp9RBhdBt6?g_st=ipc","address":"Mitropoleos 106 &, Romanou, Thessaloniki 546 21","categoryIds":["vegetarian"],"categories":["Vegetarian Friendly Restaurants"]},{"id":"coffeeBrunchRestaurants_9b9341bfba14","slug":"join-juice-bars-9b93","kind":"restaurant","name":"JOIN juice bars","lat":40.646571727400875,"lng":22.92141339579847,"url":"https://maps.app.goo.gl/pSgB53k7vyQwHX78A?g_st=ipc","address":"Giannitson 61, Thessaloniki 546 27","categoryIds":["coffee-brunch","vegetarian"],"categories":["Coffee & Brunch Spots","Vegetarian Friendly Restaurants"],"legacySlugs":["join-juice-bars-3c92"]}],"nearby":[{"id":"cheapEatsRestaurants_0768eebe37ba","slug":"o-gyros-tis-aristoteloys-0768","kind":"restaurant","name":"Ο Γύρος της Αριστοτέλους","lat":40.63507047582695,"lng":22.94368729541851,"url":"https://maps.app.goo.gl/j8pVp1d58tFR3FKR6?g_st=ipc","address":"Aristotélous 24, Thessaloniki 546 23","categoryIds":["cheap-eats"],"categories":["Gyros & Cheap Eats"],"distanceKm":0.05513934842930562},{"id":"greekRestaurants_ec89737f5dbf","slug":"katsamaka-ec89","kind":"restaurant","name":"Κατσαμάκα","lat":40.63449406102341,"lng":22.94471496310578,"url":"https://maps.app.goo.gl/seYvnbwfcs9jJUEh9?g_st=ipc","address":"Αυγερινού, Αθωνος 18-20, Θεσσαλονίκη 546 23","categoryIds":["greek-restaurants"],"categories":["Greek Restaurants"],"distanceKm":0.056948238561145316},{"id":"dessertsRestaurants_7c2b277fb20b","slug":"sweet-garden-7c2b","kind":"restaurant","name":"Sweet garden","lat":40.63410476799262,"lng":22.94497199045663,"url":"https://maps.app.goo.gl/bB7Rqx6yTjnB1W5m8?g_st=ipc","address":"Ermou 69, Thessaloniki 546 23","categoryIds":["desserts"],"categories":["Dessert Shops"],"distanceKm":0.09825202891412643},{"id":"rooftopLoungesRestaurants_37ff1d604564","slug":"ennea-rooftop-bar-37ff","kind":"restaurant","name":"Ennea Rooftop Bar","lat":40.63386856558694,"lng":22.943170697637683,"url":"https://maps.app.goo.gl/BC4vj2HMkPaRWUJY6?g_st=ipc","address":"MonAsty Thessaloniki Autograph Collection, Vasileos Irakleiou 45, Thessaloniki 546 23","categoryIds":["rooftop-lounges"],"categories":["Rooftop Lounges"],"distanceKm":0.11840824396244473},{"id":"coffeeBrunchRestaurants_c803c29789d7","slug":"peach-boy-c803","kind":"restaurant","name":"Peach Boy","lat":40.633714458831285,"lng":22.944751777282193,"url":"https://maps.app.goo.gl/7wXxWHC7mrvUfoqf8?g_st=ipc","address":"Ermou 44, Thessaloniki 546 23","categoryIds":["coffee-brunch"],"categories":["Coffee & Brunch Spots"],"distanceKm":0.12091004932997074},{"id":"rooftopLoungesRestaurants_28b6f524a86b","slug":"bey-hamam-28b6","kind":"restaurant","name":"Bey Hamam","lat":40.635414762374545,"lng":22.945319011313067,"url":"https://maps.app.goo.gl/962RzcGYY41GffHm7?g_st=ipc","address":"Εγνατία, Mitropolitou Gennadiou 34, Thessaloniki 546 25","categoryIds":["rooftop-lounges"],"categories":["Rooftop Lounges"],"distanceKm":0.1326180282794609},{"id":"cheapEatsRestaurants_2a4da9b1c110","slug":"grn-2a4d","kind":"restaurant","name":"ΓΡΝ","lat":40.634922554090494,"lng":22.9424405001041,"url":"https://maps.app.goo.gl/QeUW3QZjeTvschnB8?g_st=ipc","address":"Ermou 24, Thessaloniki 546 24","categoryIds":["cheap-eats"],"categories":["Gyros & Cheap Eats"],"distanceKm":0.14139068088530155},{"id":"cheapEatsRestaurants_e9c2d48343e0","slug":"bombidia-bombs-e9c2","kind":"restaurant","name":"Bombídia - Bombs","lat":40.63441434318281,"lng":22.94206825187552,"url":"https://maps.app.goo.gl/a5enHSGzpNb2rYAJ7?g_st=ipc","address":"Vasileos Irakleiou 35, 37, Thessaloniki 546 24","categoryIds":["cheap-eats"],"categories":["Gyros & Cheap Eats"],"distanceKm":0.17261800120815213},{"id":"greekRestaurants_4c3b01ea4aaf","slug":"bazagiazi-4c3b","kind":"restaurant","name":"Bazagiazi","lat":40.63449745236604,"lng":22.94197317773979,"url":"https://maps.app.goo.gl/aQvcxn9tCqZ7ihHN7?g_st=ipc","address":"Vasileos Irakleiou 35, Thessaloniki 546 24","categoryIds":["greek-restaurants"],"categories":["Greek Restaurants"],"distanceKm":0.17926900562755912},{"id":"coffeeBrunchRestaurants_bb53d56df5ab","slug":"candybar-bb53","kind":"restaurant","name":"Candybar","lat":40.63307970052453,"lng":22.944591933924332,"url":"https://maps.app.goo.gl/Qxj6VN1pGyEntd7A9?g_st=ipc","address":"Ag. Theodoras 4, Thessaloniki 546 23","categoryIds":["coffee-brunch"],"categories":["Coffee & Brunch Spots"],"distanceKm":0.18266921156705787},{"id":"burgersRestaurants_e1c3b2a2acd7","slug":"tarantino-modiano-e1c3","kind":"restaurant","name":"Tarantino Modiano","lat":40.63523520193276,"lng":22.941893523743314,"url":"https://maps.app.goo.gl/bUgobpjQbL4yxA2J7?g_st=ipc","address":"Vasileos Irakleiou 33, Thessaloniki 546 24","categoryIds":["burgers"],"categories":["Burger Spots"],"distanceKm":0.19502948260104247},{"id":"cheapEatsRestaurants_3ea6371d1865","slug":"ochsenkopf-german-delicatessen-3ea6","kind":"restaurant","name":"Ochsenkopf German Delicatessen","lat":40.634945471087235,"lng":22.941783687986916,"url":"https://maps.app.goo.gl/B68oxS5kPucvmKVy7?g_st=ipc","address":"Αγορά Μοδιανο, Thessaloniki 546 24","categoryIds":["cheap-eats"],"categories":["Gyros & Cheap Eats"],"distanceKm":0.19643330470940012},{"id":"cheapEatsRestaurants_5ddb8d5c463a","slug":"kyrios-mpampatsikos-5ddb","kind":"restaurant","name":"Κύριος Μπαμπάτσικος","lat":40.63461122232153,"lng":22.941727966275263,"url":"https://maps.app.goo.gl/dBrKhYFMn7bdAAyAA?g_st=ipc","address":"Vasileos Irakleiou 33, Thessaloniki 546 24","categoryIds":["cheap-eats"],"categories":["Gyros & Cheap Eats"],"distanceKm":0.19898236475488107},{"id":"coffeeBrunchRestaurants_ed0ec5618011","slug":"las-ramblas-breakfast-and-coffee-brewers-skg-ed0e","kind":"restaurant","name":"Las Ramblas Breakfast and Coffee Brewers Skg","lat":40.63291948975748,"lng":22.944963559301026,"url":"https://maps.app.goo.gl/mae23zznYmk6BnJ5A?g_st=ipc","address":"Ag. Theodoras 8, Thessaloniki 546 23","categoryIds":["coffee-brunch"],"categories":["Coffee & Brunch Spots"],"distanceKm":0.20900144379466384},{"id":"greekRestaurants_34eb138bccb6","slug":"paradosiako-kafeneio-stoy-mitsoy-34eb","kind":"restaurant","name":"Παραδοσιακό Καφενείο \"Στου Μήτσου\"","lat":40.636086191912526,"lng":22.942334253020217,"url":"https://maps.app.goo.gl/ZPKuMKk4XbPFHKGh9?g_st=ipc","address":"Βλάλη 11, Θεσσαλονίκη 546 24","categoryIds":["greek-restaurants"],"categories":["Greek Restaurants"],"distanceKm":0.21534856379873624},{"id":"coffeeBrunchRestaurants_b487090aef38","slug":"moonkiz-cafe-b487","kind":"restaurant","name":"Moonkiz Café","lat":40.63268245780202,"lng":22.944199601012993,"url":"https://maps.app.goo.gl/34HUt3Zqr1wPaAQUA?g_st=ipc","address":"Geor. Stavrou 8, Thessaloniki 546 23","categoryIds":["coffee-brunch"],"categories":["Coffee & Brunch Spots"],"distanceKm":0.22196302680586502},{"id":"vegetarianRestaurants_32a8aea960ab","slug":"falafel-taste-middle-east-32a8","kind":"restaurant","name":"Falafel Taste Middle East","lat":40.63474906740278,"lng":22.94144363936892,"url":"https://maps.app.goo.gl/WjaRXr3X47WgLXLC6?g_st=ipc","address":"Agora Modiano, Vasileos Irakleiou 33, Thessaloniki 546 24","categoryIds":["vegetarian"],"categories":["Vegetarian Friendly Restaurants"],"distanceKm":0.2229865362871115},{"id":"coffeeBrunchRestaurants_c75ff3cb9f5e","slug":"rafiki-outdoors-c75f","kind":"restaurant","name":"Rafiki Outdoors","lat":40.63384593288072,"lng":22.94144670060357,"url":"https://maps.app.goo.gl/EDFEAtyxnASt6ymy5?g_st=ipc","address":"Tsimiski 33, Thessaloniki 546 34","categoryIds":["coffee-brunch"],"categories":["Coffee & Brunch Spots"],"distanceKm":0.24099276521216062},{"id":"dessertsRestaurants_fa6b1cda2935","slug":"terkenlis-fa6b","kind":"restaurant","name":"Terkenlis","lat":40.63318101509439,"lng":22.941941930979123,"url":"https://maps.app.goo.gl/x8RmTioRat9tbKBd8?g_st=ipc","address":"Tsimiski 30, Thessaloniki 546 36","categoryIds":["desserts"],"categories":["Dessert Shops"],"distanceKm":0.24565682806281153},{"id":"fishTavernasRestaurants_34f5266090d9","slug":"frutti-di-mare-34f5","kind":"restaurant","name":"Frutti Di Mare","lat":40.63438694848729,"lng":22.940888460152426,"url":"https://maps.app.goo.gl/QXynDpqsYRkbv9EK8?g_st=ipc","address":"Komninon 20, Thessaloniki 546 24","categoryIds":["fish-tavernas"],"categories":["Fish Tavernas"],"distanceKm":0.2716076831092386},{"id":"dessertsRestaurants_3b2fc988e719","slug":"cookie-man-3b2f","kind":"restaurant","name":"Cookie Man","lat":40.632757475000446,"lng":22.946181479303316,"url":"https://maps.app.goo.gl/WDjY5yJNSF5kSpkeA?g_st=ipc","address":"Makenzi King 8, Thessaloniki 546 22","categoryIds":["desserts"],"categories":["Dessert Shops"],"distanceKm":0.27723025550995517},{"id":"greekRestaurants_13c994d14935","slug":"taverna-oyzeri-kosmas-13c9","kind":"restaurant","name":"Ταβέρνα - Ουζερί Κοσμάς","lat":40.635727203567235,"lng":22.94715477968318,"url":"https://maps.app.goo.gl/9edjcaLLqs3ZFkL47?g_st=ipc","address":"Πλάτωνος 15, Θεσσαλονίκη 546 31","categoryIds":["greek-restaurants"],"categories":["Greek Restaurants"],"distanceKm":0.2841966930440067},{"id":"rooftopLoungesRestaurants_c00e2007b8c8","slug":"orizontes-roof-garden-c00e","kind":"restaurant","name":"Orizontes Roof Garden","lat":40.63324843271599,"lng":22.94121400261453,"url":"https://maps.app.goo.gl/k4RMBTJaYnWPwHrU7?g_st=ipc","address":"Aristotelous Sq 9, Thessaloniki 546 24","categoryIds":["rooftop-lounges"],"categories":["Rooftop Lounges"],"distanceKm":0.2896446649231997},{"id":"coffeeBrunchRestaurants_3daa295f084c","slug":"olympion-cafe-bar-1951-3daa","kind":"restaurant","name":"Olympion Cafe Bar 1951","lat":40.632694674088896,"lng":22.941732044946015,"url":"https://maps.app.goo.gl/jjCCeEkXCKm7ow7v6?g_st=ipc","address":"Aristotelous Sq 10, Thessaloniki 546 23","categoryIds":["coffee-brunch"],"categories":["Coffee & Brunch Spots"],"distanceKm":0.29661072326554816}],"mentionedGuides":[],"canonicalSlug":"roots-2475","enrichment":{"summary_en":"rOOTS is a curated restaurant in Thessaloniki 546 23 in the Vegetarian Friendly Restaurants collection. It is connected to 208 nearby Googlementor picks to help travelers build a stronger local route.","summary_el":"rOOTS είναι ένα επιλεγμένο σημείο φαγητού στην περιοχή Thessaloniki 546 23 και ανήκει στη συλλογή Vegetarian Friendly Restaurants. Συνδέεται με 208 κοντινές προτάσεις του Googlementor για πιο ολοκληρωμένη εμπειρία.","vibe_tags":["curated"],"best_for":["first-time visitors","food lovers"],"visit_moments":["lunch stop","dinner stop"],"practical_note":"Address and direct map link are available for easy turn-by-turn access.","nearby_walkable_count":208,"nearby_count_2km":265,"confidence":0.98},"areaContext":{"slug":"ladadika","name":"Ladadika","nameEl":"Λαδάδικα"},"intentContexts":[{"href":"/vegetarian/ladadika","label":"Vegetarian Friendly Restaurants in Ladadika","categorySlug":"vegetarian","categoryName":"Vegetarian Friendly Restaurants","areaSlug":"ladadika","areaName":"Ladadika","areaNameEl":"Λαδάδικα"}]},"__N_SSG":true}