{"pageProps":{"entity":{"id":"cheapEatsRestaurants_e80e8a708de9","slug":"salento-wood-fired-street-food-e80e","kind":"restaurant","name":"Salento Wood Fired Street Food","lat":40.639269734572295,"lng":22.943990430297482,"url":"https://maps.app.goo.gl/6mWAWHUbEwXuAb589?g_st=ipc","address":"El. Venizelou 76, Thessaloniki 546 31","categoryIds":["cheap-eats","italian"],"categories":["Gyros & Cheap Eats","Italian Restaurants"],"legacySlugs":["salento-wood-fired-street-food-39b7"]},"sameCategory":[{"id":"cheapEatsRestaurants_9e348b58c806","slug":"plateia-bit-pazar-9e34","kind":"restaurant","name":"Plateia Bit pazar","lat":40.63891956491642,"lng":22.94393646377273,"url":"https://maps.app.goo.gl/HfoTaA81WJgTcqWp6?g_st=ipc","address":"Προσφυγική Αγορά 16 Β, Thessaloniki 546 31","categoryIds":["cheap-eats"],"categories":["Gyros & Cheap Eats"]},{"id":"cheapEatsRestaurants_5cdb8c7a5460","slug":"favela-bit-bazar-5cdb","kind":"restaurant","name":"FAVELA Bit Bazar","lat":40.63897345242983,"lng":22.94448760793796,"url":"https://maps.app.goo.gl/Pr2NGoHPa59C1JPVA?g_st=ipc","address":"Olympou 72, Thessaloniki 546 31","categoryIds":["cheap-eats"],"categories":["Gyros & Cheap Eats"]},{"id":"cheapEatsRestaurants_97b044a97fc0","slug":"mangia-mi-97b0","kind":"restaurant","name":"MANGIA MI","lat":40.63806065407829,"lng":22.943092100104018,"url":"https://maps.app.goo.gl/swPLtX8A41RYYYN68?g_st=ipc","address":"El. Venizelou 60, Thessaloniki 546 31","categoryIds":["cheap-eats"],"categories":["Gyros & Cheap Eats"]},{"id":"cheapEatsRestaurants_6807fa813ea0","slug":"porkitto-gyradiko-soyvlaki-stefanoy-parthena-thessaloniki-6807","kind":"restaurant","name":"PORKITTO - ΓΥΡΑΔΙΚΟ - ΣΟΥΒΛΑΚΙ - ΣΤΕΦΑΝΟΥ ΠΑΡΘΕΝΑ - ΘΕΣΣΑΛΟΝΙΚΗ","lat":40.64044750261407,"lng":22.942776573082938,"url":"https://maps.app.goo.gl/GvH8vhGT4BrR9x9WA?g_st=ipc","address":"Καραολή και Δημητρίου 52, Thessaloniki 546 30","categoryIds":["cheap-eats"],"categories":["Gyros & Cheap Eats"]},{"id":"cheapEatsRestaurants_e0434e3ff629","slug":"kyr-giorgis-e043","kind":"restaurant","name":"Kyr Giorgis","lat":40.63768120747627,"lng":22.942676100417227,"url":"https://maps.app.goo.gl/BFLYuybZSdJEwfK87?g_st=ipc","address":"Βενιζέλου 54, Thessaloniki 546 31","categoryIds":["cheap-eats"],"categories":["Gyros & Cheap Eats"]},{"id":"cheapEatsRestaurants_f0f66d3f1d3f","slug":"hot-dog-land-f0f6","kind":"restaurant","name":"HOT DOG Land","lat":40.63820917018459,"lng":22.947895316027907,"url":"https://maps.app.goo.gl/Y7VQCwH5JjChrXDb9?g_st=ipc","address":"Ag. Dimitriou 100, Thessaloniki 546 31","categoryIds":["cheap-eats"],"categories":["Gyros & Cheap Eats"]},{"id":"cheapEatsRestaurants_6f8bdca7e315","slug":"aigli-24h-crepe-toast-coffee-bougatsa-6f8b","kind":"restaurant","name":"\"AIGLI\" 24h CREPE-toast-coffee-BOUGATSA","lat":40.638115571761915,"lng":22.948717629555613,"url":"https://maps.app.goo.gl/LWSzARXmcX6GhcQdA?g_st=ipc","address":"Ag. Dimitriou 89, Thessaloniki 546 33","categoryIds":["cheap-eats"],"categories":["Gyros & Cheap Eats"]},{"id":"cheapEatsRestaurants_41498834b457","slug":"crats-fried-chicken-egnatia-4149","kind":"restaurant","name":"Crats Fried Chicken Egnatia","lat":40.63898844732417,"lng":22.938638631354078,"url":"https://maps.app.goo.gl/ck9L5Pz4C9MGKVbV7?g_st=ipc","address":"Egnatia 27, Thessaloniki 546 30","categoryIds":["cheap-eats"],"categories":["Gyros & Cheap Eats"]},{"id":"cheapEatsRestaurants_a9f190908032","slug":"i-vromiara-the-gourmet-street-food-thessaloniki-a9f1","kind":"restaurant","name":"Η Βρωμιάρα - The Gourmet Street Food | Θεσσαλονικη","lat":40.63730784042486,"lng":22.939114096509012,"url":"https://maps.app.goo.gl/Z7BYjUBJYcnFTaEm9?g_st=ipc","address":"Siggrou 7, Thessaloniki 546 25","categoryIds":["cheap-eats"],"categories":["Gyros & Cheap Eats"]},{"id":"cheapEatsRestaurants_0768eebe37ba","slug":"o-gyros-tis-aristoteloys-0768","kind":"restaurant","name":"Ο Γύρος της Αριστοτέλους","lat":40.63507047582695,"lng":22.94368729541851,"url":"https://maps.app.goo.gl/j8pVp1d58tFR3FKR6?g_st=ipc","address":"Aristotélous 24, Thessaloniki 546 23","categoryIds":["cheap-eats"],"categories":["Gyros & Cheap Eats"]},{"id":"burgersRestaurants_d27855febf5e","slug":"cantina-manara-d278","kind":"restaurant","name":"Cantina Manara","lat":40.6371113197463,"lng":22.93922534676657,"url":"https://maps.app.goo.gl/51NLWv682h6DK989A?g_st=ipc","address":"Στοά, Ermou 1, Thessaloniki 546 25","categoryIds":["burgers","cheap-eats"],"categories":["Burger Spots","Gyros & Cheap Eats"],"legacySlugs":["cantina-manara-3308"]},{"id":"cheapEatsRestaurants_763f0b4ef33d","slug":"pizza-poselli-763f","kind":"restaurant","name":"Pízza Poselli","lat":40.63738632422352,"lng":22.938994583377827,"url":"https://maps.app.goo.gl/msSh5RZw3k81mKHWA?g_st=ipc","address":"Vilara 2, Thessaloniki 546 25","categoryIds":["cheap-eats","italian"],"categories":["Gyros & Cheap Eats","Italian Restaurants"],"legacySlugs":["pizza-poselli-5cd4"]}],"nearby":[{"id":"cheapEatsRestaurants_9e348b58c806","slug":"plateia-bit-pazar-9e34","kind":"restaurant","name":"Plateia Bit pazar","lat":40.63891956491642,"lng":22.94393646377273,"url":"https://maps.app.goo.gl/HfoTaA81WJgTcqWp6?g_st=ipc","address":"Προσφυγική Αγορά 16 Β, Thessaloniki 546 31","categoryIds":["cheap-eats"],"categories":["Gyros & Cheap Eats"],"distanceKm":0.039202448102122624},{"id":"greekRestaurants_20a08b488f9b","slug":"verges-lagies-20a0","kind":"restaurant","name":"Βέργες Λάγιες","lat":40.639047485030176,"lng":22.943515702588808,"url":"https://maps.app.goo.gl/ArjVMDpRBXxzMQ7h9?g_st=ipc","address":"Ελ. Βενιζέλου 63, Θεσσαλονίκη 546 31","categoryIds":["greek-restaurants"],"categories":["Greek Restaurants"],"distanceKm":0.04706643143170732},{"id":"cheapEatsRestaurants_5cdb8c7a5460","slug":"favela-bit-bazar-5cdb","kind":"restaurant","name":"FAVELA Bit Bazar","lat":40.63897345242983,"lng":22.94448760793796,"url":"https://maps.app.goo.gl/Pr2NGoHPa59C1JPVA?g_st=ipc","address":"Olympou 72, Thessaloniki 546 31","categoryIds":["cheap-eats"],"categories":["Gyros & Cheap Eats"],"distanceKm":0.053340781187467594},{"id":"greekRestaurants_08b616cef0f8","slug":"kontrampanto-contrabando-08b6","kind":"restaurant","name":"Κοντραμπάντο - Contrabando","lat":40.63847586677097,"lng":22.944230425632455,"url":"https://maps.app.goo.gl/PyWZCYYPtYAB62wz7?g_st=ipc","address":"Γκαρμπολά 2, Θεσσαλονίκη 546 31","categoryIds":["greek-restaurants"],"categories":["Greek Restaurants"],"distanceKm":0.09056703330042216},{"id":"municipalities_a7bd7f1e6156","slug":"thessaloniki-a7bd","kind":"municipality","name":"Θεσσαλονίκη","lat":40.6401,"lng":22.9444,"aliases":["Salonika","Salonica","Θεσσαλονίκα","Θεσσαλια","Θεσσαλονικη","Σαλονίκα","Σαλονικα"],"region":"Κέντρο Θεσσαλονίκης","name_en":"Thessaloniki","region_en":"Thessaloniki Center","distanceKm":0.09857736000182188},{"id":"luxuryDiningRestaurants_615ed60929b5","slug":"l-albero-615e","kind":"restaurant","name":"L'Albero","lat":40.6387415311347,"lng":22.94294998162837,"url":"https://maps.app.goo.gl/X4RLEkPp4XfoJhpx9?g_st=ipc","address":"Filippou 17, Thessaloniki 546 31","categoryIds":["luxury-dining"],"categories":["Luxury Dining"],"distanceKm":0.10562601303065694},{"id":"greekRestaurants_468e8ef769c7","slug":"i-kanoyla-468e","kind":"restaurant","name":"Η Κάνουλα","lat":40.63902723791725,"lng":22.945280279447754,"url":"https://maps.app.goo.gl/1wLZCLzQxy3PPNvc7?g_st=ipc","address":"Τάσκου Παπαγεωργίου 4, Θεσσαλονίκη 546 31","categoryIds":["greek-restaurants"],"categories":["Greek Restaurants"],"distanceKm":0.11212499862433474},{"id":"greekRestaurants_03068c7e0a94","slug":"o-loytros-0306","kind":"restaurant","name":"Ο Λουτρός","lat":40.638466462915126,"lng":22.94314610009663,"url":"https://maps.app.goo.gl/4ZWFM4EN2V31EBwc7?g_st=ipc","address":"El. Venizelou 55, Thessaloniki 546 31","categoryIds":["greek-restaurants"],"categories":["Greek Restaurants"],"distanceKm":0.11425220194471171},{"id":"cheapEatsRestaurants_97b044a97fc0","slug":"mangia-mi-97b0","kind":"restaurant","name":"MANGIA MI","lat":40.63806065407829,"lng":22.943092100104018,"url":"https://maps.app.goo.gl/swPLtX8A41RYYYN68?g_st=ipc","address":"El. Venizelou 60, Thessaloniki 546 31","categoryIds":["cheap-eats"],"categories":["Gyros & Cheap Eats"],"distanceKm":0.15433942097641853},{"id":"cheapEatsRestaurants_6807fa813ea0","slug":"porkitto-gyradiko-soyvlaki-stefanoy-parthena-thessaloniki-6807","kind":"restaurant","name":"PORKITTO - ΓΥΡΑΔΙΚΟ - ΣΟΥΒΛΑΚΙ - ΣΤΕΦΑΝΟΥ ΠΑΡΘΕΝΑ - ΘΕΣΣΑΛΟΝΙΚΗ","lat":40.64044750261407,"lng":22.942776573082938,"url":"https://maps.app.goo.gl/GvH8vhGT4BrR9x9WA?g_st=ipc","address":"Καραολή και Δημητρίου 52, Thessaloniki 546 30","categoryIds":["cheap-eats"],"categories":["Gyros & Cheap Eats"],"distanceKm":0.16625622097949533},{"id":"cheapEatsRestaurants_e0434e3ff629","slug":"kyr-giorgis-e043","kind":"restaurant","name":"Kyr Giorgis","lat":40.63768120747627,"lng":22.942676100417227,"url":"https://maps.app.goo.gl/BFLYuybZSdJEwfK87?g_st=ipc","address":"Βενιζέλου 54, Thessaloniki 546 31","categoryIds":["cheap-eats"],"categories":["Gyros & Cheap Eats"],"distanceKm":0.20856510945739268},{"id":"mustSeeAttractions_c746cf030037","slug":"roman-forum-of-thessaloniki-c746","kind":"restaurant","name":"Roman Forum of Thessaloniki","lat":40.637858913960656,"lng":22.945675325840927,"url":"https://maps.app.goo.gl/YxX1f2JEnRyib5KP8?g_st=ipc","address":"Olympou 75, Thessaloniki 546 31","categoryIds":["attractions"],"categories":["Must-See Attractions"],"distanceKm":0.2117122347997008},{"id":"dessertsRestaurants_f577f5bbd8fd","slug":"nick-alexoudas-f577","kind":"restaurant","name":"NICK ALEXOUDAS","lat":40.640152390023324,"lng":22.946508561358726,"url":"https://maps.app.goo.gl/mqxpWWxFf4unYCA89?g_st=ipc","address":"Kassandrou 48, Thessaloniki 546 33","categoryIds":["desserts"],"categories":["Dessert Shops"],"distanceKm":0.23404536391573932},{"id":"municipalities_63befeea2643","slug":"valaoritoy-63be","kind":"municipality","name":"Βαλαωρίτου","lat":40.6406,"lng":22.9462,"region":"Θεσσαλονίκη","name_en":"Valaritou","region_en":"Thessaloniki","distanceKm":0.2379882044764025},{"id":"greekRestaurants_5762dafe8770","slug":"giannoyla-5762","kind":"restaurant","name":"Γιαννούλα","lat":40.640039548951144,"lng":22.946778249418276,"url":"https://maps.app.goo.gl/bG2X8oAd5FzPwzKJ9?g_st=ipc","address":"Κασσάνδρου 50, Θεσσαλονίκη 546 33","categoryIds":["greek-restaurants"],"categories":["Greek Restaurants"],"distanceKm":0.2503186168059057},{"id":"coffeeBrunchRestaurants_cb81e6db9390","slug":"the-caravan-cafe-brunch-cb81","kind":"restaurant","name":"The Caravan Cafe | Brunch","lat":40.637809490842486,"lng":22.9414945910073,"url":"https://maps.app.goo.gl/zZG88R3tqQ4iE2m6A?g_st=ipc","address":"Βαμβακά 3, Thessaloniki 546 31","categoryIds":["coffee-brunch"],"categories":["Coffee & Brunch Spots"],"distanceKm":0.26592257349623627},{"id":"mustSeeAttractions_7edc1e3f8f0e","slug":"holy-church-of-saint-demetrius-7edc","kind":"restaurant","name":"Holy Church of Saint Demetrius","lat":40.638898161361496,"lng":22.947614216085658,"url":"https://maps.app.goo.gl/f1z5P772ZL438rrB9?g_st=ipc","address":"Ag. Dimitriou 81-83, Thessaloniki 546 33","categoryIds":["attractions"],"categories":["Must-See Attractions"],"distanceKm":0.30854571718102725},{"id":"greekRestaurants_7ff4b23f5102","slug":"extravaganza-7ff4","kind":"restaurant","name":"Extravaganza","lat":40.639336618089786,"lng":22.940241453783848,"url":"https://maps.app.goo.gl/j6N8yd7wQi8DJTxU8?g_st=ipc","address":"Επισκοπου Αμβροσιου 8, Θεσσαλονίκη 546 30","categoryIds":["greek-restaurants"],"categories":["Greek Restaurants"],"distanceKm":0.3164165247852486},{"id":"dessertsRestaurants_e8be0b820869","slug":"sarantis-bakery-patisserie-e8be","kind":"restaurant","name":"Σαράντης Bakery Patisserie","lat":40.63827380747778,"lng":22.947664759270584,"url":"https://maps.app.goo.gl/RefSjsyuU49WN5f89?g_st=ipc","address":"Ag. Dimitriou 98, Thessaloniki 546 31","categoryIds":["desserts"],"categories":["Dessert Shops"],"distanceKm":0.32921765805951037},{"id":"greekRestaurants_776ec954209f","slug":"maestranza-skg-776e","kind":"restaurant","name":"Maestranza.skg","lat":40.6389335540748,"lng":22.939948700094217,"url":"https://maps.app.goo.gl/9dU4LoJrsfE8osv2A?g_st=ipc","address":"Ptolemeon 29Β, Thessaloniki 546 30","categoryIds":["greek-restaurants","luxury-dining"],"categories":["Greek Restaurants","Luxury Dining"],"legacySlugs":["maestranza-skg-4bd7"],"distanceKm":0.34307459029055026},{"id":"cheapEatsRestaurants_f0f66d3f1d3f","slug":"hot-dog-land-f0f6","kind":"restaurant","name":"HOT DOG Land","lat":40.63820917018459,"lng":22.947895316027907,"url":"https://maps.app.goo.gl/Y7VQCwH5JjChrXDb9?g_st=ipc","address":"Ag. Dimitriou 100, Thessaloniki 546 31","categoryIds":["cheap-eats"],"categories":["Gyros & Cheap Eats"],"distanceKm":0.34995585263294376},{"id":"greekRestaurants_34eb138bccb6","slug":"paradosiako-kafeneio-stoy-mitsoy-34eb","kind":"restaurant","name":"Παραδοσιακό Καφενείο \"Στου Μήτσου\"","lat":40.636086191912526,"lng":22.942334253020217,"url":"https://maps.app.goo.gl/ZPKuMKk4XbPFHKGh9?g_st=ipc","address":"Βλάλη 11, Θεσσαλονίκη 546 24","categoryIds":["greek-restaurants"],"categories":["Greek Restaurants"],"distanceKm":0.3805797549701775},{"id":"coffeeBrunchRestaurants_ad2114e7ac37","slug":"bannie-ad21","kind":"restaurant","name":"Bannie","lat":40.63708508226566,"lng":22.94022952790158,"url":"https://maps.app.goo.gl/Gn3B2PxeEE5tHcph8?g_st=ipc","address":"Ionos Dragoumi 35, Thessaloniki 546 25","categoryIds":["coffee-brunch"],"categories":["Coffee & Brunch Spots"],"distanceKm":0.3996452991824759},{"id":"municipalities_0655c442ea28","slug":"ladadika-0655","kind":"municipality","name":"Λαδάδικα","lat":40.6375,"lng":22.9398,"region":"Θεσσαλονίκη","name_en":"Ladadika","region_en":"Thessaloniki","distanceKm":0.40465451645001516}],"mentionedGuides":[],"canonicalSlug":"salento-wood-fired-street-food-e80e","enrichment":{"summary_en":"Salento Wood Fired Street Food is a curated restaurant in Thessaloniki 546 31 in the Gyros & Cheap Eats collection. It is connected to 116 nearby Googlementor picks to help travelers build a stronger local route.","summary_el":"Salento Wood Fired Street Food είναι ένα επιλεγμένο σημείο φαγητού στην περιοχή Thessaloniki 546 31 και ανήκει στη συλλογή Gyros & Cheap Eats. Συνδέεται με 116 κοντινές προτάσεις του Googlementor για πιο ολοκληρωμένη εμπειρία.","vibe_tags":["curated","budget-friendly"],"best_for":["first-time visitors","food lovers","budget travelers"],"visit_moments":["lunch stop","dinner stop"],"practical_note":"Address and direct map link are available for easy turn-by-turn access.","nearby_walkable_count":116,"nearby_count_2km":264,"confidence":0.98},"areaContext":{"slug":"thessaloniki","name":"Thessaloniki","nameEl":"Θεσσαλονίκη"},"intentContexts":[{"href":"/cheap-eats/thessaloniki","label":"Gyros & Cheap Eats in Thessaloniki","categorySlug":"cheap-eats","categoryName":"Gyros & Cheap Eats","areaSlug":"thessaloniki","areaName":"Thessaloniki","areaNameEl":"Θεσσαλονίκη"},{"href":"/italian/thessaloniki","label":"Italian Restaurants in Thessaloniki","categorySlug":"italian","categoryName":"Italian Restaurants","areaSlug":"thessaloniki","areaName":"Thessaloniki","areaNameEl":"Θεσσαλονίκη"}]},"__N_SSG":true}