{"pageProps":{"entity":{"id":"dessertsRestaurants_4ba5b007aaee","slug":"san-zachari-4ba5","kind":"restaurant","name":"Σαν Ζάχαρη","lat":38.0467822413905,"lng":23.750604774962436,"url":"https://maps.app.goo.gl/hEf4BAiafjzg3vVT6?g_st=ipc","address":"Ελ. Βενιζέλου 119, Νέα Ιωνία 142 31","categoryIds":["desserts"],"categories":["Dessert Shops"]},"sameCategory":[{"id":"dessertsRestaurants_265283fa47ed","slug":"zacharoplasteio-ta-gioylia-2652","kind":"restaurant","name":"Ζαχαροπλαστείο Τα Γιούλια","lat":38.04320708683717,"lng":23.75268041981327,"url":"https://maps.app.goo.gl/yT8dXGYHeqfAeL4K8?g_st=ipc","address":"Μεσολογγίου 24, Νέα Ιωνία 142 31","categoryIds":["desserts"],"categories":["Dessert Shops"]},{"id":"dessertsRestaurants_f7f9c93c456d","slug":"zacharoplasteio-ta-gioylia-f7f9","kind":"restaurant","name":"Ζαχαροπλαστείο Τα Γιούλια","lat":38.04173959626081,"lng":23.76335652551234,"url":"https://maps.app.goo.gl/7AogHoPypPVPFN8p7?g_st=ipc","address":"Αλέκου Παναγούλη 74, Νέα Ιωνία 141 21","categoryIds":["desserts"],"categories":["Dessert Shops"]},{"id":"dessertsRestaurants_ee67f4c4f773","slug":"galaktopoleio-stamoy-ee67","kind":"restaurant","name":"Γαλακτοπωλείο ΣΤΑΜΟΥ","lat":38.050308447326216,"lng":23.764543130470138,"url":"https://maps.app.goo.gl/ct5eAdJBTvtvp5Kb6?g_st=ipc","address":"Λεωφ. Ηρακλείου 388, Ηράκλειο 141 22","categoryIds":["desserts"],"categories":["Dessert Shops"]},{"id":"dessertsRestaurants_b154c59ad342","slug":"zacharoplasteio-ta-gioylia-b154","kind":"restaurant","name":"Ζαχαροπλαστείο Τα Γιούλια","lat":38.03375679792758,"lng":23.760132906851105,"url":"https://maps.app.goo.gl/c3VhnGmj4UK6Mp8j6?g_st=ipc","address":"Αναγεννήσεως 49-51, Νέα Ιωνία 142 33","categoryIds":["desserts"],"categories":["Dessert Shops"]},{"id":"coffeeBrunchRestaurants_9257bf81b3ff","slug":"fairytale-to-paramythopoleio-tis-n-filadelfeias-9257","kind":"restaurant","name":"Fairytale – Το Παραμυθοπωλείο της Ν. Φιλαδέλφειας","lat":38.03555224332492,"lng":23.73629276954315,"url":"https://maps.app.goo.gl/GoWf19SFoVJNYBHP9?g_st=ipc","address":"Νικ. Τρυρια 48, Νέα Φιλαδέλφεια Αττικής 143 41","categoryIds":["coffee-brunch","desserts"],"categories":["Coffee & Brunch Spots","Dessert Shops"],"legacySlugs":["fairytale-to-paramythopoleio-tis-n-filadelfeias-db46"]},{"id":"dessertsRestaurants_72c80ba8b348","slug":"galaktopoleio-stamoy-72c8","kind":"restaurant","name":"Γαλακτοπωλείο ΣΤΑΜΟΥ","lat":38.03443491475164,"lng":23.737764183814345,"url":"https://maps.app.goo.gl/37pG5QPiULEUHnjT8?g_st=ipc","address":"Λεωφ. Δεκελείας 87, Δήμος Νέας Φιλαδέλφειας - Νέας Χαλκηδόνας 143 41","categoryIds":["desserts"],"categories":["Dessert Shops"]},{"id":"dessertsRestaurants_f5dcbd5d6956","slug":"tillas-f5dc","kind":"restaurant","name":"ΤΙΛΛΑΣ","lat":38.03389726212368,"lng":23.738299411081684,"url":"https://maps.app.goo.gl/KvFWhV1Ew2To6kLKA?g_st=ipc","address":"Αγίας Τριάδος 2, Νέα Φιλαδέλφεια Αττικής 143 41","categoryIds":["desserts"],"categories":["Dessert Shops"]},{"id":"dessertsRestaurants_278027c93e69","slug":"zacharoplasteio-syntrivani-2780","kind":"restaurant","name":"Ζαχαροπλαστείο Συντριβάνι","lat":38.031171993923905,"lng":23.736947011882947,"url":"https://maps.app.goo.gl/qd2j8WUJHdAta1mY9?g_st=ipc","address":"Ειρήνης 4, Νέα Φιλαδέλφεια Αττικής 143 41","categoryIds":["desserts"],"categories":["Dessert Shops"]},{"id":"dessertsRestaurants_8a66394cff02","slug":"andrias-8a66","kind":"restaurant","name":"Ανδριάς","lat":38.031915217615015,"lng":23.776449986064225,"url":"https://maps.app.goo.gl/UyXFW37fEx8CzcR76?g_st=ipc","address":"Λεωφ. Καποδιστρίου 92, Νέα Ιωνία 142 35","categoryIds":["desserts"],"categories":["Dessert Shops"]},{"id":"dessertsRestaurants_903707df6326","slug":"papliber-9037","kind":"restaurant","name":"PapLiber","lat":38.021403205203185,"lng":23.74592719548837,"url":"https://maps.app.goo.gl/3KG3eWHdUB7oyaGD7?g_st=ipc","address":"Γεωργούλια Αγησιλάου 10, Αθήνα 111 42","categoryIds":["desserts"],"categories":["Dessert Shops"]},{"id":"dessertsRestaurants_35fad49944d3","slug":"oikogeneia-stayrati-35fa","kind":"restaurant","name":"Οικογένεια Σταυράτη","lat":38.064333617477246,"lng":23.775971928887216,"url":"https://maps.app.goo.gl/nFJr46bSggFggK8U6?g_st=ipc","address":"Λεωφ. Ηρακλείου 531, Ηράκλειο 141 22","categoryIds":["desserts"],"categories":["Dessert Shops"]},{"id":"dessertsRestaurants_f22485b9778b","slug":"chara-f224","kind":"restaurant","name":"Χαρά","lat":38.02112078219093,"lng":23.735510538796248,"url":"https://maps.app.goo.gl/xbCzjtuywVhjf9c59?g_st=ipc","address":"Πατησίων 339, Αθήνα 111 44","categoryIds":["desserts"],"categories":["Dessert Shops"]}],"nearby":[{"id":"greekRestaurants_dbfa615cdf88","slug":"mparmpalias-soyvlaki-kempap-dbfa","kind":"restaurant","name":"Μπαρμπαλιάς Σουβλάκι Κεμπάπ","lat":38.04986386180613,"lng":23.749800777909947,"url":"https://maps.app.goo.gl/1KoD7wRkjTyAQA5aA","address":"Ελ. Βενιζέλου 146, Νέα Ιωνία 142 31","categoryIds":["greek-restaurants"],"categories":["Greek Restaurants"],"distanceKm":0.3498180982366659},{"id":"dessertsRestaurants_265283fa47ed","slug":"zacharoplasteio-ta-gioylia-2652","kind":"restaurant","name":"Ζαχαροπλαστείο Τα Γιούλια","lat":38.04320708683717,"lng":23.75268041981327,"url":"https://maps.app.goo.gl/yT8dXGYHeqfAeL4K8?g_st=ipc","address":"Μεσολογγίου 24, Νέα Ιωνία 142 31","categoryIds":["desserts"],"categories":["Dessert Shops"],"distanceKm":0.4371210124691542},{"id":"cheapEatsRestaurants_59fb21ba5f98","slug":"hobos-street-grill-59fb","kind":"restaurant","name":"Hobos Street Grill","lat":38.04249747641086,"lng":23.753515339761147,"url":"https://maps.app.goo.gl/YHJtEHPvQRVXwD3F7?g_st=ipc","address":"Λεωφ. Ηρακλείου 254, Νέα Ιωνία 142 31","categoryIds":["cheap-eats"],"categories":["Gyros & Cheap Eats"],"distanceKm":0.5403341964143156},{"id":"coffeeBrunchRestaurants_e705f1112f3d","slug":"dimitra-goynaridi-e705","kind":"restaurant","name":"Δήμητρα Γουναρίδη","lat":38.04165697380787,"lng":23.75123284178688,"url":"https://maps.app.goo.gl/b5dp6jq3caW91FoHA?g_st=ipc","address":"Ευαγγελικής Σχολής 5, Νέα Ιωνία 142 31","categoryIds":["coffee-brunch"],"categories":["Coffee & Brunch Spots"],"distanceKm":0.5725515369856805},{"id":"greekRestaurants_65b8685c50a4","slug":"gidi-65b8","kind":"restaurant","name":"Γίδι","lat":38.052246918082005,"lng":23.750952362138648,"url":"https://maps.app.goo.gl/hMR86s9rhghZRxgi8","address":"Τατοΐου 17, Μεταμόρφωση 144 51","categoryIds":["greek-restaurants"],"categories":["Greek Restaurants"],"distanceKm":0.6084060926197032},{"id":"familyFriendly_9c22759cd93a","slug":"alsos-neas-filadelfeias-9c22","kind":"restaurant","name":"Άλσος Νέας Φιλαδέλφειας","lat":38.042763651734646,"lng":23.744714870891837,"url":"https://maps.app.goo.gl/xdffZruJ9uqfJ5wx8?g_st=ipc","address":"Λεωφ. Δεκελείας 152, Αθήνα 143 42","categoryIds":["family-friendly"],"categories":["Kid Friendly Locations"],"distanceKm":0.6824188717800759},{"id":"greekRestaurants_977106c0152b","slug":"familokal-fagadiko-9771","kind":"restaurant","name":"Φαμιλόκαλ Φαγάδικο","lat":38.045110031748486,"lng":23.742897004373283,"url":"https://maps.app.goo.gl/cQhPg66yiWYq8LYP6","address":"Στρατάρχου Αλεξάνδρου Παπάγου 12, Νέα Φιλαδέλφεια Αττικής 143 42","categoryIds":["greek-restaurants"],"categories":["Greek Restaurants"],"distanceKm":0.7000969836041085},{"id":"coffeeBrunchRestaurants_a5983b685dbd","slug":"to-peinirli-tis-neas-ionias-a598","kind":"restaurant","name":"To Peinirli tis Neas Ionias","lat":38.039553570278855,"lng":23.75782693390007,"url":"https://maps.app.goo.gl/Dgayt5WtWZw7apFh8?g_st=ic","address":"Ramnountos 76, Nea Ionia 142 34","categoryIds":["coffee-brunch"],"categories":["Coffee & Brunch Spots"],"distanceKm":1.0227794335802023},{"id":"dessertsRestaurants_f7f9c93c456d","slug":"zacharoplasteio-ta-gioylia-f7f9","kind":"restaurant","name":"Ζαχαροπλαστείο Τα Γιούλια","lat":38.04173959626081,"lng":23.76335652551234,"url":"https://maps.app.goo.gl/7AogHoPypPVPFN8p7?g_st=ipc","address":"Αλέκου Παναγούλη 74, Νέα Ιωνία 141 21","categoryIds":["desserts"],"categories":["Dessert Shops"],"distanceKm":1.249541323925627},{"id":"greekRestaurants_32d9fbbeb9ef","slug":"to-karagatsi-32d9","kind":"restaurant","name":"Το Καραγάτσι","lat":38.039818289814335,"lng":23.738940522044075,"url":"https://maps.app.goo.gl/8aQhSfNrT1Z9qqEm7","address":"Αγίου Ιωάννου 1, Νέα Φιλαδέλφεια Αττικής 143 42","categoryIds":["greek-restaurants"],"categories":["Greek Restaurants"],"distanceKm":1.281791291373792},{"id":"dessertsRestaurants_ee67f4c4f773","slug":"galaktopoleio-stamoy-ee67","kind":"restaurant","name":"Γαλακτοπωλείο ΣΤΑΜΟΥ","lat":38.050308447326216,"lng":23.764543130470138,"url":"https://maps.app.goo.gl/ct5eAdJBTvtvp5Kb6?g_st=ipc","address":"Λεωφ. Ηρακλείου 388, Ηράκλειο 141 22","categoryIds":["desserts"],"categories":["Dessert Shops"],"distanceKm":1.2819442917291435},{"id":"burgersRestaurants_b7d172dd6af6","slug":"serial-grillers-b7d1","kind":"restaurant","name":"Serial Grillers","lat":38.04771274952107,"lng":23.76539665009085,"url":"https://maps.app.goo.gl/DKedv8F3cHKd27me9?g_st=ipc","address":"Νεότητος 4, Ηράκλειο 141 22","categoryIds":["burgers"],"categories":["Burger Spots"],"distanceKm":1.2993960016147998},{"id":"italianRestaurants_d84ce5fee7c0","slug":"piazza-d-amore-d84c","kind":"restaurant","name":"Piazza D'Amore","lat":38.046873886500826,"lng":23.765946699532154,"url":"https://maps.app.goo.gl/m24wKNSPTHZaNPpA9?g_st=ipc","address":"28ης Οκτωβρίου 8, Ηράκλειο 141 21","categoryIds":["italian"],"categories":["Italian Restaurants"],"distanceKm":1.3434821534293697},{"id":"municipalities_a312b31dd129","slug":"nea-ionia-a312","kind":"municipality","name":"Νέα Ιωνία","lat":38.0357,"lng":23.7573,"aliases":["Nea Ionia","Νεα Ιωνια"],"region":"Βόρεια Προάστια","name_en":"Nea Ionia","region_en":"Northern Suburbs","distanceKm":1.3646656694576218},{"id":"cheapEatsRestaurants_58791178b56b","slug":"draminos-5879","kind":"restaurant","name":"Δραμινός","lat":38.03491475648599,"lng":23.754928540856955,"url":"https://maps.app.goo.gl/uhi56PKbCSVGMvqf8?g_st=ipc","address":"Σινώπης 62, Νέα Ιωνία 142 33","categoryIds":["cheap-eats"],"categories":["Gyros & Cheap Eats"],"distanceKm":1.3728548128688454},{"id":"italianRestaurants_ae6165c67299","slug":"pastabar-ae61","kind":"restaurant","name":"pastabar","lat":38.03729506274719,"lng":23.739505873670616,"url":"https://maps.app.goo.gl/bRqX3YLuyGMaGs896?g_st=ipc","address":"Λεωφ. Δεκελείας 136, Νέα Φιλαδέλφεια Αττικής 143 41","categoryIds":["italian"],"categories":["Italian Restaurants"],"distanceKm":1.4344244533472024},{"id":"coffeeBrunchRestaurants_51893d66518d","slug":"mimosa-neighborhood-bistrot-5189","kind":"restaurant","name":"mimosa neighborhood bistrot","lat":38.03853139699867,"lng":23.737753049309227,"url":"https://maps.app.goo.gl/KBvxE1xtgNdKgvxY8?g_st=ipc","address":"Efesou, Μουδανιών &, Νέα Φιλαδέλφεια Αττικής 143 41","categoryIds":["coffee-brunch"],"categories":["Coffee & Brunch Spots"],"distanceKm":1.452016975645641},{"id":"greekRestaurants_9c1516b8d16d","slug":"mister-loykidelis-9c15","kind":"restaurant","name":"Μίστερ Λουκιδέλης","lat":38.03885909725717,"lng":23.736070793481,"url":"https://maps.app.goo.gl/CMKSzphqRyS8ewpNA","address":"Γεωρ. Παπανδρέου 81, Νέα Φιλαδέλφεια Αττικής 143 41","categoryIds":["greek-restaurants"],"categories":["Greek Restaurants"],"distanceKm":1.5479383923001804},{"id":"burgersRestaurants_08ca7d0bda51","slug":"koutsi-katsika-street-food-nea-filadelfeia-08ca","kind":"restaurant","name":"Koutsi Katsika Street Food Νέα Φιλαδέλφεια","lat":38.03629712914596,"lng":23.73867302573474,"url":"https://maps.app.goo.gl/XqS8cuX3SxVKDWRr8?g_st=ipc","address":"Λεωφ. Δεκελείας 109, Νέα Φιλαδέλφεια Αττικής 143 41","categoryIds":["burgers","cheap-eats"],"categories":["Burger Spots","Gyros & Cheap Eats"],"legacySlugs":["koutsi-katsika-street-food-nea-filadelfeia-2553"],"distanceKm":1.565605348476703},{"id":"asianRestaurants_a37aef170d67","slug":"koyasan-in-philadelphia-a37a","kind":"restaurant","name":"KoYaSan in Philadelphia","lat":38.03582601502679,"lng":23.738913649887014,"url":"https://maps.app.goo.gl/pE1beFfDZ9181rp76?g_st=ipc","address":"Λεωφ. Δεκελείας 122, Νέα Φιλαδέλφεια Αττικής 143 41","categoryIds":["asian"],"categories":["Asian Restaurants"],"distanceKm":1.5913610470063118},{"id":"municipalities_f5a6fd333493","slug":"metamorfosi-f5a6","kind":"municipality","name":"Μεταμόρφωση","lat":38.0612,"lng":23.7544,"aliases":["Metamorfosi","Metamorphosi","Μεταμορφωση"],"region":"Βόρεια Προάστια","name_en":"Metamorfosi","region_en":"Northern Suburbs","distanceKm":1.6372589081037614},{"id":"coffeeBrunchRestaurants_1dc06dcd5307","slug":"libertine-drinkery-1dc0","kind":"restaurant","name":"Libertine drinkery","lat":38.035181855146,"lng":23.738539611236607,"url":"https://maps.app.goo.gl/8mxrF5SroX8mcG5e8?g_st=ipc","address":"Λεωφ. Δεκελείας 114, Νέα Φιλαδέλφεια Αττικής 143 41","categoryIds":["coffee-brunch"],"categories":["Coffee & Brunch Spots"],"distanceKm":1.6674051556335547},{"id":"dessertsRestaurants_b154c59ad342","slug":"zacharoplasteio-ta-gioylia-b154","kind":"restaurant","name":"Ζαχαροπλαστείο Τα Γιούλια","lat":38.03375679792758,"lng":23.760132906851105,"url":"https://maps.app.goo.gl/c3VhnGmj4UK6Mp8j6?g_st=ipc","address":"Αναγεννήσεως 49-51, Νέα Ιωνία 142 33","categoryIds":["desserts"],"categories":["Dessert Shops"],"distanceKm":1.6715315288508856},{"id":"greekRestaurants_4afe4ac40aa7","slug":"piatsa-mezedaki-4afe","kind":"restaurant","name":"Πιάτσα Μεζεδάκι","lat":38.03382490224538,"lng":23.74027260435793,"url":"https://maps.app.goo.gl/NQUdrufxEoMofvYP9","address":"Ιωνίας 35 και, Προύσης 15, Νέα Φιλαδέλφεια Αττικής 143 41","categoryIds":["greek-restaurants"],"categories":["Greek Restaurants"],"distanceKm":1.7013538545871807}],"mentionedGuides":[],"canonicalSlug":"san-zachari-4ba5","enrichment":{"summary_en":"Σαν Ζάχαρη is a curated restaurant in Νέα Ιωνία 142 31 in the Dessert Shops collection. It is connected to 7 nearby Googlementor picks to help travelers build a stronger local route.","summary_el":"Σαν Ζάχαρη είναι ένα επιλεγμένο σημείο φαγητού στην περιοχή Νέα Ιωνία 142 31 και ανήκει στη συλλογή Dessert Shops. Συνδέεται με 7 κοντινές προτάσεις του Googlementor για πιο ολοκληρωμένη εμπειρία.","vibe_tags":["curated","sweet-stop"],"best_for":["first-time visitors","food lovers"],"visit_moments":["afternoon break","after dinner"],"practical_note":"Address and direct map link are available for easy turn-by-turn access.","nearby_walkable_count":7,"nearby_count_2km":42,"confidence":0.98},"areaContext":{"slug":"nea-ionia","name":"Nea Ionia","nameEl":"Νέα Ιωνία"},"intentContexts":[{"href":"/desserts/nea-ionia","label":"Dessert Shops in Nea Ionia","categorySlug":"desserts","categoryName":"Dessert Shops","areaSlug":"nea-ionia","areaName":"Nea Ionia","areaNameEl":"Νέα Ιωνία"}]},"__N_SSG":true}