{"pageProps":{"entity":{"id":"cheapEatsRestaurants_d094097525b6","slug":"senor-picante-d094","kind":"restaurant","name":"Señor Picante","lat":37.965308606012925,"lng":23.726477821309263,"url":"https://maps.app.goo.gl/bZNApSKDTgmvuiXB7?g_st=ipc","address":"Φαλήρου 40, Αθήνα 117 42","categoryIds":["cheap-eats","mexican"],"categories":["Gyros & Cheap Eats","Mexican Restaurants"],"legacySlugs":["senor-picante-fbd3"]},"sameCategory":[{"id":"cheapEatsRestaurants_5e8824ccc538","slug":"kalamaki-bar-5e88","kind":"restaurant","name":"Kalamaki Bar","lat":37.9654765831714,"lng":23.725752010856876,"url":"https://maps.app.goo.gl/vMhM3YojNKaURqwX8?g_st=ipc","address":"Δημητρακοπούλου και, Δράκου 15, Αθήνα 117 42","categoryIds":["cheap-eats"],"categories":["Gyros & Cheap Eats"]},{"id":"cheapEatsRestaurants_abe36348d52a","slug":"guarantee-abe3","kind":"restaurant","name":"Guarantee","lat":37.96613348579953,"lng":23.726193428667294,"url":"https://maps.app.goo.gl/k43yGuJ8dK72yJAh8?g_st=ipc","address":"Βεΐκου 41, Αθήνα 117 42","categoryIds":["cheap-eats"],"categories":["Gyros & Cheap Eats"]},{"id":"cheapEatsRestaurants_ccda7a47a1b9","slug":"falafel-bar-to-revithi-ccda","kind":"restaurant","name":"falafel bar ΤΟ ΡΕΒΙΘΙ","lat":37.96631483519238,"lng":23.7261110398094,"url":"https://maps.app.goo.gl/4FqJYg2raYZvXHja7?g_st=ipc","address":"Παρθενώνος 1, Αθήνα 117 42","categoryIds":["cheap-eats","vegetarian"],"categories":["Gyros & Cheap Eats","Vegetarian Friendly Restaurants"],"legacySlugs":["falafel-bar-to-revithi-dec0"]},{"id":"cheapEatsRestaurants_ea477a96a248","slug":"ta-soyvlakia-tis-petmeza-souvlakia-petmeza-ea47","kind":"restaurant","name":"Τα ΣΟΥΒΛΑΚΙΑ της Πετμεζά souvlakia petmeza","lat":37.96653318144558,"lng":23.72792783847805,"url":"https://maps.app.goo.gl/wJbToSNnsHXBEELJ7?g_st=ipc","address":"Πετμεζά 2, Αθήνα 117 42","categoryIds":["cheap-eats"],"categories":["Gyros & Cheap Eats"]},{"id":"cheapEatsRestaurants_7c127d112eef","slug":"dirty-manh-7c12","kind":"restaurant","name":"Dirty Manh","lat":37.96689597541608,"lng":23.728371721835774,"url":"https://maps.app.goo.gl/LaZcss8aznDJpxm89?g_st=ipc","address":"Νικ. Δημητρακοπούλου 5, Αθήνα 117 42","categoryIds":["cheap-eats"],"categories":["Gyros & Cheap Eats"]},{"id":"cheapEatsRestaurants_104db32dd905","slug":"jackaroo-104d","kind":"restaurant","name":"Jackaroo","lat":37.96222285381352,"lng":23.7252636942005,"url":"https://maps.app.goo.gl/obvLVFRy5Vbt8DPS6?g_st=ipc","address":"Καλλιρρόης 73, Αθήνα 117 45","categoryIds":["cheap-eats"],"categories":["Gyros & Cheap Eats"]},{"id":"cheapEatsRestaurants_258b939a478f","slug":"psitopoleio-to-empeiro-258b","kind":"restaurant","name":"Ψητοπωλείο Το Έμπειρο","lat":37.96275771902048,"lng":23.72923609945131,"url":"https://maps.app.goo.gl/kpwhPwcxrACr1psm9?g_st=ipc","address":"Ηρακλέους 28, Αθήνα 117 43","categoryIds":["cheap-eats"],"categories":["Gyros & Cheap Eats"]},{"id":"cheapEatsRestaurants_15b8f9de5a02","slug":"robin-belgian-streetfood-15b8","kind":"restaurant","name":"Robin Belgian streetfood","lat":37.96249493210435,"lng":23.729203293671816,"url":"https://maps.app.goo.gl/4RTN9WGd3FCHQamG6?g_st=ipc","address":"Θεοδώρητου Βρεσθένης 31, Αθήνα 117 43","categoryIds":["cheap-eats"],"categories":["Gyros & Cheap Eats"]},{"id":"cheapEatsRestaurants_7d6699a91456","slug":"o-gyros-poy-gyreyeis-7d66","kind":"restaurant","name":"ο γύρος που γυρεύεις","lat":37.968706021561665,"lng":23.729791439377735,"url":"https://maps.app.goo.gl/bMFjRtNN6Ztw4H43A?g_st=ipc","address":"Αθανασίου Διάκου 1 Ακρόπολη, Αθήνα 117 42","categoryIds":["cheap-eats"],"categories":["Gyros & Cheap Eats"]},{"id":"cheapEatsRestaurants_f167ae0efa67","slug":"kalyvas-oikogeneiako-psitopoleio-f167","kind":"restaurant","name":"Καλύβας οικογενειακό ψητοπωλείο","lat":37.962881286635515,"lng":23.721970322127277,"url":"https://maps.app.goo.gl/tfkKpGgKP9PAqPWX9?g_st=ipc","address":"Dimitrakopoulou 91-93, G Olymbiou 10, Athina 117 41","categoryIds":["cheap-eats"],"categories":["Gyros & Cheap Eats"]},{"id":"mexicanRestaurants_b734434ef46c","slug":"el-burro-tacos-y-tequila-b734","kind":"restaurant","name":"El burro tacos y tequila","lat":37.962922862445566,"lng":23.7215865155236,"url":"https://maps.app.goo.gl/5kJKHTBcWjkVftX99?g_st=ipc","address":"Δημητρακοπούλου 102, Αθήνα 117 41","categoryIds":["mexican"],"categories":["Mexican Restaurants"]},{"id":"gyrosSouvlakiRestaurants_22073f048cbc","slug":"o-kostas-2207","kind":"restaurant","name":"O Kostas","lat":37.972,"lng":23.726,"url":"https://maps.app.goo.gl/sample28","address":"Adrianou 116, Athina 105 58","categoryIds":["cheap-eats"],"categories":["Gyros & Cheap Eats"]}],"nearby":[{"id":"vegetarianRestaurants_4db58e18de0e","slug":"peas-vegan-4db5","kind":"restaurant","name":"Peas Vegan","lat":37.965309081383936,"lng":23.72648212033699,"url":"https://maps.app.goo.gl/8AeCWeh7LczgaD87A?g_st=ipc","address":"Φαλήρου 40, Αθήνα 117 42","categoryIds":["vegetarian"],"categories":["Vegetarian Friendly Restaurants"],"distanceKm":0.00038055982455693633},{"id":"coffeeBrunchRestaurants_a5c0f29b5820","slug":"tempo-social-club-a5c0","kind":"restaurant","name":"Tempo Social Club","lat":37.96527397578301,"lng":23.726786075207272,"url":"https://maps.app.goo.gl/uU1H3HFYf7VVqpjy9?g_st=ipc","address":"Φαλήρου 49, Αθήνα 117 42","categoryIds":["coffee-brunch"],"categories":["Coffee & Brunch Spots"],"distanceKm":0.027295828045461556},{"id":"asianRestaurants_be2d9e8cfa29","slug":"kuchisabishii-sakaba-be2d","kind":"restaurant","name":"Kuchisabishii Sakaba","lat":37.965507796335324,"lng":23.72667501899547,"url":"https://maps.app.goo.gl/mwPcNGYBVTJSy6C59?g_st=ic","address":"Falirou 36, Athina 117 42","categoryIds":["asian"],"categories":["Asian Restaurants"],"distanceKm":0.028096655351320218},{"id":"coffeeBrunchRestaurants_85c9b3242244","slug":"this-is-loco-85c9","kind":"restaurant","name":"This is Loco","lat":37.96542578565319,"lng":23.726906270555997,"url":"https://maps.app.goo.gl/DKCmfLqp6KdRCVPg6?g_st=ipc","address":"Φαλήρου 47, Αθήνα 117 42","categoryIds":["coffee-brunch","vegetarian"],"categories":["Coffee & Brunch Spots","Vegetarian Friendly Restaurants"],"legacySlugs":["this-is-loco-0b77"],"distanceKm":0.03975552891019137},{"id":"greekRestaurants_2cc5d772f006","slug":"onos-taverna-2cc5","kind":"restaurant","name":"Onos Taverna","lat":37.96571079116367,"lng":23.725945276440267,"url":"https://maps.app.goo.gl/ur5XrAoMuE8FsR5c6","address":"Δράκου 14, Αθήνα 117 42","categoryIds":["greek-restaurants"],"categories":["Greek Restaurants"],"distanceKm":0.06464869136286264},{"id":"cheapEatsRestaurants_5e8824ccc538","slug":"kalamaki-bar-5e88","kind":"restaurant","name":"Kalamaki Bar","lat":37.9654765831714,"lng":23.725752010856876,"url":"https://maps.app.goo.gl/vMhM3YojNKaURqwX8?g_st=ipc","address":"Δημητρακοπούλου και, Δράκου 15, Αθήνα 117 42","categoryIds":["cheap-eats"],"categories":["Gyros & Cheap Eats"],"distanceKm":0.06631243994286684},{"id":"municipalities_616efd2a0d9b","slug":"koykaki-616e","kind":"municipality","name":"Κουκάκι","lat":37.9647,"lng":23.7264,"aliases":["Kukaki"],"region":"Κέντρο Αθήνας","name_en":"Koukaki","region_en":"Athens Center","distanceKm":0.06801690175180578},{"id":"greekRestaurants_fdc308cbed46","slug":"sfika-fdc3","kind":"restaurant","name":"Σφήκα","lat":37.966122619632145,"lng":23.726245016024656,"url":"https://maps.app.goo.gl/WDLKPoT2bayYqor96","address":"Στρ. Κοντούλη 15, Αθήνα 117 42","categoryIds":["greek-restaurants"],"categories":["Greek Restaurants"],"distanceKm":0.09278646400445165},{"id":"luxuryDiningRestaurants_449388b6e901","slug":"gallina-athens-4493","kind":"restaurant","name":"Gallina Athens","lat":37.964508186769734,"lng":23.726121733406966,"url":"https://maps.app.goo.gl/zkqCQmDUHjdt7RX4A?g_st=ipc","address":"Μαρκ. Μπότσαρη 49, Αθήνα 117 42","categoryIds":["luxury-dining"],"categories":["Luxury Dining"],"distanceKm":0.09431816135451289},{"id":"cheapEatsRestaurants_abe36348d52a","slug":"guarantee-abe3","kind":"restaurant","name":"Guarantee","lat":37.96613348579953,"lng":23.726193428667294,"url":"https://maps.app.goo.gl/k43yGuJ8dK72yJAh8?g_st=ipc","address":"Βεΐκου 41, Αθήνα 117 42","categoryIds":["cheap-eats"],"categories":["Gyros & Cheap Eats"],"distanceKm":0.0950502932527379},{"id":"asianRestaurants_83a81f921b31","slug":"tuk-tuk-thai-street-food-83a8","kind":"restaurant","name":"TUK TUK THAI STREET FOOD","lat":37.96606521122011,"lng":23.725716482971748,"url":"https://maps.app.goo.gl/dLSj52rnQDPAbaGg8?g_st=ipc","address":"Βεΐκου 40, Αθήνα 117 42","categoryIds":["asian"],"categories":["Asian Restaurants"],"distanceKm":0.10738917766155767},{"id":"cheapEatsRestaurants_ccda7a47a1b9","slug":"falafel-bar-to-revithi-ccda","kind":"restaurant","name":"falafel bar ΤΟ ΡΕΒΙΘΙ","lat":37.96631483519238,"lng":23.7261110398094,"url":"https://maps.app.goo.gl/4FqJYg2raYZvXHja7?g_st=ipc","address":"Παρθενώνος 1, Αθήνα 117 42","categoryIds":["cheap-eats","vegetarian"],"categories":["Gyros & Cheap Eats","Vegetarian Friendly Restaurants"],"legacySlugs":["falafel-bar-to-revithi-dec0"],"distanceKm":0.11641594189788601},{"id":"rooftopLoungesRestaurants_0166d74152d9","slug":"180-west-rooftop-lounge-restaurant-0166","kind":"restaurant","name":"180º West Rooftop Lounge Restaurant","lat":37.965774750504295,"lng":23.727676619784248,"url":"https://maps.app.goo.gl/B2UsgvhxQkuJx2dU7?g_st=ipc","address":"Φαλήρου 37-39, Αθήνα 117 42","categoryIds":["rooftop-lounges"],"categories":["Rooftop Lounges"],"distanceKm":0.11717873141750451},{"id":"italianRestaurants_13c8863a9591","slug":"pizza-dough-13c8","kind":"restaurant","name":"Pizza Dough!","lat":37.96630825345609,"lng":23.72750504939054,"url":"https://maps.app.goo.gl/nNiwhy5xKwpgF7Lo6?g_st=ipc","address":"Δημητρακοπούλου 17, Αθήνα 117 42","categoryIds":["italian"],"categories":["Italian Restaurants"],"distanceKm":0.14305487119988336},{"id":"burgersRestaurants_bebf6534ac83","slug":"tarantino-burgers-athens-bebf","kind":"restaurant","name":"Tarantino Burgers Athens","lat":37.96648556958662,"lng":23.727729975927073,"url":"https://maps.app.goo.gl/SzYTBZRaHtH1zEgv6?g_st=ipc","address":"Δημητρακοπούλου 17, Αθήνα 117 42","categoryIds":["burgers"],"categories":["Burger Spots"],"distanceKm":0.1708117606465607},{"id":"cheapEatsRestaurants_ea477a96a248","slug":"ta-soyvlakia-tis-petmeza-souvlakia-petmeza-ea47","kind":"restaurant","name":"Τα ΣΟΥΒΛΑΚΙΑ της Πετμεζά souvlakia petmeza","lat":37.96653318144558,"lng":23.72792783847805,"url":"https://maps.app.goo.gl/wJbToSNnsHXBEELJ7?g_st=ipc","address":"Πετμεζά 2, Αθήνα 117 42","categoryIds":["cheap-eats"],"categories":["Gyros & Cheap Eats"],"distanceKm":0.18627720973710038},{"id":"dessertsRestaurants_2a3970a71069","slug":"django-gelato-athens-2a39","kind":"restaurant","name":"Django Gelato Athens","lat":37.96685228149483,"lng":23.72787408682893,"url":"https://maps.app.goo.gl/uXMPHW7X8YEMKDvp9?g_st=ipc","address":"Βεΐκου 15, Αθήνα 117 42","categoryIds":["desserts"],"categories":["Dessert Shops"],"distanceKm":0.21082079260784575},{"id":"luxuryDiningRestaurants_3c6581cd9485","slug":"esthio-athens-3c65","kind":"restaurant","name":"Esthio Athens","lat":37.96676654589047,"lng":23.72827244889686,"url":"https://maps.app.goo.gl/Ldu5GaEmi8GWuxbX6?g_st=ipc","address":"Δημητρακοπούλου 7, Αθήνα 117 42","categoryIds":["luxury-dining"],"categories":["Luxury Dining"],"distanceKm":0.2259026225912244},{"id":"luxuryDiningRestaurants_08d018b1cd7a","slug":"manimani-08d0","kind":"restaurant","name":"ΜΑΝΗΜΑΝΗ","lat":37.96669521915854,"lng":23.72836820432756,"url":"https://maps.app.goo.gl/XJabCFiZNQjmGZzb7?g_st=ipc","address":"Φαλήρου 10, Αθήνα 117 42","categoryIds":["luxury-dining"],"categories":["Luxury Dining"],"distanceKm":0.22635165803100582},{"id":"dessertsRestaurants_b3f00cec9209","slug":"dolce-far-niente-ice-cream-b3f0","kind":"restaurant","name":"Dolce Far Niente ice cream","lat":37.967030991920694,"lng":23.725035602938313,"url":"https://maps.app.goo.gl/YaopPeigqjaCn38A6?g_st=ipc","address":"Τσάμη Καρατάσου 26, Αθήνα 117 42","categoryIds":["desserts"],"categories":["Dessert Shops"],"distanceKm":0.22948756980927665},{"id":"cheapEatsRestaurants_7c127d112eef","slug":"dirty-manh-7c12","kind":"restaurant","name":"Dirty Manh","lat":37.96689597541608,"lng":23.728371721835774,"url":"https://maps.app.goo.gl/LaZcss8aznDJpxm89?g_st=ipc","address":"Νικ. Δημητρακοπούλου 5, Αθήνα 117 42","categoryIds":["cheap-eats"],"categories":["Gyros & Cheap Eats"],"distanceKm":0.2423207604749288},{"id":"italianRestaurants_5abecb9e2aaa","slug":"voylkanizater-5abe","kind":"restaurant","name":"Βουλκανιζατέρ","lat":37.96367095489114,"lng":23.724556596700353,"url":"https://maps.app.goo.gl/HebUjJkB8SUt6Xp36?g_st=ipc","address":"Οδυσσέα Ανδρούτσου 17, Αθήνα 117 41","categoryIds":["italian"],"categories":["Italian Restaurants"],"distanceKm":0.24804575006018476},{"id":"coffeeBrunchRestaurants_da9d2fc56763","slug":"acai-verao-athens-da9d","kind":"restaurant","name":"Açaí Verão Athens","lat":37.966845247384065,"lng":23.728622894774116,"url":"https://maps.app.goo.gl/zSWkUCcCMEwv3K5Y7?g_st=ipc","address":"Φαλήρου 6, Αθήνα 117 42","categoryIds":["coffee-brunch"],"categories":["Coffee & Brunch Spots"],"distanceKm":0.2540788806635508},{"id":"italianRestaurants_d5b2689c4a11","slug":"romatella-pinsa-romana-d5b2","kind":"restaurant","name":"Romatella - Pinsa Romana","lat":37.96690380968513,"lng":23.72869589039828,"url":"https://maps.app.goo.gl/qy2UDY83bx3RhcUU9?g_st=ipc","address":"Φαλήρου 4, Αθήνα 117 42","categoryIds":["italian"],"categories":["Italian Restaurants"],"distanceKm":0.2631944418317247}],"mentionedGuides":[],"canonicalSlug":"senor-picante-d094","enrichment":{"summary_en":"Señor Picante is a curated restaurant in Αθήνα 117 42 in the Gyros & Cheap Eats collection. It is connected to 94 nearby Googlementor picks to help travelers build a stronger local route.","summary_el":"Señor Picante είναι ένα επιλεγμένο σημείο φαγητού στην περιοχή Αθήνα 117 42 και ανήκει στη συλλογή Gyros & Cheap Eats. Συνδέεται με 94 κοντινές προτάσεις του Googlementor για πιο ολοκληρωμένη εμπειρία.","vibe_tags":["curated","budget-friendly"],"best_for":["first-time visitors","food lovers","budget travelers"],"visit_moments":["lunch stop","dinner stop"],"practical_note":"Address and direct map link are available for easy turn-by-turn access.","nearby_walkable_count":94,"nearby_count_2km":548,"confidence":0.98},"areaContext":{"slug":"koykaki","name":"Koukaki","nameEl":"Κουκάκι"},"intentContexts":[{"href":"/cheap-eats/koykaki","label":"Gyros & Cheap Eats in Koukaki","categorySlug":"cheap-eats","categoryName":"Gyros & Cheap Eats","areaSlug":"koykaki","areaName":"Koukaki","areaNameEl":"Κουκάκι"},{"href":"/mexican/koykaki","label":"Mexican Restaurants in Koukaki","categorySlug":"mexican","categoryName":"Mexican Restaurants","areaSlug":"koykaki","areaName":"Koukaki","areaNameEl":"Κουκάκι"}]},"__N_SSG":true}