{"pageProps":{"entity":{"id":"cheapEatsRestaurants_70bee89e8126","slug":"serafino-70be","kind":"restaurant","name":"Serafino","lat":40.58386899036688,"lng":22.951506267568906,"url":"https://maps.app.goo.gl/M1gK3j7aiDegVjjs6?g_st=ipc","address":"Metamorfoseos 11, Kalamaria 551 32","categoryIds":["cheap-eats"],"categories":["Gyros & Cheap Eats"]},"sameCategory":[{"id":"cheapEatsRestaurants_d02e33f8bb10","slug":"food-plaza-d02e","kind":"restaurant","name":"Food Plaza","lat":40.57666918251193,"lng":22.94927301198073,"url":"https://maps.app.goo.gl/zwY1QQTAGPf4oH7s8?g_st=ipc","address":"Skra 16, Kalamaria 551 32","categoryIds":["cheap-eats"],"categories":["Gyros & Cheap Eats"]},{"id":"cheapEatsRestaurants_3a3bde48c733","slug":"thess-gyro-3a3b","kind":"restaurant","name":"Thess...Gyro","lat":40.57305742887387,"lng":22.955729191150056,"url":"https://maps.app.goo.gl/UxFcV7SWYu9feyef9?g_st=ipc","address":"Smirnis 14, Kalamaria 551 32","categoryIds":["cheap-eats"],"categories":["Gyros & Cheap Eats"]},{"id":"burgersRestaurants_8a735b95eb4f","slug":"paul-s-burger-8a73","kind":"restaurant","name":"Paul’s Burger","lat":40.59788362738132,"lng":22.95216160608432,"url":"https://maps.app.goo.gl/9L8fryr5EiA3D5rR9?g_st=ipc","address":"Geor. Papandreou 38, Thessaloniki 546 46","categoryIds":["burgers","cheap-eats"],"categories":["Burger Spots","Gyros & Cheap Eats"],"legacySlugs":["paul-s-burger-a56a"]},{"id":"cheapEatsRestaurants_7caa0b61c60c","slug":"o-giros-tis-ellados-7caa","kind":"restaurant","name":"O Giros Tis Ellados","lat":40.59770145420411,"lng":22.9555911779157,"url":"https://maps.app.goo.gl/dfbEJidizuzLLALq8?g_st=ipc","address":"Leof. Vasilissis Olgas 176, Thessaloniki 546 46","categoryIds":["cheap-eats"],"categories":["Gyros & Cheap Eats"]},{"id":"cheapEatsRestaurants_811c63bc08c5","slug":"devido-811c","kind":"restaurant","name":"Devido","lat":40.599230791467505,"lng":22.95314409507896,"url":"https://maps.app.goo.gl/2EFX2fMBPiwhmmAv5?g_st=ipc","address":"25is Martiou 17, Thessaloniki 546 45","categoryIds":["cheap-eats"],"categories":["Gyros & Cheap Eats"]},{"id":"cheapEatsRestaurants_62516fc5ff91","slug":"theologos-fast-food-6251","kind":"restaurant","name":"Theologos Fast Food","lat":40.56936513403147,"lng":22.960477178944696,"url":"https://maps.app.goo.gl/ivkmYsPpBSwDCJHG7?g_st=ipc","address":"18, Aidiniou 14, Kalamaria 551 32","categoryIds":["cheap-eats"],"categories":["Gyros & Cheap Eats"]},{"id":"cheapEatsRestaurants_7eb356f33485","slug":"subito-7eb3","kind":"restaurant","name":"subito","lat":40.6000123876882,"lng":22.959807900547272,"url":"https://maps.app.goo.gl/hJJxUbRut66xbMFs5?g_st=ipc","address":"Delfon 145, Thessaloniki 542 48","categoryIds":["cheap-eats"],"categories":["Gyros & Cheap Eats"]},{"id":"burgersRestaurants_8f11f76e2e42","slug":"maverick-handmade-street-food-8f11","kind":"restaurant","name":"MAVERICK Handmade Street Food","lat":40.5733294711661,"lng":22.971759802516267,"url":"https://maps.app.goo.gl/Bc8D8iLK2oBQoFcm8?g_st=ipc","address":"Eth. Antistaseos 179, Kalamaria 551 34","categoryIds":["burgers","cheap-eats"],"categories":["Burger Spots","Gyros & Cheap Eats"],"legacySlugs":["maverick-handmade-street-food-77c2"]},{"id":"cheapEatsRestaurants_0368efbccc32","slug":"grill-junior-0368","kind":"restaurant","name":"Grill Junior","lat":40.60286928963285,"lng":22.956953349868357,"url":"https://maps.app.goo.gl/KmNipqE8jJT8qrZ17?g_st=ipc","address":"Thermopilon 31, Thessaloniki 542 48","categoryIds":["cheap-eats"],"categories":["Gyros & Cheap Eats"]},{"id":"cheapEatsRestaurants_6567e814aa5e","slug":"o-gyros-toy-michali-6567","kind":"restaurant","name":"Ο Γύρος του Μιχάλη","lat":40.60335488153119,"lng":22.961687059004745,"url":"https://maps.app.goo.gl/sNmZpvpUx9Yt5Avj6?g_st=ipc","address":"Makedonias 105, Thessaloniki 542 48","categoryIds":["cheap-eats"],"categories":["Gyros & Cheap Eats"]},{"id":"cheapEatsRestaurants_11495dfdb881","slug":"fina-kota-kai-souvlaki-1149","kind":"restaurant","name":"Fina Kota kai Souvlaki","lat":40.59910110403599,"lng":22.970582136003614,"url":"https://maps.app.goo.gl/eUYE4q3etTD9FkZs6?g_st=ipc","address":"Al. Papanastasiou 164, Thessaloniki 542 49","categoryIds":["cheap-eats"],"categories":["Gyros & Cheap Eats"]},{"id":"cheapEatsRestaurants_35033892194c","slug":"souvlaki-street-3503","kind":"restaurant","name":"Souvlaki Street","lat":40.60499215993171,"lng":22.95914208357667,"url":"https://maps.app.goo.gl/8hPpQdZA8iNRAksd7?g_st=ipc","address":"Geor. Drosini 14, Thessaloniki 546 44","categoryIds":["cheap-eats"],"categories":["Gyros & Cheap Eats"]}],"nearby":[{"id":"burgersRestaurants_7bf76fbc7d0a","slug":"burgler-7bf7","kind":"restaurant","name":"Burgler","lat":40.584120623109904,"lng":22.951979743044145,"url":"https://maps.app.goo.gl/yMSfiMNTRFpJoskdA?g_st=ipc","address":"Metamorfoseos 5, Kalamaria 551 31","categoryIds":["burgers"],"categories":["Burger Spots"],"distanceKm":0.04880159509324917},{"id":"italianRestaurants_f98055a56a7f","slug":"tonino-pizzeria-napoletana-f980","kind":"restaurant","name":"Tonino Pizzeria Napoletana","lat":40.58464427596488,"lng":22.951802816992593,"url":"https://maps.app.goo.gl/zebuXsdGAEsViD2MA?g_st=ipc","address":"Iereos Papanikola 13-15, Kalamaria 551 31","categoryIds":["italian"],"categories":["Italian Restaurants"],"distanceKm":0.08977152316642334},{"id":"municipalities_af8ac1d142d6","slug":"kalamaria-af8a","kind":"municipality","name":"Καλαμαριά","lat":40.5825,"lng":22.9503,"region":"Ανατολική Θεσσαλονίκη","name_en":"Kalamaria","region_en":"East Thessaloniki","distanceKm":0.1831647700014518},{"id":"coffeeBrunchRestaurants_37a99c7a5e9b","slug":"cafe-plateia-37a9","kind":"restaurant","name":"Café Plateia","lat":40.58219813646138,"lng":22.94932374129252,"url":"https://maps.app.goo.gl/9R5MQ6z3jfLnmMwu7?g_st=ipc","address":"Mitropolitou Chrisanthou 0, Kalamaria 551 32","categoryIds":["coffee-brunch"],"categories":["Coffee & Brunch Spots"],"distanceKm":0.2617034689732092},{"id":"municipalities_3059ca977111","slug":"karampoyrnaki-3059","kind":"municipality","name":"Καραμπουρνάκι","lat":40.5857,"lng":22.9535,"region":"Θεσσαλονίκη","name_en":"Karabournaki","region_en":"Thessaloniki","distanceKm":0.2641945800419798},{"id":"dessertsRestaurants_971d24d9e3ed","slug":"pagota-themis-971d","kind":"restaurant","name":"Παγωτά 'Θέμης'","lat":40.58103606730307,"lng":22.951200963653005,"url":"https://maps.app.goo.gl/hLPTQRcHhxotqq366?g_st=ipc","address":"I. Passalidi 69, Kalamaria 551 32","categoryIds":["desserts"],"categories":["Dessert Shops"],"distanceKm":0.3160600431988281},{"id":"dessertsRestaurants_4fb635c33210","slug":"trigona-elenidi-4fb6","kind":"restaurant","name":"Trigona Elenidi","lat":40.58725693671977,"lng":22.9548680363337,"url":"https://maps.app.goo.gl/EpRLs9ycdMXcJNP16?g_st=ipc","address":"Adrianoupoleos 19, Kalamaria 551 33","categoryIds":["desserts"],"categories":["Dessert Shops"],"distanceKm":0.4717106223497064},{"id":"greekRestaurants_effaa488563e","slug":"nea-klimataria-effa","kind":"restaurant","name":"Νέα Κληματαριά","lat":40.58891669010003,"lng":22.944876147959,"url":"https://maps.app.goo.gl/RWo1fZbyn2z8MGaa9?g_st=ipc","address":"Θεμιστοκλή Σοφούλη 97, Θεσσαλονίκη 551 31","categoryIds":["greek-restaurants"],"categories":["Greek Restaurants"],"distanceKm":0.7927765084633285},{"id":"greekRestaurants_d5512fead26c","slug":"kronos-para-thin-alos-d551","kind":"restaurant","name":"Κρόνος παρά θίν αλός","lat":40.59022357622001,"lng":22.9465897334504,"url":"https://maps.app.goo.gl/yBbugZp5EmUQT27x7?g_st=ipc","address":"Θεμιστοκλή Σοφούλη 77, Θεσσαλονίκη 551 31","categoryIds":["greek-restaurants"],"categories":["Greek Restaurants"],"distanceKm":0.8195399974723249},{"id":"cheapEatsRestaurants_d02e33f8bb10","slug":"food-plaza-d02e","kind":"restaurant","name":"Food Plaza","lat":40.57666918251193,"lng":22.94927301198073,"url":"https://maps.app.goo.gl/zwY1QQTAGPf4oH7s8?g_st=ipc","address":"Skra 16, Kalamaria 551 32","categoryIds":["cheap-eats"],"categories":["Gyros & Cheap Eats"],"distanceKm":0.8224978965459455},{"id":"luxuryDiningRestaurants_f789c3144485","slug":"marrone-restaurant-f789","kind":"restaurant","name":"Marrone Restaurant","lat":40.587514625354714,"lng":22.942944126653384,"url":"https://maps.app.goo.gl/rYECyH9YH5sKjowm8?g_st=ipc","address":"Themistokli Sofouli 111, Kalamaria 551 31","categoryIds":["luxury-dining"],"categories":["Luxury Dining"],"distanceKm":0.8289176413860513},{"id":"greekRestaurants_11bcbb15df27","slug":"chalaro-11bc","kind":"restaurant","name":"Χάλαρο","lat":40.59065020365281,"lng":22.947310711779775,"url":"https://maps.app.goo.gl/FknwoH4DjWTtgiZc8?g_st=ipc","address":"Θεμιστοκλή Σοφούλη 75, Θεσσαλονίκη 551 31","categoryIds":["greek-restaurants"],"categories":["Greek Restaurants"],"distanceKm":0.8331204968654086},{"id":"dessertsRestaurants_715ce072dcab","slug":"chatzi-715c","kind":"restaurant","name":"Chatzi","lat":40.590808607832805,"lng":22.947461000377523,"url":"https://maps.app.goo.gl/aPDKbL8fF37cA1M1A?g_st=ipc","address":"ΘΕΜΙΣΤΟΚΛΗ ΣΟΦΟΥΛΗ 73, Argonafton 2, Kalamaria 551 31","categoryIds":["desserts"],"categories":["Dessert Shops"],"distanceKm":0.8438786697149585},{"id":"fishTavernasRestaurants_e4a529eccfe5","slug":"akti-ntovil-sea-taste-e4a5","kind":"restaurant","name":"Akti Ntovil sea taste","lat":40.590227199252006,"lng":22.94525345267167,"url":"https://maps.app.goo.gl/qLvCE8t6ieDmXdt57?g_st=ipc","address":"Themistokli Sofouli 86, Kalamaria 551 31","categoryIds":["fish-tavernas","luxury-dining"],"categories":["Fish Tavernas","Luxury Dining"],"legacySlugs":["akti-ntovil-sea-taste-36db"],"distanceKm":0.8824079207799739},{"id":"coffeeBrunchRestaurants_346744718646","slug":"thegia-more-than-a-bakery-3467","kind":"restaurant","name":"ΘΕΓΙΑ more than a bakery","lat":40.59152214019956,"lng":22.948474846251315,"url":"https://maps.app.goo.gl/Rk9qKb5jkoYV7x6HA?g_st=ipc","address":"Themistokli Sofouli 65, Kalamaria 551 31","categoryIds":["coffee-brunch"],"categories":["Coffee & Brunch Spots"],"distanceKm":0.8886578809484558},{"id":"fishTavernasRestaurants_696f7178604d","slug":"petros-ouzo-tavern-696f","kind":"restaurant","name":"\"Petros\" Ouzo Tavern","lat":40.5758568701644,"lng":22.94955610306511,"url":"https://maps.app.goo.gl/zWRjvQW7U7jg2RVz9?g_st=ipc","address":"Evelpidou 12, Kalamaria 551 32","categoryIds":["fish-tavernas"],"categories":["Fish Tavernas"],"distanceKm":0.9060024185115751},{"id":"luxuryDiningRestaurants_6c2f9d989a6a","slug":"shark-bar-restaurant-thessaloniki-6c2f","kind":"restaurant","name":"SHARK Bar | Restaurant - Thessaloniki","lat":40.59118558847925,"lng":22.946520720029824,"url":"https://maps.app.goo.gl/gugoZEiFmeixR8B67?g_st=ipc","address":"Argonafton 2, Kalamaria 551 31","categoryIds":["luxury-dining"],"categories":["Luxury Dining"],"distanceKm":0.9160402511537958},{"id":"fishTavernasRestaurants_f8b7ef1f9834","slug":"mavri-thalassa-f8b7","kind":"restaurant","name":"Mavri Thalassa","lat":40.57843253808032,"lng":22.94322807682347,"url":"https://maps.app.goo.gl/BS4tZgxTYFAhXywDA?g_st=ipc","address":"Nik. Plastira 3, Kalamaria 551 32","categoryIds":["fish-tavernas","luxury-dining"],"categories":["Fish Tavernas","Luxury Dining"],"legacySlugs":["mavri-thalassa-e027"],"distanceKm":0.9242128249488186},{"id":"burgersRestaurants_af84766a95a5","slug":"brothers-in-law-af84","kind":"restaurant","name":"Brothers In Law","lat":40.59054130309985,"lng":22.959087966385763,"url":"https://maps.app.goo.gl/71PatbkFTVXX7R3w9?g_st=ipc","address":"Leof. Vasilissis Olgas 275, Thessaloniki 551 33","categoryIds":["burgers"],"categories":["Burger Spots"],"distanceKm":0.9799705367765471},{"id":"greekRestaurants_d690428e2039","slug":"nea-diagonios-d690","kind":"restaurant","name":"Nea Diagonios","lat":40.59234555425419,"lng":22.94797192954155,"url":"https://maps.app.goo.gl/TtmMpqEMxkewPb8G9?g_st=ipc","address":"Themistokli Sofouli 64Α, Thessaloniki 546 55","categoryIds":["greek-restaurants"],"categories":["Greek Restaurants"],"distanceKm":0.9886722612806628},{"id":"fishTavernasRestaurants_36204a46aece","slug":"to-karnagio-3620","kind":"restaurant","name":"Το Καρνάγιο","lat":40.574881874460935,"lng":22.94956377176227,"url":"https://maps.app.goo.gl/pPBVRQW1crZFz6ho8?g_st=ipc","address":"Agiou Nikolaou 4, Thessaloniki 551 32","categoryIds":["fish-tavernas"],"categories":["Fish Tavernas"],"distanceKm":1.0126974970134999},{"id":"coffeeBrunchRestaurants_f9825eace7fc","slug":"les-zazous-f982","kind":"restaurant","name":"Les Zazous","lat":40.58600004577793,"lng":22.93944264109209,"url":"https://maps.app.goo.gl/timwhn386UbaBApm7?g_st=ipc","address":"Themistokli Sofouli 108, Kalamaria 551 31","categoryIds":["coffee-brunch","luxury-dining"],"categories":["Coffee & Brunch Spots","Luxury Dining"],"legacySlugs":["les-zazous-fd5e"],"distanceKm":1.0459232085199437},{"id":"fishTavernasRestaurants_e98c62e6ec54","slug":"en-plo-e98c","kind":"restaurant","name":"En Plo","lat":40.57398660392286,"lng":22.949456391166105,"url":"https://maps.app.goo.gl/veiyM1VvYLvbo86r8?g_st=ipc","address":"Nik. Plastira 14Β, Kalamaria 551 32","categoryIds":["fish-tavernas"],"categories":["Fish Tavernas"],"distanceKm":1.112424569302984},{"id":"fishTavernasRestaurants_ff2ad0d31126","slug":"gialos-fish-seafood-tavern-ff2a","kind":"restaurant","name":"Gialos Fish & Seafood Tavern","lat":40.57948809433507,"lng":22.938505206144782,"url":"https://maps.app.goo.gl/Bgo34mDRNnqGBqcn6?g_st=ipc","address":"Ν.Πλαστήρα - Μ. Εμβολο - Ν.Α.Ο.Κ, Thessaloniki 551 31","categoryIds":["fish-tavernas"],"categories":["Fish Tavernas"],"distanceKm":1.201156780680416}],"mentionedGuides":[],"canonicalSlug":"serafino-70be","enrichment":{"summary_en":"Serafino is a curated restaurant in Kalamaria 551 32 in the Gyros & Cheap Eats collection. It is connected to 8 nearby Googlementor picks to help travelers build a stronger local route.","summary_el":"Serafino είναι ένα επιλεγμένο σημείο φαγητού στην περιοχή Kalamaria 551 32 και ανήκει στη συλλογή Gyros & Cheap Eats. Συνδέεται με 8 κοντινές προτάσεις του Googlementor για πιο ολοκληρωμένη εμπειρία.","vibe_tags":["curated","budget-friendly"],"best_for":["first-time visitors","food lovers","budget travelers"],"visit_moments":["lunch stop","dinner stop"],"practical_note":"Address and direct map link are available for easy turn-by-turn access.","nearby_walkable_count":8,"nearby_count_2km":47,"confidence":0.98},"areaContext":{"slug":"kalamaria","name":"Kalamaria","nameEl":"Καλαμαριά"},"intentContexts":[{"href":"/cheap-eats/kalamaria","label":"Gyros & Cheap Eats in Kalamaria","categorySlug":"cheap-eats","categoryName":"Gyros & Cheap Eats","areaSlug":"kalamaria","areaName":"Kalamaria","areaNameEl":"Καλαμαριά"}]},"__N_SSG":true}