{"pageProps":{"entity":{"id":"asianRestaurants_54f96c10eabf","slug":"shisan-sushi-bar-54f9","kind":"restaurant","name":"Shisan Sushi Bar","lat":37.97750088660989,"lng":23.729162812696888,"url":"https://maps.app.goo.gl/EXv9MbMpLAGJ5z8p9?g_st=ipc","address":"Καλαμιώτου 25, Αθήνα 106 81","categoryIds":["asian"],"categories":["Asian Restaurants"]},"sameCategory":[{"id":"asianRestaurants_427d94265987","slug":"shisan-sushi-bar-427d","kind":"restaurant","name":"Shisan Sushi Bar","lat":37.977337086650145,"lng":23.730266018891072,"url":"https://maps.app.goo.gl/nPpYrXs7ZyBAs7gx9?g_st=ipc","address":"Ρόμβης 24Α, Αθήνα 105 62","categoryIds":["asian"],"categories":["Asian Restaurants"]},{"id":"asianRestaurants_3e39975f70d5","slug":"streetwok-3e39","kind":"restaurant","name":"StreetWok","lat":37.97689230907057,"lng":23.727592595188877,"url":"https://maps.app.goo.gl/qhpXyetVXaLisBEWA?g_st=ipc","address":"Αιόλου 21, Αθήνα 105 63","categoryIds":["asian","cheap-eats"],"categories":["Asian Restaurants","Gyros & Cheap Eats"],"legacySlugs":["streetwok-7239"]},{"id":"asianRestaurants_464e7e4c810b","slug":"tanpopo-464e","kind":"restaurant","name":"Tanpopo","lat":37.9795596589589,"lng":23.72974278108181,"url":"https://maps.app.goo.gl/H2M3yGFhApNA288V8?g_st=ipc","address":"Αριστείδου 1, Ευριπίδου 2, Αθήνα 105 59","categoryIds":["asian"],"categories":["Asian Restaurants"]},{"id":"asianRestaurants_c5be8384da5c","slug":"hanoi-athens-authentic-vietnamese-food-c5be","kind":"restaurant","name":"HANOI ATHENS - AUTHENTIC VIETNAMESE FOOD","lat":37.97561643327209,"lng":23.73154671347612,"url":"https://maps.app.goo.gl/WvsC9Ebt7yScnxNH8?g_st=ipc","address":"Πετράκη 12, Αθήνα 105 63","categoryIds":["asian","vegetarian"],"categories":["Asian Restaurants","Vegetarian Friendly Restaurants"],"legacySlugs":["hanoi-athens-authentic-vietnamese-food-1e56"]},{"id":"asianRestaurants_145a81e4039e","slug":"akira-sushi-bar-athens-japanese-restaurant-145a","kind":"restaurant","name":"Akira Sushi Bar | Athens Japanese Restaurant","lat":37.979592346362566,"lng":23.73239256912945,"url":"https://maps.app.goo.gl/y6KSXjJTao7NPHZG8?g_st=ipc","address":"Σταδίου 30 &, Κοραή 4, Αθήνα 105 64","categoryIds":["asian"],"categories":["Asian Restaurants"]},{"id":"asianRestaurants_c79d456ae7d7","slug":"noodle-bar-c79d","kind":"restaurant","name":"Noodle Bar","lat":37.97469670323124,"lng":23.731836375056524,"url":"https://maps.app.goo.gl/2JAZWHPydSGiN1Vz5?g_st=ipc","address":"Απόλλωνος 11, Αθήνα 105 57","categoryIds":["asian"],"categories":["Asian Restaurants"]},{"id":"asianRestaurants_42df17dcd2e4","slug":"dosirak-42df","kind":"restaurant","name":"Dosirak","lat":37.97494107666411,"lng":23.732376863056064,"url":"https://maps.app.goo.gl/PwDtN3ePd5r7qvjc7?g_st=ipc","address":"Βουλής 33, Αθήνα 105 57","categoryIds":["asian"],"categories":["Asian Restaurants"]},{"id":"asianRestaurants_e28b11d8898b","slug":"nolan-e28b","kind":"restaurant","name":"Nolan","lat":37.97479795746223,"lng":23.732371775380916,"url":"https://maps.app.goo.gl/X3KiMCEXwDEoAj3N6?g_st=ipc","address":"Βουλής 31 - 33, Αθήνα 105 57","categoryIds":["asian","luxury-dining"],"categories":["Asian Restaurants","Luxury Dining"],"legacySlugs":["nolan-d22b"]},{"id":"asianRestaurants_7b8b9814562d","slug":"pink-flamingo-dim-sum-7b8b","kind":"restaurant","name":"Pink Flamingo Dim Sum","lat":37.97460809363569,"lng":23.732494338257986,"url":"https://maps.app.goo.gl/fYsHDCdPt7Ag7nwx7?g_st=ipc","address":"Σκούφου 2-4, Αθήνα 105 57","categoryIds":["asian"],"categories":["Asian Restaurants"]},{"id":"asianRestaurants_47edca6d922f","slug":"gaku-47ed","kind":"restaurant","name":"GAKU","lat":37.974764541523264,"lng":23.73278280614978,"url":"https://maps.app.goo.gl/d2jzonLKf2Au2UP28?g_st=ipc","address":"Απόλλωνος 2, Αθήνα 105 57","categoryIds":["asian"],"categories":["Asian Restaurants"]},{"id":"asianRestaurants_0d95e4345c8a","slug":"sushimou-0d95","kind":"restaurant","name":"Sushimou","lat":37.97442757213257,"lng":23.73246192997683,"url":"https://maps.app.goo.gl/1y3Cs2ks6GF4C85F6?g_st=ipc","address":"Σκούφου 6, Αθήνα 105 57","categoryIds":["asian","luxury-dining"],"categories":["Asian Restaurants","Luxury Dining"],"legacySlugs":["sushimou-47da"]},{"id":"asianRestaurants_d1a59d966352","slug":"east-pearl-chinese-restaurant-d1a5","kind":"restaurant","name":"East Pearl Chinese restaurant","lat":37.97475497132636,"lng":23.732999717791024,"url":"https://maps.app.goo.gl/X4tWaVESeHdhnYpi6?g_st=ipc","address":"Απόλλωνος 2, Αθήνα 105 57","categoryIds":["asian"],"categories":["Asian Restaurants"]}],"nearby":[{"id":"cheapEatsRestaurants_5f988e7e01fc","slug":"food-str-5f98","kind":"restaurant","name":"Food Str","lat":37.977285336004456,"lng":23.72911901973204,"url":"https://maps.app.goo.gl/tiAdgVLPy9vMcbLd6?g_st=ipc","address":"Καλαμιώτου 14, Αθήνα 105 60","categoryIds":["cheap-eats"],"categories":["Gyros & Cheap Eats"],"distanceKm":0.024273547201297558},{"id":"greekRestaurants_193dd3b500da","slug":"to-paradosiako-193d","kind":"restaurant","name":"Το Παραδοσιακό","lat":37.977707115390295,"lng":23.728787167486587,"url":"https://maps.app.goo.gl/NeJoupJj8mkFs1fXA","address":"Κολοκοτρώνη 59, Αθήνα 105 60","categoryIds":["greek-restaurants"],"categories":["Greek Restaurants"],"distanceKm":0.04012383889079603},{"id":"vegetarianRestaurants_c42b13d2db7e","slug":"shedia-home-cafe-restaurant-giftshop-c42b","kind":"restaurant","name":"Shedia Home - Cafe, Restaurant & Giftshop","lat":37.977833037817305,"lng":23.72875153673485,"url":"https://maps.app.goo.gl/9Dfe1mtSN788EyGb7?g_st=ipc","address":"Κολοκοτρώνη 56, Αθήνα 105 60","categoryIds":["vegetarian"],"categories":["Vegetarian Friendly Restaurants"],"distanceKm":0.051609618254222306},{"id":"vegetarianRestaurants_5b207cd61024","slug":"av-it-5b20","kind":"restaurant","name":"AV IT","lat":37.976939825548584,"lng":23.728942581826033,"url":"https://maps.app.goo.gl/Kt7esiHQgo5rmoWc7?g_st=ipc","address":"Καλαμιώτου 8, Αθήνα 105 60","categoryIds":["vegetarian"],"categories":["Vegetarian Friendly Restaurants"],"distanceKm":0.06530521164865644},{"id":"vegetarianRestaurants_66f29ff77bdf","slug":"inloveagain-specialty-coffee-66f2","kind":"restaurant","name":"InLoveAgain. Specialty coffee","lat":37.97733209854113,"lng":23.72987682666704,"url":"https://maps.app.goo.gl/GuskwaqjTh2E9fc66?g_st=ipc","address":"Κλειτίου 3, Αθήνα 105 60","categoryIds":["vegetarian"],"categories":["Vegetarian Friendly Restaurants"],"distanceKm":0.06533685269838231},{"id":"dessertsRestaurants_0b6ae51a593c","slug":"koykoyvagia-0b6a","kind":"restaurant","name":"Κουκουβάγια","lat":37.97736767389115,"lng":23.728413094267065,"url":"https://maps.app.goo.gl/CMZY3dTRrJ7tTadz6?g_st=ipc","address":"Σκουζέ 1, Αθήνα 105 60","categoryIds":["desserts"],"categories":["Dessert Shops"],"distanceKm":0.06736143502396397},{"id":"burgersRestaurants_594f0da03951","slug":"the-smashers-athens-594f","kind":"restaurant","name":"The Smashers Athens","lat":37.976855263908405,"lng":23.728850035341498,"url":"https://maps.app.goo.gl/eZb9zRu5ZEKX8jLZ6?g_st=ipc","address":"Καλαμιώτου 7, Αθήνα 105 63","categoryIds":["burgers"],"categories":["Burger Spots"],"distanceKm":0.07684646593308744},{"id":"burgersRestaurants_7c6e8e764472","slug":"the-smashers-athens-7c6e","kind":"restaurant","name":"The Smashers Athens","lat":37.97685470027012,"lng":23.728849657560023,"url":"https://maps.app.goo.gl/uKyi2SUBZv1EWPoV7?g_st=ic","address":"Kalamiotou 7, Athina 105 63","categoryIds":["burgers"],"categories":["Burger Spots"],"distanceKm":0.07691682913545773},{"id":"coffeeBrunchRestaurants_268ab51f91a8","slug":"smak-zymeria-268a","kind":"restaurant","name":"Smak Ζυμερία","lat":37.97751180003605,"lng":23.730066447556442,"url":"https://maps.app.goo.gl/dAYcRqw7bHXmUKJz6?g_st=ipc","address":"Ρόμβης 21, Αθήνα 105 60","categoryIds":["coffee-brunch"],"categories":["Coffee & Brunch Spots"],"distanceKm":0.07921259062905628},{"id":"fishTavernasRestaurants_96126d9ba88c","slug":"zisis-9612","kind":"restaurant","name":"Ζήσης","lat":37.97677236195616,"lng":23.729130321852065,"url":"https://maps.app.goo.gl/B6NXu9TchhZNtX1m9?g_st=ipc","address":"Αθηναΐδος 3, Αθήνα 105 63","categoryIds":["fish-tavernas"],"categories":["Fish Tavernas"],"distanceKm":0.0810582873066486},{"id":"coffeeBrunchRestaurants_89fa6586b876","slug":"naked-athens-89fa","kind":"restaurant","name":"Naked Athens","lat":37.977383627962844,"lng":23.728247966730684,"url":"https://maps.app.goo.gl/hTG8NPLsUHzhqPFg6?g_st=ipc","address":"Πλ. Αγίας Ειρήνης 2, Αθήνα 105 60","categoryIds":["coffee-brunch"],"categories":["Coffee & Brunch Spots"],"distanceKm":0.08123916011882412},{"id":"mexicanRestaurants_d1ef1807c1f0","slug":"taco-loco-athens-d1ef","kind":"restaurant","name":"Taco Loco Athens","lat":37.9776204281013,"lng":23.730210870551065,"url":"https://maps.app.goo.gl/6pEPXa7waRhazPjR9?g_st=ipc","address":"Κολοκοτρώνη 39, Αθήνα 105 62","categoryIds":["mexican"],"categories":["Mexican Restaurants"],"distanceKm":0.092818577533641},{"id":"asianRestaurants_427d94265987","slug":"shisan-sushi-bar-427d","kind":"restaurant","name":"Shisan Sushi Bar","lat":37.977337086650145,"lng":23.730266018891072,"url":"https://maps.app.goo.gl/nPpYrXs7ZyBAs7gx9?g_st=ipc","address":"Ρόμβης 24Α, Αθήνα 105 62","categoryIds":["asian"],"categories":["Asian Restaurants"],"distanceKm":0.0983961983899594},{"id":"vegetarianRestaurants_1564131c7925","slug":"vietnam-street-food-1564","kind":"restaurant","name":"VIETNAM STREET FOOD","lat":37.97675287050778,"lng":23.729819366572254,"url":"https://maps.app.goo.gl/WYdqmMy3mDqLNW7e8?g_st=ipc","address":"Περικλέους 56, Αθήνα 105 60","categoryIds":["vegetarian"],"categories":["Vegetarian Friendly Restaurants"],"distanceKm":0.10114267114518544},{"id":"cheapEatsRestaurants_ab5cb5a64cdf","slug":"street-souvlaki-ab5c","kind":"restaurant","name":"Street Souvlaki","lat":37.97767884115099,"lng":23.73029552357521,"url":"https://maps.app.goo.gl/o9F3U32hpw226uAK9?g_st=ipc","address":"Κολοκοτρώνη 30, Αθήνα 105 62","categoryIds":["cheap-eats"],"categories":["Gyros & Cheap Eats"],"distanceKm":0.10123433486419019},{"id":"vegetarianRestaurants_b74f212f3c6f","slug":"vegan-beat-athens-b74f","kind":"restaurant","name":"Vegan Beat Athens","lat":37.976741727063335,"lng":23.729824452963804,"url":"https://maps.app.goo.gl/2r2EDKFSvkng4GkF9?g_st=ipc","address":"Περικλέους 56, Αθήνα 105 60","categoryIds":["vegetarian"],"categories":["Vegetarian Friendly Restaurants"],"distanceKm":0.1024158725516101},{"id":"cheapEatsRestaurants_05c7dd51e3bb","slug":"curry-express-indian-food-05c7","kind":"restaurant","name":"Curry Express Indian Food","lat":37.9776157519804,"lng":23.73032710822111,"url":"https://maps.app.goo.gl/J66TMj5XKXHHYhD97?g_st=ipc","address":"Κολοκοτρώνη 37, Αθήνα 105 62","categoryIds":["cheap-eats"],"categories":["Gyros & Cheap Eats"],"distanceKm":0.10284622816760602},{"id":"cheapEatsRestaurants_86cc4f5a9e30","slug":"kosta-souvlaki-86cc","kind":"restaurant","name":"Kosta Souvlaki","lat":37.97741645492704,"lng":23.72799295408667,"url":"https://maps.app.goo.gl/Hxj6uVgcEgiQuTDv8?g_st=ipc","address":"Πλ. Αγίας Ειρήνης 2, Αθήνα 105 60","categoryIds":["cheap-eats"],"categories":["Gyros & Cheap Eats"],"distanceKm":0.10296668789608754},{"id":"coffeeBrunchRestaurants_86c49b223ca7","slug":"gaya-athens-86c4","kind":"restaurant","name":"GAYA Athens","lat":37.97655155960143,"lng":23.729000167842386,"url":"https://maps.app.goo.gl/wY2FhMBr8ApzzSLw5?g_st=ipc","address":"Καλαμιώτου 2, Αθήνα 105 63","categoryIds":["coffee-brunch"],"categories":["Coffee & Brunch Spots"],"distanceKm":0.10651862013237727},{"id":"cheapEatsRestaurants_8b657b1197a5","slug":"hoocut-8b65","kind":"restaurant","name":"Hoocut","lat":37.976849062316084,"lng":23.72809711402173,"url":"https://maps.app.goo.gl/gP2JFL8Nk8hDVyEZ6?g_st=ipc","address":"Πλ. Αγίας Ειρήνης 9, Αθήνα 105 63","categoryIds":["cheap-eats"],"categories":["Gyros & Cheap Eats"],"distanceKm":0.11823047044913883},{"id":"greekRestaurants_9a0e0e6e3a9d","slug":"feedel-urban-gastronomy-9a0e","kind":"restaurant","name":"Feedέλ Urban Gastronomy","lat":37.976600766846424,"lng":23.729911306320325,"url":"https://maps.app.goo.gl/Uppwoqd1GbSaLvCe7","address":"Κτενά 1, Αθήνα 105 63","categoryIds":["greek-restaurants","luxury-dining"],"categories":["Greek Restaurants","Luxury Dining"],"legacySlugs":["feedel-urban-gastronomy-858d"],"distanceKm":0.11967395710866129},{"id":"vegetarianRestaurants_dd280fa872e6","slug":"not-just-falafel-vegeterian-food-athens-vegan-friendly-dd28","kind":"restaurant","name":"Not Just Falafel | Vegeterian food Athens | Vegan Friendly","lat":37.97672606756175,"lng":23.730150682547393,"url":"https://maps.app.goo.gl/rugWqM8JRvoZaHPm9?g_st=ipc","address":"Ρόμβης 16, Αθήνα 105 62","categoryIds":["vegetarian"],"categories":["Vegetarian Friendly Restaurants"],"distanceKm":0.1221480379831445},{"id":"monasteriesChurches_d3d098c448a4","slug":"ieros-naos-agias-eirinis-d3d0","kind":"restaurant","name":"Ιερός Ναός Αγίας Ειρήνης","lat":37.977134855411386,"lng":23.727779375021544,"url":"https://maps.app.goo.gl/JehgGspdoWfwue8w5?g_st=ipc","address":"Αιόλου 36, Αθήνα 105 60","categoryIds":["monasteries-churches"],"categories":["Monasteries & Spiritual Sites"],"distanceKm":0.12790659973870572},{"id":"vegetarianRestaurants_7a48cadc1cba","slug":"sugar-killer-7a48","kind":"restaurant","name":"Sugar Killer","lat":37.976654957150416,"lng":23.730157941231223,"url":"https://maps.app.goo.gl/326sYhMHWCiSjUJW9?g_st=ipc","address":"Περικλέους 33, Αθήνα 105 63","categoryIds":["vegetarian"],"categories":["Vegetarian Friendly Restaurants"],"distanceKm":0.12827995014997134}],"mentionedGuides":[],"canonicalSlug":"shisan-sushi-bar-54f9","enrichment":{"summary_en":"Shisan Sushi Bar is a curated restaurant in Αθήνα 106 81 in the Asian Restaurants collection. It is connected to 316 nearby Googlementor picks to help travelers build a stronger local route.","summary_el":"Shisan Sushi Bar είναι ένα επιλεγμένο σημείο φαγητού στην περιοχή Αθήνα 106 81 και ανήκει στη συλλογή Asian Restaurants. Συνδέεται με 316 κοντινές προτάσεις του Googlementor για πιο ολοκληρωμένη εμπειρία.","vibe_tags":["curated"],"best_for":["first-time visitors","food lovers"],"visit_moments":["lunch stop","dinner stop"],"practical_note":"Address and direct map link are available for easy turn-by-turn access.","nearby_walkable_count":316,"nearby_count_2km":652,"confidence":0.98},"areaContext":{"slug":"monastiraki","name":"Monastiraki","nameEl":"Μοναστηράκι"},"intentContexts":[{"href":"/asian-restaurants/monastiraki","label":"Asian Restaurants in Monastiraki","categorySlug":"asian-restaurants","categoryName":"Asian Restaurants","areaSlug":"monastiraki","areaName":"Monastiraki","areaNameEl":"Μοναστηράκι"}]},"__N_SSG":true}