{"pageProps":{"entity":{"id":"municipalities_0fab25c875e2","slug":"siteia-0fab","kind":"municipality","name":"Σητεία","lat":35.2078,"lng":26.106,"aliases":["Σητεια"],"region":"Ανατολική Κρήτη","name_en":"Sitia","region_en":"East Crete"},"sameCategory":[],"nearby":[{"id":"coffeeBrunchRestaurants_32952e6ac25c","slug":"cafe-kafe-konstantinos-mich-katsamboxakis-3295","kind":"restaurant","name":"Café Kafé (Konstantinos Mich. Katsamboxakis)","lat":35.20722771587482,"lng":26.10675728610521,"url":"https://maps.app.goo.gl/xoXNN9GSVDDfAxxk9?g_st=ipc","address":"Kon/nou Karamanli 6, Sitia 723 00","categoryIds":["coffee-brunch"],"categories":["Coffee & Brunch Spots"],"distanceKm":0.09371873271894278},{"id":"greekRestaurants_31846964133f","slug":"inodion-3184","kind":"restaurant","name":"Inodion","lat":35.20856301491662,"lng":26.10648423346929,"url":"https://maps.app.goo.gl/pzhkDBi9GpvKTFMMA?g_st=ipc","address":"Ελ. Βενιζέλου 157, Σητεία 732 00","categoryIds":["greek-restaurants"],"categories":["Greek Restaurants"],"distanceKm":0.09557137198755537},{"id":"dessertsRestaurants_3d8333fd87a3","slug":"mitsakakis-3d83","kind":"restaurant","name":"Mitsakakis","lat":35.2071841117343,"lng":26.1068075256644,"url":"https://maps.app.goo.gl/HzPozyu829t1F6kV8?g_st=ipc","address":"Kon/nou Karamanli 6, Sitia 723 00","categoryIds":["desserts"],"categories":["Dessert Shops"],"distanceKm":0.10036292148050993},{"id":"coffeeBrunchRestaurants_21dac0392c36","slug":"surf-beach-snack-bar-kouremenos-21da","kind":"restaurant","name":"Surf Beach - Snack Bar Kouremenos","lat":35.20624912822425,"lng":26.26983256244183,"url":"https://maps.app.goo.gl/gJZYAD9gs6uvp4U49?g_st=ipc","address":"Ιτανίων, Kouremenos 723 00","categoryIds":["coffee-brunch"],"categories":["Coffee & Brunch Spots"],"distanceKm":14.885924091088388},{"id":"greekRestaurants_1567bdcebc34","slug":"dragon-s-cave-tavern-1567","kind":"restaurant","name":"Dragon's Cave Tavern","lat":35.02451844531051,"lng":26.015929343410054,"url":"https://maps.app.goo.gl/BHeTEMJwhoKFTLPG7?g_st=ipc","address":"Λαγκάδα, Λιθίνες 720 59","categoryIds":["greek-restaurants"],"categories":["Greek Restaurants"],"distanceKm":21.96497209872943},{"id":"greekRestaurants_ab6c973413e5","slug":"taverna-oasis-ab6c","kind":"restaurant","name":"Ταβέρνα Όασις","lat":35.0192294033516,"lng":26.031168966197797,"url":"https://maps.app.goo.gl/VPbi6FqvcCuiHpnd7?g_st=ipc","address":"Καλό Νερό, Περιβολάκια 720 59","categoryIds":["greek-restaurants"],"categories":["Greek Restaurants"],"distanceKm":22.045182344065005},{"id":"coffeeBrunchRestaurants_1c66ab81c701","slug":"cavo-bianco-1c66","kind":"restaurant","name":"Cavo Bianco","lat":35.02143360163328,"lng":26.015024448599853,"url":"https://maps.app.goo.gl/ybTzaZNb6KvEBPUb8?g_st=ipc","address":"Dragon's Way, Ierapetra 720 59","categoryIds":["coffee-brunch"],"categories":["Coffee & Brunch Spots"],"distanceKm":22.31405459653185},{"id":"greekRestaurants_d2117786f7ef","slug":"kalliotzina-d211","kind":"restaurant","name":"Καλλιοτζίνα","lat":35.033382728113054,"lng":25.943654893279238,"url":"https://maps.app.goo.gl/vGqVwBvZXj3Cs15N9?g_st=ipc","address":"Κουτσουρᾶς, Σταυροχώρι 720 55","categoryIds":["greek-restaurants"],"categories":["Greek Restaurants"],"distanceKm":24.375357829486394},{"id":"fishTavernasRestaurants_6c6e7df47181","slug":"pelagos-sea-side-restaurant-6c6e","kind":"restaurant","name":"Pelagos Sea Side Restaurant","lat":35.01090317014822,"lng":25.837523741431433,"url":"https://maps.app.goo.gl/ChvtYGB6ww8Z241n6?g_st=ipc","address":"Κουτσουνάρι, Αγ. Ιωάννης 722 00","categoryIds":["fish-tavernas"],"categories":["Fish Tavernas"],"distanceKm":32.79871983633169},{"id":"municipalities_b05858be497e","slug":"eloynta-b058","kind":"municipality","name":"Ελούντα","lat":35.2581,"lng":25.7286,"aliases":["Ελουντα","Elounda Bay"],"region":"Ανατολική Κρήτη","name_en":"Elounda","region_en":"East Crete","distanceKm":34.73083631063012},{"id":"municipalities_ccbf4358d2e3","slug":"agios-nikolaos-ccbf","kind":"municipality","name":"Άγιος Νικόλαος","lat":35.191,"lng":25.715,"aliases":["Αγιος Νικολαος"],"region":"Ανατολική Κρήτη","name_en":"Agios Nikolaos","region_en":"East Crete","distanceKm":35.57650363878225},{"id":"municipalities_b8d5fd091f43","slug":"ierapetra-b8d5","kind":"municipality","name":"Ιεράπετρα","lat":35.0119,"lng":25.7424,"region":"Ανατολική Κρήτη","name_en":"Ierapetra","region_en":"East Crete","distanceKm":39.603038823222704}],"mentionedGuides":[],"canonicalSlug":"siteia-0fab","enrichment":{"summary_en":"Σητεία is a curated neighborhood area in Ανατολική Κρήτη. It is connected to 3 nearby Googlementor picks to help travelers build a stronger local route.","summary_el":"Σητεία είναι ένα επιλεγμένο σημείο ενδιαφέροντος στην περιοχή Ανατολική Κρήτη. Συνδέεται με 3 κοντινές προτάσεις του Googlementor για πιο ολοκληρωμένη εμπειρία.","vibe_tags":["local-neighborhood","base-for-exploring"],"best_for":["first-time visitors","walk-and-explore days","return visitors"],"visit_moments":["late morning walks","sunset exploration"],"practical_note":"3 curated places are within walkable distance from this area center.","nearby_walkable_count":3,"nearby_count_2km":3,"confidence":0.55},"areaContext":null,"intentContexts":[]},"__N_SSG":true}