{"pageProps":{"entity":{"id":"cheapEatsRestaurants_666655654a40","slug":"souvlakia-kargas-6666","kind":"restaurant","name":"Souvlakia KARGAS","lat":37.124561868830334,"lng":25.238091044543676,"url":"https://maps.app.goo.gl/5vu438KzmoWTk1dRA?g_st=ipc","address":"Naousa 844 01","categoryIds":["cheap-eats"],"categories":["Gyros & Cheap Eats"]},"sameCategory":[{"id":"cheapEatsRestaurants_4dbaa21f0de9","slug":"yasouvlaki-4dba","kind":"restaurant","name":"Yasouvlaki!","lat":37.104045402591176,"lng":25.37553445494035,"url":"https://maps.app.goo.gl/B6fuRTJ3jQNZCZMJ8?g_st=ipc","address":"Naxos 843 00","categoryIds":["cheap-eats"],"categories":["Gyros & Cheap Eats"]},{"id":"cheapEatsRestaurants_492ec545e3cb","slug":"fbi-food-truck-492e","kind":"restaurant","name":"FBI Food Truck","lat":36.98018032275085,"lng":25.38911877245444,"url":"https://maps.app.goo.gl/tVknNoCtf1VeNxVy7?g_st=ipc","address":"X9JQ+3J, Naxos 843 02","categoryIds":["cheap-eats"],"categories":["Gyros & Cheap Eats"]},{"id":"cheapEatsRestaurants_13f771b69476","slug":"kalotaritissa-beach-canteen-13f7","kind":"restaurant","name":"Kalotaritissa Beach canteen","lat":36.79366881646542,"lng":25.743376582113193,"url":"https://maps.app.goo.gl/r2Vfu2hZFXLEjrmk8?g_st=ipc","address":"Καλοταρίτισσα 840 08","categoryIds":["cheap-eats"],"categories":["Gyros & Cheap Eats"]},{"id":"cheapEatsRestaurants_45215b23c30d","slug":"bloom-brothers-canteen-4521","kind":"restaurant","name":"Bloom Brothers canteen","lat":36.90173482477818,"lng":25.977068594760553,"url":"https://maps.app.goo.gl/JYSXRpKjkMx7aNHS7?g_st=ipc","address":"Λιμάνι, Lagada 840 08","categoryIds":["cheap-eats"],"categories":["Gyros & Cheap Eats"]},{"id":"cheapEatsRestaurants_de78a5847b53","slug":"pitogyros-traditional-grill-house-gyros-souvlaki-kebab-de78","kind":"restaurant","name":"Pitogyros Traditional Grill House - Gyros, souvlaki, kebab.","lat":36.462570266691884,"lng":25.37797515114607,"url":"https://maps.app.goo.gl/Xyq1DhyUhw2mJaPq9?g_st=ipc","address":"Oia 847 02","categoryIds":["cheap-eats"],"categories":["Gyros & Cheap Eats"]},{"id":"cheapEatsRestaurants_598437c8481b","slug":"gyradiko-o-christos-5984","kind":"restaurant","name":"Γυραδικο \"Ο Χρήστος\"","lat":37.7173396733135,"lng":24.054314949086613,"url":"https://maps.app.goo.gl/Kg9SVim1DWH8Lytb6?g_st=ipc","address":"Λεωφ. Σουνίου 6, Λαύριο 195 00","categoryIds":["cheap-eats","greek-restaurants"],"categories":["Gyros & Cheap Eats","Greek Restaurants"],"legacySlugs":["gyradiko-o-christos-d71e"]},{"id":"cheapEatsRestaurants_d994fad95b5a","slug":"aroma-elladas-d994","kind":"restaurant","name":"Άρωμα Ελλάδας","lat":37.80578649121729,"lng":23.9833913286695,"url":"https://maps.app.goo.gl/cDRv243YonNg2qnB6?g_st=ipc","address":"Ευεργέτη Κωνσταντίνου Πρίφτη 57, Κερατέα 190 01","categoryIds":["cheap-eats"],"categories":["Gyros & Cheap Eats"]},{"id":"cheapEatsRestaurants_2fe91c5ec4e8","slug":"pita-lagonisi-2fe9","kind":"restaurant","name":"Πίτα Λαγονήσι","lat":37.787769077925994,"lng":23.886240321695578,"url":"https://maps.app.goo.gl/gnVwTeJ7a9GqoCGQ9?g_st=ipc","address":"Λεωφ. Καλυβίων 4, Σαρωνικός 190 10","categoryIds":["cheap-eats"],"categories":["Gyros & Cheap Eats"]},{"id":"cheapEatsRestaurants_34ddf07c2336","slug":"estiatorio-psistaria-sotiris-34dd","kind":"restaurant","name":"Εστιατόριο Ψησταριά Σωτήρης","lat":37.87939587296456,"lng":23.933984566615596,"url":"https://maps.app.goo.gl/U5qLZ6nCR7tW5r3u7?g_st=ipc","address":"Μυριννουντος 10, Μαρκόπουλο Μεσογαίας 190 03","categoryIds":["cheap-eats"],"categories":["Gyros & Cheap Eats"]},{"id":"cheapEatsRestaurants_b59c9010c8a4","slug":"zachos-b59c","kind":"restaurant","name":"Ζάχος","lat":37.821251970598816,"lng":23.80344271241433,"url":"https://maps.app.goo.gl/DsP5tZnJxShfNf3H9?g_st=ipc","address":"Βασ. Κωνσταντίνου 94, Βάρη 166 72","categoryIds":["cheap-eats"],"categories":["Gyros & Cheap Eats"]},{"id":"cheapEatsRestaurants_0c78537a51b9","slug":"pitta-fan-grill-0c78","kind":"restaurant","name":"ΠΙΤΤΑ FAN grill","lat":37.84574550115403,"lng":23.82243212849934,"url":"https://maps.app.goo.gl/xQ5Aqm4jpK3KEQLx8?g_st=ipc","address":"Λεωφ. Ευελπίδων 364, Κίτσι 194 00","categoryIds":["cheap-eats"],"categories":["Gyros & Cheap Eats"]},{"id":"cheapEatsRestaurants_cf5c14c0c783","slug":"zachos-gkril-cf5c","kind":"restaurant","name":"Ζάχος Γκριλ","lat":37.81320496162539,"lng":23.782770964184124,"url":"https://maps.app.goo.gl/bEtWEwaW2PfwcEhW9?g_st=ipc","address":"Ερμού 1, Βουλιαγμένη 166 71","categoryIds":["cheap-eats"],"categories":["Gyros & Cheap Eats"]}],"nearby":[{"id":"italianRestaurants_b7cf983e2771","slug":"casa-giacomo-paros-b7cf","kind":"restaurant","name":"Casa Giacomo Paros","lat":37.12454320720165,"lng":25.238458349168585,"url":"https://maps.app.goo.gl/Ciaf8V2SrHA91Eqw7?g_st=ipc","address":"Little Venice, Naousa 844 01","categoryIds":["italian"],"categories":["Italian Restaurants"],"distanceKm":0.03263073702982635},{"id":"municipalities_e44f44ea872e","slug":"naoysa-paroy-e44f","kind":"municipality","name":"Ναούσα Πάρου","lat":37.1242,"lng":25.2383,"aliases":["Ναουσα Παρου","Naousa","Naoussa"],"region":"Κυκλάδες","name_en":"Naousa Paros","region_en":"Cyclades","distanceKm":0.04429782647252619},{"id":"fishTavernasRestaurants_2b513f5d0dca","slug":"sigi-ikthios-2b51","kind":"restaurant","name":"Sigi Ikthios","lat":37.12488461984584,"lng":25.2375451186848,"url":"https://maps.app.goo.gl/a8XzzgdiGdqnwgxp6?g_st=ipc","address":"Limanaki Naousa, Naousa 844 01","categoryIds":["fish-tavernas"],"categories":["Fish Tavernas"],"distanceKm":0.06025457094209981},{"id":"coffeeBrunchRestaurants_cab3ccb32dd1","slug":"come-back-cab3","kind":"restaurant","name":"come back","lat":37.12451513145797,"lng":25.239009860245982,"url":"https://maps.app.goo.gl/iW2VgvcVsbQ7K6rVA?g_st=ipc","address":"Beach, Agios Dimitrios, Naousa 844 01","categoryIds":["coffee-brunch"],"categories":["Coffee & Brunch Spots"],"distanceKm":0.0816264767188561},{"id":"luxuryDiningRestaurants_daff556d4496","slug":"barbarossa-restaurant-daff","kind":"restaurant","name":"Barbarossa Restaurant","lat":37.12519351534626,"lng":25.23748367778552,"url":"https://maps.app.goo.gl/cdTNGtzo6JQDuLoVA?g_st=ipc","address":"Παλιό Λιμάνι Νάουσας, Limanaki, Naousa 844 01","categoryIds":["luxury-dining"],"categories":["Luxury Dining"],"distanceKm":0.08850247907491088},{"id":"fishTavernasRestaurants_d0606bef60e0","slug":"bluefish-paros-d060","kind":"restaurant","name":"Bluefish Paros","lat":37.12385227854004,"lng":25.235378897681453,"url":"https://maps.app.goo.gl/YqeBLughpHcPmHy19?g_st=ipc","address":"Naoussa, Paros 844 01","categoryIds":["fish-tavernas"],"categories":["Fish Tavernas"],"distanceKm":0.25307069829394246},{"id":"municipalities_57c14c9b4c1f","slug":"naoysa-paros-57c1","kind":"municipality","name":"Νάουσα Πάρος","lat":37.12,"lng":25.24,"region":"Πάρος","name_en":"Naousa Paros","region_en":"Paros","distanceKm":0.5347475896666852},{"id":"luxuryDiningRestaurants_1787918aabcc","slug":"matsuhisa-paros-1787","kind":"restaurant","name":"Matsuhisa Paros","lat":37.122332088945846,"lng":25.232444794394056,"url":"https://maps.app.goo.gl/MmRAPTUjpZ9ev73JA?g_st=ipc","address":"Avant Mar Hotel, Paros 844 01","categoryIds":["luxury-dining"],"categories":["Luxury Dining"],"distanceKm":0.5586325132584222},{"id":"coffeeBrunchRestaurants_aba1a76a9734","slug":"batistas-bakery-aba1","kind":"restaurant","name":"Batistas Bakery","lat":37.120044252975426,"lng":25.241091509858137,"url":"https://maps.app.goo.gl/VX68GiVxifYLzhWu6?g_st=ipc","address":"Naousa 844 01","categoryIds":["coffee-brunch","desserts"],"categories":["Coffee & Brunch Spots","Dessert Shops"],"legacySlugs":["batistas-bakery-29b6"],"distanceKm":0.5684281808740026},{"id":"wineriesVineyards_f17638e49b8a","slug":"oinopoieio-moraiti-f176","kind":"restaurant","name":"Οινοποιείο Μωραΐτη","lat":37.1229987485843,"lng":25.244213980711866,"url":"https://maps.app.goo.gl/1HbespH52SwExwaW8?g_st=ipc","address":"Επαρχιακή Οδός Νάουσας-Μάρπισσας, Νάουσα 844 01","categoryIds":["wineries-vineyards"],"categories":["Wineries & Vineyards"],"distanceKm":0.5700026455723273},{"id":"fishTavernasRestaurants_9bf6858efa20","slug":"siparos-seaside-restaurant-9bf6","kind":"restaurant","name":"Siparos Seaside Restaurant","lat":37.12641356420799,"lng":25.266629540061626,"url":"https://maps.app.goo.gl/Y5FqpWpLwoZYaHni9?g_st=ipc","address":"Ξιφαρά 844 01","categoryIds":["fish-tavernas","luxury-dining"],"categories":["Fish Tavernas","Luxury Dining"],"legacySlugs":["siparos-seaside-restaurant-0493"],"distanceKm":2.53851398264491},{"id":"asianRestaurants_77a64bfea5a1","slug":"tao-s-asian-restaurant-77a6","kind":"restaurant","name":"Tao's Asian Restaurant","lat":37.1152419319295,"lng":25.264893830214174,"url":"https://maps.app.goo.gl/QAY53CMCsWPZJ1nX7?g_st=ipc","address":"Ambelas 844 01","categoryIds":["asian"],"categories":["Asian Restaurants"],"distanceKm":2.5925767999720786},{"id":"dessertsRestaurants_8e6cc5f0cd66","slug":"xilofournos-8e6c","kind":"restaurant","name":"Xilofournos","lat":37.08496749131104,"lng":25.244272132832048,"url":"https://maps.app.goo.gl/rAbxWJidxPCZz1CF9?g_st=ipc","address":"Epar.Od. Naoussas-Marpissas, Paros 844 01","categoryIds":["desserts"],"categories":["Dessert Shops"],"distanceKm":4.436685859754318},{"id":"fishTavernasRestaurants_0de5c8be59df","slug":"o-katsoynas-0de5","kind":"restaurant","name":"Ο ΚΑΤΣΟΥΝΑΣ","lat":37.13969481378141,"lng":25.28757143574355,"url":"https://maps.app.goo.gl/oZW4nirAsKmE2gbg8?g_st=ipc","address":"Σάντα Μαρια 844 01","categoryIds":["fish-tavernas"],"categories":["Fish Tavernas"],"distanceKm":4.6981039601384085},{"id":"greekRestaurants_83e1c2c69f39","slug":"o-klarinos-83e1","kind":"restaurant","name":"Ο Κλαρίνος","lat":37.05648947923969,"lng":25.206502727549665,"url":"https://maps.app.goo.gl/4Tf96Q67ADKq6o4e8?g_st=ipc","address":"Unnamed Road, Λεύκες 844 00","categoryIds":["greek-restaurants"],"categories":["Greek Restaurants"],"distanceKm":8.071222397846222},{"id":"dessertsRestaurants_0565a393e110","slug":"sweet-smelling-kitchen-0565","kind":"restaurant","name":"Sweet Smelling Kitchen","lat":37.05574111764851,"lng":25.209011772952916,"url":"https://maps.app.goo.gl/S3vicBhUXPLLmBEK6?g_st=ipc","address":"ΧΩΡΙΟ ΛΕΥΚΕΣ Τ.Θ. 50104, Paros 844 00","categoryIds":["desserts"],"categories":["Dessert Shops"],"distanceKm":8.075506664345248},{"id":"luxuryDiningRestaurants_162c7c269249","slug":"mario-restaurant-162c","kind":"restaurant","name":"Mario Restaurant","lat":37.091334008503296,"lng":25.156686500869714,"url":"https://maps.app.goo.gl/XvstBKLEfdRFvAHv7?g_st=ipc","address":"Λιβάδια, Paros 844 00","categoryIds":["luxury-dining"],"categories":["Luxury Dining"],"distanceKm":8.109392837225759},{"id":"municipalities_e281bb3a199f","slug":"paroikia-e281","kind":"municipality","name":"Παροικιά","lat":37.0858,"lng":25.1508,"aliases":["Παροικια","Paros Town"],"region":"Κυκλάδες","name_en":"Parikia","region_en":"Cyclades","distanceKm":8.860102440976814},{"id":"municipalities_9268ba4d6ee8","slug":"paros-9268","kind":"municipality","name":"Πάρος","lat":37.085,"lng":25.15,"aliases":["Paros","Πάριος","Παρος"],"region":"Κυκλάδες","name_en":"Paros","region_en":"Cyclades","distanceKm":8.96550103126174},{"id":"greekRestaurants_1ccef1a865fb","slug":"rema-floga-paros-rema-floga-paros-1cce","kind":"restaurant","name":"Rema Floga Paros | Ρέμα Φλόγα Πάρος","lat":37.083260531103015,"lng":25.151257743937837,"url":"https://maps.app.goo.gl/WS1Gkc789zcvCqy19?g_st=ipc","address":"Ρέμα Φλόγα, Paros 844 00","categoryIds":["greek-restaurants"],"categories":["Greek Restaurants"],"distanceKm":8.966073071076298},{"id":"greekRestaurants_bd1dd4fa8785","slug":"taverna-charoyla-bd1d","kind":"restaurant","name":"Ταβέρνα Χαρούλα","lat":37.044240609289616,"lng":25.24781569297046,"url":"https://maps.app.goo.gl/vTVSyzgoJGLRUtHJ6?g_st=ipc","address":"Μάρπησσα 844 00","categoryIds":["greek-restaurants"],"categories":["Greek Restaurants"],"distanceKm":8.972878363247995},{"id":"dessertsRestaurants_b5a2b5f82729","slug":"vanilla-gelateria-b5a2","kind":"restaurant","name":"Vanilla Gelateria","lat":37.08455372963838,"lng":25.14916406230604,"url":"https://maps.app.goo.gl/QoqnghnxkCVXxyoT6?g_st=ipc","address":"Paroikias, Zoodochou Pigis 84400, Paros 844 00","categoryIds":["desserts"],"categories":["Dessert Shops"],"distanceKm":9.054467248602526},{"id":"asianRestaurants_c5266398dba0","slug":"bebop-c526","kind":"restaurant","name":"Bebop","lat":37.08435266337157,"lng":25.146838121018355,"url":"https://maps.app.goo.gl/o98h6Mb7JAp58wHN7?g_st=ipc","address":"Paros 844 00","categoryIds":["asian","rooftop-lounges"],"categories":["Asian Restaurants","Rooftop Lounges"],"legacySlugs":["bebop-2446"],"distanceKm":9.245479210890243},{"id":"fishTavernasRestaurants_371770ae7cd1","slug":"taverna-mouragio-3717","kind":"restaurant","name":"Taverna Mouragio","lat":37.08418771728996,"lng":25.146730718001848,"url":"https://maps.app.goo.gl/ScnZGixdZ4dqUL3V6?g_st=ipc","address":"Παροικία - Παραλιακός Δρόμος Παροικίας Παρος, 844 00","categoryIds":["fish-tavernas"],"categories":["Fish Tavernas"],"distanceKm":9.262700593778957}],"mentionedGuides":[],"canonicalSlug":"souvlakia-kargas-6666","enrichment":{"summary_en":"Souvlakia KARGAS is a curated restaurant in Greece in the Gyros & Cheap Eats collection. It is connected to 10 nearby Googlementor picks to help travelers build a stronger local route.","summary_el":"Souvlakia KARGAS είναι ένα επιλεγμένο σημείο φαγητού στην περιοχή Greece και ανήκει στη συλλογή Gyros & Cheap Eats. Συνδέεται με 10 κοντινές προτάσεις του Googlementor για πιο ολοκληρωμένη εμπειρία.","vibe_tags":["curated","budget-friendly"],"best_for":["first-time visitors","food lovers","budget travelers"],"visit_moments":["lunch stop","dinner stop"],"practical_note":"Address and direct map link are available for easy turn-by-turn access.","nearby_walkable_count":10,"nearby_count_2km":10,"confidence":0.98},"areaContext":{"slug":"naoysa-paroy","name":"Naousa Paros","nameEl":"Ναούσα Πάρου"},"intentContexts":[]},"__N_SSG":true}