{"pageProps":{"entity":{"id":"dessertsRestaurants_84006bf7f4fa","slug":"sugarini-8400","kind":"restaurant","name":"Sugarini","lat":40.61332571258828,"lng":22.981104601509724,"url":"https://maps.app.goo.gl/m9owYPpFDRCrPtgq6?g_st=ipc","address":"Grigoriou Lampraki 169, Thessaloniki 543 52","categoryIds":["desserts"],"categories":["Dessert Shops"]},"sameCategory":[{"id":"dessertsRestaurants_6236474f11ab","slug":"siropiasta-michailidis-6236","kind":"restaurant","name":"Siropiasta Michailidis","lat":40.61392951977613,"lng":22.979367441197244,"url":"https://maps.app.goo.gl/3YNsRZFm5KexaNhJ7?g_st=ipc","address":"Grigoriou Lampraki 160, Thessaloniki 543 52","categoryIds":["desserts"],"categories":["Dessert Shops"]},{"id":"dessertsRestaurants_99d685460c3f","slug":"bombolo-99d6","kind":"restaurant","name":"BOMBOLO","lat":40.614466360968855,"lng":22.977765505829847,"url":"https://maps.app.goo.gl/z5pR8EZkJS12MpdQ9?g_st=ipc","address":"Grigoriou Lampraki 150, Thessaloniki 543 51","categoryIds":["desserts"],"categories":["Dessert Shops"]},{"id":"dessertsRestaurants_0447f5ff16d8","slug":"pie-serres-lambrakis-0447","kind":"restaurant","name":"Pie \"SERRES\" Lambrakis","lat":40.611438946577884,"lng":22.985616518677983,"url":"https://maps.app.goo.gl/t2b2XQwYxmP3pkBd6?g_st=ipc","address":"Grigoriou Lampraki 222, Thessaloniki 555 34","categoryIds":["desserts"],"categories":["Dessert Shops"]},{"id":"dessertsRestaurants_7728725cae0c","slug":"zacharoplasteio-ilios-kleanthoys-hlios-pastry-shop-kleanthous-7728","kind":"restaurant","name":"ΖΑΧΑΡΟΠΛΑΣΤΕΙΟ ΗΛΙΟΣ ΚΛΕΑΝΘΟΥΣ /Hlios Pastry Shop Kleanthous","lat":40.61382568960551,"lng":22.969099400369018,"url":"https://maps.app.goo.gl/tNhNJReBE4oYvZx6A?g_st=ipc","address":"Kleanthous 60, Thessaloniki 544 53","categoryIds":["desserts"],"categories":["Dessert Shops"]},{"id":"dessertsRestaurants_cc58df47a36e","slug":"nick-alexoudas-cc58","kind":"restaurant","name":"NICK ALEXOUDAS","lat":40.60097575143556,"lng":22.988160776463623,"url":"https://maps.app.goo.gl/svQRP7nS7UargNrc9?g_st=ipc","address":"Profitou Ilia 77, Pilea 555 35","categoryIds":["desserts"],"categories":["Dessert Shops"]},{"id":"dessertsRestaurants_4314e81fb349","slug":"boutique-baking-pepi-beza-4314","kind":"restaurant","name":"Boutique Baking Pepi Beza","lat":40.59730321322995,"lng":22.979587033632086,"url":"https://maps.app.goo.gl/daRMg1RfmVJcgATKA?g_st=ipc","address":"Meg. Alexandrou 3, Pilea 555 35","categoryIds":["desserts"],"categories":["Dessert Shops"]},{"id":"dessertsRestaurants_820e5a62f3a9","slug":"babalooka-to-aythentiko-galaktompoyreko-thessalonikis-820e","kind":"restaurant","name":"Babalooka-Το Αυθεντικό Γαλακτομπούρεκο Θεσσαλονίκης","lat":40.62123778051854,"lng":22.962627985179793,"url":"https://maps.app.goo.gl/tnzvbcbCY13DjRZe7?g_st=ipc","address":"Δίπλα στη στροφή Λαμπράκη, Leof. Kon/nou Karamanli 15, Thessaloniki 546 38","categoryIds":["desserts"],"categories":["Dessert Shops"]},{"id":"dessertsRestaurants_e4f66f8adfe3","slug":"nikos-alexoudas-e4f6","kind":"restaurant","name":"Nikos Alexoudas","lat":40.610389059142975,"lng":22.958123238836652,"url":"https://maps.app.goo.gl/ifbqMFmsGqy7oaxA8?g_st=ipc","address":"Makedonias 18, Thessaloniki 546 42","categoryIds":["desserts"],"categories":["Dessert Shops"]},{"id":"dessertsRestaurants_a176ca58a94e","slug":"il-panino-a176","kind":"restaurant","name":"Il Panino","lat":40.60111282600128,"lng":22.964094400386756,"url":"https://maps.app.goo.gl/xgjKYkQmNmr9oVeU6?g_st=ipc","address":"Leof. Kon/nou Karamanli 154, Thessaloniki 542 48","categoryIds":["desserts"],"categories":["Dessert Shops"]},{"id":"dessertsRestaurants_8b22dff88156","slug":"alfa-ice-cream-cafe-8b22","kind":"restaurant","name":"Alfa Ice-Cream Cafe","lat":40.60099594467994,"lng":22.959526782313244,"url":"https://maps.app.goo.gl/tbZTnf9V3BccEmubA?g_st=ipc","address":"Delfon 143, Thessaloniki 546 46","categoryIds":["desserts"],"categories":["Dessert Shops"]},{"id":"dessertsRestaurants_1eb1d7d0a39b","slug":"trigona-elenidis-antheon-1eb1","kind":"restaurant","name":"Τρίγωνα Ελενίδης (Ανθέων)","lat":40.601144746020374,"lng":22.95082783427097,"url":"https://maps.app.goo.gl/f4c7NqVni4s54aXE6?g_st=ipc","address":"Geor. Papandreou 6, Thessaloniki 546 45","categoryIds":["desserts"],"categories":["Dessert Shops"]},{"id":"dessertsRestaurants_f84ed009af83","slug":"terkenlis-f84e","kind":"restaurant","name":"Terkenlis","lat":40.59488849299692,"lng":22.956363253741753,"url":"https://maps.app.goo.gl/xBak2d9JxbKxQpz57?g_st=ipc","address":"Leof. Vasilissis Olgas 235, Thessaloniki 546 55","categoryIds":["desserts"],"categories":["Dessert Shops"]}],"nearby":[{"id":"dessertsRestaurants_6236474f11ab","slug":"siropiasta-michailidis-6236","kind":"restaurant","name":"Siropiasta Michailidis","lat":40.61392951977613,"lng":22.979367441197244,"url":"https://maps.app.goo.gl/3YNsRZFm5KexaNhJ7?g_st=ipc","address":"Grigoriou Lampraki 160, Thessaloniki 543 52","categoryIds":["desserts"],"categories":["Dessert Shops"],"distanceKm":0.16127372019116298},{"id":"greekRestaurants_d9762e9f6ad6","slug":"to-neon-estiatorio-d976","kind":"restaurant","name":"ΤΟ ΝΕΟΝ εστιατόριο","lat":40.61224067227643,"lng":22.98407750802401,"url":"https://maps.app.goo.gl/fkULAaU3UcrpCHGRA?g_st=ipc","address":"Γρηγορίου Λαμπράκη 205 & Δημ.Τσιαπάνου 25-29, Άνω Τούμπα 543 52","categoryIds":["greek-restaurants"],"categories":["Greek Restaurants"],"distanceKm":0.2784430196325371},{"id":"cheapEatsRestaurants_2468c5a59712","slug":"petridis-and-sons-grill-house-2468","kind":"restaurant","name":"Petridis And Sons - Grill House","lat":40.61189681851916,"lng":22.984212166296615,"url":"https://maps.app.goo.gl/qmEdiZfcHrQAp8pU7?g_st=ipc","address":"Grigoriou Lampraki 206, Thessaloniki 555 34","categoryIds":["cheap-eats"],"categories":["Gyros & Cheap Eats"],"distanceKm":0.30668048711286006},{"id":"dessertsRestaurants_99d685460c3f","slug":"bombolo-99d6","kind":"restaurant","name":"BOMBOLO","lat":40.614466360968855,"lng":22.977765505829847,"url":"https://maps.app.goo.gl/z5pR8EZkJS12MpdQ9?g_st=ipc","address":"Grigoriou Lampraki 150, Thessaloniki 543 51","categoryIds":["desserts"],"categories":["Dessert Shops"],"distanceKm":0.3090748685347599},{"id":"cheapEatsRestaurants_bf1d972f9838","slug":"gyradiko-bf1d","kind":"restaurant","name":"Gyradiko","lat":40.615031188130764,"lng":22.97695657295727,"url":"https://maps.app.goo.gl/6Bmdb1UVvVyTyyNdA?g_st=ipc","address":"Grigoriou Lampraki 125, Thessaloniki 543 51","categoryIds":["cheap-eats"],"categories":["Gyros & Cheap Eats"],"distanceKm":0.3981905274515177},{"id":"cheapEatsRestaurants_543fb752ef8d","slug":"souvlatzidiko-543f","kind":"restaurant","name":"Souvlatzidiko","lat":40.615140054166176,"lng":22.976602700104493,"url":"https://maps.app.goo.gl/dKu85q9fYtc6krXf7?g_st=ipc","address":"Διαγορα, με Λαμπρακη, Thessaloniki 543 51","categoryIds":["cheap-eats"],"categories":["Gyros & Cheap Eats"],"distanceKm":0.43023541330386234},{"id":"dessertsRestaurants_0447f5ff16d8","slug":"pie-serres-lambrakis-0447","kind":"restaurant","name":"Pie \"SERRES\" Lambrakis","lat":40.611438946577884,"lng":22.985616518677983,"url":"https://maps.app.goo.gl/t2b2XQwYxmP3pkBd6?g_st=ipc","address":"Grigoriou Lampraki 222, Thessaloniki 555 34","categoryIds":["desserts"],"categories":["Dessert Shops"],"distanceKm":0.4348195544166438},{"id":"greekRestaurants_4d78fe3c61be","slug":"rou-leisure-gatherings-4d78","kind":"restaurant","name":"Rou Leisure Gatherings","lat":40.61281592695175,"lng":22.975955444197268,"url":"https://maps.app.goo.gl/ms5wLYa1p3XXEfE18?g_st=ipc","address":"Πραξαγόρα 22, Θεσσαλονίκη 543 51","categoryIds":["greek-restaurants"],"categories":["Greek Restaurants"],"distanceKm":0.438324334286445},{"id":"coffeeBrunchRestaurants_9fa36f8be04c","slug":"rou-leisure-gatherings-9fa3","kind":"restaurant","name":"Rou Leisure Gatherings","lat":40.612773277438485,"lng":22.97595730543709,"url":"https://maps.app.goo.gl/GxRckrquv1sShJp28?g_st=ipc","address":"Praxagora 22, Thessaloniki 543 51","categoryIds":["coffee-brunch"],"categories":["Coffee & Brunch Spots"],"distanceKm":0.43880740401043317},{"id":"greekRestaurants_5c376770db26","slug":"kafeneion-to-dallaveri-5c37","kind":"restaurant","name":"Kafeneion To Dallaveri","lat":40.61571484515384,"lng":22.976632129539492,"url":"https://maps.app.goo.gl/6CZnkJNTLRD3MjRz7?g_st=ipc","address":"Diagora 51, Thessaloniki 543 51","categoryIds":["greek-restaurants"],"categories":["Greek Restaurants"],"distanceKm":0.46162015832074765},{"id":"italianRestaurants_26ce0faec041","slug":"raffaele-pizza-pasta-26ce","kind":"restaurant","name":"Raffaele Pizza & Pasta","lat":40.609052469541666,"lng":22.97944908191486,"url":"https://maps.app.goo.gl/t8jAxdhgPG7fRJcE7?g_st=ipc","address":"Αμφιπόλεως 45, Thessaloniki 544 54","categoryIds":["italian"],"categories":["Italian Restaurants"],"distanceKm":0.49528693497037163},{"id":"greekRestaurants_d088423c78a1","slug":"sygchrono-kafeneion-o-tzertzeles-d088","kind":"restaurant","name":"Σύγχρονο Καφενείον ο Τζερτζελές","lat":40.617294004272665,"lng":22.977421178943235,"url":"https://maps.app.goo.gl/E8KAZpAFgpwoquHv9?g_st=ipc","address":"Καθηγητού Νικολάου Ανδριώτη 13, Θεσσαλονίκη 543 51","categoryIds":["greek-restaurants"],"categories":["Greek Restaurants"],"distanceKm":0.5397867482716009},{"id":"fishTavernasRestaurants_482591e75ff4","slug":"kritamos-meze-bar-4825","kind":"restaurant","name":"Kritamos Meze-Bar","lat":40.61409377580344,"lng":22.97473899193856,"url":"https://maps.app.goo.gl/PC1XeAa9i5F1wcwX7?g_st=ipc","address":"Tirolois 38, Thessaloniki 543 51","categoryIds":["fish-tavernas"],"categories":["Fish Tavernas"],"distanceKm":0.5440648566924674},{"id":"cheapEatsRestaurants_1de3117b26db","slug":"omega-grill-1de3","kind":"restaurant","name":"Ωμέγα Grill","lat":40.6085969632586,"lng":22.97871142955339,"url":"https://maps.app.goo.gl/Jp9h1Xe2kPqJT7td9?g_st=ipc","address":"Αμφιπόλεως 34, Thessaloniki 544 54","categoryIds":["cheap-eats"],"categories":["Gyros & Cheap Eats"],"distanceKm":0.5632845591435832},{"id":"cheapEatsRestaurants_8f3b208739c0","slug":"funky-s-thessaloniki-8f3b","kind":"restaurant","name":"Funky's Thessaloniki","lat":40.615543107651526,"lng":22.974915159309568,"url":"https://maps.app.goo.gl/QNUEoQzqLuXtrpVc7?g_st=ipc","address":"Grigoriou Lampraki 110, Thessaloniki 543 51","categoryIds":["cheap-eats","italian"],"categories":["Gyros & Cheap Eats","Italian Restaurants"],"legacySlugs":["funky-s-thessaloniki-ef2b"],"distanceKm":0.5777032052992673},{"id":"burgersRestaurants_96feec737ac7","slug":"brothers-in-law-96fe","kind":"restaurant","name":"Brothers In Law","lat":40.610811655039555,"lng":22.98741536304393,"url":"https://maps.app.goo.gl/VFJTVUrK126W1Uku9?g_st=ipc","address":"Grigoriou Lampraki 244, Pilea 543 52","categoryIds":["burgers"],"categories":["Burger Spots"],"distanceKm":0.6015988297105782},{"id":"cheapEatsRestaurants_8ba579af851d","slug":"steakhouse-costas-8ba5","kind":"restaurant","name":"Steakhouse Costas","lat":40.607757700164754,"lng":22.984167654560377,"url":"https://maps.app.goo.gl/vkLu33M5Ct15FeXa6?g_st=ipc","address":"Emmanouil Fili 15, Pilea 555 34","categoryIds":["cheap-eats"],"categories":["Gyros & Cheap Eats"],"distanceKm":0.6709568806273162},{"id":"greekRestaurants_c29be60e5285","slug":"choirofreno-c29b","kind":"restaurant","name":"Χοιρόφρενο","lat":40.61678728213184,"lng":22.972877458653127,"url":"https://maps.app.goo.gl/fCEBNZq73XUBc6R68?g_st=ipc","address":"Ικαρίας 5, Θεσσαλονίκη 543 51","categoryIds":["greek-restaurants"],"categories":["Greek Restaurants"],"distanceKm":0.7939762816020558},{"id":"greekRestaurants_e5e2b9a4516b","slug":"strovolos-e5e2","kind":"restaurant","name":"Στρόβολος","lat":40.609636107203336,"lng":22.989436108652693,"url":"https://maps.app.goo.gl/yxZrsFbF6G2pXQQK9?g_st=ipc","address":"Μεσολογγίου 17 νοεμβριου, Θεσσαλονίκη 555 35","categoryIds":["greek-restaurants"],"categories":["Greek Restaurants"],"distanceKm":0.8142029955799144},{"id":"municipalities_5bdb3c34c767","slug":"toympa-5bdb","kind":"municipality","name":"Τούμπα","lat":40.61,"lng":22.9725,"region":"Θεσσαλονίκη","name_en":"Toumpa","region_en":"Thessaloniki","distanceKm":0.8150559721316146},{"id":"cheapEatsRestaurants_0c3a0f831178","slug":"food-truck-park-skg-0c3a","kind":"restaurant","name":"Food Truck Park SKG","lat":40.609281906480575,"lng":22.989500884434833,"url":"https://maps.app.goo.gl/hfoXLoQmnjaHwpUB7?g_st=ipc","address":"Kapetan Ntogra 31, Pilea 555 35","categoryIds":["cheap-eats"],"categories":["Gyros & Cheap Eats"],"distanceKm":0.8393557768024659},{"id":"greekRestaurants_46e9b5128099","slug":"mezedopoleio-sti-gonia-tis-inas-46e9","kind":"restaurant","name":"ΜΕΖΕΔΟΠΩΛΕΙΟ ΣΤΗ ΓΩΝΙΑ ΤΗΣ ΙΝΑΣ","lat":40.60655899968898,"lng":22.97552887156289,"url":"https://maps.app.goo.gl/cVtcjxY8sNr9dRR19?g_st=ipc","address":"Απόλλωνος 20, Θεσσαλονίκη 544 54","categoryIds":["greek-restaurants"],"categories":["Greek Restaurants"],"distanceKm":0.8875105426203093},{"id":"greekRestaurants_532b03b35deb","slug":"trygetes-532b","kind":"restaurant","name":"Trygetes","lat":40.609449198477655,"lng":22.99030105913949,"url":"https://maps.app.goo.gl/Rf62EziGTreVjA668?g_st=ipc","address":"17is Noemvriou 12, Pilea 555 34","categoryIds":["greek-restaurants"],"categories":["Greek Restaurants"],"distanceKm":0.8879424342721636},{"id":"municipalities_743916b7b194","slug":"charilaoy-7439","kind":"municipality","name":"Χαριλάου","lat":40.6054,"lng":22.9851,"region":"Θεσσαλονίκη","name_en":"Charilaou","region_en":"Thessaloniki","distanceKm":0.9436317458702937}],"mentionedGuides":[],"canonicalSlug":"sugarini-8400","enrichment":{"summary_en":"Sugarini is a curated restaurant in Thessaloniki 543 52 in the Dessert Shops collection. It is connected to 18 nearby Googlementor picks to help travelers build a stronger local route.","summary_el":"Sugarini είναι ένα επιλεγμένο σημείο φαγητού στην περιοχή Thessaloniki 543 52 και ανήκει στη συλλογή Dessert Shops. Συνδέεται με 18 κοντινές προτάσεις του Googlementor για πιο ολοκληρωμένη εμπειρία.","vibe_tags":["curated","sweet-stop"],"best_for":["first-time visitors","food lovers"],"visit_moments":["afternoon break","after dinner"],"practical_note":"Address and direct map link are available for easy turn-by-turn access.","nearby_walkable_count":18,"nearby_count_2km":68,"confidence":0.98},"areaContext":{"slug":"toympa","name":"Toumpa","nameEl":"Τούμπα"},"intentContexts":[{"href":"/desserts/toympa","label":"Dessert Shops in Toumpa","categorySlug":"desserts","categoryName":"Dessert Shops","areaSlug":"toympa","areaName":"Toumpa","areaNameEl":"Τούμπα"}]},"__N_SSG":true}