{"pageProps":{"entity":{"id":"asianRestaurants_77a64bfea5a1","slug":"tao-s-asian-restaurant-77a6","kind":"restaurant","name":"Tao's Asian Restaurant","lat":37.1152419319295,"lng":25.264893830214174,"url":"https://maps.app.goo.gl/QAY53CMCsWPZJ1nX7?g_st=ipc","address":"Ambelas 844 01","categoryIds":["asian"],"categories":["Asian Restaurants"]},"sameCategory":[{"id":"asianRestaurants_c5266398dba0","slug":"bebop-c526","kind":"restaurant","name":"Bebop","lat":37.08435266337157,"lng":25.146838121018355,"url":"https://maps.app.goo.gl/o98h6Mb7JAp58wHN7?g_st=ipc","address":"Paros 844 00","categoryIds":["asian","rooftop-lounges"],"categories":["Asian Restaurants","Rooftop Lounges"],"legacySlugs":["bebop-2446"]},{"id":"asianRestaurants_5d69fac12c7f","slug":"tokyo-joe-mykonos-5d69","kind":"restaurant","name":"Tokyo Joe Mykonos","lat":37.43430209897853,"lng":25.33164889840815,"url":"https://maps.app.goo.gl/SbcxFuCJ6NAhCk248?g_st=ipc","address":"Ano Vrisi, My Mall, Mikonos 846 00","categoryIds":["asian","luxury-dining"],"categories":["Asian Restaurants","Luxury Dining"],"legacySlugs":["tokyo-joe-mykonos-5522"]},{"id":"asianRestaurants_db50748440dc","slug":"bambao-mykonos-db50","kind":"restaurant","name":"Bambao Mykonos","lat":37.44323173271624,"lng":25.328446119011353,"url":"https://maps.app.goo.gl/5qdrvDCYUmZRn2Jf6?g_st=ipc","address":"Fabrika, Mikonos 846 00","categoryIds":["asian"],"categories":["Asian Restaurants"]},{"id":"asianRestaurants_022225397aac","slug":"zuma-mykonos-0222","kind":"restaurant","name":"Zuma Mykonos","lat":37.45854067158448,"lng":25.32953811092672,"url":"https://maps.app.goo.gl/nhnQHRdFpemqgYAX8?g_st=ipc","address":"Mykonos 846 00","categoryIds":["asian"],"categories":["Asian Restaurants"]},{"id":"asianRestaurants_5169dc5ccfbd","slug":"koyasan-in-voula-5169","kind":"restaurant","name":"KoYaSan In Voula","lat":37.84038966721299,"lng":23.76668605741755,"url":"https://maps.app.goo.gl/hRUmgmxtpReyJ54h7?g_st=ipc","address":"KoYaSan In Voula","categoryIds":["asian"],"categories":["Asian Restaurants"]},{"id":"asianRestaurants_6985f147fd97","slug":"ekiben-kitchen-glyfada-6985","kind":"restaurant","name":"Ekiben Kitchen Glyfada","lat":37.861176848381916,"lng":23.75639518380584,"url":"https://maps.app.goo.gl/bR7jaQSkxn33eLgq7","address":"Laodikis 41, Glifada 166 74","categoryIds":["asian","burgers"],"categories":["Asian Restaurants","Burger Spots"],"legacySlugs":["ekiben-kitchen-glyfada-7ec8"]},{"id":"asianRestaurants_84fbfd57e68e","slug":"ryotei-118-84fb","kind":"restaurant","name":"Ryōtei 118","lat":37.879367097165485,"lng":23.763308738653866,"url":"https://maps.app.goo.gl/XC6EcCoyBojTFzQp9?g_st=ipc","address":"Δημ. Γούναρη 118, Γλυφάδα 166 74","categoryIds":["asian","burgers"],"categories":["Asian Restaurants","Burger Spots"],"legacySlugs":["ryotei-118-5acf"]},{"id":"asianRestaurants_f6ce39f326eb","slug":"noodle-bar-glyfada-f6ce","kind":"restaurant","name":"NOODLE BAR ΓΛΥΦΑΔΑ","lat":37.872037331445135,"lng":23.752155686687118,"url":"https://maps.app.goo.gl/GoKuSs69HC1RbxyBA?g_st=ipc","address":"Ξενοφώντος 20, Γλυφάδα 166 75","categoryIds":["asian"],"categories":["Asian Restaurants"]},{"id":"asianRestaurants_36f4a8956e8a","slug":"oma-sushi-bar-36f4","kind":"restaurant","name":"Oma Sushi Bar","lat":37.94009382367438,"lng":23.754689791765557,"url":"https://maps.app.goo.gl/sQ4YgJ2S6xgEEqCf7?g_st=ipc","address":"Ανδρέα Παπανδρέου 22, Ηλιούπολη 163 45","categoryIds":["asian"],"categories":["Asian Restaurants"]},{"id":"asianRestaurants_4641bf909241","slug":"wasabe-asian-fusion-4641","kind":"restaurant","name":"Wasabe Asian Fusion","lat":38.01234432312043,"lng":23.815000066422606,"url":"https://maps.app.goo.gl/E1rgPWQWHHSpVx7UA?g_st=ipc","address":"Λεωφ. Μεσογείων 401, Αγ. Παρασκευή 153 43","categoryIds":["asian"],"categories":["Asian Restaurants"]},{"id":"asianRestaurants_a4e89dbc83d0","slug":"salamat-asian-food-store-a4e8","kind":"restaurant","name":"Salamat | Asian Food Store","lat":38.02126807453902,"lng":23.819767317882288,"url":"https://maps.app.goo.gl/62Tadxw4r6L1Cia48?g_st=ipc","address":"Δουκίσσης Πλακεντίας 68, Χαλάνδρι 152 34","categoryIds":["asian"],"categories":["Asian Restaurants"]},{"id":"asianRestaurants_0fceaf69bfec","slug":"tailandi-0fce","kind":"restaurant","name":"Ταϊλάνδη","lat":38.05465471580679,"lng":23.844081463874097,"url":"https://maps.app.goo.gl/EKBgxEmreeAUsw7BA?g_st=ipc","address":"Σωκράτους 7, Μελίσσια 151 27","categoryIds":["asian"],"categories":["Asian Restaurants"]}],"nearby":[{"id":"fishTavernasRestaurants_9bf6858efa20","slug":"siparos-seaside-restaurant-9bf6","kind":"restaurant","name":"Siparos Seaside Restaurant","lat":37.12641356420799,"lng":25.266629540061626,"url":"https://maps.app.goo.gl/Y5FqpWpLwoZYaHni9?g_st=ipc","address":"Ξιφαρά 844 01","categoryIds":["fish-tavernas","luxury-dining"],"categories":["Fish Tavernas","Luxury Dining"],"legacySlugs":["siparos-seaside-restaurant-0493"],"distanceKm":1.2517250280599346},{"id":"wineriesVineyards_f17638e49b8a","slug":"oinopoieio-moraiti-f176","kind":"restaurant","name":"Οινοποιείο Μωραΐτη","lat":37.1229987485843,"lng":25.244213980711866,"url":"https://maps.app.goo.gl/1HbespH52SwExwaW8?g_st=ipc","address":"Επαρχιακή Οδός Νάουσας-Μάρπισσας, Νάουσα 844 01","categoryIds":["wineries-vineyards"],"categories":["Wineries & Vineyards"],"distanceKm":2.0263124411575566},{"id":"coffeeBrunchRestaurants_aba1a76a9734","slug":"batistas-bakery-aba1","kind":"restaurant","name":"Batistas Bakery","lat":37.120044252975426,"lng":25.241091509858137,"url":"https://maps.app.goo.gl/VX68GiVxifYLzhWu6?g_st=ipc","address":"Naousa 844 01","categoryIds":["coffee-brunch","desserts"],"categories":["Coffee & Brunch Spots","Dessert Shops"],"legacySlugs":["batistas-bakery-29b6"],"distanceKm":2.176979373566052},{"id":"municipalities_57c14c9b4c1f","slug":"naoysa-paros-57c1","kind":"municipality","name":"Νάουσα Πάρος","lat":37.12,"lng":25.24,"region":"Πάρος","name_en":"Naousa Paros","region_en":"Paros","distanceKm":2.2697758542048296},{"id":"coffeeBrunchRestaurants_cab3ccb32dd1","slug":"come-back-cab3","kind":"restaurant","name":"come back","lat":37.12451513145797,"lng":25.239009860245982,"url":"https://maps.app.goo.gl/iW2VgvcVsbQ7K6rVA?g_st=ipc","address":"Beach, Agios Dimitrios, Naousa 844 01","categoryIds":["coffee-brunch"],"categories":["Coffee & Brunch Spots"],"distanceKm":2.5159793631238436},{"id":"municipalities_e44f44ea872e","slug":"naoysa-paroy-e44f","kind":"municipality","name":"Ναούσα Πάρου","lat":37.1242,"lng":25.2383,"aliases":["Ναουσα Παρου","Naousa","Naoussa"],"region":"Κυκλάδες","name_en":"Naousa Paros","region_en":"Cyclades","distanceKm":2.559685122829755},{"id":"italianRestaurants_b7cf983e2771","slug":"casa-giacomo-paros-b7cf","kind":"restaurant","name":"Casa Giacomo Paros","lat":37.12454320720165,"lng":25.238458349168585,"url":"https://maps.app.goo.gl/Ciaf8V2SrHA91Eqw7?g_st=ipc","address":"Little Venice, Naousa 844 01","categoryIds":["italian"],"categories":["Italian Restaurants"],"distanceKm":2.5619200024386792},{"id":"cheapEatsRestaurants_666655654a40","slug":"souvlakia-kargas-6666","kind":"restaurant","name":"Souvlakia KARGAS","lat":37.124561868830334,"lng":25.238091044543676,"url":"https://maps.app.goo.gl/5vu438KzmoWTk1dRA?g_st=ipc","address":"Naousa 844 01","categoryIds":["cheap-eats"],"categories":["Gyros & Cheap Eats"],"distanceKm":2.5925767999720786},{"id":"fishTavernasRestaurants_2b513f5d0dca","slug":"sigi-ikthios-2b51","kind":"restaurant","name":"Sigi Ikthios","lat":37.12488461984584,"lng":25.2375451186848,"url":"https://maps.app.goo.gl/a8XzzgdiGdqnwgxp6?g_st=ipc","address":"Limanaki Naousa, Naousa 844 01","categoryIds":["fish-tavernas"],"categories":["Fish Tavernas"],"distanceKm":2.651320964631086},{"id":"luxuryDiningRestaurants_daff556d4496","slug":"barbarossa-restaurant-daff","kind":"restaurant","name":"Barbarossa Restaurant","lat":37.12519351534626,"lng":25.23748367778552,"url":"https://maps.app.goo.gl/cdTNGtzo6JQDuLoVA?g_st=ipc","address":"Παλιό Λιμάνι Νάουσας, Limanaki, Naousa 844 01","categoryIds":["luxury-dining"],"categories":["Luxury Dining"],"distanceKm":2.6703489445442847},{"id":"fishTavernasRestaurants_d0606bef60e0","slug":"bluefish-paros-d060","kind":"restaurant","name":"Bluefish Paros","lat":37.12385227854004,"lng":25.235378897681453,"url":"https://maps.app.goo.gl/YqeBLughpHcPmHy19?g_st=ipc","address":"Naoussa, Paros 844 01","categoryIds":["fish-tavernas"],"categories":["Fish Tavernas"],"distanceKm":2.7865670526668196},{"id":"luxuryDiningRestaurants_1787918aabcc","slug":"matsuhisa-paros-1787","kind":"restaurant","name":"Matsuhisa Paros","lat":37.122332088945846,"lng":25.232444794394056,"url":"https://maps.app.goo.gl/MmRAPTUjpZ9ev73JA?g_st=ipc","address":"Avant Mar Hotel, Paros 844 01","categoryIds":["luxury-dining"],"categories":["Luxury Dining"],"distanceKm":2.98316614793946},{"id":"fishTavernasRestaurants_0de5c8be59df","slug":"o-katsoynas-0de5","kind":"restaurant","name":"Ο ΚΑΤΣΟΥΝΑΣ","lat":37.13969481378141,"lng":25.28757143574355,"url":"https://maps.app.goo.gl/oZW4nirAsKmE2gbg8?g_st=ipc","address":"Σάντα Μαρια 844 01","categoryIds":["fish-tavernas"],"categories":["Fish Tavernas"],"distanceKm":3.3815990466096},{"id":"dessertsRestaurants_8e6cc5f0cd66","slug":"xilofournos-8e6c","kind":"restaurant","name":"Xilofournos","lat":37.08496749131104,"lng":25.244272132832048,"url":"https://maps.app.goo.gl/rAbxWJidxPCZz1CF9?g_st=ipc","address":"Epar.Od. Naoussas-Marpissas, Paros 844 01","categoryIds":["desserts"],"categories":["Dessert Shops"],"distanceKm":3.83108460524522},{"id":"greekRestaurants_bd1dd4fa8785","slug":"taverna-charoyla-bd1d","kind":"restaurant","name":"Ταβέρνα Χαρούλα","lat":37.044240609289616,"lng":25.24781569297046,"url":"https://maps.app.goo.gl/vTVSyzgoJGLRUtHJ6?g_st=ipc","address":"Μάρπησσα 844 00","categoryIds":["greek-restaurants"],"categories":["Greek Restaurants"],"distanceKm":8.039035891004165},{"id":"dessertsRestaurants_0565a393e110","slug":"sweet-smelling-kitchen-0565","kind":"restaurant","name":"Sweet Smelling Kitchen","lat":37.05574111764851,"lng":25.209011772952916,"url":"https://maps.app.goo.gl/S3vicBhUXPLLmBEK6?g_st=ipc","address":"ΧΩΡΙΟ ΛΕΥΚΕΣ Τ.Θ. 50104, Paros 844 00","categoryIds":["desserts"],"categories":["Dessert Shops"],"distanceKm":8.267137762517047},{"id":"greekRestaurants_83e1c2c69f39","slug":"o-klarinos-83e1","kind":"restaurant","name":"Ο Κλαρίνος","lat":37.05648947923969,"lng":25.206502727549665,"url":"https://maps.app.goo.gl/4Tf96Q67ADKq6o4e8?g_st=ipc","address":"Unnamed Road, Λεύκες 844 00","categoryIds":["greek-restaurants"],"categories":["Greek Restaurants"],"distanceKm":8.337093063615965},{"id":"familyFriendly_2da660f5cea1","slug":"aqua-fun-2da6","kind":"restaurant","name":"Aqua Fun","lat":37.082347515027855,"lng":25.35405984069226,"url":"https://maps.app.goo.gl/kxZ4WVVMgAh5nHj19?g_st=ipc","address":"ΣΤΕΛΙΔΑ, Ag. Prokopios 843 00","categoryIds":["family-friendly"],"categories":["Kid Friendly Locations"],"distanceKm":8.712946773720823},{"id":"coffeeBrunchRestaurants_11b9ac0dc44e","slug":"macao-beach-naxos-11b9","kind":"restaurant","name":"Macao beach naxos","lat":37.07477452112851,"lng":25.350720849700185,"url":"https://maps.app.goo.gl/VMcfVNerQn3tSzED8?g_st=ipc","address":"Agios Prokopios 843 00","categoryIds":["coffee-brunch"],"categories":["Coffee & Brunch Spots"],"distanceKm":8.842767388308715},{"id":"fishTavernasRestaurants_6ff9bd52a54d","slug":"ouzeri-halaris-6ff9","kind":"restaurant","name":"Ouzeri Halaris","lat":37.03514430348778,"lng":25.26011593103973,"url":"https://maps.app.goo.gl/cqX5H5Ys7cUSx38m7?g_st=ipc","address":"Epar.Od. Parikias-Piso Livadiou, Piso Livadi 844 00","categoryIds":["fish-tavernas"],"categories":["Fish Tavernas"],"distanceKm":8.916530845609634},{"id":"greekRestaurants_7b51b9a8d590","slug":"taverna-o-giannoylis-7b51","kind":"restaurant","name":"Ταβέρνα Ο Γιαννούλης","lat":37.07476079820257,"lng":25.35214595404142,"url":"https://maps.app.goo.gl/jk1SQcCbpGGpyJxP8?g_st=ipc","address":"Unnamed Road, Αγ. Προκόπιος 843 00","categoryIds":["greek-restaurants"],"categories":["Greek Restaurants"],"distanceKm":8.952574568874622},{"id":"mustSeeAttractions_a300a861d115","slug":"temple-of-apollo-portara-a300","kind":"restaurant","name":"Temple of Apollo (Portara)","lat":37.110129464281634,"lng":25.372467767266336,"url":"https://maps.app.goo.gl/baiRLz2tmYaTbVkt8?g_st=ipc","address":"Naxos 843 00","categoryIds":["attractions"],"categories":["Must-See Attractions"],"distanceKm":9.555766955695452},{"id":"fishTavernasRestaurants_e4bded96d41b","slug":"akrogiali-restaurant-studios-e4bd","kind":"restaurant","name":"Akrogiali Restaurant- Studios","lat":37.06850212174682,"lng":25.355709551048015,"url":"https://maps.app.goo.gl/f5SYBYZkLKJhZSov6?g_st=ipc","address":"Αγ. Αννα 843 00","categoryIds":["fish-tavernas"],"categories":["Fish Tavernas"],"distanceKm":9.586200326794149},{"id":"coffeeBrunchRestaurants_1ed3ff082f80","slug":"goat-in-a-boat-1ed3","kind":"restaurant","name":"goat in a boat","lat":37.06717854640464,"lng":25.356316886639643,"url":"https://maps.app.goo.gl/RjakHZ5s5a6HV2Rj8?g_st=ipc","address":"Αγ. Αννα 843 00","categoryIds":["coffee-brunch"],"categories":["Coffee & Brunch Spots"],"distanceKm":9.71177541912165}],"mentionedGuides":[],"canonicalSlug":"tao-s-asian-restaurant-77a6","enrichment":{"summary_en":"Tao's Asian Restaurant is a curated restaurant in Greece in the Asian Restaurants collection. It is connected to 0 nearby Googlementor picks to help travelers build a stronger local route.","summary_el":"Tao's Asian Restaurant είναι ένα επιλεγμένο σημείο φαγητού στην περιοχή Greece και ανήκει στη συλλογή Asian Restaurants. Συνδέεται με 0 κοντινές προτάσεις του Googlementor για πιο ολοκληρωμένη εμπειρία.","vibe_tags":["curated"],"best_for":["first-time visitors","food lovers"],"visit_moments":["lunch stop","dinner stop"],"practical_note":"Address and direct map link are available for easy turn-by-turn access.","nearby_walkable_count":0,"nearby_count_2km":1,"confidence":0.9},"areaContext":{"slug":"naoysa-paros","name":"Naousa Paros","nameEl":"Νάουσα Πάρος"},"intentContexts":[]},"__N_SSG":true}