{"pageProps":{"entity":{"id":"greekRestaurants_cb449644830d","slug":"taverna-mpekos-cb44","kind":"restaurant","name":"ΤΑΒΕΡΝΑ ΜΠΕΚΟΣ","lat":37.882103671834614,"lng":22.89083633129398,"url":"https://maps.app.goo.gl/WFqWdQskbVXwmo339?g_st=ipc","address":"ΕΟ Κορίνθου Άργους 36, Σολομός 201 00","categoryIds":["greek-restaurants"],"categories":["Greek Restaurants"]},"sameCategory":[{"id":"greekRestaurants_f0875a0de3a8","slug":"eviva-taverna-f087","kind":"restaurant","name":"Εβίβα Ταβέρνα","lat":37.94826596142861,"lng":22.791019779670105,"url":"https://maps.app.goo.gl/D8Mr8bUZPttfMux47?g_st=ipc","address":"Επαρ.Οδ. Βραχατίου - Νεμέας 255, Βοχαϊκό 200 06","categoryIds":["greek-restaurants"],"categories":["Greek Restaurants"]},{"id":"greekRestaurants_b760cd0c2463","slug":"chavon-restobar-b760","kind":"restaurant","name":"Chavon Restobar","lat":37.96210160412795,"lng":22.806527700162825,"url":"https://maps.app.goo.gl/gHNgPE2wUtHLY6F1A?g_st=ipc","address":"Parodos Andrea Lazana 101, Βραχάτι 200 06","categoryIds":["greek-restaurants"],"categories":["Greek Restaurants"]},{"id":"greekRestaurants_87ece57093df","slug":"maistrali-87ec","kind":"restaurant","name":"Μαϊστράλι","lat":37.967119636762334,"lng":22.972511635572165,"url":"https://maps.app.goo.gl/TngD3F1b3PDVc4187?g_st=ipc","address":"Ποσειδώνος 81, Λουτράκι 203 00","categoryIds":["greek-restaurants"],"categories":["Greek Restaurants"]},{"id":"greekRestaurants_95a7c55fd3b7","slug":"panorama-95a7","kind":"restaurant","name":"PANORAMA","lat":38.00713857434971,"lng":22.938193442340463,"url":"https://maps.app.goo.gl/iZ1dcxAEfMtNzWnJ6?g_st=ipc","address":"Λουτράκι 203 00","categoryIds":["greek-restaurants"],"categories":["Greek Restaurants"]},{"id":"greekRestaurants_7e187d76eed9","slug":"taverna-agiannis-goyrnopoyla-7e18","kind":"restaurant","name":"ΤΑΒΕΡΝΑ ΑΓΙΑΝΝΗΣ ΓΟΥΡΝΟΠΟΥΛΑ","lat":37.99600590320037,"lng":22.763769354956416,"url":"https://maps.app.goo.gl/TAEgeZnnDvDXP5b27?g_st=ipc","address":"Αθηνών 190, Κιάτο 202 00","categoryIds":["greek-restaurants"],"categories":["Greek Restaurants"]},{"id":"greekRestaurants_2229596e0e1c","slug":"sofos-2229","kind":"restaurant","name":"Sofos","lat":37.8214332020111,"lng":22.663718153863066,"url":"https://maps.app.goo.gl/dwiyoJBZoJnwyzi76?g_st=ipc","address":"Δερβενακίων, Νεμέα 205 00","categoryIds":["greek-restaurants"],"categories":["Greek Restaurants"]},{"id":"greekRestaurants_999a38347b72","slug":"17-choria-999a","kind":"restaurant","name":"17 Χωριά","lat":37.821379737670235,"lng":22.662966793394837,"url":"https://maps.app.goo.gl/JMfmZXakmTgFrEhd7?g_st=ipc","address":"Δερβενακίων 12, Νεμέα 205 00","categoryIds":["greek-restaurants"],"categories":["Greek Restaurants"]},{"id":"greekRestaurants_7e3395541ef7","slug":"ellas-7e33","kind":"restaurant","name":"Ελλάς","lat":38.025725060862264,"lng":22.73285830482763,"url":"https://maps.app.goo.gl/1U76XKVBxExMEULE7?g_st=ipc","address":"Παλαιά Ε.Ο. Κορίνθου Πατρών 16, Κάτω Διμηνιό, Κιάτο 202 00","categoryIds":["greek-restaurants"],"categories":["Greek Restaurants"]},{"id":"greekRestaurants_a175a16286e2","slug":"kafeneion-stoy-giannoy-a175","kind":"restaurant","name":"Καφενείον στου Γιαννου","lat":38.046932367246974,"lng":22.58624645586887,"url":"https://maps.app.goo.gl/n81icmGiqF55MhN98?g_st=ipc","address":"Επαρ.Οδ. Ξυλόκαστρου - Τρικάλων - Μάννας 98, Ρίζα 204 00","categoryIds":["greek-restaurants"],"categories":["Greek Restaurants"]},{"id":"greekRestaurants_730d57299d9e","slug":"t-alonia-paradosiaki-elliniki-taverna-730d","kind":"restaurant","name":"«Τ' ΑΛΩΝΙΑ» Παραδοσιακή Ελληνική Ταβέρνα","lat":37.5821792332292,"lng":22.878688681857938,"url":"https://maps.app.goo.gl/NA8tRJoQnezLcqzT6?g_st=ipc","address":"Γεωρ. Γεννηματά 8, Πυργιώτικα 211 00","categoryIds":["greek-restaurants"],"categories":["Greek Restaurants"]},{"id":"greekRestaurants_22138bcb321f","slug":"taverna-kokoromytis-2213","kind":"restaurant","name":"Ταβέρνα Κοκορομύτης","lat":37.57233337813603,"lng":22.83006926532932,"url":"https://maps.app.goo.gl/BSHNHo6Xw2QuP8Kw5?g_st=ipc","address":"Μουσών, Άρια 211 00","categoryIds":["greek-restaurants"],"categories":["Greek Restaurants"]},{"id":"greekRestaurants_742eabdb9109","slug":"to-teloneio-742e","kind":"restaurant","name":"Το Τελωνείο","lat":37.56743155679151,"lng":22.79708632929498,"url":"https://maps.app.goo.gl/nh7yb45ifREfXwro7?g_st=ipc","address":"Ακτής Μιαούλη 83, Ναύπλιο 211 00","categoryIds":["greek-restaurants"],"categories":["Greek Restaurants"]}],"nearby":[{"id":"mustSeeAttractions_6f7525d9828a","slug":"naos-toy-apollona-6f75","kind":"restaurant","name":"Ναός του Απόλλωνα","lat":37.905934819191934,"lng":22.879090197503242,"url":"https://maps.app.goo.gl/8vWipRURHj9oGwSj8?g_st=ipc","address":"Άργους 105, Αρχαία Κόρινθος 200 07","categoryIds":["attractions"],"categories":["Must-See Attractions"],"distanceKm":2.843300381283348},{"id":"mustSeeAttractions_10ed76689ca7","slug":"archaia-korinthos-10ed","kind":"restaurant","name":"Αρχαία Κόρινθος","lat":37.90716292407013,"lng":22.881429703730713,"url":"https://maps.app.goo.gl/Wa4GWgjzXVLMVAyZ7?g_st=ipc","address":"Αρχαία Κόρινθος 200 07","categoryIds":["attractions"],"categories":["Must-See Attractions"],"distanceKm":2.906145819613506},{"id":"fishTavernasRestaurants_f33d801592a8","slug":"fanis-f33d","kind":"restaurant","name":"Φάνης","lat":37.93929883889628,"lng":22.920388237170222,"url":"https://maps.app.goo.gl/fTiUsZtuT7FzXx5m8?g_st=ipc","address":"Γεωρ. Παπανδρέου 87, Κόρινθος 201 00","categoryIds":["fish-tavernas"],"categories":["Fish Tavernas"],"distanceKm":6.867942529467377},{"id":"familyFriendly_382b225783e0","slug":"athloypoli-382b","kind":"restaurant","name":"Αθλούπολη","lat":37.92596676764985,"lng":22.950761882031436,"url":"https://maps.app.goo.gl/1hz4bXK4e1zKMcW19?g_st=ipc","address":"Θέση Μπαθαρίστρα, Δήμος Κορινθίων 201 00","categoryIds":["family-friendly"],"categories":["Kid Friendly Locations"],"distanceKm":7.171615574163252},{"id":"municipalities_27d87fc31abf","slug":"korinthos-27d8","kind":"municipality","name":"Κόρινθος","lat":37.9401,"lng":22.9513,"aliases":["Κορινθος"],"region":"Κορινθία","name_en":"Corinth","region_en":"Corinthia","distanceKm":8.350152978938015},{"id":"fishTavernasRestaurants_bedd9566b385","slug":"thealos-thealos-bedd","kind":"restaurant","name":"Θέαλος - Thealos","lat":37.94991846803997,"lng":22.83722013675207,"url":"https://maps.app.goo.gl/Aaq7XhnhCgZUhsH29?g_st=ipc","address":"Unnamed Rd, Kato Assos 200 06","categoryIds":["fish-tavernas"],"categories":["Fish Tavernas"],"distanceKm":8.887255741308259},{"id":"cheapEatsRestaurants_0b1305dba65e","slug":"fytampanis-g-psitopoleio-soyvlatzidiko-0b13","kind":"restaurant","name":"Φυταμπανης Γ. Ψητοπωλειο - Σουβλατζιδικο","lat":37.92024228635265,"lng":22.99364053559187,"url":"https://maps.app.goo.gl/xoTkQyq8YGQpxjaU8?g_st=ipc","address":"ΕΟ Ισθμού Αρχαίας Επιδαύρου 21, Ίσθμια 200 10","categoryIds":["cheap-eats"],"categories":["Gyros & Cheap Eats"],"distanceKm":9.96729989237837},{"id":"mustSeeAttractions_548e87d4f0b8","slug":"dioryga-tis-korinthoy-548e","kind":"restaurant","name":"Διώρυγα της Κορίνθου","lat":37.934260646159885,"lng":22.98428860726812,"url":"https://maps.app.goo.gl/cmoYHbzQvg5Nv9KN7?g_st=ipc","address":"Λουτράκι 203 00","categoryIds":["attractions"],"categories":["Must-See Attractions"],"distanceKm":10.042679982404392},{"id":"familyFriendly_8b9ba7b9f729","slug":"splash-waterpark-isthmos-8b9b","kind":"restaurant","name":"Splash Waterpark Isthmos","lat":37.92495583561113,"lng":22.991604427588854,"url":"https://maps.app.goo.gl/eqCZacM2mh9hh5mi8?g_st=ipc","address":"Ισθμού, Λουτράκι 203 00","categoryIds":["family-friendly"],"categories":["Kid Friendly Locations"],"distanceKm":10.043466492226834},{"id":"fishTavernasRestaurants_08b5ab011888","slug":"almyriki-08b5","kind":"restaurant","name":"ΑΛΜΥΡΙΚΙ","lat":37.852743518617515,"lng":23.00215185401227,"url":"https://maps.app.goo.gl/hdAPtt1dSNxNigaPA?g_st=ipc","address":"R2X3+G5, Epar.Od. Moni Taxiarchon - Kato Almiri, Kato Almiri 201 00","categoryIds":["fish-tavernas"],"categories":["Fish Tavernas"],"distanceKm":10.302339692446315},{"id":"fishTavernasRestaurants_280f68f1857d","slug":"kavos-280f","kind":"restaurant","name":"Κάβος","lat":37.9019948722367,"lng":23.01292994879006,"url":"https://maps.app.goo.gl/PptKq3WRsYvpTsqu5?g_st=ipc","address":"Ίσθμια 201 00","categoryIds":["fish-tavernas","luxury-dining"],"categories":["Fish Tavernas","Luxury Dining"],"legacySlugs":["kavos-1d0d"],"distanceKm":10.939834551925268},{"id":"greekRestaurants_f0875a0de3a8","slug":"eviva-taverna-f087","kind":"restaurant","name":"Εβίβα Ταβέρνα","lat":37.94826596142861,"lng":22.791019779670105,"url":"https://maps.app.goo.gl/D8Mr8bUZPttfMux47?g_st=ipc","address":"Επαρ.Οδ. Βραχατίου - Νεμέας 255, Βοχαϊκό 200 06","categoryIds":["greek-restaurants"],"categories":["Greek Restaurants"],"distanceKm":11.436655742387638},{"id":"greekRestaurants_b760cd0c2463","slug":"chavon-restobar-b760","kind":"restaurant","name":"Chavon Restobar","lat":37.96210160412795,"lng":22.806527700162825,"url":"https://maps.app.goo.gl/gHNgPE2wUtHLY6F1A?g_st=ipc","address":"Parodos Andrea Lazana 101, Βραχάτι 200 06","categoryIds":["greek-restaurants"],"categories":["Greek Restaurants"],"distanceKm":11.567905284814008},{"id":"greekRestaurants_87ece57093df","slug":"maistrali-87ec","kind":"restaurant","name":"Μαϊστράλι","lat":37.967119636762334,"lng":22.972511635572165,"url":"https://maps.app.goo.gl/TngD3F1b3PDVc4187?g_st=ipc","address":"Ποσειδώνος 81, Λουτράκι 203 00","categoryIds":["greek-restaurants"],"categories":["Greek Restaurants"],"distanceKm":11.861203188323204},{"id":"familyFriendly_52cd4997ee89","slug":"farma-ampelos-vochaikou-52cd","kind":"restaurant","name":"FARMA AMPELOS VOCHAIKOU","lat":37.932680344972496,"lng":22.771047365230917,"url":"https://maps.app.goo.gl/cQ3vrm4TKeMAyCsq6?g_st=ipc","address":"ΑΓΡΟΤΙΚΗ ΟΔΟΣ, Βοχαϊκό 200 06","categoryIds":["family-friendly"],"categories":["Kid Friendly Locations"],"distanceKm":11.919612178205897},{"id":"fishTavernasRestaurants_f1a82ca58a60","slug":"paolo-nikos-restaurant-f1a8","kind":"restaurant","name":"Paolo Nikos Restaurant","lat":37.97387325898538,"lng":22.97577321461108,"url":"https://maps.app.goo.gl/55rvgJM2cg2quvQr9?g_st=ipc","address":"Ποσειδώνος, Λουτράκι 203 00","categoryIds":["fish-tavernas"],"categories":["Fish Tavernas"],"distanceKm":12.634323446975761},{"id":"municipalities_2601b1f9b5a8","slug":"loytraki-perachora-ag-theodoroi-2601","kind":"municipality","name":"Λουτράκι - Περαχώρα - Αγ. Θεόδωροι","lat":37.9747,"lng":22.975,"region":"Κορινθία","name_en":"Loutraki - Perachora - Agioi Theodoroi","region_en":"Corinthia","distanceKm":12.669028181175044},{"id":"fishTavernasRestaurants_ec6fbfb939ca","slug":"oyzeri-o-giannis-ec6f","kind":"restaurant","name":"Ουζερί ο Γιάννης","lat":37.97847865950633,"lng":22.976754663547947,"url":"https://maps.app.goo.gl/9WDCt3PAuTfMs7ke8?g_st=ipc","address":"Γεωρ. Λέκκα 3, Λουτράκι 203 00","categoryIds":["fish-tavernas"],"categories":["Fish Tavernas"],"distanceKm":13.100610183526259},{"id":"wineriesVineyards_02d00923574f","slug":"lafazanis-winery-02d0","kind":"restaurant","name":"Lafazanis Winery","lat":37.81366330913366,"lng":22.765441857507405,"url":"https://maps.app.goo.gl/A2t4w3k9kTA2cB6j9?g_st=ipc","address":"Θέση Κεφαλάρι, Αρχαίες Κλεωνές 205 00","categoryIds":["wineries-vineyards"],"categories":["Wineries & Vineyards"],"distanceKm":13.38428842183253},{"id":"burgersRestaurants_fc37c5f5cc99","slug":"diner-72-fc37","kind":"restaurant","name":"Diner 72","lat":37.92372598231459,"lng":23.045537436860897,"url":"https://maps.app.goo.gl/JBWKzEThZyPeN81d8?g_st=ipc","address":"Παλαιά ΕΟ Αθηνών Κορίνθου, Δήμος Λουτρακίου - Αγίων Θεοδώρων 200 03","categoryIds":["burgers"],"categories":["Burger Spots"],"distanceKm":14.340631836382686},{"id":"municipalities_5f8e38dfed51","slug":"sikyonion-5f8e","kind":"municipality","name":"Σικυωνίων","lat":37.95,"lng":22.75,"region":"Κορινθία","name_en":"Sikyonion","region_en":"Corinthia","distanceKm":14.478746825037135},{"id":"greekRestaurants_95a7c55fd3b7","slug":"panorama-95a7","kind":"restaurant","name":"PANORAMA","lat":38.00713857434971,"lng":22.938193442340463,"url":"https://maps.app.goo.gl/iZ1dcxAEfMtNzWnJ6?g_st=ipc","address":"Λουτράκι 203 00","categoryIds":["greek-restaurants"],"categories":["Greek Restaurants"],"distanceKm":14.510173019481973},{"id":"monasteriesChurches_27ad1b8957bf","slug":"iera-moni-osioy-patapioy-27ad","kind":"restaurant","name":"Ιερά Μονή Οσίου Παταπίου","lat":37.995800173616075,"lng":22.97687851305677,"url":"https://maps.app.goo.gl/pK5oCv6PgGwT3qg66?g_st=ipc","address":"Σχολής Μηχανικού 26, Λουτράκι 203 00","categoryIds":["monasteries-churches"],"categories":["Monasteries & Spiritual Sites"],"distanceKm":14.723012489346441},{"id":"municipalities_f416e3da4569","slug":"kiato-f416","kind":"municipality","name":"Κιάτο","lat":37.974,"lng":22.751,"region":"Κορινθία","name_en":"Kiato","region_en":"Corinthia","distanceKm":15.963788141986402}],"mentionedGuides":[],"canonicalSlug":"taverna-mpekos-cb44","enrichment":{"summary_en":"ΤΑΒΕΡΝΑ ΜΠΕΚΟΣ is a curated restaurant in Σολομός 201 00 in the Greek Restaurants collection. It is connected to 0 nearby Googlementor picks to help travelers build a stronger local route.","summary_el":"ΤΑΒΕΡΝΑ ΜΠΕΚΟΣ είναι ένα επιλεγμένο σημείο φαγητού στην περιοχή Σολομός 201 00 και ανήκει στη συλλογή Greek Restaurants. Συνδέεται με 0 κοντινές προτάσεις του Googlementor για πιο ολοκληρωμένη εμπειρία.","vibe_tags":["curated"],"best_for":["first-time visitors","food lovers"],"visit_moments":["lunch stop","dinner stop"],"practical_note":"Address and direct map link are available for easy turn-by-turn access.","nearby_walkable_count":0,"nearby_count_2km":0,"confidence":0.9},"areaContext":null,"intentContexts":[]},"__N_SSG":true}