{"pageProps":{"entity":{"id":"greekRestaurants_a5a7e6319368","slug":"taverna-archontiko-charinas-a5a7","kind":"restaurant","name":"Ταβέρνα Αρχοντικό Χαρινάς","lat":40.67152765437554,"lng":22.606881011648337,"url":"https://maps.app.goo.gl/R9gf3cRdrbFmw8LA7?g_st=ipc","address":"Άδενδρο 570 07","categoryIds":["greek-restaurants"],"categories":["Greek Restaurants"]},"sameCategory":[{"id":"greekRestaurants_ed78d50703bc","slug":"pelorios-ed78","kind":"restaurant","name":"ΠΕΛΩΡΙΟΣ","lat":40.76115060594356,"lng":22.490515886367657,"url":"https://maps.app.goo.gl/mycus3UK8H4JRUHLA?g_st=ipc","address":"ΕΟ Γιαννιτσών Θεσσαλονίκης 13, Νέα Πέλλα 580 05","categoryIds":["greek-restaurants"],"categories":["Greek Restaurants"]},{"id":"greekRestaurants_83a8e7a17218","slug":"tsi-tsi-soyvla-mpar-83a8","kind":"restaurant","name":"Tsi Tsi Σουβla Mπαr","lat":40.62759907137701,"lng":22.441073335584885,"url":"https://maps.app.goo.gl/8Ekwg8Pc5gmDyw82A?g_st=ipc","address":"Eth. Antistasis 50, Alexandria 593 00","categoryIds":["greek-restaurants"],"categories":["Greek Restaurants"]},{"id":"greekRestaurants_35d8717196c2","slug":"taverna-oyzeri-plateia-35d8","kind":"restaurant","name":"Ταβέρνα Ουζερί Πλατεία","lat":40.689496085376405,"lng":22.856919434456977,"url":"https://maps.app.goo.gl/DEtWfVmzXSzTpbjD9?g_st=ipc","address":"Ρήγα Φεραίου 1, Δέλτα 570 08","categoryIds":["greek-restaurants"],"categories":["Greek Restaurants"]},{"id":"greekRestaurants_25aab707dbe6","slug":"taverna-charisis-25aa","kind":"restaurant","name":"Ταβέρνα Χαρίσης","lat":40.74300735227225,"lng":22.865911910966187,"url":"https://maps.app.goo.gl/Kjqd8y15rnvwbGch8?g_st=ipc","address":"Έναντι Γυμνασίου Νεοχωρούδας, Νεοχωρούδα 545 00","categoryIds":["greek-restaurants"],"categories":["Greek Restaurants"]},{"id":"greekRestaurants_b101b37c957d","slug":"ladokolla-apo-to-kordelio-sto-charmankioi-b101","kind":"restaurant","name":"Λαδόκολλα - Από το Κορδελιό στο Χαρμάνκιοϊ","lat":40.66651626452892,"lng":22.8973438821838,"url":"https://maps.app.goo.gl/CWnRci4QKtgu8y7y6?g_st=ipc","address":"Μεγ. Αλεξάνδρου 31, Ελευθέριο Κορδελιό 563 34","categoryIds":["greek-restaurants"],"categories":["Greek Restaurants"]},{"id":"greekRestaurants_1519d05a3bce","slug":"mantemi-casual-dining-1519","kind":"restaurant","name":"ΜΑΝΤΕΜΙ | Casual Dining","lat":40.67409229961713,"lng":22.905893700060766,"url":"https://maps.app.goo.gl/A7GLofJnsBowRAkj8?g_st=ipc","address":"Meandrou 79, Evosmos 562 24","categoryIds":["greek-restaurants"],"categories":["Greek Restaurants"]},{"id":"greekRestaurants_726e02b8b685","slug":"anama-726e","kind":"restaurant","name":"Anama","lat":40.67309178488354,"lng":22.90614317972579,"url":"https://maps.app.goo.gl/Bt17EdhYtg5pRDnb8?g_st=ipc","address":"Κολοκοτρώνη 10, Εύοσμος 562 24","categoryIds":["greek-restaurants"],"categories":["Greek Restaurants"]},{"id":"greekRestaurants_7f8b3d2ad28e","slug":"backxes-7f8b","kind":"restaurant","name":"Backξες","lat":40.66851175512014,"lng":22.912875049998018,"url":"https://maps.app.goo.gl/4QcvwjevNtMp66VDA?g_st=ipc","address":"Καρατασου, Τσάμη - Καρατάσου 7, Θεσσαλονίκη 562 24","categoryIds":["greek-restaurants"],"categories":["Greek Restaurants"]},{"id":"greekRestaurants_489dcbab3d02","slug":"troyfa-mezedopoleio-489d","kind":"restaurant","name":"Τρούφα Μεζεδοπωλείο","lat":40.673704664191845,"lng":22.915531200227242,"url":"https://maps.app.goo.gl/NQbg2QuYmJZjW8Ha6?g_st=ipc","address":"Olimpiados 101, Evosmos 562 24","categoryIds":["greek-restaurants"],"categories":["Greek Restaurants"]},{"id":"greekRestaurants_b650f3fa3a9f","slug":"xrysikos-restaurant-b650","kind":"restaurant","name":"Xrysikos Restaurant","lat":40.724131299619074,"lng":22.908510129508898,"url":"https://maps.app.goo.gl/aewn1jT9fs3LU3he8?g_st=ipc","address":"Agias Paraskevis 9, Paleokastro 570 13","categoryIds":["greek-restaurants"],"categories":["Greek Restaurants"]},{"id":"greekRestaurants_91be864c5607","slug":"to-traino-91be","kind":"restaurant","name":"Το Τραίνο","lat":40.67703057575148,"lng":22.918208800232915,"url":"https://maps.app.goo.gl/vzgBa3uY1wT8n7z49?g_st=ipc","address":"Eth. Antistaseos 102, Evosmos 562 24","categoryIds":["greek-restaurants"],"categories":["Greek Restaurants"]},{"id":"greekRestaurants_335a73f8c28f","slug":"to-dilavo-335a","kind":"restaurant","name":"Το Δίλαβο","lat":40.67696648177201,"lng":22.91974503350985,"url":"https://maps.app.goo.gl/WbYog3HDi7k69z6Y6?g_st=ipc","address":"Αντώνη Τρίτση 98, Εύοσμος 562 24","categoryIds":["greek-restaurants"],"categories":["Greek Restaurants"]}],"nearby":[{"id":"municipalities_f3be9936c38b","slug":"chalkidona-f3be","kind":"municipality","name":"Χαλκηδόνα","lat":40.736,"lng":22.608,"aliases":["Xalkidona"],"region":"Περιαστική Ζώνη","name_en":"Chalkidona","region_en":"Suburban Zone","distanceKm":7.169618263975292},{"id":"municipalities_fbca8f3542b1","slug":"delta-fbca","kind":"municipality","name":"Δέλτα","lat":40.659,"lng":22.731,"region":"Περιαστική Ζώνη","name_en":"Delta","region_en":"Suburban Zone","distanceKm":10.561042881517354},{"id":"greekRestaurants_ed78d50703bc","slug":"pelorios-ed78","kind":"restaurant","name":"ΠΕΛΩΡΙΟΣ","lat":40.76115060594356,"lng":22.490515886367657,"url":"https://maps.app.goo.gl/mycus3UK8H4JRUHLA?g_st=ipc","address":"ΕΟ Γιαννιτσών Θεσσαλονίκης 13, Νέα Πέλλα 580 05","categoryIds":["greek-restaurants"],"categories":["Greek Restaurants"],"distanceKm":13.981977200192759},{"id":"greekRestaurants_83a8e7a17218","slug":"tsi-tsi-soyvla-mpar-83a8","kind":"restaurant","name":"Tsi Tsi Σουβla Mπαr","lat":40.62759907137701,"lng":22.441073335584885,"url":"https://maps.app.goo.gl/8Ekwg8Pc5gmDyw82A?g_st=ipc","address":"Eth. Antistasis 50, Alexandria 593 00","categoryIds":["greek-restaurants"],"categories":["Greek Restaurants"],"distanceKm":14.81659705364518},{"id":"wineriesVineyards_2ab2ad540f09","slug":"kechris-winery-2ab2","kind":"restaurant","name":"KECHRIS Winery","lat":40.64762484465721,"lng":22.85152020450362,"url":"https://maps.app.goo.gl/sv2SwXYfdv3Hc5ob9?g_st=ipc","address":"Olimpou, Delta 570 09","categoryIds":["wineries-vineyards"],"categories":["Wineries & Vineyards"],"distanceKm":20.80621809972824},{"id":"greekRestaurants_35d8717196c2","slug":"taverna-oyzeri-plateia-35d8","kind":"restaurant","name":"Ταβέρνα Ουζερί Πλατεία","lat":40.689496085376405,"lng":22.856919434456977,"url":"https://maps.app.goo.gl/DEtWfVmzXSzTpbjD9?g_st=ipc","address":"Ρήγα Φεραίου 1, Δέλτα 570 08","categoryIds":["greek-restaurants"],"categories":["Greek Restaurants"],"distanceKm":21.179024886260116},{"id":"municipalities_5a61c4b30038","slug":"kordelio-eyosmos-5a61","kind":"municipality","name":"Κορδελιό - Ευόσμος","lat":40.6708,"lng":22.8819,"region":"Δυτική Θεσσαλονίκη","name_en":"Kordelio - Evosmos","region_en":"West Thessaloniki","distanceKm":23.194456084850483},{"id":"greekRestaurants_25aab707dbe6","slug":"taverna-charisis-25aa","kind":"restaurant","name":"Ταβέρνα Χαρίσης","lat":40.74300735227225,"lng":22.865911910966187,"url":"https://maps.app.goo.gl/Kjqd8y15rnvwbGch8?g_st=ipc","address":"Έναντι Γυμνασίου Νεοχωρούδας, Νεοχωρούδα 545 00","categoryIds":["greek-restaurants"],"categories":["Greek Restaurants"],"distanceKm":23.235769929096893},{"id":"familyFriendly_d122f87f1fed","slug":"kapsalas-tennis-club-d122","kind":"restaurant","name":"Καψάλας tennis club","lat":40.49945923504331,"lng":22.848750088608462,"url":"https://maps.app.goo.gl/yZyZ8YKUDg7Ac4pY7?g_st=ipc","address":"Θέση Επτάρια, Nea Michaniona 570 04","categoryIds":["family-friendly"],"categories":["Kid Friendly Locations"],"distanceKm":27.986525126178197},{"id":"fishTavernasRestaurants_74a21593aab9","slug":"prigkipas-2-74a2","kind":"restaurant","name":"Πρίγκιπας 2","lat":40.50076912252891,"lng":22.874276414295796,"url":"https://maps.app.goo.gl/bCTBJDRFAeRcLaM56?g_st=ipc","address":"Οικονομίου και, Neapoleos 1, Ag. Triada 570 19","categoryIds":["fish-tavernas"],"categories":["Fish Tavernas"],"distanceKm":29.502267964535804},{"id":"fishTavernasRestaurants_b57bdf3c8aed","slug":"retselis-restaurant-b57b","kind":"restaurant","name":"Retselis Restaurant","lat":40.46564721234731,"lng":22.856472838512083,"url":"https://maps.app.goo.gl/SQELaoZ53HgSaqhs6?g_st=ipc","address":"Politechniou 1, Nea Michaniona 570 04","categoryIds":["fish-tavernas"],"categories":["Fish Tavernas"],"distanceKm":31.121393453272667}],"mentionedGuides":[],"canonicalSlug":"taverna-archontiko-charinas-a5a7","enrichment":{"summary_en":"Ταβέρνα Αρχοντικό Χαρινάς is a curated restaurant in Greece in the Greek Restaurants collection. It is connected to 0 nearby Googlementor picks to help travelers build a stronger local route.","summary_el":"Ταβέρνα Αρχοντικό Χαρινάς είναι ένα επιλεγμένο σημείο φαγητού στην περιοχή Greece και ανήκει στη συλλογή Greek Restaurants. Συνδέεται με 0 κοντινές προτάσεις του Googlementor για πιο ολοκληρωμένη εμπειρία.","vibe_tags":["curated"],"best_for":["first-time visitors","food lovers"],"visit_moments":["lunch stop","dinner stop"],"practical_note":"Address and direct map link are available for easy turn-by-turn access.","nearby_walkable_count":0,"nearby_count_2km":0,"confidence":0.9},"areaContext":null,"intentContexts":[]},"__N_SSG":true}