{"pageProps":{"entity":{"id":"greekRestaurants_8b274eab2a6d","slug":"taverna-to-roloi-8b27","kind":"restaurant","name":"Ταβέρνα το Ρολόι","lat":40.652570939966324,"lng":22.941580979423406,"url":"https://maps.app.goo.gl/PNNn8uDapDZFBdjd6?g_st=ipc","address":"Ελ. Βενιζέλου 87, Νεάπολη 567 28","categoryIds":["greek-restaurants"],"categories":["Greek Restaurants"]},"sameCategory":[{"id":"greekRestaurants_35929975107f","slug":"tandur-meze-bar-3592","kind":"restaurant","name":"Tandur meze-bar","lat":40.65350641836204,"lng":22.93893939189117,"url":"https://maps.app.goo.gl/i8gDRLqa1MtexdZ17?g_st=ipc","address":"Αγίου Γεωργίου 42, Νεάπολη 567 27","categoryIds":["greek-restaurants"],"categories":["Greek Restaurants"]},{"id":"greekRestaurants_8f48f269fd50","slug":"koru-inspired-cuisine-8f48","kind":"restaurant","name":"KORU INSPIRED CUISINE","lat":40.6419170569474,"lng":22.93912654198058,"url":"https://maps.app.goo.gl/z6JvmY8nTC7yzJmFA?g_st=ipc","address":"Ολύμπου 15, Θεσσαλονίκη 546 30","categoryIds":["greek-restaurants"],"categories":["Greek Restaurants"]},{"id":"greekRestaurants_284ab55d844a","slug":"drosia-284a","kind":"restaurant","name":"Δροσιά","lat":40.64461236646585,"lng":22.953803286668357,"url":"https://maps.app.goo.gl/APT3HJiqoZGsnyPs9?g_st=ipc","address":"Μεσολογγίου 44, Θεσσαλονίκη 566 25","categoryIds":["greek-restaurants"],"categories":["Greek Restaurants"]},{"id":"greekRestaurants_5762dafe8770","slug":"giannoyla-5762","kind":"restaurant","name":"Γιαννούλα","lat":40.640039548951144,"lng":22.946778249418276,"url":"https://maps.app.goo.gl/bG2X8oAd5FzPwzKJ9?g_st=ipc","address":"Κασσάνδρου 50, Θεσσαλονίκη 546 33","categoryIds":["greek-restaurants"],"categories":["Greek Restaurants"]},{"id":"greekRestaurants_7ff4b23f5102","slug":"extravaganza-7ff4","kind":"restaurant","name":"Extravaganza","lat":40.639336618089786,"lng":22.940241453783848,"url":"https://maps.app.goo.gl/j6N8yd7wQi8DJTxU8?g_st=ipc","address":"Επισκοπου Αμβροσιου 8, Θεσσαλονίκη 546 30","categoryIds":["greek-restaurants"],"categories":["Greek Restaurants"]},{"id":"greekRestaurants_20a08b488f9b","slug":"verges-lagies-20a0","kind":"restaurant","name":"Βέργες Λάγιες","lat":40.639047485030176,"lng":22.943515702588808,"url":"https://maps.app.goo.gl/ArjVMDpRBXxzMQ7h9?g_st=ipc","address":"Ελ. Βενιζέλου 63, Θεσσαλονίκη 546 31","categoryIds":["greek-restaurants"],"categories":["Greek Restaurants"]},{"id":"greekRestaurants_776ec954209f","slug":"maestranza-skg-776e","kind":"restaurant","name":"Maestranza.skg","lat":40.6389335540748,"lng":22.939948700094217,"url":"https://maps.app.goo.gl/9dU4LoJrsfE8osv2A?g_st=ipc","address":"Ptolemeon 29Β, Thessaloniki 546 30","categoryIds":["greek-restaurants","luxury-dining"],"categories":["Greek Restaurants","Luxury Dining"],"legacySlugs":["maestranza-skg-4bd7"]},{"id":"greekRestaurants_468e8ef769c7","slug":"i-kanoyla-468e","kind":"restaurant","name":"Η Κάνουλα","lat":40.63902723791725,"lng":22.945280279447754,"url":"https://maps.app.goo.gl/1wLZCLzQxy3PPNvc7?g_st=ipc","address":"Τάσκου Παπαγεωργίου 4, Θεσσαλονίκη 546 31","categoryIds":["greek-restaurants"],"categories":["Greek Restaurants"]},{"id":"greekRestaurants_03068c7e0a94","slug":"o-loytros-0306","kind":"restaurant","name":"Ο Λουτρός","lat":40.638466462915126,"lng":22.94314610009663,"url":"https://maps.app.goo.gl/4ZWFM4EN2V31EBwc7?g_st=ipc","address":"El. Venizelou 55, Thessaloniki 546 31","categoryIds":["greek-restaurants"],"categories":["Greek Restaurants"]},{"id":"greekRestaurants_08b616cef0f8","slug":"kontrampanto-contrabando-08b6","kind":"restaurant","name":"Κοντραμπάντο - Contrabando","lat":40.63847586677097,"lng":22.944230425632455,"url":"https://maps.app.goo.gl/PyWZCYYPtYAB62wz7?g_st=ipc","address":"Γκαρμπολά 2, Θεσσαλονίκη 546 31","categoryIds":["greek-restaurants"],"categories":["Greek Restaurants"]},{"id":"greekRestaurants_26adfb378173","slug":"toicho-toicho-26ad","kind":"restaurant","name":"Τοίχο Τοίχο","lat":40.64280442360803,"lng":22.955285045566942,"url":"https://maps.app.goo.gl/98dknE2zQL7T8npUA?g_st=ipc","address":"Στεργίου Πολυδώρου 1, Θεσσαλονίκη 546 34","categoryIds":["greek-restaurants"],"categories":["Greek Restaurants"]},{"id":"greekRestaurants_0c9a78977f40","slug":"nea-folia-0c9a","kind":"restaurant","name":"Νέα Φωλιά","lat":40.63831468853848,"lng":22.95095515507328,"url":"https://maps.app.goo.gl/RoPE5F5QLpWFB4rcA?g_st=ipc","address":"Αριστομένους 4, Θεσσαλονίκη 546 34","categoryIds":["greek-restaurants"],"categories":["Greek Restaurants"]}],"nearby":[{"id":"greekRestaurants_35929975107f","slug":"tandur-meze-bar-3592","kind":"restaurant","name":"Tandur meze-bar","lat":40.65350641836204,"lng":22.93893939189117,"url":"https://maps.app.goo.gl/i8gDRLqa1MtexdZ17?g_st=ipc","address":"Αγίου Γεωργίου 42, Νεάπολη 567 27","categoryIds":["greek-restaurants"],"categories":["Greek Restaurants"],"distanceKm":0.2459267349610178},{"id":"italianRestaurants_8d018442e7f5","slug":"freskia-zymi-pizza-pasta-fresca-8d01","kind":"restaurant","name":"Freskia zymi,pizza ,pasta fresca","lat":40.654424928028824,"lng":22.93913723718484,"url":"https://maps.app.goo.gl/Nhxk1VKn5ej1EsSF6?g_st=ipc","address":"P. Tsaldari 29, Neapoli 567 27","categoryIds":["italian"],"categories":["Italian Restaurants"],"distanceKm":0.2915450578775522},{"id":"coffeeBrunchRestaurants_0052077d62fc","slug":"merenda-coffee-wine-more-0052","kind":"restaurant","name":"Merenda Coffee Wine & More","lat":40.651073348117436,"lng":22.945590441346173,"url":"https://maps.app.goo.gl/AiQwHhGbA2vVd8nH7?g_st=ipc","address":"Flogiton 2, Neapoli 567 28","categoryIds":["coffee-brunch"],"categories":["Coffee & Brunch Spots"],"distanceKm":0.3770145384234416},{"id":"coffeeBrunchRestaurants_5e2abc98be89","slug":"ayli-open-air-coffee-bar-5e2a","kind":"restaurant","name":"Αυλή Open Air Coffee Bar","lat":40.65671676420057,"lng":22.939866059031072,"url":"https://maps.app.goo.gl/awEDoCCaNWaCXmC17?g_st=ipc","address":"Πάρκο, Davaki, Neapoli 567 27","categoryIds":["coffee-brunch"],"categories":["Coffee & Brunch Spots"],"distanceKm":0.4831611409327168},{"id":"coffeeBrunchRestaurants_9f516ac09de5","slug":"tsitsanki-9f51","kind":"restaurant","name":"Tsitsanki","lat":40.65105910915655,"lng":22.93545214874879,"url":"https://maps.app.goo.gl/fcosc9VFnpPap1qs5?g_st=ipc","address":"Λαγκαδά 116, Neapoli 567 27","categoryIds":["coffee-brunch"],"categories":["Coffee & Brunch Spots"],"distanceKm":0.5436807810454134},{"id":"coffeeBrunchRestaurants_964653005e5d","slug":"maharaja-skg-heaven-of-shisha-9646","kind":"restaurant","name":"MAHARAJA SKG - Heaven of Shisha","lat":40.658033849704225,"lng":22.941967646222036,"url":"https://maps.app.goo.gl/Ct3Z2v1aCBYrtE5k9?g_st=ipc","address":"Agnostou Stratiotou 36, Polichni 565 33","categoryIds":["coffee-brunch"],"categories":["Coffee & Brunch Spots"],"distanceKm":0.6083229657417183},{"id":"cheapEatsRestaurants_30688d61885b","slug":"steakhouse-stelios-3068","kind":"restaurant","name":"Steakhouse \"Stelios\"","lat":40.65823566269056,"lng":22.942075529553357,"url":"https://maps.app.goo.gl/9ryfqmhFoEZjSBu89?g_st=ipc","address":"Agnostou Stratiotou 40, Polichni 565 33","categoryIds":["cheap-eats"],"categories":["Gyros & Cheap Eats"],"distanceKm":0.6312684778847671},{"id":"municipalities_bb6da3cdb3bd","slug":"eptapyrgio-bb6d","kind":"municipality","name":"Επταπύργιο","lat":40.6506,"lng":22.9486,"aliases":["Επταπυργιο","Yedi Kule"],"region":"Θεσσαλονίκη","name_en":"Eptapyrgio","region_en":"Thessaloniki","distanceKm":0.6313937232655845},{"id":"cheapEatsRestaurants_07b527cd1a8e","slug":"dia-xoiros-polixni-07b5","kind":"restaurant","name":"Dia Xoiros Polixni","lat":40.658685525095265,"lng":22.942609620515523,"url":"https://maps.app.goo.gl/4YvZLZyRTdLs8Tpz7?g_st=ipc","address":"Agnostou Stratiotou 13, Polichni 565 33","categoryIds":["cheap-eats"],"categories":["Gyros & Cheap Eats"],"distanceKm":0.6854256281979212},{"id":"fishTavernasRestaurants_bd9876636f9e","slug":"to-steki-tou-psara-bd98","kind":"restaurant","name":"To steki tou psara","lat":40.66006472959922,"lng":22.944806880091097,"url":"https://maps.app.goo.gl/7KH5KmXVrcaeNEh36","address":"Agnostou Stratiotou 33, Polichni 565 33","categoryIds":["fish-tavernas"],"categories":["Fish Tavernas"],"distanceKm":0.8765800761738839},{"id":"familyFriendly_91fdc1b07999","slug":"parko-tzeni-karezi-91fd","kind":"restaurant","name":"Πάρκο Τζένη Καρέζη","lat":40.65858356268694,"lng":22.948886429553223,"url":"https://maps.app.goo.gl/GLfxf6LcGPn5DhUJA?g_st=ipc","address":"Polichni 565 32","categoryIds":["family-friendly"],"categories":["Kid Friendly Locations"],"distanceKm":0.9092703769035899},{"id":"municipalities_e743acc9b81e","slug":"vardaris-e743","kind":"municipality","name":"Βαρδάρης","lat":40.6447,"lng":22.9381,"aliases":["Βαρδαρης"],"region":"Θεσσαλονίκη","name_en":"Vardaris","region_en":"Thessaloniki","distanceKm":0.9231658372320639},{"id":"fishTavernasRestaurants_a0a70eb01c99","slug":"ouzeri-kosmas-a0a7","kind":"restaurant","name":"Ouzeri \"Kosmas\"","lat":40.64801268123014,"lng":22.93043130003418,"url":"https://maps.app.goo.gl/vEURBm27mFZ4pGJfA?g_st=ipc","address":"Vasilikis Papathanasiou 74, Thessaloniki 546 29","categoryIds":["fish-tavernas"],"categories":["Fish Tavernas"],"distanceKm":1.068494683542865},{"id":"fishTavernasRestaurants_20b8b4ae6be5","slug":"karnagio-psarotaverna-20b8","kind":"restaurant","name":"Καρνάγιο ΨΑΡΟΤΑΒΕΡΝΑ","lat":40.65672226446403,"lng":22.929289665430808,"url":"https://maps.app.goo.gl/dET6AhcimdU74KXm7?g_st=ipc","address":"Akriton 15, Ampelokipi 561 23","categoryIds":["fish-tavernas"],"categories":["Fish Tavernas"],"distanceKm":1.1349813474145107},{"id":"fishTavernasRestaurants_669c4e5a11b9","slug":"nisaki-669c","kind":"restaurant","name":"Nisaki","lat":40.656777734821844,"lng":22.92922500008805,"url":"https://maps.app.goo.gl/hvKpXiAYMeS5Y9za8?g_st=ipc","address":"Akriton 13, Ampelokipi 561 23","categoryIds":["fish-tavernas"],"categories":["Fish Tavernas"],"distanceKm":1.1424781437971523},{"id":"cheapEatsRestaurants_59e2b6d2677d","slug":"to-prytaneio-59e2","kind":"restaurant","name":"Το Πρυτανείο","lat":40.64303995879506,"lng":22.947630622213342,"url":"https://maps.app.goo.gl/p1mkurFCqsY7XC3w5?g_st=ipc","address":"Alexandras Papadopoulou 72, Thessaloniki 546 33","categoryIds":["cheap-eats"],"categories":["Gyros & Cheap Eats"],"distanceKm":1.176293135199982},{"id":"greekRestaurants_8f48f269fd50","slug":"koru-inspired-cuisine-8f48","kind":"restaurant","name":"KORU INSPIRED CUISINE","lat":40.6419170569474,"lng":22.93912654198058,"url":"https://maps.app.goo.gl/z6JvmY8nTC7yzJmFA?g_st=ipc","address":"Ολύμπου 15, Θεσσαλονίκη 546 30","categoryIds":["greek-restaurants"],"categories":["Greek Restaurants"],"distanceKm":1.202619571796436},{"id":"fishTavernasRestaurants_bc4a7296f096","slug":"ouzo-jordan-bc4a","kind":"restaurant","name":"Ouzo Jordan","lat":40.66214244715697,"lng":22.949433655289134,"url":"https://maps.app.goo.gl/sSPrTBB7crBhtfLs6?g_st=ipc","address":"Stadiou 6, Thessaloniki 565 33","categoryIds":["fish-tavernas"],"categories":["Fish Tavernas"],"distanceKm":1.2536057782019465},{"id":"cheapEatsRestaurants_6688c0081a92","slug":"ta-babatsika-giro-6688","kind":"restaurant","name":"Ta Babatsika Giro","lat":40.647745410832044,"lng":22.928067747195957,"url":"https://maps.app.goo.gl/gB9jG1sW8aaCssEs7?g_st=ipc","address":"Αγίων Πάντων 28, Thessaloniki 561 23","categoryIds":["cheap-eats"],"categories":["Gyros & Cheap Eats"],"distanceKm":1.2599893114258327},{"id":"cheapEatsRestaurants_d40ad575edd7","slug":"michelangelo-skg-d40a","kind":"restaurant","name":"Michelangelo.skg","lat":40.65053808833563,"lng":22.95671243903333,"url":"https://maps.app.goo.gl/nAwyYBALch1ybbQSA?g_st=ipc","address":"Riga Feraiou 162, Sikies 566 26","categoryIds":["cheap-eats","italian"],"categories":["Gyros & Cheap Eats","Italian Restaurants"],"legacySlugs":["michelangelo-skg-4e92"],"distanceKm":1.29637881904222},{"id":"cheapEatsRestaurants_6807fa813ea0","slug":"porkitto-gyradiko-soyvlaki-stefanoy-parthena-thessaloniki-6807","kind":"restaurant","name":"PORKITTO - ΓΥΡΑΔΙΚΟ - ΣΟΥΒΛΑΚΙ - ΣΤΕΦΑΝΟΥ ΠΑΡΘΕΝΑ - ΘΕΣΣΑΛΟΝΙΚΗ","lat":40.64044750261407,"lng":22.942776573082938,"url":"https://maps.app.goo.gl/GvH8vhGT4BrR9x9WA?g_st=ipc","address":"Καραολή και Δημητρίου 52, Thessaloniki 546 30","categoryIds":["cheap-eats"],"categories":["Gyros & Cheap Eats"],"distanceKm":1.351833317539539},{"id":"greekRestaurants_284ab55d844a","slug":"drosia-284a","kind":"restaurant","name":"Δροσιά","lat":40.64461236646585,"lng":22.953803286668357,"url":"https://maps.app.goo.gl/APT3HJiqoZGsnyPs9?g_st=ipc","address":"Μεσολογγίου 44, Θεσσαλονίκη 566 25","categoryIds":["greek-restaurants"],"categories":["Greek Restaurants"],"distanceKm":1.3588227123522785},{"id":"municipalities_52e9dfbeced3","slug":"neapoli-sykies-52e9","kind":"municipality","name":"Νεάπολη - Συκιές","lat":40.653,"lng":22.958,"region":"Δυτική Θεσσαλονίκη","name_en":"Neapoli - Sykies","region_en":"West Thessaloniki","distanceKm":1.3859368018383877},{"id":"municipalities_63befeea2643","slug":"valaoritoy-63be","kind":"municipality","name":"Βαλαωρίτου","lat":40.6406,"lng":22.9462,"region":"Θεσσαλονίκη","name_en":"Valaritou","region_en":"Thessaloniki","distanceKm":1.3869798218544334}],"mentionedGuides":[],"canonicalSlug":"taverna-to-roloi-8b27","enrichment":{"summary_en":"Ταβέρνα το Ρολόι is a curated restaurant in Νεάπολη 567 28 in the Greek Restaurants collection. It is connected to 9 nearby Googlementor picks to help travelers build a stronger local route.","summary_el":"Ταβέρνα το Ρολόι είναι ένα επιλεγμένο σημείο φαγητού στην περιοχή Νεάπολη 567 28 και ανήκει στη συλλογή Greek Restaurants. Συνδέεται με 9 κοντινές προτάσεις του Googlementor για πιο ολοκληρωμένη εμπειρία.","vibe_tags":["curated"],"best_for":["first-time visitors","food lovers"],"visit_moments":["lunch stop","dinner stop"],"practical_note":"Address and direct map link are available for easy turn-by-turn access.","nearby_walkable_count":9,"nearby_count_2km":114,"confidence":0.98},"areaContext":{"slug":"eptapyrgio","name":"Eptapyrgio","nameEl":"Επταπύργιο"},"intentContexts":[{"href":"/greek-restaurants/eptapyrgio","label":"Greek Restaurants in Eptapyrgio","categorySlug":"greek-restaurants","categoryName":"Greek Restaurants","areaSlug":"eptapyrgio","areaName":"Eptapyrgio","areaNameEl":"Επταπύργιο"}]},"__N_SSG":true}