{"pageProps":{"entity":{"id":"dessertsRestaurants_a1cf45fe2274","slug":"the-bakers-chalandri-a1cf","kind":"restaurant","name":"The Bakers Chalandri","lat":38.0226181576528,"lng":23.800807066742404,"url":"https://maps.app.goo.gl/gQq4yFd1tL46Twha8?g_st=ipc","address":"Λεωφ. Πεντέλης 1, Χαλάνδρι 152 34","categoryIds":["desserts"],"categories":["Dessert Shops"]},"sameCategory":[{"id":"dessertsRestaurants_02779f6a74e0","slug":"luku-matters-stuffed-lukumades-more-0277","kind":"restaurant","name":"Luku-matters (stuffed lukumades & more)","lat":38.02275668044992,"lng":23.799619221423885,"url":"https://maps.app.goo.gl/6smwhS1Kk8EP7LvC8?g_st=ipc","address":"Κολοκοτρώνη 5, Χαλάνδρι 152 33","categoryIds":["desserts"],"categories":["Dessert Shops"]},{"id":"dessertsRestaurants_bee382c48461","slug":"overoll-croissanterie-chalandri-bee3","kind":"restaurant","name":"Overoll Croissanterie Chalandri","lat":38.02200872999179,"lng":23.799243791824114,"url":"https://maps.app.goo.gl/ys5eKDmUSJhoHcwJ8?g_st=ipc","address":"Κατσουλιέρη 10, Χαλάνδρι 152 33","categoryIds":["desserts"],"categories":["Dessert Shops"]},{"id":"dessertsRestaurants_c2edf21ae9fe","slug":"choureal-choux-profiterole-c2ed","kind":"restaurant","name":"CHOUREAL - Choux & Profiterole","lat":38.02110578860944,"lng":23.7987271310142,"url":"https://maps.app.goo.gl/y6r478JecsCWC6aR6?g_st=ipc","address":"Ιφικράτους 2, Χαλάνδρι 152 32","categoryIds":["desserts"],"categories":["Dessert Shops"]},{"id":"coffeeBrunchRestaurants_c6ccd807225a","slug":"bread-b-c-bread-before-christ-c6cc","kind":"restaurant","name":"BREAD B.C. Bread Before Christ","lat":38.02007274297337,"lng":23.803168344895795,"url":"https://maps.app.goo.gl/TyGqvKXydEaJvedUA?g_st=ipc","address":"Αγίας Παρασκευής 59, Χαλάνδρι 152 34","categoryIds":["coffee-brunch","desserts"],"categories":["Coffee & Brunch Spots","Dessert Shops"],"legacySlugs":["bread-b-c-bread-before-christ-012b"]},{"id":"dessertsRestaurants_babd3d2ca062","slug":"evita-loves-cakes-babd","kind":"restaurant","name":"Evita Loves Cakes","lat":38.0200138607173,"lng":23.79854862190682,"url":"https://maps.app.goo.gl/uPYrT5Fyo6EZTYdv7?g_st=ipc","address":"Καραολη Δημήτριου 23A, Χαλάνδρι 152 32","categoryIds":["desserts"],"categories":["Dessert Shops"]},{"id":"dessertsRestaurants_4b614377342f","slug":"a-la-gkrek-4b61","kind":"restaurant","name":"Α λα γκρεκ","lat":38.01997084545109,"lng":23.803610791226863,"url":"https://maps.app.goo.gl/ErAvKczSJTMADaCZ7?g_st=ipc","address":"Αγίας Παρασκευής 65, Χαλάνδρι 152 34","categoryIds":["desserts"],"categories":["Dessert Shops"]},{"id":"dessertsRestaurants_8bed364f6d2d","slug":"solo-gelato-chalandri-8bed","kind":"restaurant","name":"Solo Gelato Chalandri","lat":38.01968693370907,"lng":23.79741986314135,"url":"https://maps.app.goo.gl/VbYTpPhNsegGr8sa6?g_st=ipc","address":"Ανδρέα Παπανδρέου 44, Χαλάνδρι 152 32","categoryIds":["desserts"],"categories":["Dessert Shops"]},{"id":"dessertsRestaurants_2866616f6c72","slug":"passarella-chalandri-2866","kind":"restaurant","name":"Passarella - Χαλάνδρι","lat":38.02448370470044,"lng":23.80670910273873,"url":"https://maps.app.goo.gl/dryCvKG6qyofyvsP9?g_st=ipc","address":"Λεωφ. Πεντέλης 42 &, Ευριπίδου, Χαλάνδρι 152 34","categoryIds":["desserts"],"categories":["Dessert Shops"]},{"id":"dessertsRestaurants_1340f4510458","slug":"terkenlis-chalandri-1340","kind":"restaurant","name":"Τερκενλής Χαλάνδρι","lat":38.017510768826554,"lng":23.80115941464693,"url":"https://maps.app.goo.gl/KH7YfmY3KwdAXppf7?g_st=ipc","address":"Παπανικολή 100, Χαλάνδρι 152 32","categoryIds":["desserts"],"categories":["Dessert Shops"]},{"id":"dessertsRestaurants_9de68b3616c9","slug":"nana-gioti-glyka-apo-spiti-9de6","kind":"restaurant","name":"ΝΑΝΑ ΓΙΩΤΗ - ΓΛΥΚΑ ΑΠΟ ΣΠΙΤΙ","lat":38.01918939040668,"lng":23.794563800847534,"url":"https://maps.app.goo.gl/Pj3P4kdv7qvwkpQG6?g_st=ic","address":"Papanikoli 46, Chalandri 152 32","categoryIds":["desserts"],"categories":["Dessert Shops"]},{"id":"dessertsRestaurants_4f529b02c261","slug":"zacharoplasteia-konstantinidis-4f52","kind":"restaurant","name":"ΖΑΧΑΡΟΠΛΑΣΤΕΙΑ ΚΩΝΣΤΑΝΤΙΝΙΔΗΣ","lat":38.02641289961005,"lng":23.811254354041353,"url":"https://maps.app.goo.gl/eFBXtmFxkCpQxQLK7?g_st=ipc","address":"Λεωφ. Πεντέλης 72, Αθήνα 115 24","categoryIds":["desserts"],"categories":["Dessert Shops"]},{"id":"dessertsRestaurants_8ce39ac32801","slug":"cinnabon-halandri-8ce3","kind":"restaurant","name":"Cinnabon Halandri","lat":38.0300758962987,"lng":23.793141060079883,"url":"https://maps.app.goo.gl/n8CZv8iLgAB4Xf2E9?g_st=ipc","address":"Μαραθώνος 4, Χαλάνδρι 152 33","categoryIds":["desserts"],"categories":["Dessert Shops"]}],"nearby":[{"id":"asianRestaurants_2fedddceed72","slug":"noodle-bar-2fed","kind":"restaurant","name":"Noodle Bar","lat":38.022609797953606,"lng":23.8008077638359,"url":"https://maps.app.goo.gl/RDSLJTa1W2roeGbr9?g_st=ic","address":"Leof. Pentelis 1, Chalandri 152 34","categoryIds":["asian"],"categories":["Asian Restaurants"],"distanceKm":0.0009315595723327542},{"id":"municipalities_d9eb5d0054e1","slug":"chalandri-d9eb","kind":"municipality","name":"Χαλάνδρι","lat":38.0232,"lng":23.8007,"aliases":["Chalandr","Halandri","Khalandri","Halandra","Khalandra","Χαλάνδρα","Χαλάνδρη","Χαλανδρι","Xalandri","Xalandr"],"region":"Βόρεια Προάστια","name_en":"Chalandri","region_en":"Northern Suburbs","distanceKm":0.06537413704211456},{"id":"fishTavernasRestaurants_3ffa036aa4a7","slug":"psarakia-thalassina-3ffa","kind":"restaurant","name":"Ψαράκια & Θαλασσινά","lat":38.02324309009889,"lng":23.800101703415542,"url":"https://maps.app.goo.gl/WKwKfmp9nBvnCPzT9?g_st=ipc","address":"Κώστα Βάρναλη 5, Χαλάνδρι 152 33","categoryIds":["fish-tavernas"],"categories":["Fish Tavernas"],"distanceKm":0.0929857324109924},{"id":"burgersRestaurants_a6200663c2fc","slug":"enkelt-eatery-drinkery-a620","kind":"restaurant","name":"Enkelt Eatery Drinkery","lat":38.02213524779596,"lng":23.799867459817303,"url":"https://maps.app.goo.gl/vHwx7oKoUfgScAFL9?g_st=ipc","address":"Ανδρέα Παπανδρέου 9, Χαλάνδρι 152 34","categoryIds":["burgers"],"categories":["Burger Spots"],"distanceKm":0.09827327167965921},{"id":"dessertsRestaurants_02779f6a74e0","slug":"luku-matters-stuffed-lukumades-more-0277","kind":"restaurant","name":"Luku-matters (stuffed lukumades & more)","lat":38.02275668044992,"lng":23.799619221423885,"url":"https://maps.app.goo.gl/6smwhS1Kk8EP7LvC8?g_st=ipc","address":"Κολοκοτρώνη 5, Χαλάνδρι 152 33","categoryIds":["desserts"],"categories":["Dessert Shops"],"distanceKm":0.10518403599541291},{"id":"coffeeBrunchRestaurants_1645d021693b","slug":"butterfly-all-day-bar-1645","kind":"restaurant","name":"Butterfly All Day Bar","lat":38.02255116891241,"lng":23.802059077338257,"url":"https://maps.app.goo.gl/iFPzHyPcLoNrFRsNA?g_st=ipc","address":"Λεωφόρος Πεντέλης 8 , Στρατάρχου Παπάγου 5, Χαλάνδρι 152 33","categoryIds":["coffee-brunch"],"categories":["Coffee & Brunch Spots"],"distanceKm":0.10992354695545158},{"id":"asianRestaurants_879da0a96347","slug":"saipan-kineziko-estiatorio-879d","kind":"restaurant","name":"Saipan Κινέζικο Εστιατόριο","lat":38.02355205934916,"lng":23.800206153183655,"url":"https://maps.app.goo.gl/nbuLEwHeZBiLrKZS8?g_st=ipc","address":"Κώστα Βάρναλη 9, Χαλάνδρι 152 33","categoryIds":["asian"],"categories":["Asian Restaurants"],"distanceKm":0.11642371120602965},{"id":"coffeeBrunchRestaurants_99f4eb4b50a8","slug":"paul-99f4","kind":"restaurant","name":"Paul","lat":38.02202464306638,"lng":23.799672884172303,"url":"https://maps.app.goo.gl/aQCR8vB88aVXiVXh6?g_st=ic","address":"Andrea Papandreou 13, Chalandri 152 34","categoryIds":["coffee-brunch"],"categories":["Coffee & Brunch Spots"],"distanceKm":0.11927224455740158},{"id":"dessertsRestaurants_bee382c48461","slug":"overoll-croissanterie-chalandri-bee3","kind":"restaurant","name":"Overoll Croissanterie Chalandri","lat":38.02200872999179,"lng":23.799243791824114,"url":"https://maps.app.goo.gl/ys5eKDmUSJhoHcwJ8?g_st=ipc","address":"Κατσουλιέρη 10, Χαλάνδρι 152 33","categoryIds":["desserts"],"categories":["Dessert Shops"],"distanceKm":0.15278686955484272},{"id":"coffeeBrunchRestaurants_9458a245dc3c","slug":"mr-peacock-9458","kind":"restaurant","name":"Mr Peacock","lat":38.02229439663125,"lng":23.799067122766484,"url":"https://maps.app.goo.gl/VZMRfmKCQeAiaXpR6?g_st=ipc","address":"Κατσουλιέρη 7, Χαλάνδρι 152 33","categoryIds":["coffee-brunch"],"categories":["Coffee & Brunch Spots"],"distanceKm":0.156606126454426},{"id":"burgersRestaurants_c336eb92f70f","slug":"benjamin-burger-house-c336","kind":"restaurant","name":"Benjamin Burger House","lat":38.02349485615921,"lng":23.79940305236398,"url":"https://maps.app.goo.gl/1oUJJNhHwJDfzkoK6?g_st=ipc","address":"Ανδρέα Γκίνη 8-12, Χαλάνδρι 152 33","categoryIds":["burgers"],"categories":["Burger Spots"],"distanceKm":0.1569347589825728},{"id":"coffeeBrunchRestaurants_9494334a3889","slug":"theory-bar-9494","kind":"restaurant","name":"Theory Bar","lat":38.02145412084465,"lng":23.799757422872677,"url":"https://maps.app.goo.gl/zwkhVzdkQughii3i7?g_st=ipc","address":"Πλάτωνος 14, Χαλάνδρι 152 34","categoryIds":["coffee-brunch"],"categories":["Coffee & Brunch Spots"],"distanceKm":0.15876811854762624},{"id":"vegetarianRestaurants_146693dade4c","slug":"naya-lebanese-kitchen-1466","kind":"restaurant","name":"Naya Lebanese Kitchen","lat":38.02310312613848,"lng":23.798978117354526,"url":"https://maps.app.goo.gl/Wa7FtgvMdTD2Q6oT7?g_st=ipc","address":"Kolokotroni 10, Chalandri 152 33","categoryIds":["vegetarian"],"categories":["Vegetarian Friendly Restaurants"],"distanceKm":0.16904000179616469},{"id":"burgersRestaurants_9c281ee4457d","slug":"butcher-s-burger-halandri-steak-house-9c28","kind":"restaurant","name":"Butcher's Burger Halandri & Steak House","lat":38.02102226567013,"lng":23.79979731523688,"url":"https://maps.app.goo.gl/NnWhxpUGcKRnuxNb6?g_st=ipc","address":"Αγίας Παρασκευής 17, Χαλάνδρι 152 34","categoryIds":["burgers"],"categories":["Burger Spots"],"distanceKm":0.19827726781468255},{"id":"cheapEatsRestaurants_8385a72feb82","slug":"taco-bell-8385","kind":"restaurant","name":"Taco Bell","lat":38.0228052820458,"lng":23.79853818143159,"url":"https://maps.app.goo.gl/f47SevFfDgNbNtWk7?g_st=ipc","address":"Κολοκοτρώνη 13, Χαλάνδρι 152 33","categoryIds":["cheap-eats"],"categories":["Gyros & Cheap Eats"],"distanceKm":0.19983072052412382},{"id":"coffeeBrunchRestaurants_6c7c61c89617","slug":"the-blind-spot-chalandri-6c7c","kind":"restaurant","name":"The Blind Spot Chalandri","lat":38.02081193268296,"lng":23.800852260132338,"url":"https://maps.app.goo.gl/meU9KZcd4KyskmW5A?g_st=ipc","address":"Αγίας Παρασκευής 29, Χαλάνδρι 152 34","categoryIds":["coffee-brunch"],"categories":["Coffee & Brunch Spots"],"distanceKm":0.20088206498662095},{"id":"burgersRestaurants_ec4983f25d99","slug":"nob-burger-ec49","kind":"restaurant","name":"NOB Burger","lat":38.02272062579597,"lng":23.79844865880115,"url":"https://maps.app.goo.gl/wpfmqU8MnEBtDwTH8?g_st=ic","address":"Κολοκοτρώνη 15 &, Gyftopoulou 10, Chalandri 152 33","categoryIds":["burgers"],"categories":["Burger Spots"],"distanceKm":0.20690037506521064},{"id":"burgersRestaurants_e22a52b46127","slug":"raw-street-burger-chalandri-e22a","kind":"restaurant","name":"Raw Street Burger - Chalandri","lat":38.0212493909348,"lng":23.79901287705001,"url":"https://maps.app.goo.gl/hgvkfPtXihqrFqAA8?g_st=ic","address":"Agias Paraskevis 2, Chalandri 152 32","categoryIds":["burgers"],"categories":["Burger Spots"],"distanceKm":0.21878212083110157},{"id":"burgersRestaurants_020aef5345e3","slug":"raw-street-burger-chalandri-020a","kind":"restaurant","name":"Raw Street Burger - Chalandri","lat":38.02124916375188,"lng":23.799011494235714,"url":"https://maps.app.goo.gl/BoNocomx2EgJt83f6?g_st=ipc","address":"Αγίας Παρασκευής 2, Χαλάνδρι 152 32","categoryIds":["burgers"],"categories":["Burger Spots"],"distanceKm":0.21888671981576915},{"id":"coffeeBrunchRestaurants_fee7b450e2e2","slug":"bored-c-mon-hub-fee7","kind":"restaurant","name":"Bored, C'mon hub","lat":38.02345514252141,"lng":23.803073599949013,"url":"https://maps.app.goo.gl/VKSg4V9NPf89H1ha7?g_st=ipc","address":"Λεωφ. Πεντέλης 15, Χαλάνδρι 152 34","categoryIds":["coffee-brunch"],"categories":["Coffee & Brunch Spots"],"distanceKm":0.21926903729139324},{"id":"luxuryDiningRestaurants_b7dbfaaef165","slug":"hunters-room-grill-restaurant-b7db","kind":"restaurant","name":"Hunters Room & Grill Restaurant","lat":38.021923789577265,"lng":23.8032446662537,"url":"https://maps.app.goo.gl/UynpfTCs73NDwhL67?g_st=ipc","address":"Αριστοτέλους 23, & Παπάγου 17, Χαλάνδρι 152 34","categoryIds":["luxury-dining"],"categories":["Luxury Dining"],"distanceKm":0.22705525611391406},{"id":"greekRestaurants_69231f24503b","slug":"mpakalotaverna-6923","kind":"restaurant","name":"Μπακαλοταβέρνα","lat":38.02091962634735,"lng":23.79935272546419,"url":"https://maps.app.goo.gl/D6gW3fsdkz7sh9bg8?g_st=ipc","address":"Θουκυδίδου 6, Χαλάνδρι 152 32","categoryIds":["greek-restaurants"],"categories":["Greek Restaurants"],"distanceKm":0.22781744526202613},{"id":"greekRestaurants_6657f75f25c7","slug":"trypia-dekara-6657","kind":"restaurant","name":"Τρύπια Δεκάρα","lat":38.020535111511364,"lng":23.799981150995844,"url":"https://maps.app.goo.gl/aTApNBNRqHkEo3CH8?g_st=ipc","address":"Θεμιστοκλέους 6, Χαλάνδρι 152 32","categoryIds":["greek-restaurants"],"categories":["Greek Restaurants"],"distanceKm":0.24266015314093617},{"id":"cheapEatsRestaurants_70af29f6373f","slug":"holy-pasta-chalandri-70af","kind":"restaurant","name":"Holy Pasta Chalandri","lat":38.02090646389776,"lng":23.799055964157045,"url":"https://maps.app.goo.gl/dD7x8SrXxBd8mmDX7?g_st=ipc","address":"Ηρακλείου 3, Χαλάνδρι 152 32","categoryIds":["cheap-eats"],"categories":["Gyros & Cheap Eats"],"distanceKm":0.24444821408133263}],"mentionedGuides":[],"canonicalSlug":"the-bakers-chalandri-a1cf","enrichment":{"summary_en":"The Bakers Chalandri is a curated restaurant in Χαλάνδρι 152 34 in the Dessert Shops collection. It is connected to 66 nearby Googlementor picks to help travelers build a stronger local route.","summary_el":"The Bakers Chalandri είναι ένα επιλεγμένο σημείο φαγητού στην περιοχή Χαλάνδρι 152 34 και ανήκει στη συλλογή Dessert Shops. Συνδέεται με 66 κοντινές προτάσεις του Googlementor για πιο ολοκληρωμένη εμπειρία.","vibe_tags":["curated","sweet-stop"],"best_for":["first-time visitors","food lovers"],"visit_moments":["afternoon break","after dinner"],"practical_note":"Address and direct map link are available for easy turn-by-turn access.","nearby_walkable_count":66,"nearby_count_2km":118,"confidence":0.98},"areaContext":{"slug":"chalandri","name":"Chalandri","nameEl":"Χαλάνδρι"},"intentContexts":[{"href":"/desserts/chalandri","label":"Dessert Shops in Chalandri","categorySlug":"desserts","categoryName":"Dessert Shops","areaSlug":"chalandri","areaName":"Chalandri","areaNameEl":"Χαλάνδρι"}]},"__N_SSG":true}