{"pageProps":{"entity":{"id":"greekRestaurants_46410f580a23","slug":"to-steki-toy-moria-4641","kind":"restaurant","name":"ΤΟ ΣΤΕΚΙ ΤΟΥ ΜΩΡΙΑ","lat":37.54602303804999,"lng":22.21106333556993,"url":"https://maps.app.goo.gl/MuJ25Kkm8d6nFJDU9?g_st=ipc","address":"Επαρ.Οδ. Κάτω Δαβιάς - Δημητσάνας 42, Χρυσοβίτσι 221 00","categoryIds":["greek-restaurants"],"categories":["Greek Restaurants"]},"sameCategory":[{"id":"greekRestaurants_ba48f33d62eb","slug":"taverna-toy-taloymi-ba48","kind":"restaurant","name":"Ταβέρνα του Ταλούμη","lat":37.5209406617155,"lng":22.072800838010828,"url":"https://maps.app.goo.gl/4iPhGQLM9AExuZCk6?g_st=ipc","address":"Pl. Smirnis, Elliniko 222 00","categoryIds":["greek-restaurants"],"categories":["Greek Restaurants"]},{"id":"greekRestaurants_85ac3be3e822","slug":"paradosiaki-taverna-o-pantelis-85ac","kind":"restaurant","name":"Παραδοσιακή Ταβέρνα Ο Παντελής","lat":37.66932870704655,"lng":22.182333342140492,"url":"https://maps.app.goo.gl/cvHML6eFSjSNc5Sb7?g_st=ipc","address":"Βυτίνα 220 10","categoryIds":["greek-restaurants"],"categories":["Greek Restaurants"]},{"id":"greekRestaurants_5a5748f68d29","slug":"taverna-zerzova-5a57","kind":"restaurant","name":"Ταβέρνα Ζέρζοβα","lat":37.55978422678044,"lng":22.035182022142255,"url":"https://maps.app.goo.gl/nmUY7Lp6mDtzAwTm8?g_st=ipc","address":"Unnamed Rd, Γορτυνία 220 07","categoryIds":["greek-restaurants"],"categories":["Greek Restaurants"]},{"id":"greekRestaurants_3078ffee852c","slug":"koympoyris-1970-3078","kind":"restaurant","name":"Κουμπούρης 1970","lat":37.68399722999656,"lng":22.295929513779615,"url":"https://maps.app.goo.gl/YMUJHncJTMJQozvE7?g_st=ipc","address":"ΕΟ74 10, Λεβίδι 220 02","categoryIds":["greek-restaurants"],"categories":["Greek Restaurants"]},{"id":"greekRestaurants_7c9f07a3160d","slug":"maniatis-restaurant-7c9f","kind":"restaurant","name":"MANIATIS RESTAURANT","lat":37.68177813612369,"lng":22.029455603164294,"url":"https://maps.app.goo.gl/XpSe1XvM3UDbKs8K7?g_st=ipc","address":"Λαγκάδια 220 03","categoryIds":["greek-restaurants"],"categories":["Greek Restaurants"]},{"id":"greekRestaurants_4c4401a7e8ee","slug":"oi-moyries-4c44","kind":"restaurant","name":"Οι Μουριές","lat":37.896633092738924,"lng":22.12341346377816,"url":"https://maps.app.goo.gl/42bbkghREKadwJ7d7?g_st=ipc","address":"Epar.Od. Kalavriton-Filias 12, Klitoria 250 07","categoryIds":["greek-restaurants"],"categories":["Greek Restaurants"]},{"id":"greekRestaurants_c2f3bf63f9d6","slug":"trikrina-c2f3","kind":"restaurant","name":"Τρίκρηνα","lat":37.908133647835946,"lng":22.32453249327104,"url":"https://maps.app.goo.gl/eeiwiRoH3oKaZhjc6?g_st=ipc","address":"Unnamed Road,, Φενεός 200 14","categoryIds":["greek-restaurants"],"categories":["Greek Restaurants"]},{"id":"greekRestaurants_999a38347b72","slug":"17-choria-999a","kind":"restaurant","name":"17 Χωριά","lat":37.821379737670235,"lng":22.662966793394837,"url":"https://maps.app.goo.gl/JMfmZXakmTgFrEhd7?g_st=ipc","address":"Δερβενακίων 12, Νεμέα 205 00","categoryIds":["greek-restaurants"],"categories":["Greek Restaurants"]},{"id":"greekRestaurants_2229596e0e1c","slug":"sofos-2229","kind":"restaurant","name":"Sofos","lat":37.8214332020111,"lng":22.663718153863066,"url":"https://maps.app.goo.gl/dwiyoJBZoJnwyzi76?g_st=ipc","address":"Δερβενακίων, Νεμέα 205 00","categoryIds":["greek-restaurants"],"categories":["Greek Restaurants"]},{"id":"greekRestaurants_742eabdb9109","slug":"to-teloneio-742e","kind":"restaurant","name":"Το Τελωνείο","lat":37.56743155679151,"lng":22.79708632929498,"url":"https://maps.app.goo.gl/nh7yb45ifREfXwro7?g_st=ipc","address":"Ακτής Μιαούλη 83, Ναύπλιο 211 00","categoryIds":["greek-restaurants"],"categories":["Greek Restaurants"]},{"id":"greekRestaurants_7230005d3481","slug":"skarpeta-skarpeta-7230","kind":"restaurant","name":"Σκαρπέτα | Skarpeta","lat":37.56454091062987,"lng":22.80102416836778,"url":"https://maps.app.goo.gl/y1tbJ7Ka9yN8RJXn7?g_st=ipc","address":"Πάρκο, Σταϊκοπούλου, Ναύπλιο 211 00","categoryIds":["greek-restaurants"],"categories":["Greek Restaurants"]},{"id":"greekRestaurants_0e937f9c9d72","slug":"pidalio-restaurant-0e93","kind":"restaurant","name":"Πηδάλιο -Restaurant","lat":37.56488349870354,"lng":22.8061371647206,"url":"https://maps.app.goo.gl/gpipbAd1f2YeqATv9?g_st=ipc","address":"25ης Μαρτίου 5, Ναύπλιο 211 00","categoryIds":["greek-restaurants"],"categories":["Greek Restaurants"]}],"nearby":[{"id":"municipalities_9871842f9b03","slug":"stemnitsa-9871","kind":"municipality","name":"Στεμνίτσα","lat":37.5381,"lng":22.0706,"aliases":["Στεμνιτσα"],"region":"Αρκαδία","name_en":"Stemnitsa","region_en":"Arcadia","distanceKm":12.415547954621116},{"id":"greekRestaurants_ba48f33d62eb","slug":"taverna-toy-taloymi-ba48","kind":"restaurant","name":"Ταβέρνα του Ταλούμη","lat":37.5209406617155,"lng":22.072800838010828,"url":"https://maps.app.goo.gl/4iPhGQLM9AExuZCk6?g_st=ipc","address":"Pl. Smirnis, Elliniko 222 00","categoryIds":["greek-restaurants"],"categories":["Greek Restaurants"],"distanceKm":12.506562257140109},{"id":"greekRestaurants_85ac3be3e822","slug":"paradosiaki-taverna-o-pantelis-85ac","kind":"restaurant","name":"Παραδοσιακή Ταβέρνα Ο Παντελής","lat":37.66932870704655,"lng":22.182333342140492,"url":"https://maps.app.goo.gl/cvHML6eFSjSNc5Sb7?g_st=ipc","address":"Βυτίνα 220 10","categoryIds":["greek-restaurants"],"categories":["Greek Restaurants"],"distanceKm":13.942580545126857},{"id":"coffeeBrunchRestaurants_63f25ca28818","slug":"ear-cafe-bar-63f2","kind":"restaurant","name":"Έαρ Cafe Bar","lat":37.67079207904159,"lng":22.182043630957757,"url":"https://maps.app.goo.gl/JnZa27RuEpaKVL4p6?g_st=ipc","address":"Τρύφωνα Ζαχαρόπουλου, Vitina 220 10","categoryIds":["coffee-brunch"],"categories":["Coffee & Brunch Spots"],"distanceKm":14.107225500498675},{"id":"municipalities_ae8cab121b61","slug":"tripoli-ae8c","kind":"municipality","name":"Τρίπολη","lat":37.5099,"lng":22.3794,"aliases":["Τριπολη"],"region":"Αρκαδία","name_en":"Tripoli","region_en":"Arcadia","distanceKm":15.378395776673344},{"id":"greekRestaurants_5a5748f68d29","slug":"taverna-zerzova-5a57","kind":"restaurant","name":"Ταβέρνα Ζέρζοβα","lat":37.55978422678044,"lng":22.035182022142255,"url":"https://maps.app.goo.gl/nmUY7Lp6mDtzAwTm8?g_st=ipc","address":"Unnamed Rd, Γορτυνία 220 07","categoryIds":["greek-restaurants"],"categories":["Greek Restaurants"],"distanceKm":15.580020674356252},{"id":"municipalities_0476aca6edd0","slug":"dimitsana-0476","kind":"municipality","name":"Δημητσάνα","lat":37.5958,"lng":22.0431,"aliases":["Δημητσανα"],"region":"Αρκαδία","name_en":"Dimitsana","region_en":"Arcadia","distanceKm":15.80404310559853},{"id":"wineriesVineyards_b3c21913429a","slug":"oinopoieio-troypi-troupis-winery-b3c2","kind":"restaurant","name":"Οινοποιείο Τρουπή - Troupis Winery","lat":37.578821168768364,"lng":22.391134196287375,"url":"https://maps.app.goo.gl/y97jAfhSNsjXAtQt7?g_st=ipc","address":"Μηλιά, Μηλιά Τριπόλεως 221 00","categoryIds":["wineries-vineyards"],"categories":["Wineries & Vineyards"],"distanceKm":16.285598694847046},{"id":"municipalities_27f1dfa74ddf","slug":"megalopoli-27f1","kind":"municipality","name":"Μεγαλόπολη","lat":37.403,"lng":22.142,"region":"Αρκαδία","name_en":"Megalopoli","region_en":"Arcadia","distanceKm":17.03125789428618},{"id":"greekRestaurants_3078ffee852c","slug":"koympoyris-1970-3078","kind":"restaurant","name":"Κουμπούρης 1970","lat":37.68399722999656,"lng":22.295929513779615,"url":"https://maps.app.goo.gl/YMUJHncJTMJQozvE7?g_st=ipc","address":"ΕΟ74 10, Λεβίδι 220 02","categoryIds":["greek-restaurants"],"categories":["Greek Restaurants"],"distanceKm":17.066184678330874},{"id":"wineriesVineyards_2941ab0a3cb2","slug":"ktima-spyropoylos-2941","kind":"restaurant","name":"Κτήμα Σπυρόπουλος","lat":37.63241805452202,"lng":22.386158704913175,"url":"https://maps.app.goo.gl/yaMLQMfuQx4GhqbF7?g_st=ipc","address":"Μαντινεία 221 00","categoryIds":["wineries-vineyards"],"categories":["Wineries & Vineyards"],"distanceKm":18.174378360235327},{"id":"greekRestaurants_7c9f07a3160d","slug":"maniatis-restaurant-7c9f","kind":"restaurant","name":"MANIATIS RESTAURANT","lat":37.68177813612369,"lng":22.029455603164294,"url":"https://maps.app.goo.gl/XpSe1XvM3UDbKs8K7?g_st=ipc","address":"Λαγκάδια 220 03","categoryIds":["greek-restaurants"],"categories":["Greek Restaurants"],"distanceKm":21.994355413810972},{"id":"wineriesVineyards_c0074db8c133","slug":"ktima-tselepoy-c007","kind":"restaurant","name":"Κτήμα Τσέλεπου","lat":37.42938401315253,"lng":22.489743084074338,"url":"https://maps.app.goo.gl/q5QDiSUHfETbAsfo9?g_st=ipc","address":"14th klm. Tripolis - Kastri Road, Rizes, Arcadia 220 12","categoryIds":["wineries-vineyards"],"categories":["Wineries & Vineyards"],"distanceKm":27.79920619742566}],"mentionedGuides":[],"canonicalSlug":"to-steki-toy-moria-4641","enrichment":{"summary_en":"ΤΟ ΣΤΕΚΙ ΤΟΥ ΜΩΡΙΑ is a curated restaurant in Χρυσοβίτσι 221 00 in the Greek Restaurants collection. It is connected to 0 nearby Googlementor picks to help travelers build a stronger local route.","summary_el":"ΤΟ ΣΤΕΚΙ ΤΟΥ ΜΩΡΙΑ είναι ένα επιλεγμένο σημείο φαγητού στην περιοχή Χρυσοβίτσι 221 00 και ανήκει στη συλλογή Greek Restaurants. Συνδέεται με 0 κοντινές προτάσεις του Googlementor για πιο ολοκληρωμένη εμπειρία.","vibe_tags":["curated"],"best_for":["first-time visitors","food lovers"],"visit_moments":["lunch stop","dinner stop"],"practical_note":"Address and direct map link are available for easy turn-by-turn access.","nearby_walkable_count":0,"nearby_count_2km":0,"confidence":0.9},"areaContext":null,"intentContexts":[]},"__N_SSG":true}