{"pageProps":{"entity":{"id":"italianRestaurants_57f0e6de9174","slug":"trattoria-santa-rita-57f0","kind":"restaurant","name":"Trattoria Santa Rita","lat":40.612086768976745,"lng":22.969846546876834,"url":"https://maps.app.goo.gl/tJ95kQkAp73h9qDi8?g_st=ipc","address":"Malakopis 19, Thessaloniki 544 53","categoryIds":["italian"],"categories":["Italian Restaurants"]},"sameCategory":[{"id":"cheapEatsRestaurants_8f3b208739c0","slug":"funky-s-thessaloniki-8f3b","kind":"restaurant","name":"Funky's Thessaloniki","lat":40.615543107651526,"lng":22.974915159309568,"url":"https://maps.app.goo.gl/QNUEoQzqLuXtrpVc7?g_st=ipc","address":"Grigoriou Lampraki 110, Thessaloniki 543 51","categoryIds":["cheap-eats","italian"],"categories":["Gyros & Cheap Eats","Italian Restaurants"],"legacySlugs":["funky-s-thessaloniki-ef2b"]},{"id":"italianRestaurants_26ce0faec041","slug":"raffaele-pizza-pasta-26ce","kind":"restaurant","name":"Raffaele Pizza & Pasta","lat":40.609052469541666,"lng":22.97944908191486,"url":"https://maps.app.goo.gl/t8jAxdhgPG7fRJcE7?g_st=ipc","address":"Αμφιπόλεως 45, Thessaloniki 544 54","categoryIds":["italian"],"categories":["Italian Restaurants"]},{"id":"italianRestaurants_2946916b6ad2","slug":"pizza-plain-2946","kind":"restaurant","name":"Pizza Plain","lat":40.601547606224,"lng":22.970026389723678,"url":"https://maps.app.goo.gl/gJ7QpRFhLKuDpyFc9?g_st=ipc","address":"Nik. Plastira 2, Thessaloniki 542 50","categoryIds":["italian"],"categories":["Italian Restaurants"]},{"id":"italianRestaurants_0a96069b98fe","slug":"navona-restaurant-bar-0a96","kind":"restaurant","name":"Navona Restaurant Bar","lat":40.617883104732,"lng":22.952114230685524,"url":"https://maps.app.goo.gl/oPmtz2JTaw4nxWtp6","address":"Leof. Meg. Alexandrou 2, Thessaloniki 546 40","categoryIds":["italian"],"categories":["Italian Restaurants"]},{"id":"italianRestaurants_7e579a43d1ce","slug":"dos-margaritas-7e57","kind":"restaurant","name":"Dos Margaritas","lat":40.621386723569444,"lng":22.952891023289123,"url":"https://maps.app.goo.gl/XC8KbzgVXxEiYUru8?g_st=ipc","address":"Emiliou Riadi 5, Thessaloniki 546 40","categoryIds":["italian"],"categories":["Italian Restaurants"]},{"id":"italianRestaurants_d4a8673af302","slug":"rosticceria-di-salonicco-d4a8","kind":"restaurant","name":"Rosticceria di Salonicco","lat":40.633588139092396,"lng":22.954063296681706,"url":"https://maps.app.goo.gl/WqcXyq1eyTArWEmP6?g_st=ipc","address":"Armenopoulou 27, Thessaloniki 546 35","categoryIds":["italian"],"categories":["Italian Restaurants"]},{"id":"italianRestaurants_cb2ae306e209","slug":"signora-trattoria-cb2a","kind":"restaurant","name":"Signora Trattoria","lat":40.63157039493222,"lng":22.94755320492566,"url":"https://maps.app.goo.gl/QzosxSTGJyN4yoBfA?g_st=ipc","address":"P. Mela 38, Paleon Patron Germanou 19, Thessaloniki 546 22","categoryIds":["italian"],"categories":["Italian Restaurants"]},{"id":"italianRestaurants_d3fb4b2d1274","slug":"osteria-dai-fioi-d3fb","kind":"restaurant","name":"Osteria dai Fioi","lat":40.633770916934814,"lng":22.950440152016508,"url":"https://maps.app.goo.gl/ptx8MrTs166UDsu79?g_st=ipc","address":"Leonida Iasonidou 9, Thessaloniki 546 35","categoryIds":["italian"],"categories":["Italian Restaurants"]},{"id":"italianRestaurants_cb35e3b45188","slug":"margherita-cb35","kind":"restaurant","name":"MARGHERITA","lat":40.631390383048206,"lng":22.94264327325537,"url":"https://maps.app.goo.gl/TiNtp5tDGN6Eji5d9?g_st=ipc","address":"Proxenou Koromila 11, Thessaloniki 546 23","categoryIds":["italian"],"categories":["Italian Restaurants"]},{"id":"italianRestaurants_7c05bdca6535","slug":"apallou-7c05","kind":"restaurant","name":"Apallou","lat":40.6319800622151,"lng":22.942842887749638,"url":"https://maps.app.goo.gl/gJ5jrWEXwAbU6ynW8?g_st=ipc","address":"Μητροπόλεως &, Karolou Ntil 10, Thessaloniki 546 23","categoryIds":["italian"],"categories":["Italian Restaurants"]},{"id":"cheapEatsRestaurants_284a6ef1dfeb","slug":"the-last-slice-284a","kind":"restaurant","name":"The Last Slice","lat":40.63188753569458,"lng":22.94190837965703,"url":"https://maps.app.goo.gl/iyZQfPWo4E2pskqX8?g_st=ipc","address":"Proxenou Koromila 1, Thessaloniki 546 23","categoryIds":["cheap-eats","italian"],"categories":["Gyros & Cheap Eats","Italian Restaurants"],"legacySlugs":["the-last-slice-2302"]},{"id":"italianRestaurants_f98055a56a7f","slug":"tonino-pizzeria-napoletana-f980","kind":"restaurant","name":"Tonino Pizzeria Napoletana","lat":40.58464427596488,"lng":22.951802816992593,"url":"https://maps.app.goo.gl/zebuXsdGAEsViD2MA?g_st=ipc","address":"Iereos Papanikola 13-15, Kalamaria 551 31","categoryIds":["italian"],"categories":["Italian Restaurants"]}],"nearby":[{"id":"greekRestaurants_2b555dc83271","slug":"soyvlakia-o-giannis-2b55","kind":"restaurant","name":"Σουβλάκια \"Ο Γιάννης\"","lat":40.61367230211868,"lng":22.968664986882153,"url":"https://maps.app.goo.gl/rGd5Se34NDg2Q9er5?g_st=ipc","address":"Κλεάνθους 54, Θεσσαλονίκη 544 53","categoryIds":["greek-restaurants"],"categories":["Greek Restaurants"],"distanceKm":0.2025591241288851},{"id":"dessertsRestaurants_7728725cae0c","slug":"zacharoplasteio-ilios-kleanthoys-hlios-pastry-shop-kleanthous-7728","kind":"restaurant","name":"ΖΑΧΑΡΟΠΛΑΣΤΕΙΟ ΗΛΙΟΣ ΚΛΕΑΝΘΟΥΣ /Hlios Pastry Shop Kleanthous","lat":40.61382568960551,"lng":22.969099400369018,"url":"https://maps.app.goo.gl/tNhNJReBE4oYvZx6A?g_st=ipc","address":"Kleanthous 60, Thessaloniki 544 53","categoryIds":["desserts"],"categories":["Dessert Shops"],"distanceKm":0.20338444652753337},{"id":"greekRestaurants_7a4337bc20a6","slug":"akrovatis-7a43","kind":"restaurant","name":"Ακροβάτης","lat":40.61307041653645,"lng":22.9677238002552,"url":"https://maps.app.goo.gl/kcK7ME3teiYGRent6?g_st=ipc","address":"Papafi 113, Thessaloniki 544 53","categoryIds":["greek-restaurants"],"categories":["Greek Restaurants"],"distanceKm":0.20992861978210955},{"id":"asianRestaurants_fa15bba13e7a","slug":"asian-house-fa15","kind":"restaurant","name":"Asian House","lat":40.61406863205144,"lng":22.96925982276085,"url":"https://maps.app.goo.gl/RZUt6eATfNjJBVMW9?g_st=ipc","address":"Kleanthous 49, Thessaloniki 544 53","categoryIds":["asian"],"categories":["Asian Restaurants"],"distanceKm":0.22586967474733274},{"id":"burgersRestaurants_5cdf5651be04","slug":"dunk-smash-burgers-5cdf","kind":"restaurant","name":"Dunk Smash Burgers","lat":40.614049656844195,"lng":22.968949553843263,"url":"https://maps.app.goo.gl/ECaRWM59W66g3f6h8?g_st=ipc","address":"Peston 82, Thessaloniki 544 53","categoryIds":["burgers"],"categories":["Burger Spots"],"distanceKm":0.23102312465982497},{"id":"municipalities_5bdb3c34c767","slug":"toympa-5bdb","kind":"municipality","name":"Τούμπα","lat":40.61,"lng":22.9725,"region":"Θεσσαλονίκη","name_en":"Toumpa","region_en":"Thessaloniki","distanceKm":0.3225082810346336},{"id":"cheapEatsRestaurants_3c28289caa25","slug":"giotis-3c28","kind":"restaurant","name":"Giotis","lat":40.60922266804071,"lng":22.97064673048183,"url":"https://maps.app.goo.gl/EWmSLiCCxYM2N33x6?g_st=ipc","address":"Mark. Mpotsari 150, Thessaloniki 544 53","categoryIds":["cheap-eats"],"categories":["Gyros & Cheap Eats"],"distanceKm":0.3255578070658881},{"id":"familyFriendly_06e3b0e7591a","slug":"hado-arena-toumpa-06e3","kind":"restaurant","name":"HADO ARENA TOUMPA","lat":40.61298475023653,"lng":22.966163361832432,"url":"https://maps.app.goo.gl/Y3M4X3SLfpUBctf88?g_st=ipc","address":"Kleanthous 25, Thessaloniki 544 53","categoryIds":["family-friendly"],"categories":["Kid Friendly Locations"],"distanceKm":0.3265432607985475},{"id":"cheapEatsRestaurants_c619a7c97409","slug":"to-kokoraki-c619","kind":"restaurant","name":"ΤΟ ΚΟΚΟΡΑΚΙ","lat":40.6088349903696,"lng":22.967918512345722,"url":"https://maps.app.goo.gl/KNA3DuGAxNV9SYMs8?g_st=ipc","address":"Mark. Mpotsari 105, Thessaloniki 544 53","categoryIds":["cheap-eats","greek-restaurants"],"categories":["Gyros & Cheap Eats","Greek Restaurants"],"legacySlugs":["to-kokoraki-5da1"],"distanceKm":0.396521800588202},{"id":"cheapEatsRestaurants_f51539f3f3fe","slug":"kostas-f515","kind":"restaurant","name":"Kostas","lat":40.608571752720515,"lng":22.967969048628863,"url":"https://maps.app.goo.gl/bUnuC1Vh9ysa2VhL6?g_st=ipc","address":"Mark. Mpotsari 120, Thessaloniki 546 43","categoryIds":["cheap-eats"],"categories":["Gyros & Cheap Eats"],"distanceKm":0.4217623509570577},{"id":"fishTavernasRestaurants_482591e75ff4","slug":"kritamos-meze-bar-4825","kind":"restaurant","name":"Kritamos Meze-Bar","lat":40.61409377580344,"lng":22.97473899193856,"url":"https://maps.app.goo.gl/PC1XeAa9i5F1wcwX7?g_st=ipc","address":"Tirolois 38, Thessaloniki 543 51","categoryIds":["fish-tavernas"],"categories":["Fish Tavernas"],"distanceKm":0.46941669168722117},{"id":"burgersRestaurants_d1aa1b03e041","slug":"evora-eatery-d1aa","kind":"restaurant","name":"Evora Eatery","lat":40.616537415041016,"lng":22.969055137519607,"url":"https://maps.app.goo.gl/nXZzhY9yFR2kDUGA9?g_st=ipc","address":"Diogenous 13, Thessaloniki 544 53","categoryIds":["burgers"],"categories":["Burger Spots"],"distanceKm":0.4993775157810683},{"id":"greekRestaurants_0677d6c362a6","slug":"evora-eatery-0677","kind":"restaurant","name":"Εβόρα Eatery","lat":40.61655136125546,"lng":22.969054811212995,"url":"https://maps.app.goo.gl/K4Cnh5DSvkNE3ttK8?g_st=ipc","address":"Διογένους 13, Θεσσαλονίκη 544 53","categoryIds":["greek-restaurants"],"categories":["Greek Restaurants"],"distanceKm":0.5009180423612276},{"id":"greekRestaurants_575dfe5a741b","slug":"menu-me-noy-575d","kind":"restaurant","name":"Menu με...νου","lat":40.60815951661583,"lng":22.966514659148867,"url":"https://maps.app.goo.gl/x5kA6azJxjLv1HQX6?g_st=ipc","address":"Αλεξάνδρου Παπαναστασίου, Δ 87, Thessaloniki 544 53","categoryIds":["greek-restaurants"],"categories":["Greek Restaurants"],"distanceKm":0.5194278506953632},{"id":"coffeeBrunchRestaurants_9fa36f8be04c","slug":"rou-leisure-gatherings-9fa3","kind":"restaurant","name":"Rou Leisure Gatherings","lat":40.612773277438485,"lng":22.97595730543709,"url":"https://maps.app.goo.gl/GxRckrquv1sShJp28?g_st=ipc","address":"Praxagora 22, Thessaloniki 543 51","categoryIds":["coffee-brunch"],"categories":["Coffee & Brunch Spots"],"distanceKm":0.5214357229157986},{"id":"greekRestaurants_4d78fe3c61be","slug":"rou-leisure-gatherings-4d78","kind":"restaurant","name":"Rou Leisure Gatherings","lat":40.61281592695175,"lng":22.975955444197268,"url":"https://maps.app.goo.gl/ms5wLYa1p3XXEfE18?g_st=ipc","address":"Πραξαγόρα 22, Θεσσαλονίκη 543 51","categoryIds":["greek-restaurants"],"categories":["Greek Restaurants"],"distanceKm":0.5219957030263912},{"id":"greekRestaurants_bb87e6a51434","slug":"o-daskalos-bb87","kind":"restaurant","name":"Ο ΔΑΣΚΑΛΟΣ","lat":40.607225167696676,"lng":22.970329107131402,"url":"https://maps.app.goo.gl/J1XPLAWFgHM7NWS19?g_st=ipc","address":"Παπάφη 192, Ίμβρου 19-21, Θεσσαλονίκη 544 53","categoryIds":["greek-restaurants"],"categories":["Greek Restaurants"],"distanceKm":0.5421180090355378},{"id":"greekRestaurants_c1766e7bf95f","slug":"i-palia-athina-c176","kind":"restaurant","name":"Η Παλιά Αθήνα","lat":40.60696697600651,"lng":22.970143293615717,"url":"https://maps.app.goo.gl/uzsrCErBcVQi2b349?g_st=ipc","address":"Ίμβρου 24, Θεσσαλονίκη 544 53","categoryIds":["greek-restaurants"],"categories":["Greek Restaurants"],"distanceKm":0.5698458553328848},{"id":"cheapEatsRestaurants_9e983ad5e812","slug":"prassas-9e98","kind":"restaurant","name":"Prassas","lat":40.60822104515919,"lng":22.96538292733955,"url":"https://maps.app.goo.gl/cajfpJVBkeREe7FNA?g_st=ipc","address":"Mark. Mpotsari 89, Thessaloniki 546 44","categoryIds":["cheap-eats"],"categories":["Gyros & Cheap Eats"],"distanceKm":0.5716145853093106},{"id":"cheapEatsRestaurants_8f3b208739c0","slug":"funky-s-thessaloniki-8f3b","kind":"restaurant","name":"Funky's Thessaloniki","lat":40.615543107651526,"lng":22.974915159309568,"url":"https://maps.app.goo.gl/QNUEoQzqLuXtrpVc7?g_st=ipc","address":"Grigoriou Lampraki 110, Thessaloniki 543 51","categoryIds":["cheap-eats","italian"],"categories":["Gyros & Cheap Eats","Italian Restaurants"],"legacySlugs":["funky-s-thessaloniki-ef2b"],"distanceKm":0.575112564957994},{"id":"greekRestaurants_c29be60e5285","slug":"choirofreno-c29b","kind":"restaurant","name":"Χοιρόφρενο","lat":40.61678728213184,"lng":22.972877458653127,"url":"https://maps.app.goo.gl/fCEBNZq73XUBc6R68?g_st=ipc","address":"Ικαρίας 5, Θεσσαλονίκη 543 51","categoryIds":["greek-restaurants"],"categories":["Greek Restaurants"],"distanceKm":0.5819272148337767},{"id":"cheapEatsRestaurants_543fb752ef8d","slug":"souvlatzidiko-543f","kind":"restaurant","name":"Souvlatzidiko","lat":40.615140054166176,"lng":22.976602700104493,"url":"https://maps.app.goo.gl/dKu85q9fYtc6krXf7?g_st=ipc","address":"Διαγορα, με Λαμπρακη, Thessaloniki 543 51","categoryIds":["cheap-eats"],"categories":["Gyros & Cheap Eats"],"distanceKm":0.663696810842878},{"id":"cheapEatsRestaurants_d5f34328ce60","slug":"grn-toympa-d5f3","kind":"restaurant","name":"ΓΡΝ Τούμπα","lat":40.606092536657584,"lng":22.971298180015925,"url":"https://maps.app.goo.gl/xNHbtpHz8gpf4vYR6?g_st=ipc","address":"Michail Chourmouzi 41, Thessaloniki 544 53","categoryIds":["cheap-eats"],"categories":["Gyros & Cheap Eats"],"distanceKm":0.677699088671555},{"id":"cheapEatsRestaurants_bf1d972f9838","slug":"gyradiko-bf1d","kind":"restaurant","name":"Gyradiko","lat":40.615031188130764,"lng":22.97695657295727,"url":"https://maps.app.goo.gl/6Bmdb1UVvVyTyyNdA?g_st=ipc","address":"Grigoriou Lampraki 125, Thessaloniki 543 51","categoryIds":["cheap-eats"],"categories":["Gyros & Cheap Eats"],"distanceKm":0.6836537078053573}],"mentionedGuides":[],"canonicalSlug":"trattoria-santa-rita-57f0","enrichment":{"summary_en":"Trattoria Santa Rita is a curated restaurant in Thessaloniki 544 53 in the Italian Restaurants collection. It is connected to 27 nearby Googlementor picks to help travelers build a stronger local route.","summary_el":"Trattoria Santa Rita είναι ένα επιλεγμένο σημείο φαγητού στην περιοχή Thessaloniki 544 53 και ανήκει στη συλλογή Italian Restaurants. Συνδέεται με 27 κοντινές προτάσεις του Googlementor για πιο ολοκληρωμένη εμπειρία.","vibe_tags":["curated"],"best_for":["first-time visitors","food lovers"],"visit_moments":["lunch stop","dinner stop"],"practical_note":"Address and direct map link are available for easy turn-by-turn access.","nearby_walkable_count":27,"nearby_count_2km":93,"confidence":0.98},"areaContext":{"slug":"toympa","name":"Toumpa","nameEl":"Τούμπα"},"intentContexts":[{"href":"/italian/toympa","label":"Italian Restaurants in Toumpa","categorySlug":"italian","categoryName":"Italian Restaurants","areaSlug":"toympa","areaName":"Toumpa","areaNameEl":"Τούμπα"}]},"__N_SSG":true}