{"pageProps":{"entity":{"id":"vegetarianRestaurants_0ae45380f9c5","slug":"veganaki-0ae4","kind":"restaurant","name":"Veganaki","lat":37.96756765452738,"lng":23.732928786701812,"url":"https://maps.app.goo.gl/t4BDCPnwuYDPfBZS9?g_st=ipc","address":"Αθανασίου Διάκου 38 (38, Αθήνα 117 43","categoryIds":["vegetarian"],"categories":["Vegetarian Friendly Restaurants"]},"sameCategory":[{"id":"vegetarianRestaurants_981aa1875a12","slug":"indian-haveli-981a","kind":"restaurant","name":"Indian Haveli","lat":37.96857000104929,"lng":23.731444541000045,"url":"https://maps.app.goo.gl/2tEYTJw1y4aL2Rgo7?g_st=ipc","address":"Λεωφ. Ανδρέα Συγγρού 12, Αθήνα 117 42","categoryIds":["vegetarian"],"categories":["Vegetarian Friendly Restaurants"]},{"id":"coffeeBrunchRestaurants_88ec9d6dfbbc","slug":"joshua-tree-cafe-88ec","kind":"restaurant","name":"Joshua Tree Cafe","lat":37.96618895456632,"lng":23.73475215870415,"url":"https://maps.app.goo.gl/hxko2CRaz8QbMJPc8?g_st=ipc","address":"Αναπαύσεως 13, Αθήνα 116 36","categoryIds":["coffee-brunch","vegetarian"],"categories":["Coffee & Brunch Spots","Vegetarian Friendly Restaurants"],"legacySlugs":["joshua-tree-cafe-e75c"]},{"id":"vegetarianRestaurants_aff422e1c3ba","slug":"mama-tierra-acropolis-vegan-street-food-aff4","kind":"restaurant","name":"Mama Tierra Acropolis - Vegan street food","lat":37.967546083723775,"lng":23.729864462543613,"url":"https://maps.app.goo.gl/3M9tmest5ooaQwtE8?g_st=ipc","address":"Χατζηχρήστου 29, Αθήνα 117 42","categoryIds":["vegetarian"],"categories":["Vegetarian Friendly Restaurants"]},{"id":"dessertsRestaurants_7f61f06e1814","slug":"ice-queen-gelato-7f61","kind":"restaurant","name":"Ice Queen Gelato","lat":37.96875198593791,"lng":23.729719578537868,"url":"https://maps.app.goo.gl/HyCCcJSVYZCw8dMV7?g_st=ipc","address":"Μακρυγιάννη 9, Αθήνα 117 42","categoryIds":["desserts","vegetarian"],"categories":["Dessert Shops","Vegetarian Friendly Restaurants"],"legacySlugs":["ice-queen-gelato-e688"]},{"id":"vegetarianRestaurants_6bddca4a5310","slug":"the-room-mets-6bdd","kind":"restaurant","name":"THE ROOM METS","lat":37.96677955241959,"lng":23.737885963446566,"url":"https://maps.app.goo.gl/stBGTxofrCxpCP4q7?g_st=ipc","address":"Μαρκ. Μουσούρου 22, Αθήνα 116 36","categoryIds":["vegetarian"],"categories":["Vegetarian Friendly Restaurants"]},{"id":"coffeeBrunchRestaurants_85c9b3242244","slug":"this-is-loco-85c9","kind":"restaurant","name":"This is Loco","lat":37.96542578565319,"lng":23.726906270555997,"url":"https://maps.app.goo.gl/DKCmfLqp6KdRCVPg6?g_st=ipc","address":"Φαλήρου 47, Αθήνα 117 42","categoryIds":["coffee-brunch","vegetarian"],"categories":["Coffee & Brunch Spots","Vegetarian Friendly Restaurants"],"legacySlugs":["this-is-loco-0b77"]},{"id":"cheapEatsRestaurants_ccda7a47a1b9","slug":"falafel-bar-to-revithi-ccda","kind":"restaurant","name":"falafel bar ΤΟ ΡΕΒΙΘΙ","lat":37.96631483519238,"lng":23.7261110398094,"url":"https://maps.app.goo.gl/4FqJYg2raYZvXHja7?g_st=ipc","address":"Παρθενώνος 1, Αθήνα 117 42","categoryIds":["cheap-eats","vegetarian"],"categories":["Gyros & Cheap Eats","Vegetarian Friendly Restaurants"],"legacySlugs":["falafel-bar-to-revithi-dec0"]},{"id":"vegetarianRestaurants_4db58e18de0e","slug":"peas-vegan-4db5","kind":"restaurant","name":"Peas Vegan","lat":37.965309081383936,"lng":23.72648212033699,"url":"https://maps.app.goo.gl/8AeCWeh7LczgaD87A?g_st=ipc","address":"Φαλήρου 40, Αθήνα 117 42","categoryIds":["vegetarian"],"categories":["Vegetarian Friendly Restaurants"]},{"id":"vegetarianRestaurants_43a8a2b5eb46","slug":"winners-vegan-43a8","kind":"restaurant","name":"Winners Vegan","lat":37.97376452131408,"lng":23.73300918304916,"url":"https://maps.app.goo.gl/DFHjTpp5KFC8PQMg6?g_st=ipc","address":"Νίκης 27, Αθήνα 105 57","categoryIds":["vegetarian"],"categories":["Vegetarian Friendly Restaurants"]},{"id":"vegetarianRestaurants_8d8ca2489312","slug":"avocado-8d8c","kind":"restaurant","name":"Avocado","lat":37.97391324129181,"lng":23.73289192634984,"url":"https://maps.app.goo.gl/MrghLEMjktpmCFH58?g_st=ipc","address":"Νίκης 30, Αθήνα 105 57","categoryIds":["vegetarian"],"categories":["Vegetarian Friendly Restaurants"]},{"id":"vegetarianRestaurants_8f0cf3873ae8","slug":"4-seasons-bio-organic-food-market-8f0c","kind":"restaurant","name":"4 Seasons Bio - Organic Food Market","lat":37.97393047054411,"lng":23.732888082947863,"url":"https://maps.app.goo.gl/VntknhKAe4PaVfpM6?g_st=ipc","address":"Νίκης 30, Αθήνα 105 57","categoryIds":["vegetarian"],"categories":["Vegetarian Friendly Restaurants"]},{"id":"coffeeBrunchRestaurants_72ee5296056d","slug":"holy-llama-72ee","kind":"restaurant","name":"Holy Llama","lat":37.97397500358649,"lng":23.73312528899751,"url":"https://maps.app.goo.gl/5KzgeBBfEf77x8sL7?g_st=ipc","address":"Nikis, Syntagma 23, Αθήνα 105 57","categoryIds":["coffee-brunch","vegetarian"],"categories":["Coffee & Brunch Spots","Vegetarian Friendly Restaurants"],"legacySlugs":["holy-llama-4c1a"]}],"nearby":[{"id":"monasteriesChurches_70c088ccf077","slug":"ieros-naos-agias-foteinis-ilisoy-70c0","kind":"restaurant","name":"Ιερός Ναός Αγίας Φωτεινής Ιλισού","lat":37.96759253152895,"lng":23.734352593011444,"url":"https://maps.app.goo.gl/jdAdCNX9K2HoSujs9?g_st=ipc","address":"Αρδηττού 3, Αθήνα 105 57","categoryIds":["monasteries-churches"],"categories":["Monasteries & Spiritual Sites"],"distanceKm":0.12484367478692454},{"id":"vegetarianRestaurants_981aa1875a12","slug":"indian-haveli-981a","kind":"restaurant","name":"Indian Haveli","lat":37.96857000104929,"lng":23.731444541000045,"url":"https://maps.app.goo.gl/2tEYTJw1y4aL2Rgo7?g_st=ipc","address":"Λεωφ. Ανδρέα Συγγρού 12, Αθήνα 117 42","categoryIds":["vegetarian"],"categories":["Vegetarian Friendly Restaurants"],"distanceKm":0.17132166810437793},{"id":"greekRestaurants_32eb2400b721","slug":"olympion-32eb","kind":"restaurant","name":"Ολύμπιον","lat":37.96661871653892,"lng":23.73449829017252,"url":"https://maps.app.goo.gl/ibRHUhwHzNffs1sC8","address":"Αναπαύσεως 9, Αθήνα 116 36","categoryIds":["greek-restaurants"],"categories":["Greek Restaurants"],"distanceKm":0.17338903100719535},{"id":"coffeeBrunchRestaurants_b61f62d1d8af","slug":"coffee-joint-b61f","kind":"restaurant","name":"Coffee Joint","lat":37.9668407337925,"lng":23.731062695575126,"url":"https://maps.app.goo.gl/LK48eZA7q9nxiZiR6?g_st=ipc","address":"Βούρβαχη 5-9, Αθήνα 117 43","categoryIds":["coffee-brunch"],"categories":["Coffee & Brunch Spots"],"distanceKm":0.18246533176224813},{"id":"rooftopLoungesRestaurants_f8cacb8baac7","slug":"athens-gate-rooftop-bar-restaurant-f8ca","kind":"restaurant","name":"Athens Gate Rooftop Bar & Restaurant","lat":37.968775997362016,"lng":23.73145032913701,"url":"https://maps.app.goo.gl/q9X7pZzbyKPo8wEb6?g_st=ipc","address":"Leof. Andrea Siggrou 10, Athina 117 41","categoryIds":["rooftop-lounges"],"categories":["Rooftop Lounges"],"distanceKm":0.18668133692823963},{"id":"mustSeeAttractions_a7a2908a9221","slug":"naos-toy-olympioy-dios-a7a2","kind":"restaurant","name":"Ναός του Ολυμπίου Διός","lat":37.96929966455042,"lng":23.733099967898216,"url":"https://maps.app.goo.gl/MRiS2rx9HUUxeppD6?g_st=ipc","address":"Αθήνα 105 57","categoryIds":["attractions"],"categories":["Must-See Attractions"],"distanceKm":0.19317443728401443},{"id":"italianRestaurants_f25cb6c501bb","slug":"la-nonna-f25c","kind":"restaurant","name":"la nonna","lat":37.966397023107625,"lng":23.734629464112153,"url":"https://maps.app.goo.gl/JWJwotwbGCaC9dvV6?g_st=ipc","address":"Αναπαύσεως 11, Αθήνα 116 36","categoryIds":["italian"],"categories":["Italian Restaurants"],"distanceKm":0.1979145544335351},{"id":"coffeeBrunchRestaurants_ce537fc177ce","slug":"fika-coffee-croissant-ce53","kind":"restaurant","name":"Fika coffee & croissant","lat":37.96693585116076,"lng":23.730676001624726,"url":"https://maps.app.goo.gl/aGhcjD61LQ7BLCn98?g_st=ipc","address":"Βούρβαχη 6, Αθήνα 117 43","categoryIds":["coffee-brunch"],"categories":["Coffee & Brunch Spots"],"distanceKm":0.20960735242853576},{"id":"coffeeBrunchRestaurants_88ec9d6dfbbc","slug":"joshua-tree-cafe-88ec","kind":"restaurant","name":"Joshua Tree Cafe","lat":37.96618895456632,"lng":23.73475215870415,"url":"https://maps.app.goo.gl/hxko2CRaz8QbMJPc8?g_st=ipc","address":"Αναπαύσεως 13, Αθήνα 116 36","categoryIds":["coffee-brunch","vegetarian"],"categories":["Coffee & Brunch Spots","Vegetarian Friendly Restaurants"],"legacySlugs":["joshua-tree-cafe-e75c"],"distanceKm":0.22147556389931602},{"id":"rooftopLoungesRestaurants_208f904925e8","slug":"stork-rooftop-bar-restaurant-208f","kind":"restaurant","name":"stork rooftop bar restaurant","lat":37.967099364958976,"lng":23.7303307646006,"url":"https://maps.app.goo.gl/AF5AEBzt63j5tves7?g_st=ipc","address":"Λεωφόρος Συγγρού 21, Βούρβαχη 2, Αθήνα 117 43","categoryIds":["rooftop-lounges"],"categories":["Rooftop Lounges"],"distanceKm":0.23362422851806194},{"id":"greekRestaurants_c15edd7fcde2","slug":"estiatorio-smile-c15e","kind":"restaurant","name":"Εστιατόριο Smile","lat":37.967615812266935,"lng":23.729979287152204,"url":"https://maps.app.goo.gl/dzqWtwgMFs9Vcqew6","address":"Πλ. Τσώκρη 1, Αθήνα 117 42","categoryIds":["greek-restaurants"],"categories":["Greek Restaurants"],"distanceKm":0.2586130186002036},{"id":"italianRestaurants_354541199b79","slug":"aglio-olio-peperoncino-3545","kind":"restaurant","name":"AGLIO, OLIO & PEPERONCINO","lat":37.96798831953671,"lng":23.7299912754838,"url":"https://maps.app.goo.gl/EgPatpb6TGQzX94s6?g_st=ipc","address":"Πορίνου 13, Αθήνα 117 42","categoryIds":["italian"],"categories":["Italian Restaurants"],"distanceKm":0.2617199250247989},{"id":"vegetarianRestaurants_aff422e1c3ba","slug":"mama-tierra-acropolis-vegan-street-food-aff4","kind":"restaurant","name":"Mama Tierra Acropolis - Vegan street food","lat":37.967546083723775,"lng":23.729864462543613,"url":"https://maps.app.goo.gl/3M9tmest5ooaQwtE8?g_st=ipc","address":"Χατζηχρήστου 29, Αθήνα 117 42","categoryIds":["vegetarian"],"categories":["Vegetarian Friendly Restaurants"],"distanceKm":0.2686341068194164},{"id":"rooftopLoungesRestaurants_7028a5f2c855","slug":"bg-s-roof-garden-terrace-7028","kind":"restaurant","name":"BG's Roof Garden Terrace","lat":37.96555476887021,"lng":23.73099014305094,"url":"https://maps.app.goo.gl/DYB3podcUfK36W3e8?g_st=ipc","address":"Menaimahou 1 & Theofilopoulou, Καλλιρρόης Avenue, 18, 117 43","categoryIds":["rooftop-lounges"],"categories":["Rooftop Lounges"],"distanceKm":0.2810311483445837},{"id":"luxuryDiningRestaurants_6d0eec69a8bb","slug":"sense-modern-greek-cuisine-6d0e","kind":"restaurant","name":"SENSE Modern Greek Cuisine","lat":37.96950501164825,"lng":23.730857786980206,"url":"https://maps.app.goo.gl/BrJr73pSejAaUrbq6?g_st=ipc","address":"Διονυσίου Αρεοπαγίτου 5, Αθήνα 117 42","categoryIds":["luxury-dining","rooftop-lounges"],"categories":["Luxury Dining","Rooftop Lounges"],"legacySlugs":["sense-modern-greek-cuisine-ffb0"],"distanceKm":0.28171984378532494},{"id":"dessertsRestaurants_e6bd44c1950f","slug":"asterisque-the-bakery-e6bd","kind":"restaurant","name":"Asterisque The Bakery","lat":37.966001002034226,"lng":23.735518320337178,"url":"https://maps.app.goo.gl/rDURttsufbmP6fEE6?g_st=ipc","address":"Χαρβούρη 2, Αθήνα 116 36","categoryIds":["desserts"],"categories":["Dessert Shops"],"distanceKm":0.2861436675798027},{"id":"cheapEatsRestaurants_7d6699a91456","slug":"o-gyros-poy-gyreyeis-7d66","kind":"restaurant","name":"ο γύρος που γυρεύεις","lat":37.968706021561665,"lng":23.729791439377735,"url":"https://maps.app.goo.gl/bMFjRtNN6Ztw4H43A?g_st=ipc","address":"Αθανασίου Διάκου 1 Ακρόπολη, Αθήνα 117 42","categoryIds":["cheap-eats"],"categories":["Gyros & Cheap Eats"],"distanceKm":0.3027541263371475},{"id":"mustSeeAttractions_a3aa8075d8fc","slug":"arch-of-hadrian-a3aa","kind":"restaurant","name":"Arch of Hadrian","lat":37.970210610652515,"lng":23.73198089152641,"url":"https://maps.app.goo.gl/XDM6bEzic8EMa3FX7?g_st=ipc","address":"Leof. Vasilisis Amalias 50, Athina 105 58","categoryIds":["attractions"],"categories":["Must-See Attractions"],"distanceKm":0.30540425119618253},{"id":"dessertsRestaurants_7f61f06e1814","slug":"ice-queen-gelato-7f61","kind":"restaurant","name":"Ice Queen Gelato","lat":37.96875198593791,"lng":23.729719578537868,"url":"https://maps.app.goo.gl/HyCCcJSVYZCw8dMV7?g_st=ipc","address":"Μακρυγιάννη 9, Αθήνα 117 42","categoryIds":["desserts","vegetarian"],"categories":["Dessert Shops","Vegetarian Friendly Restaurants"],"legacySlugs":["ice-queen-gelato-e688"],"distanceKm":0.3106198147405114},{"id":"dessertsRestaurants_22239c987b1a","slug":"patisserie-artemis-gelateria-ice-cream-2223","kind":"restaurant","name":"Patisserie Artemis - Gelateria Ice Cream","lat":37.96786547488155,"lng":23.729346783174314,"url":"https://maps.app.goo.gl/dE6muCbG7gwaWz9H8?g_st=ipc","address":"Μακρυγιάννη 33, Αθήνα 117 42","categoryIds":["desserts"],"categories":["Dessert Shops"],"distanceKm":0.3157447437713157},{"id":"fishTavernasRestaurants_2d289dd504e5","slug":"annie-fine-cooking-2d28","kind":"restaurant","name":"Annie - Fine Cooking","lat":37.96499642405186,"lng":23.73068347975073,"url":"https://maps.app.goo.gl/YqFQJr3r4XRFXyq17?g_st=ipc","address":"Μεναίχμου 4, Αθήνα 117 43","categoryIds":["fish-tavernas"],"categories":["Fish Tavernas"],"distanceKm":0.3471102227585045},{"id":"greekRestaurants_104d52bd2241","slug":"mpalkoni-estiatorio-kai-mpar-104d","kind":"restaurant","name":"Μπαλκόνι Εστιατόριο και Μπαρ","lat":37.96744106512062,"lng":23.72879886025239,"url":"https://maps.app.goo.gl/7XXsfB27aRZAsikR7","address":"Βεΐκου 1, Αθήνα 117 42","categoryIds":["greek-restaurants"],"categories":["Greek Restaurants"],"distanceKm":0.36230954234156143},{"id":"italianRestaurants_d5b2689c4a11","slug":"romatella-pinsa-romana-d5b2","kind":"restaurant","name":"Romatella - Pinsa Romana","lat":37.96690380968513,"lng":23.72869589039828,"url":"https://maps.app.goo.gl/qy2UDY83bx3RhcUU9?g_st=ipc","address":"Φαλήρου 4, Αθήνα 117 42","categoryIds":["italian"],"categories":["Italian Restaurants"],"distanceKm":0.3783347984171922},{"id":"coffeeBrunchRestaurants_da9d2fc56763","slug":"acai-verao-athens-da9d","kind":"restaurant","name":"Açaí Verão Athens","lat":37.966845247384065,"lng":23.728622894774116,"url":"https://maps.app.goo.gl/zSWkUCcCMEwv3K5Y7?g_st=ipc","address":"Φαλήρου 6, Αθήνα 117 42","categoryIds":["coffee-brunch"],"categories":["Coffee & Brunch Spots"],"distanceKm":0.38591562480101205}],"mentionedGuides":[],"canonicalSlug":"veganaki-0ae4","enrichment":{"summary_en":"Veganaki is a curated restaurant in Αθήνα 117 43 in the Vegetarian Friendly Restaurants collection. It is connected to 120 nearby Googlementor picks to help travelers build a stronger local route.","summary_el":"Veganaki είναι ένα επιλεγμένο σημείο φαγητού στην περιοχή Αθήνα 117 43 και ανήκει στη συλλογή Vegetarian Friendly Restaurants. Συνδέεται με 120 κοντινές προτάσεις του Googlementor για πιο ολοκληρωμένη εμπειρία.","vibe_tags":["curated"],"best_for":["first-time visitors","food lovers"],"visit_moments":["lunch stop","dinner stop"],"practical_note":"Address and direct map link are available for easy turn-by-turn access.","nearby_walkable_count":120,"nearby_count_2km":598,"confidence":0.98},"areaContext":{"slug":"plaka","name":"Plaka","nameEl":"Πλάκα"},"intentContexts":[{"href":"/vegetarian/plaka","label":"Vegetarian Friendly Restaurants in Plaka","categorySlug":"vegetarian","categoryName":"Vegetarian Friendly Restaurants","areaSlug":"plaka","areaName":"Plaka","areaNameEl":"Πλάκα"}]},"__N_SSG":true}