{"pageProps":{"entity":{"id":"coffeeBrunchRestaurants_a15eff32047d","slug":"wallstreet-athens-a15e","kind":"restaurant","name":"WallStreet Athens","lat":38.01470612030241,"lng":23.8212081874615,"url":"https://maps.app.goo.gl/mBES32gA39m1YfEdA?g_st=ipc","address":"Ελπίδος, Δημ. Γούναρη 2-4, Αγ. Παρασκευή 153 43","categoryIds":["coffee-brunch"],"categories":["Coffee & Brunch Spots"]},"sameCategory":[{"id":"coffeeBrunchRestaurants_9ce003d4ec0a","slug":"alto-corto-cafe-9ce0","kind":"restaurant","name":"Alto Corto Cafe","lat":38.012694707387,"lng":23.81807168304755,"url":"https://maps.app.goo.gl/1oTiFbFAjGwZTcXq9?g_st=ipc","address":"Λεωφόρος Μεσογείων 400 και, Αἰγαίου Πελάγους, Αγ. Παρασκευή 153 42","categoryIds":["coffee-brunch"],"categories":["Coffee & Brunch Spots"]},{"id":"coffeeBrunchRestaurants_f0c9993cb8f3","slug":"piccadilly-cafe-bar-f0c9","kind":"restaurant","name":"Piccadilly Cafe - Bar","lat":38.00719392579973,"lng":23.82715472856948,"url":"https://maps.app.goo.gl/sjLV2JRan1wDF2hM6?g_st=ipc","address":"Eleftherias, Αγίου Ιωάννου 63, Αγ. Παρασκευή 153 42","categoryIds":["coffee-brunch"],"categories":["Coffee & Brunch Spots"]},{"id":"coffeeBrunchRestaurants_047701412132","slug":"big-spoon-0477","kind":"restaurant","name":"Big Spoon","lat":38.00695313454604,"lng":23.827222163103215,"url":"https://maps.app.goo.gl/xKV3uQ5sHdPxcNpR6?g_st=ipc","address":"Αγίου Ιωάννου 65, Αγ. Παρασκευή 153 42","categoryIds":["coffee-brunch"],"categories":["Coffee & Brunch Spots"]},{"id":"coffeeBrunchRestaurants_9c4fad0bdb87","slug":"opus-coffee-and-more-9c4f","kind":"restaurant","name":"Opus coffee and more","lat":38.001260916187285,"lng":23.825716095768566,"url":"https://maps.app.goo.gl/ZsSXep3FZfHkFyPYA?g_st=ipc","address":"Αιγαίου Πελάγους, Γραβιάς και, Αγ. Παρασκευή 153 42","categoryIds":["coffee-brunch"],"categories":["Coffee & Brunch Spots"]},{"id":"coffeeBrunchRestaurants_c6ccd807225a","slug":"bread-b-c-bread-before-christ-c6cc","kind":"restaurant","name":"BREAD B.C. Bread Before Christ","lat":38.02007274297337,"lng":23.803168344895795,"url":"https://maps.app.goo.gl/TyGqvKXydEaJvedUA?g_st=ipc","address":"Αγίας Παρασκευής 59, Χαλάνδρι 152 34","categoryIds":["coffee-brunch","desserts"],"categories":["Coffee & Brunch Spots","Dessert Shops"],"legacySlugs":["bread-b-c-bread-before-christ-012b"]},{"id":"coffeeBrunchRestaurants_19b78b1041b1","slug":"fisi-the-project-19b7","kind":"restaurant","name":"Fisi The Project","lat":38.02103923737401,"lng":23.803142982241283,"url":"https://maps.app.goo.gl/9VmK3qL1LECkBAycA?g_st=ipc","address":"Αγίου Γεωργίου 28, Χαλάνδρι 152 31","categoryIds":["coffee-brunch"],"categories":["Coffee & Brunch Spots"]},{"id":"coffeeBrunchRestaurants_c2dcfed13dc1","slug":"to-vazaki-juice-bar-c2dc","kind":"restaurant","name":"Το Βαζάκι Juice Bar","lat":38.021003514175945,"lng":23.80272580711501,"url":"https://maps.app.goo.gl/nDbFuEsz56BPrtWV8?g_st=ipc","address":"Αριστοτέλους 33, Χαλάνδρι 152 34","categoryIds":["coffee-brunch","vegetarian"],"categories":["Coffee & Brunch Spots","Vegetarian Friendly Restaurants"],"legacySlugs":["to-vazaki-juice-bar-fee3"]},{"id":"coffeeBrunchRestaurants_fee7b450e2e2","slug":"bored-c-mon-hub-fee7","kind":"restaurant","name":"Bored, C'mon hub","lat":38.02345514252141,"lng":23.803073599949013,"url":"https://maps.app.goo.gl/VKSg4V9NPf89H1ha7?g_st=ipc","address":"Λεωφ. Πεντέλης 15, Χαλάνδρι 152 34","categoryIds":["coffee-brunch"],"categories":["Coffee & Brunch Spots"]},{"id":"coffeeBrunchRestaurants_1645d021693b","slug":"butterfly-all-day-bar-1645","kind":"restaurant","name":"Butterfly All Day Bar","lat":38.02255116891241,"lng":23.802059077338257,"url":"https://maps.app.goo.gl/iFPzHyPcLoNrFRsNA?g_st=ipc","address":"Λεωφόρος Πεντέλης 8 , Στρατάρχου Παπάγου 5, Χαλάνδρι 152 33","categoryIds":["coffee-brunch"],"categories":["Coffee & Brunch Spots"]},{"id":"coffeeBrunchRestaurants_6c7c61c89617","slug":"the-blind-spot-chalandri-6c7c","kind":"restaurant","name":"The Blind Spot Chalandri","lat":38.02081193268296,"lng":23.800852260132338,"url":"https://maps.app.goo.gl/meU9KZcd4KyskmW5A?g_st=ipc","address":"Αγίας Παρασκευής 29, Χαλάνδρι 152 34","categoryIds":["coffee-brunch"],"categories":["Coffee & Brunch Spots"]},{"id":"coffeeBrunchRestaurants_9494334a3889","slug":"theory-bar-9494","kind":"restaurant","name":"Theory Bar","lat":38.02145412084465,"lng":23.799757422872677,"url":"https://maps.app.goo.gl/zwkhVzdkQughii3i7?g_st=ipc","address":"Πλάτωνος 14, Χαλάνδρι 152 34","categoryIds":["coffee-brunch"],"categories":["Coffee & Brunch Spots"]},{"id":"coffeeBrunchRestaurants_99f4eb4b50a8","slug":"paul-99f4","kind":"restaurant","name":"Paul","lat":38.02202464306638,"lng":23.799672884172303,"url":"https://maps.app.goo.gl/aQCR8vB88aVXiVXh6?g_st=ic","address":"Andrea Papandreou 13, Chalandri 152 34","categoryIds":["coffee-brunch"],"categories":["Coffee & Brunch Spots"]}],"nearby":[{"id":"dessertsRestaurants_456ff03615cf","slug":"poulette-456f","kind":"restaurant","name":"Poulette","lat":38.01540164071511,"lng":23.819922887018567,"url":"https://maps.app.goo.gl/HvM2PHcBBq1Dcqka8?g_st=ipc","address":"Ellinoservikis Filias 64, Ag. Paraskevi 153 43","categoryIds":["desserts"],"categories":["Dessert Shops"],"distanceKm":0.13660029629439913},{"id":"cheapEatsRestaurants_2194bc1389f8","slug":"pita-pan-2194","kind":"restaurant","name":"Πίτα Παν","lat":38.012724500083856,"lng":23.82116799472927,"url":"https://maps.app.goo.gl/dizAr5MBZxwBUbmGA?g_st=ipc","address":"Ευεργέτου Γιαβάση 1, Αγ. Παρασκευή 153 42","categoryIds":["cheap-eats"],"categories":["Gyros & Cheap Eats"],"distanceKm":0.22037424703885453},{"id":"cheapEatsRestaurants_ba28713d01c5","slug":"jackaroo-ba28","kind":"restaurant","name":"Jackaroo","lat":38.012488048135104,"lng":23.81953806352836,"url":"https://maps.app.goo.gl/ixb3zjYZ1Wg65gYq8?g_st=ipc","address":"Ηρ. Πολυτεχνείου 8, Αγ. Παρασκευή 153 43","categoryIds":["cheap-eats"],"categories":["Gyros & Cheap Eats"],"distanceKm":0.2867720576294118},{"id":"mexicanRestaurants_8063d3de98b0","slug":"juan-s-cantina-8063","kind":"restaurant","name":"Juan's Cantina","lat":38.01206107178295,"lng":23.81957316690922,"url":"https://maps.app.goo.gl/BrMEKeu7hk8gqjtQ6?g_st=ipc","address":"Ευεργέτου Γιαβάση 13Α, Αγ. Παρασκευή 153 42","categoryIds":["mexican"],"categories":["Mexican Restaurants"],"distanceKm":0.3271415553952782},{"id":"dessertsRestaurants_4de4990e8c52","slug":"galaktopoleio-stamoy-4de4","kind":"restaurant","name":"Γαλακτοπωλείο ΣΤΑΜΟΥ","lat":38.01272894935628,"lng":23.81812735076741,"url":"https://maps.app.goo.gl/45pSKohNfJSTdCAA6?g_st=ipc","address":"Λεωφ. Μεσογείων 400b, Αγ. Παρασκευή 153 42","categoryIds":["desserts"],"categories":["Dessert Shops"],"distanceKm":0.3481108926926346},{"id":"coffeeBrunchRestaurants_9ce003d4ec0a","slug":"alto-corto-cafe-9ce0","kind":"restaurant","name":"Alto Corto Cafe","lat":38.012694707387,"lng":23.81807168304755,"url":"https://maps.app.goo.gl/1oTiFbFAjGwZTcXq9?g_st=ipc","address":"Λεωφόρος Μεσογείων 400 και, Αἰγαίου Πελάγους, Αγ. Παρασκευή 153 42","categoryIds":["coffee-brunch"],"categories":["Coffee & Brunch Spots"],"distanceKm":0.35429680459469365},{"id":"dessertsRestaurants_0abf80a62983","slug":"zacharoplasteia-kosmikon-ag-paraskeyi-0abf","kind":"restaurant","name":"ΖΑΧΑΡΟΠΛΑΣΤΕΙΑ ΚΟΣΜΙΚΟΝ ΑΓ.ΠΑΡΑΣΚΕΥΗ","lat":38.015552019857395,"lng":23.816005253846708,"url":"https://maps.app.goo.gl/KMvANWbGzpUHc27L8?g_st=ipc","address":"Χαλανδρίου 34, Αγ. Παρασκευή 153 43","categoryIds":["desserts"],"categories":["Dessert Shops"],"distanceKm":0.46540549254951424},{"id":"dessertsRestaurants_f98eb7c31fa7","slug":"solo-gelato-agia-paraskevi-f98e","kind":"restaurant","name":"Solo Gelato Agia Paraskevi","lat":38.010730173792794,"lng":23.824059390812284,"url":"https://maps.app.goo.gl/q2uK9vCzk28wfiSB6?g_st=ipc","address":"Αγίου Ιωάννου 23B, Αγ. Παρασκευή 153 42","categoryIds":["desserts"],"categories":["Dessert Shops"],"distanceKm":0.5077898074287689},{"id":"asianRestaurants_4641bf909241","slug":"wasabe-asian-fusion-4641","kind":"restaurant","name":"Wasabe Asian Fusion","lat":38.01234432312043,"lng":23.815000066422606,"url":"https://maps.app.goo.gl/E1rgPWQWHHSpVx7UA?g_st=ipc","address":"Λεωφ. Μεσογείων 401, Αγ. Παρασκευή 153 43","categoryIds":["asian"],"categories":["Asian Restaurants"],"distanceKm":0.603959098673092},{"id":"greekRestaurants_f89c37a413b6","slug":"taverna-o-morias-f89c","kind":"restaurant","name":"Ταβέρνα Ο ΜΩΡΙΑΣ","lat":38.00860400302697,"lng":23.81934480669425,"url":"https://maps.app.goo.gl/bRVKBMdQ27pSumbD9?g_st=ipc","address":"Ειρήνης 56, Αγ. Παρασκευή 153 41","categoryIds":["greek-restaurants"],"categories":["Greek Restaurants"],"distanceKm":0.6978865284335186},{"id":"dessertsRestaurants_7da559b75445","slug":"zacharoplasteia-konstantinidis-7da5","kind":"restaurant","name":"Ζαχαροπλαστεία Κωνσταντινίδης","lat":38.01171233220572,"lng":23.81400562383525,"url":"https://maps.app.goo.gl/qEsfTTzyhzLukvSx9?g_st=ipc","address":"Λεωφ. Μεσογείων 368, Αγ. Παρασκευή 153 41","categoryIds":["desserts"],"categories":["Dessert Shops"],"distanceKm":0.7134236071839464},{"id":"asianRestaurants_a4e89dbc83d0","slug":"salamat-asian-food-store-a4e8","kind":"restaurant","name":"Salamat | Asian Food Store","lat":38.02126807453902,"lng":23.819767317882288,"url":"https://maps.app.goo.gl/62Tadxw4r6L1Cia48?g_st=ipc","address":"Δουκίσσης Πλακεντίας 68, Χαλάνδρι 152 34","categoryIds":["asian"],"categories":["Asian Restaurants"],"distanceKm":0.7404930207081744},{"id":"familyFriendly_006b710ec86a","slug":"ktima-aristi-006b","kind":"restaurant","name":"ΚΤΗΜΑ ΑΡΙΣΤΗ","lat":38.01987728596246,"lng":23.81566062458868,"url":"https://maps.app.goo.gl/82avq8dPqN3VZq7W7?g_st=ipc","address":"Πλουτάρχου 10, Χαλάνδρι 152 34","categoryIds":["family-friendly"],"categories":["Kid Friendly Locations"],"distanceKm":0.7528668164821198},{"id":"greekRestaurants_c4e480192004","slug":"ta-romanakia-c4e4","kind":"restaurant","name":"Τα Ρωμανάκια","lat":38.01166841393731,"lng":23.8131702489518,"url":"https://maps.app.goo.gl/huAdXz8UP2bA8sPj6?g_st=ipc","address":"Λεωφ. Μεσογείων 366, Αγ. Παρασκευή 153 41","categoryIds":["greek-restaurants"],"categories":["Greek Restaurants"],"distanceKm":0.7810013616860072},{"id":"dessertsRestaurants_78c1b48a02f1","slug":"le-greche-agia-paraskevi-78c1","kind":"restaurant","name":"Le Greche Agia Paraskevi","lat":38.013608144326774,"lng":23.83072625387381,"url":"https://maps.app.goo.gl/bgontMhqzf4bbQEm7?g_st=ipc","address":"Λεωφ. Μεσογείων 456, Αγ. Παρασκευή 153 41","categoryIds":["desserts"],"categories":["Dessert Shops"],"distanceKm":0.8427292532690942},{"id":"familyFriendly_3a0b8382227c","slug":"kidtopia-3a0b","kind":"restaurant","name":"KIDTOPIA","lat":38.01289484430431,"lng":23.811355038875934,"url":"https://maps.app.goo.gl/hbL95STxeVAMj8X58?g_st=ic","address":"Erifilis 31, Chalandri 152 32","categoryIds":["family-friendly"],"categories":["Kid Friendly Locations"],"distanceKm":0.8863828507177266},{"id":"greekRestaurants_8e94a0e9697c","slug":"to-steki-tis-tompra-8e94","kind":"restaurant","name":"Το στέκι της Τόμπρα","lat":38.01114194965107,"lng":23.812150664429954,"url":"https://maps.app.goo.gl/nzMoaK1cxHPd4BAQA?g_st=ipc","address":"Ηπείρου 5-7, Αγ. Παρασκευή 153 41","categoryIds":["greek-restaurants"],"categories":["Greek Restaurants"],"distanceKm":0.8869717523545942},{"id":"municipalities_3f6a045ce221","slug":"agia-paraskeyi-3f6a","kind":"municipality","name":"Αγία Παρασκευή","lat":38.0216,"lng":23.827,"region":"Βόρεια Προάστια","name_en":"Agia Paraskevi","region_en":"Northern Suburbs","distanceKm":0.9192630347183339},{"id":"greekRestaurants_8c8e269305b0","slug":"nison-gi-8c8e","kind":"restaurant","name":"Νήσων Γη","lat":38.011331255497275,"lng":23.81122856443911,"url":"https://maps.app.goo.gl/wmEbsZ59WvGe41oB6?g_st=ipc","address":"Λεωφ. Μεσογείων 356, Αγ. Παρασκευή 153 41","categoryIds":["greek-restaurants"],"categories":["Greek Restaurants"],"distanceKm":0.9514221585812729},{"id":"coffeeBrunchRestaurants_f0c9993cb8f3","slug":"piccadilly-cafe-bar-f0c9","kind":"restaurant","name":"Piccadilly Cafe - Bar","lat":38.00719392579973,"lng":23.82715472856948,"url":"https://maps.app.goo.gl/sjLV2JRan1wDF2hM6?g_st=ipc","address":"Eleftherias, Αγίου Ιωάννου 63, Αγ. Παρασκευή 153 42","categoryIds":["coffee-brunch"],"categories":["Coffee & Brunch Spots"],"distanceKm":0.9844646875067496},{"id":"coffeeBrunchRestaurants_047701412132","slug":"big-spoon-0477","kind":"restaurant","name":"Big Spoon","lat":38.00695313454604,"lng":23.827222163103215,"url":"https://maps.app.goo.gl/xKV3uQ5sHdPxcNpR6?g_st=ipc","address":"Αγίου Ιωάννου 65, Αγ. Παρασκευή 153 42","categoryIds":["coffee-brunch"],"categories":["Coffee & Brunch Spots"],"distanceKm":1.0103514547035757},{"id":"familyFriendly_8c5536516bb1","slug":"theatraki-8c55","kind":"restaurant","name":"Theatraki","lat":38.02225032968998,"lng":23.814351171164784,"url":"https://maps.app.goo.gl/jauuVyHDGdr1MR746?g_st=ic","address":"Iraklidon 31, Chalandri 152 34","categoryIds":["family-friendly"],"categories":["Kid Friendly Locations"],"distanceKm":1.0317615407056968},{"id":"italianRestaurants_f7f3095a84cf","slug":"marika-f7f3","kind":"restaurant","name":"Μαρίκα","lat":38.01804412743968,"lng":23.809906247881305,"url":"https://maps.app.goo.gl/osUqCcuWwvgZPCpT6?g_st=ipc","address":"Αγίας Παρασκευής 109, Χαλάνδρι 152 34","categoryIds":["italian"],"categories":["Italian Restaurants"],"distanceKm":1.0573730874019962},{"id":"mexicanRestaurants_2fa8f90ada8c","slug":"el-taco-bueno-2fa8","kind":"restaurant","name":"El Taco Bueno","lat":38.01767477225013,"lng":23.8094742149459,"url":"https://maps.app.goo.gl/nxvZPKw9Xm14kD6q7?g_st=ipc","address":"Αγίας Παρασκευής 110, Χαλάνδρι 152 32","categoryIds":["mexican"],"categories":["Mexican Restaurants"],"distanceKm":1.0796382540326286}],"mentionedGuides":[{"slug":"tap-water-safe-greece-el","title":"Είναι Ασφαλές να Πίνετε Νερό Βρύσης στην Ελλάδα;"},{"slug":"tap-water-safe-greece","title":"Is Tap Water Safe to Drink in Greece?"},{"slug":"traveling-to-greece-on-a-budget-el","title":"Ταξιδι στην Ελλαδα με μικρο budget"},{"slug":"traveling-to-greece-on-a-budget","title":"Traveling to Greece on a Budget"},{"slug":"american-college-of-greece-agia-paraskevi-guide-el","title":"American College of Greece: Οδηγός Αγίας Παρασκευής"},{"slug":"american-college-of-greece-agia-paraskevi-guide","title":"American College of Greece: Welcome to Agia Paraskevi"}],"canonicalSlug":"wallstreet-athens-a15e","enrichment":{"summary_en":"WallStreet Athens is a curated restaurant in Αγ. Παρασκευή 153 43 in the Coffee & Brunch Spots collection. It is connected to 14 nearby Googlementor picks to help travelers build a stronger local route.","summary_el":"WallStreet Athens είναι ένα επιλεγμένο σημείο φαγητού στην περιοχή Αγ. Παρασκευή 153 43 και ανήκει στη συλλογή Coffee & Brunch Spots. Συνδέεται με 14 κοντινές προτάσεις του Googlementor για πιο ολοκληρωμένη εμπειρία.","vibe_tags":["curated","daytime-favorite"],"best_for":["first-time visitors","food lovers"],"visit_moments":["early morning","late brunch"],"practical_note":"Address and direct map link are available for easy turn-by-turn access.","nearby_walkable_count":14,"nearby_count_2km":58,"confidence":0.98},"areaContext":{"slug":"agia-paraskeyi","name":"Agia Paraskevi","nameEl":"Αγία Παρασκευή"},"intentContexts":[{"href":"/brunch/agia-paraskeyi","label":"Coffee & Brunch Spots in Agia Paraskevi","categorySlug":"brunch","categoryName":"Coffee & Brunch Spots","areaSlug":"agia-paraskeyi","areaName":"Agia Paraskevi","areaNameEl":"Αγία Παρασκευή"}]},"__N_SSG":true}