{"pageProps":{"entity":{"id":"cheapEatsRestaurants_53eb96e06f78","slug":"zampelis-soyvlaki-53eb","kind":"restaurant","name":"ΖΑΜΠΕΛΗΣ Σουβλάκι","lat":37.942278449963005,"lng":23.7489165228981,"url":"https://maps.app.goo.gl/mBFJVYTZsF1kBbtk7?g_st=ipc","address":"Λεωφ. Μαρίνου Αντύπα 42, Ηλιούπολη 163 46","categoryIds":["cheap-eats"],"categories":["Gyros & Cheap Eats"]},"sameCategory":[{"id":"burgersRestaurants_c05eb7f13ddf","slug":"psychiatreio-c05e","kind":"restaurant","name":"Ψυχιατρείο","lat":37.941454787946455,"lng":23.74643002685345,"url":"https://maps.app.goo.gl/nvzgc7zjFUEkgZMN8?g_st=ipc","address":"Αγίου Κωνσταντίνου 16, Ηλιούπολη 163 46","categoryIds":["burgers","cheap-eats"],"categories":["Burger Spots","Gyros & Cheap Eats"],"legacySlugs":["psychiatreio-6c0c"]},{"id":"cheapEatsRestaurants_a6f267f71448","slug":"psitopoleio-o-kostas-a6f2","kind":"restaurant","name":"Ψητοπωλείο Ο Κώστας","lat":37.94774148940973,"lng":23.74608370924349,"url":"https://maps.app.goo.gl/8n9ne3gHR6APgQwh6?g_st=ipc","address":"Ηλιουπόλεως 157, Υμηττός 172 36","categoryIds":["cheap-eats"],"categories":["Gyros & Cheap Eats"]},{"id":"cheapEatsRestaurants_e141c683e929","slug":"psitopoleio-o-ymittos-e141","kind":"restaurant","name":"ΨΗΤΟΠΩΛΕΙΟ Ο ΥΜΗΤΤΟΣ","lat":37.9376577150226,"lng":23.756325000053742,"url":"https://maps.app.goo.gl/jevMqjqUqMVWPizM7?g_st=ipc","address":"Λεωφ. Ειρήνης 12, Ηλιούπολη 163 45","categoryIds":["cheap-eats"],"categories":["Gyros & Cheap Eats"]},{"id":"cheapEatsRestaurants_11e58e7bd1c7","slug":"pita-pan-11e5","kind":"restaurant","name":"Pita Pan","lat":37.93966105014638,"lng":23.74003701406881,"url":"https://maps.app.goo.gl/ub6T2bWkrrx9QZt69?g_st=ipc","address":"Παρ. Λεωφ. Βουλιαγμένης 276, Αγ. Δημήτριος Αττικής 173 43","categoryIds":["cheap-eats"],"categories":["Gyros & Cheap Eats"]},{"id":"cheapEatsRestaurants_b9d0dc3d0a7f","slug":"mayropipero-b9d0","kind":"restaurant","name":"Μαυροπίπερο","lat":37.939871957691295,"lng":23.73599315534295,"url":"https://maps.app.goo.gl/kLQRksA1KxobJdFA6?g_st=ipc","address":"Στρατάρχου Αλεξάνδρου Παπάγου 41, Αγ. Δημήτριος Αττικής 173 43","categoryIds":["cheap-eats"],"categories":["Gyros & Cheap Eats"]},{"id":"cheapEatsRestaurants_1640e0da72d1","slug":"smasheat-o-1640","kind":"restaurant","name":"Smasheat'o","lat":37.95001486404743,"lng":23.73773292955517,"url":"https://maps.app.goo.gl/nrXvTuy8yr3sWi7k8?g_st=ipc","address":"Meg. Alexandrou 2, Athina 172 35","categoryIds":["cheap-eats"],"categories":["Gyros & Cheap Eats"]},{"id":"cheapEatsRestaurants_53e2baa7ddae","slug":"o-giorgos-ilioypoli-53e2","kind":"restaurant","name":"Ο Γιώργος (Ηλιούπολη)","lat":37.93157343086467,"lng":23.756713794378285,"url":"https://maps.app.goo.gl/ZHk6UviE5DhKfmAcA?g_st=ipc","address":"Πλ. Εθ. Αντιστάσεως 8, Ηλιούπολη 163 42","categoryIds":["cheap-eats"],"categories":["Gyros & Cheap Eats"]},{"id":"cheapEatsRestaurants_59f1048e980a","slug":"to-steki-toy-kosta-59f1","kind":"restaurant","name":"Το Στέκι του Κώστα","lat":37.95121107984788,"lng":23.735124045238276,"url":"https://maps.app.goo.gl/gtmBLN9nUzctuFYM8?g_st=ipc","address":"Αγίας Βαρβάρας 59, Δάφνη Αττικής 172 35","categoryIds":["cheap-eats"],"categories":["Gyros & Cheap Eats"]},{"id":"cheapEatsRestaurants_08d52517e6fc","slug":"mparmpa-mitsos-vyronas-08d5","kind":"restaurant","name":"Μπάρμπα Μήτσος Βύρωνας","lat":37.95390974598432,"lng":23.759679171308928,"url":"https://maps.app.goo.gl/1eSEWa3g6EhnDAvb6?g_st=ipc","address":"Επταλόφου 88, Βύρωνας 162 33","categoryIds":["cheap-eats"],"categories":["Gyros & Cheap Eats"]},{"id":"cheapEatsRestaurants_79cf2e094e26","slug":"vaggelis-to-gnisio-1965-79cf","kind":"restaurant","name":"Βάγγελης Το Γνήσιο 1965","lat":37.93578922990488,"lng":23.72968201403695,"url":"https://maps.app.goo.gl/8q5LESzz3ctiGx4S6?g_st=ipc","address":"Λεωφ. Αγίου Δημητρίου 163, Αγ. Δημήτριος Αττικής 173 43","categoryIds":["cheap-eats"],"categories":["Gyros & Cheap Eats"]},{"id":"cheapEatsRestaurants_a825d27fc97c","slug":"i-pita-toy-karafla-a825","kind":"restaurant","name":"Η ΠΙΤΑ ΤΟΥ ΚΑΡΑΦΛΑ","lat":37.96232693388551,"lng":23.744677303486494,"url":"https://maps.app.goo.gl/sAGKAGj6UyDLWwiq7?g_st=ipc","address":"Φιλολάου 142, Αθήνα 116 32","categoryIds":["cheap-eats"],"categories":["Gyros & Cheap Eats"]},{"id":"cheapEatsRestaurants_cf76698c40fb","slug":"o-achilleas-cheiropoiitos-gyros-cf76","kind":"restaurant","name":"Ο Αχιλλέας (χειροποίητος γύρος)","lat":37.95973976836696,"lng":23.733064950731986,"url":"https://maps.app.goo.gl/SrhYjUikLgP2R2HT7?g_st=ipc","address":"Σπινθάρου 18, Αθήνα 117 43","categoryIds":["cheap-eats"],"categories":["Gyros & Cheap Eats"]}],"nearby":[{"id":"coffeeBrunchRestaurants_04323df5602c","slug":"moments-cafe-0432","kind":"restaurant","name":"Moments cafe","lat":37.94145822074275,"lng":23.750459312660134,"url":"https://maps.app.goo.gl/6q9NBBvgffKvbrnG7?g_st=ipc","address":"Αγγέλου Σικελιανού 65, Ηλιούπολη 163 45","categoryIds":["coffee-brunch"],"categories":["Coffee & Brunch Spots"],"distanceKm":0.16316240421667727},{"id":"burgersRestaurants_c05eb7f13ddf","slug":"psychiatreio-c05e","kind":"restaurant","name":"Ψυχιατρείο","lat":37.941454787946455,"lng":23.74643002685345,"url":"https://maps.app.goo.gl/nvzgc7zjFUEkgZMN8?g_st=ipc","address":"Αγίου Κωνσταντίνου 16, Ηλιούπολη 163 46","categoryIds":["burgers","cheap-eats"],"categories":["Burger Spots","Gyros & Cheap Eats"],"legacySlugs":["psychiatreio-6c0c"],"distanceKm":0.23650029836530495},{"id":"fishTavernasRestaurants_57034fb5f673","slug":"mikres-kyklades-5703","kind":"restaurant","name":"ΜΙΚΡΕΣ ΚΥΚΛΑΔΕΣ","lat":37.938213721782944,"lng":23.745141100112257,"url":"https://maps.app.goo.gl/Za7BJdXKEyy2FFiM7","address":"Pantazi 56, Ilioupoli 163 46","categoryIds":["fish-tavernas"],"categories":["Fish Tavernas"],"distanceKm":0.560266857458517},{"id":"asianRestaurants_36f4a8956e8a","slug":"oma-sushi-bar-36f4","kind":"restaurant","name":"Oma Sushi Bar","lat":37.94009382367438,"lng":23.754689791765557,"url":"https://maps.app.goo.gl/sQ4YgJ2S6xgEEqCf7?g_st=ipc","address":"Ανδρέα Παπανδρέου 22, Ηλιούπολη 163 45","categoryIds":["asian"],"categories":["Asian Restaurants"],"distanceKm":0.561537711616023},{"id":"cheapEatsRestaurants_a6f267f71448","slug":"psitopoleio-o-kostas-a6f2","kind":"restaurant","name":"Ψητοπωλείο Ο Κώστας","lat":37.94774148940973,"lng":23.74608370924349,"url":"https://maps.app.goo.gl/8n9ne3gHR6APgQwh6?g_st=ipc","address":"Ηλιουπόλεως 157, Υμηττός 172 36","categoryIds":["cheap-eats"],"categories":["Gyros & Cheap Eats"],"distanceKm":0.656289180685211},{"id":"greekRestaurants_b996975f2765","slug":"to-koyzoylo-kritikes-geyseis-b996","kind":"restaurant","name":"Το Κουζουλό-Κρητικές Γεύσεις","lat":37.93790456342302,"lng":23.756307120209538,"url":"https://maps.app.goo.gl/92JS6PzrgTe3Moyv6","address":"Λεωφ. Ειρήνης 10, Ηλιούπολη 163 45","categoryIds":["greek-restaurants"],"categories":["Greek Restaurants"],"distanceKm":0.8103032086413748},{"id":"cheapEatsRestaurants_e141c683e929","slug":"psitopoleio-o-ymittos-e141","kind":"restaurant","name":"ΨΗΤΟΠΩΛΕΙΟ Ο ΥΜΗΤΤΟΣ","lat":37.9376577150226,"lng":23.756325000053742,"url":"https://maps.app.goo.gl/jevMqjqUqMVWPizM7?g_st=ipc","address":"Λεωφ. Ειρήνης 12, Ηλιούπολη 163 45","categoryIds":["cheap-eats"],"categories":["Gyros & Cheap Eats"],"distanceKm":0.8282995705705882},{"id":"cheapEatsRestaurants_11e58e7bd1c7","slug":"pita-pan-11e5","kind":"restaurant","name":"Pita Pan","lat":37.93966105014638,"lng":23.74003701406881,"url":"https://maps.app.goo.gl/ub6T2bWkrrx9QZt69?g_st=ipc","address":"Παρ. Λεωφ. Βουλιαγμένης 276, Αγ. Δημήτριος Αττικής 173 43","categoryIds":["cheap-eats"],"categories":["Gyros & Cheap Eats"],"distanceKm":0.8312865140868305},{"id":"dessertsRestaurants_65e04c3f641c","slug":"cinnabon-athens-metro-mall-65e0","kind":"restaurant","name":"Cinnabon (Athens Metro Mall)","lat":37.93941612015106,"lng":23.739972879470894,"url":"https://maps.app.goo.gl/71DTBLWMjXBGonps5?g_st=ipc","address":"Παρ. Λεωφ. Βουλιαγμένης 276, Αγ. Δημήτριος Αττικής 173 43","categoryIds":["desserts"],"categories":["Dessert Shops"],"distanceKm":0.846418631464499},{"id":"municipalities_2413d46e54f8","slug":"ymittos-2413","kind":"municipality","name":"Υμηττός","lat":37.9506,"lng":23.7511,"aliases":["Ymittos","Hymettos","Υμηττος"],"region":"Νότια Προάστια","name_en":"Ymittos","region_en":"Southern Suburbs","distanceKm":0.9449147975153728},{"id":"cheapEatsRestaurants_b9d0dc3d0a7f","slug":"mayropipero-b9d0","kind":"restaurant","name":"Μαυροπίπερο","lat":37.939871957691295,"lng":23.73599315534295,"url":"https://maps.app.goo.gl/kLQRksA1KxobJdFA6?g_st=ipc","address":"Στρατάρχου Αλεξάνδρου Παπάγου 41, Αγ. Δημήτριος Αττικής 173 43","categoryIds":["cheap-eats"],"categories":["Gyros & Cheap Eats"],"distanceKm":1.1644537383294613},{"id":"familyFriendly_727aa4faed66","slug":"hado-dafni-727a","kind":"restaurant","name":"HADO Δάφνη","lat":37.94808909976108,"lng":23.73774466226219,"url":"https://maps.app.goo.gl/DDga87nVticqm9qYA?g_st=ipc","address":"Μπουμπουλίνας 6, Αγ. Δημήτριος Αττικής 173 43","categoryIds":["family-friendly"],"categories":["Kid Friendly Locations"],"distanceKm":1.17352490038553},{"id":"dessertsRestaurants_87a8c1a7fdc0","slug":"l-arte-del-gelato-87a8","kind":"restaurant","name":"L'Arte del Gelato","lat":37.9335716460019,"lng":23.757250383926916,"url":"https://maps.app.goo.gl/d44Jasgx3fqMB2996?g_st=ipc","address":"Λεωφ. Ελ. Βενιζέλου 135, Ηλιούπολη 163 45","categoryIds":["desserts"],"categories":["Dessert Shops"],"distanceKm":1.2130402092049748},{"id":"coffeeBrunchRestaurants_77dac76c5346","slug":"madania-77da","kind":"restaurant","name":"Madania","lat":37.94780401530034,"lng":23.73687705670489,"url":"https://maps.app.goo.gl/SN98TxjvUzYYXpvq9?g_st=ipc","address":"Leof. Agiou Dimitriou 17 &, Ηροδότου, Αγ. Δημήτριος Αττικής 173 43","categoryIds":["coffee-brunch"],"categories":["Coffee & Brunch Spots"],"distanceKm":1.2214966757397792},{"id":"coffeeBrunchRestaurants_41c6675d394b","slug":"lokal-athens-41c6","kind":"restaurant","name":"ΛΟΚΑΛ ΑΘΕΝΣ","lat":37.94681394109403,"lng":23.736018711734893,"url":"https://maps.app.goo.gl/cBZUFc3qKk2urDcJ7?g_st=ipc","address":"Λεωφ. Αγίου Δημητρίου 33, Αγ. Δημήτριος Αττικής 173 43","categoryIds":["coffee-brunch"],"categories":["Coffee & Brunch Spots"],"distanceKm":1.2383436666818124},{"id":"cheapEatsRestaurants_1640e0da72d1","slug":"smasheat-o-1640","kind":"restaurant","name":"Smasheat'o","lat":37.95001486404743,"lng":23.73773292955517,"url":"https://maps.app.goo.gl/nrXvTuy8yr3sWi7k8?g_st=ipc","address":"Meg. Alexandrou 2, Athina 172 35","categoryIds":["cheap-eats"],"categories":["Gyros & Cheap Eats"],"distanceKm":1.3044991543185283},{"id":"dessertsRestaurants_7c5a207d8534","slug":"galaktopoleio-stamoy-7c5a","kind":"restaurant","name":"Γαλακτοπωλείο ΣΤΑΜΟΥ","lat":37.93137189453027,"lng":23.754775535968022,"url":"https://maps.app.goo.gl/o9wp2AdrozqHihcN7?g_st=ipc","address":"Λεωφ. Σοφοκλή Βενιζέλου 96, Ηλιούπολη 163 41","categoryIds":["desserts"],"categories":["Dessert Shops"],"distanceKm":1.3171133442088252},{"id":"greekRestaurants_5c7530a68c50","slug":"ladokolla-dafnis-5c75","kind":"restaurant","name":"Λαδόκολλα Δάφνης","lat":37.948710278848054,"lng":23.736099857630663,"url":"https://maps.app.goo.gl/DJkwhBF35mfEBRKG7","address":"Λεωφ. Αλ. Παπαναστασίου 8, Δάφνη Αττικής 172 35","categoryIds":["greek-restaurants"],"categories":["Greek Restaurants"],"distanceKm":1.332128899061978},{"id":"dessertsRestaurants_bf8ca0a3720e","slug":"elli-s-cakes-bf8c","kind":"restaurant","name":"Elli's Cakes","lat":37.9448495085085,"lng":23.734073926930343,"url":"https://maps.app.goo.gl/eufNFz1Bu9hgqeNm6?g_st=ipc","address":"Λεωφ. Αγίου Δημητρίου 40, Αγ. Δημήτριος Αττικής 173 41","categoryIds":["desserts"],"categories":["Dessert Shops"],"distanceKm":1.3325782354779723},{"id":"municipalities_9c070c898016","slug":"ilioypoli-9c07","kind":"municipality","name":"Ηλιούπολη","lat":37.9303,"lng":23.7506,"aliases":["Ilioupoli","Heliopoli","Ηλιουπολη","Ηλιουπολις","Heliopolis"],"region":"Νότια Προάστια","name_en":"Ilioupoli","region_en":"Southern Suburbs","distanceKm":1.34010039913398},{"id":"vegetarianRestaurants_74f8ca9bcb55","slug":"dinette-dafni-74f8","kind":"restaurant","name":"Dinette Dafni","lat":37.949260684351316,"lng":23.73612865746863,"url":"https://maps.app.goo.gl/kkxVViHsfrAhDtz38?g_st=ipc","address":"Μιχαήλ Καραολή 1-3, Αθήνα 172 35","categoryIds":["vegetarian"],"categories":["Vegetarian Friendly Restaurants"],"distanceKm":1.3638826244489812},{"id":"cheapEatsRestaurants_53e2baa7ddae","slug":"o-giorgos-ilioypoli-53e2","kind":"restaurant","name":"Ο Γιώργος (Ηλιούπολη)","lat":37.93157343086467,"lng":23.756713794378285,"url":"https://maps.app.goo.gl/ZHk6UviE5DhKfmAcA?g_st=ipc","address":"Πλ. Εθ. Αντιστάσεως 8, Ηλιούπολη 163 42","categoryIds":["cheap-eats"],"categories":["Gyros & Cheap Eats"],"distanceKm":1.3727741869727446},{"id":"italianRestaurants_d26e71c0baaa","slug":"p3-pizza-pasta-piazza-d26e","kind":"restaurant","name":"P3 • Pizza Pasta Piazza","lat":37.95458478436311,"lng":23.74640491373037,"url":"https://maps.app.goo.gl/RxyTMGLyt4d7KQ4T7?g_st=ipc","address":"Πλ. Υμηττού 15, Υμηττός 172 37","categoryIds":["italian"],"categories":["Italian Restaurants"],"distanceKm":1.3860103395022738},{"id":"greekRestaurants_5c488f0d8ce0","slug":"ether-athens-5c48","kind":"restaurant","name":"Ether Athens","lat":37.9300575683433,"lng":23.752395520807372,"url":"https://maps.app.goo.gl/X42jFmXfj3xf7XFx9","address":"Πριάμου 2, Ηλιούπολη 163 41","categoryIds":["greek-restaurants"],"categories":["Greek Restaurants"],"distanceKm":1.392730472602592}],"mentionedGuides":[],"canonicalSlug":"zampelis-soyvlaki-53eb","enrichment":{"summary_en":"ΖΑΜΠΕΛΗΣ Σουβλάκι is a curated restaurant in Ηλιούπολη 163 46 in the Gyros & Cheap Eats collection. It is connected to 5 nearby Googlementor picks to help travelers build a stronger local route.","summary_el":"ΖΑΜΠΕΛΗΣ Σουβλάκι είναι ένα επιλεγμένο σημείο φαγητού στην περιοχή Ηλιούπολη 163 46 και ανήκει στη συλλογή Gyros & Cheap Eats. Συνδέεται με 5 κοντινές προτάσεις του Googlementor για πιο ολοκληρωμένη εμπειρία.","vibe_tags":["curated","budget-friendly"],"best_for":["first-time visitors","food lovers","budget travelers"],"visit_moments":["lunch stop","dinner stop"],"practical_note":"Address and direct map link are available for easy turn-by-turn access.","nearby_walkable_count":5,"nearby_count_2km":45,"confidence":0.98},"areaContext":{"slug":"ymittos","name":"Ymittos","nameEl":"Υμηττός"},"intentContexts":[{"href":"/cheap-eats/ymittos","label":"Gyros & Cheap Eats in Ymittos","categorySlug":"cheap-eats","categoryName":"Gyros & Cheap Eats","areaSlug":"ymittos","areaName":"Ymittos","areaNameEl":"Υμηττός"}]},"__N_SSG":true}