{"pageProps":{"payload":{"area":{"id":"municipalities_54bb39e9ab94","name":"Δάφνη","nameEn":"Dafni","region":"Νότια Προάστια","regionEn":"Southern Suburbs","lat":37.95,"lng":23.732,"urlSlug":"dafni","aliases":["Δάφνη","Dafni","Δάφνη Southern Suburbs","Dafni Southern Suburbs","Daphni","Δαφνη","Daphne","dafni-54bb","dafni"]},"category":{"id":"greek-restaurants","name":"Greek Restaurants","urlSlug":"greek-restaurants","aliases":["greek-restaurants","Greek Restaurants"]},"entities":[{"entity":{"id":"greekRestaurants_191784dd5c83","slug":"ta-filetakia-1917","kind":"restaurant","name":"Τα φιλετάκια","lat":37.94824819005281,"lng":23.729579675166935,"url":"https://maps.app.goo.gl/tBGQqYJbzo48VPWv9","address":"Εθνάρχου Μακαρίου 126, Δάφνη Αττικής 172 34","categoryIds":["greek-restaurants"],"categories":["Greek Restaurants"]},"distanceKm":0.2880668934840229},{"entity":{"id":"greekRestaurants_5c7530a68c50","slug":"ladokolla-dafnis-5c75","kind":"restaurant","name":"Λαδόκολλα Δάφνης","lat":37.948710278848054,"lng":23.736099857630663,"url":"https://maps.app.goo.gl/DJkwhBF35mfEBRKG7","address":"Λεωφ. Αλ. Παπαναστασίου 8, Δάφνη Αττικής 172 35","categoryIds":["greek-restaurants"],"categories":["Greek Restaurants"]},"distanceKm":0.38703857568522226},{"entity":{"id":"greekRestaurants_c2d712c3a636","slug":"louiza-athens-c2d7","kind":"restaurant","name":"Louiza Athens","lat":37.958439423665176,"lng":23.722755568163475,"url":"https://maps.app.goo.gl/QPXwcnn7KEEcjqBb9","address":"Σφιγγός 13, Αθήνα 117 45","categoryIds":["greek-restaurants"],"categories":["Greek Restaurants"]},"distanceKm":1.239996136483637},{"entity":{"id":"greekRestaurants_6c6d00a6a4f4","slug":"remoytsiko-taverna-6c6d","kind":"restaurant","name":"Ρεμουτσικο Ταβέρνα","lat":37.93888185097854,"lng":23.730869105234564,"url":"https://maps.app.goo.gl/zELuRQBZCjzsqwux5","address":"Λεωφ. Αγίου Δημητρίου 120, Αγ. Δημήτριος Αττικής 173 41","categoryIds":["greek-restaurants"],"categories":["Greek Restaurants"]},"distanceKm":1.2402526893865993},{"entity":{"id":"greekRestaurants_e9888507556f","slug":"fita-e988","kind":"restaurant","name":"Φιτα","lat":37.959800125380376,"lng":23.723270363621033,"url":"https://maps.app.goo.gl/dz2YxasHy4LnBQ668","address":"Ντουρμ 1, Αθήνα 117 45","categoryIds":["greek-restaurants"],"categories":["Greek Restaurants"]},"distanceKm":1.3316582113764641},{"entity":{"id":"greekRestaurants_11dff068e9ea","slug":"taverna-toy-vardi-11df","kind":"restaurant","name":"Ταβέρνα του Βαρδή","lat":37.95570603338151,"lng":23.74583290711746,"url":"https://maps.app.goo.gl/6RAXFnJTA2DTzwA88","address":"Καισαρείας 9, Υμηττός 172 37","categoryIds":["greek-restaurants"],"categories":["Greek Restaurants"]},"distanceKm":1.368791111878099},{"entity":{"id":"greekRestaurants_33a0b55abdc4","slug":"to-trikyklo-33a0","kind":"restaurant","name":"Το Τρικυκλο","lat":37.96243041130632,"lng":23.732361770965667,"url":"https://maps.app.goo.gl/iQ4V71S2t14KAPNM9","address":"Πυθέου 34-Θ.Γεωμετρου 1, Πυθέου 34, Αθήνα 117 43","categoryIds":["greek-restaurants"],"categories":["Greek Restaurants"]},"distanceKm":1.3825625567300317},{"entity":{"id":"greekRestaurants_b3da8ddd3955","slug":"lostre-koyzina-b3da","kind":"restaurant","name":"Λοστρέ κουζίνα","lat":37.96258323945813,"lng":23.732334829769364,"url":"https://maps.app.goo.gl/T4yBbxnNyvkykNoS9","address":"Πυθέου 32, Αθήνα 117 43","categoryIds":["greek-restaurants"],"categories":["Greek Restaurants"]},"distanceKm":1.3995003131209776},{"entity":{"id":"greekRestaurants_dcfbb404a98b","slug":"to-ypogeio-toy-marathoniti-dcfb","kind":"restaurant","name":"Το Υπόγειο του Μαραθωνίτη","lat":37.96187332155002,"lng":23.74031744806371,"url":"https://maps.app.goo.gl/pp5rzZKvkv6W1fXL7","address":"Βίνκελμαν 3, Αθήνα 116 32","categoryIds":["greek-restaurants"],"categories":["Greek Restaurants"]},"distanceKm":1.5082616067711772},{"entity":{"id":"greekRestaurants_e8a12eb29aae","slug":"eylalia-e8a1","kind":"restaurant","name":"Ευλαλία","lat":37.96221703725563,"lng":23.742138763953527,"url":"https://maps.app.goo.gl/HVpdCimDL2uUQGMfA","address":"Φρύνωνος 10, Αθήνα 116 32","categoryIds":["greek-restaurants"],"categories":["Greek Restaurants"]},"distanceKm":1.6234603319783805},{"entity":{"id":"greekRestaurants_2cc5d772f006","slug":"onos-taverna-2cc5","kind":"restaurant","name":"Onos Taverna","lat":37.96571079116367,"lng":23.725945276440267,"url":"https://maps.app.goo.gl/ur5XrAoMuE8FsR5c6","address":"Δράκου 14, Αθήνα 117 42","categoryIds":["greek-restaurants"],"categories":["Greek Restaurants"]},"distanceKm":1.8258306714079102},{"entity":{"id":"greekRestaurants_316cf3a477d7","slug":"taverna-o-notos-316c","kind":"restaurant","name":"Ταβέρνα ο Νότος","lat":37.93527346472632,"lng":23.722390326717125,"url":"https://maps.app.goo.gl/TEReWJLojKZEkJL38","address":"Μεταμορφώσεως 2, Αγ. Δημήτριος Αττικής 173 41","categoryIds":["greek-restaurants"],"categories":["Greek Restaurants"]},"distanceKm":1.8416232332726596},{"entity":{"id":"greekRestaurants_32eb2400b721","slug":"olympion-32eb","kind":"restaurant","name":"Ολύμπιον","lat":37.96661871653892,"lng":23.73449829017252,"url":"https://maps.app.goo.gl/ibRHUhwHzNffs1sC8","address":"Αναπαύσεως 9, Αθήνα 116 36","categoryIds":["greek-restaurants"],"categories":["Greek Restaurants"]},"distanceKm":1.8608524767504306},{"entity":{"id":"greekRestaurants_fdc308cbed46","slug":"sfika-fdc3","kind":"restaurant","name":"Σφήκα","lat":37.966122619632145,"lng":23.726245016024656,"url":"https://maps.app.goo.gl/WDLKPoT2bayYqor96","address":"Στρ. Κοντούλη 15, Αθήνα 117 42","categoryIds":["greek-restaurants"],"categories":["Greek Restaurants"]},"distanceKm":1.862402194042851},{"entity":{"id":"greekRestaurants_eecb2ebbfdc2","slug":"gitema-eecb","kind":"restaurant","name":"Γήτεμα","lat":37.94107986247284,"lng":23.713131731866255,"url":"https://maps.app.goo.gl/S3ph9mpPrmbS64x3A","address":"Λεωφ. Ελ. Βενιζέλου 88, Νέα Σμύρνη 171 22","categoryIds":["greek-restaurants"],"categories":["Greek Restaurants"]},"distanceKm":1.9290521286229785},{"entity":{"id":"greekRestaurants_104d52bd2241","slug":"mpalkoni-estiatorio-kai-mpar-104d","kind":"restaurant","name":"Μπαλκόνι Εστιατόριο και Μπαρ","lat":37.96744106512062,"lng":23.72879886025239,"url":"https://maps.app.goo.gl/7XXsfB27aRZAsikR7","address":"Βεΐκου 1, Αθήνα 117 42","categoryIds":["greek-restaurants"],"categories":["Greek Restaurants"]},"distanceKm":1.9595596599654344},{"entity":{"id":"greekRestaurants_c15edd7fcde2","slug":"estiatorio-smile-c15e","kind":"restaurant","name":"Εστιατόριο Smile","lat":37.967615812266935,"lng":23.729979287152204,"url":"https://maps.app.goo.gl/dzqWtwgMFs9Vcqew6","address":"Πλ. Τσώκρη 1, Αθήνα 117 42","categoryIds":["greek-restaurants"],"categories":["Greek Restaurants"]},"distanceKm":1.966784126148069},{"entity":{"id":"greekRestaurants_ef1588581bbb","slug":"myrtia-ef15","kind":"restaurant","name":"Μυρτιά","lat":37.940920844377125,"lng":23.712738244892858,"url":"https://maps.app.goo.gl/QHjMpbFEFgtWLbA57","address":"Αϊδινίου 55, Νέα Σμύρνη 171 22","categoryIds":["greek-restaurants"],"categories":["Greek Restaurants"]},"distanceKm":1.967740611256456},{"entity":{"id":"greekRestaurants_d2cc3fcfc069","slug":"ramona-taverna-kallithea-d2cc","kind":"restaurant","name":"Ραμόνα Ταβέρνα Καλλιθέα","lat":37.9556758154796,"lng":23.70860659191753,"url":"https://maps.app.goo.gl/RDXvdLT2Zy9wH87X9","address":"Μίνωος 11-13, Καλλιθέα 176 72","categoryIds":["greek-restaurants"],"categories":["Greek Restaurants"]},"distanceKm":2.1460151442712534},{"entity":{"id":"greekRestaurants_1ce7ef86a93e","slug":"vyrinis-1ce7","kind":"restaurant","name":"ΒΥΡΙΝΗΣ","lat":37.96743484356373,"lng":23.742810422529566,"url":"https://maps.app.goo.gl/1Xuvp6z7zeGEESxk7","address":"Αρχιμήδους 11, Αθήνα 116 35","categoryIds":["greek-restaurants"],"categories":["Greek Restaurants"]},"distanceKm":2.157938610318872},{"entity":{"id":"greekRestaurants_6497d4b8be55","slug":"o-mitos-kritiko-rakadiko-mezedopoleio-6497","kind":"restaurant","name":"Ο Μίτος (Κρητικό Ρακάδικο-Μεζεδοπωλείο)","lat":37.95902391394004,"lng":23.710171017106486,"url":"https://maps.app.goo.gl/fWEdbaEvd9cA8Enr9","address":"Αριστείδου 62, Καλλιθέα 176 71","categoryIds":["greek-restaurants"],"categories":["Greek Restaurants"]},"distanceKm":2.160986065248517},{"entity":{"id":"greekRestaurants_548d92c2d4db","slug":"soyrtoyko-548d","kind":"restaurant","name":"Σουρτουκω","lat":37.96175056849477,"lng":23.75277374627553,"url":"https://maps.app.goo.gl/xYnatdAUqU3QWGLv9","address":"Λεωφ. Χρυσοστόμου Σμύρνης 47, Βύρωνας 162 32","categoryIds":["greek-restaurants"],"categories":["Greek Restaurants"]},"distanceKm":2.2415448040025705},{"entity":{"id":"greekRestaurants_9f875f84dbee","slug":"taverna-tzimis-9f87","kind":"restaurant","name":"Ταβέρνα Τζίμης","lat":37.96221220979963,"lng":23.752873943570865,"url":"https://maps.app.goo.gl/qCasHzTvfzEm5GVQ9","address":"Κωνσταντιλιέρη 2, Βύρωνας 162 31","categoryIds":["greek-restaurants"],"categories":["Greek Restaurants"]},"distanceKm":2.27889366904108},{"entity":{"id":"greekRestaurants_c751a3d5b17d","slug":"koyvelos-c751","kind":"restaurant","name":"Κουβελος","lat":37.96561446275287,"lng":23.714982571965468,"url":"https://maps.app.goo.gl/FmVVezpy5Uwrec5e9","address":"Γενναίου Κολοκοτρώνη 66, Αθήνα 117 41","categoryIds":["greek-restaurants"],"categories":["Greek Restaurants"]},"distanceKm":2.2892229228418577},{"entity":{"id":"greekRestaurants_4d35ec674015","slug":"taverna-saita-4d35","kind":"restaurant","name":"Taverna Saita","lat":37.97248143588815,"lng":23.732031545694568,"url":"https://maps.app.goo.gl/SCwWcqyGvhz7WVrE8","address":"Κυδαθηναίων 21, Αθήνα 105 58","categoryIds":["greek-restaurants"],"categories":["Greek Restaurants"]},"distanceKm":2.499823144244455},{"entity":{"id":"greekRestaurants_aa39dbadb1cc","slug":"mparmpa-mitsos-agios-dimitrios-aa39","kind":"restaurant","name":"Μπάρμπα-Μήτσος - Άγιος Δημήτριος","lat":37.92988893217819,"lng":23.71912670552918,"url":"https://maps.app.goo.gl/BYxu5opm4HvR37SN9","address":"Ιουστινιανού 11, Αγ. Δημήτριος Αττικής 173 41","categoryIds":["greek-restaurants"],"categories":["Greek Restaurants"]},"distanceKm":2.5050473632032437},{"entity":{"id":"greekRestaurants_e299a6be96f9","slug":"to-kafeneio-e299","kind":"restaurant","name":"Το Καφενείο","lat":37.97255962660001,"lng":23.729567011443763,"url":"https://maps.app.goo.gl/3s8YnKNXM61cpsz69","address":"Επιχάρμου 1, Αθήνα 105 58","categoryIds":["greek-restaurants"],"categories":["Greek Restaurants"]},"distanceKm":2.517567990458827},{"entity":{"id":"greekRestaurants_b996975f2765","slug":"to-koyzoylo-kritikes-geyseis-b996","kind":"restaurant","name":"Το Κουζουλό-Κρητικές Γεύσεις","lat":37.93790456342302,"lng":23.756307120209538,"url":"https://maps.app.goo.gl/92JS6PzrgTe3Moyv6","address":"Λεωφ. Ειρήνης 10, Ηλιούπολη 163 45","categoryIds":["greek-restaurants"],"categories":["Greek Restaurants"]},"distanceKm":2.520341325473684},{"entity":{"id":"greekRestaurants_e3992a60261a","slug":"kritikos-e399","kind":"restaurant","name":"Κρητικός","lat":37.94303304147985,"lng":23.704084169584778,"url":"https://maps.app.goo.gl/QgBcqGt9addfXPwL6","address":"Ραιδεστού 36, Νέα Σμύρνη 171 22","categoryIds":["greek-restaurants"],"categories":["Greek Restaurants"]},"distanceKm":2.567507613324639},{"entity":{"id":"greekRestaurants_3bad5c31fe5b","slug":"kappari-3bad","kind":"restaurant","name":"Κάππαρη","lat":37.967385035347,"lng":23.71216312954278,"url":"https://maps.app.goo.gl/3JxpXTF4ssEgfTEA9?g_st=ipc","address":"Dorieon 36, Athina 118 51","categoryIds":["greek-restaurants"],"categories":["Greek Restaurants"]},"distanceKm":2.600306346234509}],"counts":{"totalEntities":4118,"totalInArea":728,"totalInCategory":779,"totalCategoryArea":79},"relatedCategories":[{"categoryId":"coffee-brunch","categorySlug":"brunch","categoryName":"Coffee & Brunch Spots","count":117,"passesThreshold":true},{"categoryId":"cheap-eats","categorySlug":"cheap-eats","categoryName":"Gyros & Cheap Eats","count":90,"passesThreshold":true},{"categoryId":"desserts","categorySlug":"desserts","categoryName":"Dessert Shops","count":77,"passesThreshold":true},{"categoryId":"luxury-dining","categorySlug":"luxury-dining","categoryName":"Luxury Dining","count":63,"passesThreshold":true},{"categoryId":"vegetarian","categorySlug":"vegetarian","categoryName":"Vegetarian Friendly Restaurants","count":52,"passesThreshold":true},{"categoryId":"italian","categorySlug":"italian","categoryName":"Italian Restaurants","count":48,"passesThreshold":true},{"categoryId":"rooftop-lounges","categorySlug":"rooftops","categoryName":"Rooftop Lounges","count":48,"passesThreshold":true},{"categoryId":"attractions","categorySlug":"attractions","categoryName":"Must-See Attractions","count":39,"passesThreshold":true},{"categoryId":"burgers","categorySlug":"burgers","categoryName":"Burger Spots","count":33,"passesThreshold":true},{"categoryId":"asian","categorySlug":"asian-restaurants","categoryName":"Asian Restaurants","count":33,"passesThreshold":true}],"relatedAreas":[{"areaId":"municipalities_877c3bc81df5","areaName":"Σύνταγμα","areaSlug":"syntagma","count":104,"passesThreshold":true,"nearestDistanceKm":0.25065315412584166},{"areaId":"municipalities_d7e1aaaed4f9","areaName":"Μοναστηράκι","areaSlug":"monastiraki","count":102,"passesThreshold":true,"nearestDistanceKm":0.11018896540685234},{"areaId":"municipalities_616efd2a0d9b","areaName":"Κουκάκι","areaSlug":"koykaki","count":102,"passesThreshold":true,"nearestDistanceKm":0.1192546213730499},{"areaId":"municipalities_0cae2c00b932","areaName":"Κολωνάκι","areaSlug":"kolonaki","count":102,"passesThreshold":true,"nearestDistanceKm":0.2699072412087797},{"areaId":"municipalities_2bcfcb8b899f","areaName":"Ψυρρή","areaSlug":"psyrri","count":101,"passesThreshold":true,"nearestDistanceKm":0.07774951180130882},{"areaId":"municipalities_5bc013791cf8","areaName":"Πλάκα","areaSlug":"plaka","count":100,"passesThreshold":true,"nearestDistanceKm":0.012491754607387504},{"areaId":"municipalities_2f324ee27306","areaName":"Εξάρχεια","areaSlug":"exarcheia","count":100,"passesThreshold":true,"nearestDistanceKm":0.18646577481015641},{"areaId":"municipalities_4149fa79e27b","areaName":"Ακρόπολη","areaSlug":"akropoli","count":100,"passesThreshold":true,"nearestDistanceKm":0.3588617537950929},{"areaId":"municipalities_7e1691d5f08d","areaName":"Μεταξουργείο","areaSlug":"metaxoyrgeio","count":98,"passesThreshold":true,"nearestDistanceKm":0.05816078489896007},{"areaId":"municipalities_b85b54408d92","areaName":"Θησείο","areaSlug":"thiseio","count":97,"passesThreshold":true,"nearestDistanceKm":0.1468570728458221}],"passesThreshold":true},"hasAreaGuidePage":true,"topGuides":[{"slug":"tap-water-safe-greece-el","title":"Είναι Ασφαλές να Πίνετε Νερό Βρύσης στην Ελλάδα;","date":"2026-03-04"},{"slug":"tap-water-safe-greece","title":"Is Tap Water Safe to Drink in Greece?","date":"2026-03-04"},{"slug":"traveling-to-greece-on-a-budget-el","title":"Ταξιδι στην Ελλαδα με μικρο budget","date":"2026-02-10"}]},"__N_SSG":true}