{"pageProps":{"payload":{"area":{"id":"municipalities_e743acc9b81e","name":"Βαρδάρης","nameEn":"Vardaris","region":"Θεσσαλονίκη","regionEn":"Thessaloniki","lat":40.6447,"lng":22.9381,"urlSlug":"vardaris","aliases":["Βαρδάρης","Vardaris","Βαρδάρης Thessaloniki","Vardaris Thessaloniki","Βαρδαρης","vardaris-e743","vardaris"]},"category":{"id":"greek-restaurants","name":"Greek Restaurants","urlSlug":"greek-restaurants","aliases":["greek-restaurants","Greek Restaurants"]},"entities":[{"entity":{"id":"greekRestaurants_8f48f269fd50","slug":"koru-inspired-cuisine-8f48","kind":"restaurant","name":"KORU INSPIRED CUISINE","lat":40.6419170569474,"lng":22.93912654198058,"url":"https://maps.app.goo.gl/z6JvmY8nTC7yzJmFA?g_st=ipc","address":"Ολύμπου 15, Θεσσαλονίκη 546 30","categoryIds":["greek-restaurants"],"categories":["Greek Restaurants"]},"distanceKm":0.3213415325813618},{"entity":{"id":"greekRestaurants_7ff4b23f5102","slug":"extravaganza-7ff4","kind":"restaurant","name":"Extravaganza","lat":40.639336618089786,"lng":22.940241453783848,"url":"https://maps.app.goo.gl/j6N8yd7wQi8DJTxU8?g_st=ipc","address":"Επισκοπου Αμβροσιου 8, Θεσσαλονίκη 546 30","categoryIds":["greek-restaurants"],"categories":["Greek Restaurants"]},"distanceKm":0.6231504656336786},{"entity":{"id":"greekRestaurants_776ec954209f","slug":"maestranza-skg-776e","kind":"restaurant","name":"Maestranza.skg","lat":40.6389335540748,"lng":22.939948700094217,"url":"https://maps.app.goo.gl/9dU4LoJrsfE8osv2A?g_st=ipc","address":"Ptolemeon 29Β, Thessaloniki 546 30","categoryIds":["greek-restaurants"],"categories":["Greek Restaurants"]},"distanceKm":0.6598995796369398},{"entity":{"id":"greekRestaurants_20a08b488f9b","slug":"verges-lagies-20a0","kind":"restaurant","name":"Βέργες Λάγιες","lat":40.639047485030176,"lng":22.943515702588808,"url":"https://maps.app.goo.gl/ArjVMDpRBXxzMQ7h9?g_st=ipc","address":"Ελ. Βενιζέλου 63, Θεσσαλονίκη 546 31","categoryIds":["greek-restaurants"],"categories":["Greek Restaurants"]},"distanceKm":0.7770781851257349},{"entity":{"id":"greekRestaurants_03068c7e0a94","slug":"o-loytros-0306","kind":"restaurant","name":"Ο Λουτρός","lat":40.638466462915126,"lng":22.94314610009663,"url":"https://maps.app.goo.gl/4ZWFM4EN2V31EBwc7?g_st=ipc","address":"El. Venizelou 55, Thessaloniki 546 31","categoryIds":["greek-restaurants"],"categories":["Greek Restaurants"]},"distanceKm":0.8134578209405089},{"entity":{"id":"greekRestaurants_08b616cef0f8","slug":"kontrampanto-contrabando-08b6","kind":"restaurant","name":"Κοντραμπάντο - Contrabando","lat":40.63847586677097,"lng":22.944230425632455,"url":"https://maps.app.goo.gl/PyWZCYYPtYAB62wz7?g_st=ipc","address":"Γκαρμπολά 2, Θεσσαλονίκη 546 31","categoryIds":["greek-restaurants"],"categories":["Greek Restaurants"]},"distanceKm":0.8640260714446661},{"entity":{"id":"greekRestaurants_468e8ef769c7","slug":"i-kanoyla-468e","kind":"restaurant","name":"Η Κάνουλα","lat":40.63902723791725,"lng":22.945280279447754,"url":"https://maps.app.goo.gl/1wLZCLzQxy3PPNvc7?g_st=ipc","address":"Τάσκου Παπαγεωργίου 4, Θεσσαλονίκη 546 31","categoryIds":["greek-restaurants"],"categories":["Greek Restaurants"]},"distanceKm":0.874595322026764},{"entity":{"id":"greekRestaurants_5762dafe8770","slug":"giannoyla-5762","kind":"restaurant","name":"Γιαννούλα","lat":40.640039548951144,"lng":22.946778249418276,"url":"https://maps.app.goo.gl/bG2X8oAd5FzPwzKJ9?g_st=ipc","address":"Κασσάνδρου 50, Θεσσαλονίκη 546 33","categoryIds":["greek-restaurants"],"categories":["Greek Restaurants"]},"distanceKm":0.8970447157613994},{"entity":{"id":"greekRestaurants_8b274eab2a6d","slug":"taverna-to-roloi-8b27","kind":"restaurant","name":"Ταβέρνα το Ρολόι","lat":40.652570939966324,"lng":22.941580979423406,"url":"https://maps.app.goo.gl/PNNn8uDapDZFBdjd6?g_st=ipc","address":"Ελ. Βενιζέλου 87, Νεάπολη 567 28","categoryIds":["greek-restaurants"],"categories":["Greek Restaurants"]},"distanceKm":0.9231658372320639},{"entity":{"id":"greekRestaurants_ef089e0b68dd","slug":"i-royga-ef08","kind":"restaurant","name":"Η Ρούγα","lat":40.63643483313158,"lng":22.940620107093462,"url":"https://maps.app.goo.gl/doL5QTrJdXUeuhcb9?g_st=ipc","address":"Καρίπη 28, Θεσσαλονίκη 546 24","categoryIds":["greek-restaurants"],"categories":["Greek Restaurants"]},"distanceKm":0.9433224134790864},{"entity":{"id":"greekRestaurants_35929975107f","slug":"tandur-meze-bar-3592","kind":"restaurant","name":"Tandur meze-bar","lat":40.65350641836204,"lng":22.93893939189117,"url":"https://maps.app.goo.gl/i8gDRLqa1MtexdZ17?g_st=ipc","address":"Αγίου Γεωργίου 42, Νεάπολη 567 27","categoryIds":["greek-restaurants"],"categories":["Greek Restaurants"]},"distanceKm":0.981786297920165},{"entity":{"id":"greekRestaurants_a6c1730c289f","slug":"akadimia-art-restaurant-a6c1","kind":"restaurant","name":"Ακαδημία art restaurant","lat":40.635868351005776,"lng":22.938600197259788,"url":"https://maps.app.goo.gl/tXw3izdEArtABRbT7?g_st=ipc","address":"Αγ. Μηνά 3, Θεσσαλονίκη 546 25","categoryIds":["greek-restaurants"],"categories":["Greek Restaurants"]},"distanceKm":0.9829410573822862},{"entity":{"id":"greekRestaurants_34eb138bccb6","slug":"paradosiako-kafeneio-stoy-mitsoy-34eb","kind":"restaurant","name":"Παραδοσιακό Καφενείο \"Στου Μήτσου\"","lat":40.636086191912526,"lng":22.942334253020217,"url":"https://maps.app.goo.gl/ZPKuMKk4XbPFHKGh9?g_st=ipc","address":"Βλάλη 11, Θεσσαλονίκη 546 24","categoryIds":["greek-restaurants"],"categories":["Greek Restaurants"]},"distanceKm":1.0222744178442476},{"entity":{"id":"greekRestaurants_49d951272a6f","slug":"charoypi-49d9","kind":"restaurant","name":"Χαρούπι","lat":40.63543442383406,"lng":22.935693784240467,"url":"https://maps.app.goo.gl/Doz2MeGM9WFBW6vBA?g_st=ipc","address":"Δόξης 4, Θεσσαλονίκη 546 25","categoryIds":["greek-restaurants"],"categories":["Greek Restaurants"]},"distanceKm":1.0500988986089903},{"entity":{"id":"greekRestaurants_9bcc793811d6","slug":"wonderwall-fun-dining-9bcc","kind":"restaurant","name":"WonderWall Fun Dining","lat":40.63522269434939,"lng":22.937190668731127,"url":"https://maps.app.goo.gl/gWA1A2nYg5nMyK6r8?g_st=ipc","address":"Αἰγύπτου 11, Θεσσαλονίκη 546 25","categoryIds":["greek-restaurants"],"categories":["Greek Restaurants"]},"distanceKm":1.0566177292039507},{"entity":{"id":"greekRestaurants_ae25b604ff8c","slug":"trofi-sintrofi-ae25","kind":"restaurant","name":"+ ΤροΦή | Sintrofi","lat":40.63496526167509,"lng":22.936331658971874,"url":"https://maps.app.goo.gl/VZEPkfcaPiYufHTL7?g_st=ipc","address":"7, Doxis Street, Thessaloniki 546 25","categoryIds":["greek-restaurants"],"categories":["Greek Restaurants"]},"distanceKm":1.0926885742299437},{"entity":{"id":"greekRestaurants_9e02f77b6b20","slug":"tiganies-kai-schares-9e02","kind":"restaurant","name":"Τηγανιές και Σχάρες","lat":40.634600601276,"lng":22.936919320658006,"url":"https://maps.app.goo.gl/3eYmnpopLWBzSTuj9?g_st=ipc","address":"Katouni 3, Thessaloniki 526 22","categoryIds":["greek-restaurants"],"categories":["Greek Restaurants"]},"distanceKm":1.1274120149922808},{"entity":{"id":"greekRestaurants_5000cd964e1b","slug":"omikron-5000","kind":"restaurant","name":"Όμικρον","lat":40.63443899234816,"lng":22.937636685469105,"url":"https://maps.app.goo.gl/HVh64N8h1M3abkrM6?g_st=ipc","address":"Οπλοποιού 3, Θεσσαλονίκη 546 25","categoryIds":["greek-restaurants"],"categories":["Greek Restaurants"]},"distanceKm":1.1416415213428444},{"entity":{"id":"greekRestaurants_af0b8e5d51b2","slug":"loupino-af0b","kind":"restaurant","name":"Loupino","lat":40.63421562776771,"lng":22.937015451825886,"url":"https://maps.app.goo.gl/iGLD7SMDZ7Y8N12R8?g_st=ipc","address":"Κατούνη 4, Θεσσαλονίκη 546 25","categoryIds":["greek-restaurants"],"categories":["Greek Restaurants"]},"distanceKm":1.1693951121757615},{"entity":{"id":"greekRestaurants_33ac18ee44f0","slug":"mamaloyka-33ac","kind":"restaurant","name":"Μαμαλούκα","lat":40.634129762929895,"lng":22.937535077448267,"url":"https://maps.app.goo.gl/gGsKj9f95wpoFDj7A?g_st=ipc","address":"Ίωνος Δραγoύμη 3, Θεσσαλονίκη 546 25","categoryIds":["greek-restaurants"],"categories":["Greek Restaurants"]},"distanceKm":1.1763229001597812},{"entity":{"id":"greekRestaurants_4c3b01ea4aaf","slug":"bazagiazi-4c3b","kind":"restaurant","name":"Bazagiazi","lat":40.63449745236604,"lng":22.94197317773979,"url":"https://maps.app.goo.gl/aQvcxn9tCqZ7ihHN7?g_st=ipc","address":"Vasileos Irakleiou 35, Thessaloniki 546 24","categoryIds":["greek-restaurants"],"categories":["Greek Restaurants"]},"distanceKm":1.180605256916344},{"entity":{"id":"greekRestaurants_c2e6150deb88","slug":"voukakrato-c2e6","kind":"restaurant","name":"Voukakrato","lat":40.63349594522131,"lng":22.938988829539237,"url":"https://maps.app.goo.gl/cB9vpTY1obWtd2Ck7?g_st=ipc","address":"Kalapothaki 6, Thessaloniki 546 24","categoryIds":["greek-restaurants"],"categories":["Greek Restaurants"]},"distanceKm":1.248089375581834},{"entity":{"id":"greekRestaurants_13c994d14935","slug":"taverna-oyzeri-kosmas-13c9","kind":"restaurant","name":"Ταβέρνα - Ουζερί Κοσμάς","lat":40.635727203567235,"lng":22.94715477968318,"url":"https://maps.app.goo.gl/9edjcaLLqs3ZFkL47?g_st=ipc","address":"Πλάτωνος 15, Θεσσαλονίκη 546 31","categoryIds":["greek-restaurants"],"categories":["Greek Restaurants"]},"distanceKm":1.2566517422156143},{"entity":{"id":"greekRestaurants_ec89737f5dbf","slug":"katsamaka-ec89","kind":"restaurant","name":"Κατσαμάκα","lat":40.63449406102341,"lng":22.94471496310578,"url":"https://maps.app.goo.gl/seYvnbwfcs9jJUEh9?g_st=ipc","address":"Αυγερινού, Αθωνος 18-20, Θεσσαλονίκη 546 23","categoryIds":["greek-restaurants"],"categories":["Greek Restaurants"]},"distanceKm":1.264679532221697},{"entity":{"id":"greekRestaurants_0c9a78977f40","slug":"nea-folia-0c9a","kind":"restaurant","name":"Νέα Φωλιά","lat":40.63831468853848,"lng":22.95095515507328,"url":"https://maps.app.goo.gl/RoPE5F5QLpWFB4rcA?g_st=ipc","address":"Αριστομένους 4, Θεσσαλονίκη 546 34","categoryIds":["greek-restaurants"],"categories":["Greek Restaurants"]},"distanceKm":1.2963736944877997},{"entity":{"id":"greekRestaurants_284ab55d844a","slug":"drosia-284a","kind":"restaurant","name":"Δροσιά","lat":40.64461236646585,"lng":22.953803286668357,"url":"https://maps.app.goo.gl/APT3HJiqoZGsnyPs9?g_st=ipc","address":"Μεσολογγίου 44, Θεσσαλονίκη 566 25","categoryIds":["greek-restaurants"],"categories":["Greek Restaurants"]},"distanceKm":1.3249329997910542},{"entity":{"id":"greekRestaurants_f55cb9debc6f","slug":"iliopetra-f55c","kind":"restaurant","name":"Ηλιόπετρα","lat":40.637407844896174,"lng":22.95118029752211,"url":"https://maps.app.goo.gl/twTSSnJJWA1rop578?g_st=ipc","address":"Αισχύλου 5, Θεσσαλονίκη 546 34","categoryIds":["greek-restaurants"],"categories":["Greek Restaurants"]},"distanceKm":1.36949969710086},{"entity":{"id":"greekRestaurants_429218289710","slug":"ta-mikra-kalyvia-4292","kind":"restaurant","name":"Τα μικρά Καλύβια","lat":40.63664047814548,"lng":22.951162513295422,"url":"https://maps.app.goo.gl/Z39MqbdKvPEFnvnK6?g_st=ipc","address":"Ἁγ. Δημητρίου 136, Θεσσαλονίκη 546 35","categoryIds":["greek-restaurants"],"categories":["Greek Restaurants"]},"distanceKm":1.4205244059125508},{"entity":{"id":"greekRestaurants_6297c85e5b73","slug":"to-limeri-6297","kind":"restaurant","name":"Το λημέρι","lat":40.63585070853852,"lng":22.950530015801274,"url":"https://maps.app.goo.gl/WWLkDZFBAptyzgH88?g_st=ipc","address":"Ολύμπου 116, Θεσσαλονίκη 546 35","categoryIds":["greek-restaurants"],"categories":["Greek Restaurants"]},"distanceKm":1.4381327178420151},{"entity":{"id":"greekRestaurants_26adfb378173","slug":"toicho-toicho-26ad","kind":"restaurant","name":"Τοίχο Τοίχο","lat":40.64280442360803,"lng":22.955285045566942,"url":"https://maps.app.goo.gl/98dknE2zQL7T8npUA?g_st=ipc","address":"Στεργίου Πολυδώρου 1, Θεσσαλονίκη 546 34","categoryIds":["greek-restaurants"],"categories":["Greek Restaurants"]},"distanceKm":1.4651742795164349}],"counts":{"totalEntities":4118,"totalInArea":335,"totalInCategory":779,"totalCategoryArea":48},"relatedCategories":[{"categoryId":"cheap-eats","categorySlug":"cheap-eats","categoryName":"Gyros & Cheap Eats","count":73,"passesThreshold":true},{"categoryId":"coffee-brunch","categorySlug":"brunch","categoryName":"Coffee & Brunch Spots","count":62,"passesThreshold":true},{"categoryId":"desserts","categorySlug":"desserts","categoryName":"Dessert Shops","count":38,"passesThreshold":true},{"categoryId":"burgers","categorySlug":"burgers","categoryName":"Burger Spots","count":23,"passesThreshold":true},{"categoryId":"fish-tavernas","categorySlug":"fish-tavernas","categoryName":"Fish Tavernas","count":18,"passesThreshold":true},{"categoryId":"italian","categorySlug":"italian","categoryName":"Italian Restaurants","count":17,"passesThreshold":true},{"categoryId":"vegetarian","categorySlug":"vegetarian","categoryName":"Vegetarian Friendly Restaurants","count":13,"passesThreshold":true},{"categoryId":"asian","categorySlug":"asian-restaurants","categoryName":"Asian Restaurants","count":12,"passesThreshold":true},{"categoryId":"luxury-dining","categorySlug":"luxury-dining","categoryName":"Luxury Dining","count":10,"passesThreshold":true},{"categoryId":"attractions","categorySlug":"attractions","categoryName":"Must-See Attractions","count":9,"passesThreshold":true}],"relatedAreas":[{"areaId":"municipalities_877c3bc81df5","areaName":"Σύνταγμα","areaSlug":"syntagma","count":104,"passesThreshold":true,"nearestDistanceKm":0.25065315412584166},{"areaId":"municipalities_d7e1aaaed4f9","areaName":"Μοναστηράκι","areaSlug":"monastiraki","count":102,"passesThreshold":true,"nearestDistanceKm":0.11018896540685234},{"areaId":"municipalities_616efd2a0d9b","areaName":"Κουκάκι","areaSlug":"koykaki","count":102,"passesThreshold":true,"nearestDistanceKm":0.1192546213730499},{"areaId":"municipalities_0cae2c00b932","areaName":"Κολωνάκι","areaSlug":"kolonaki","count":102,"passesThreshold":true,"nearestDistanceKm":0.2699072412087797},{"areaId":"municipalities_2bcfcb8b899f","areaName":"Ψυρρή","areaSlug":"psyrri","count":101,"passesThreshold":true,"nearestDistanceKm":0.07774951180130882},{"areaId":"municipalities_5bc013791cf8","areaName":"Πλάκα","areaSlug":"plaka","count":100,"passesThreshold":true,"nearestDistanceKm":0.012491754607387504},{"areaId":"municipalities_2f324ee27306","areaName":"Εξάρχεια","areaSlug":"exarcheia","count":100,"passesThreshold":true,"nearestDistanceKm":0.18646577481015641},{"areaId":"municipalities_4149fa79e27b","areaName":"Ακρόπολη","areaSlug":"akropoli","count":100,"passesThreshold":true,"nearestDistanceKm":0.3588617537950929},{"areaId":"municipalities_7e1691d5f08d","areaName":"Μεταξουργείο","areaSlug":"metaxoyrgeio","count":98,"passesThreshold":true,"nearestDistanceKm":0.05816078489896007},{"areaId":"municipalities_b85b54408d92","areaName":"Θησείο","areaSlug":"thiseio","count":97,"passesThreshold":true,"nearestDistanceKm":0.1468570728458221}],"passesThreshold":true},"hasAreaGuidePage":true,"topGuides":[]},"__N_SSG":true}