{"pageProps":{"entity":{"id":"greekRestaurants_f2cb76696412","slug":"melisses-f2cb","kind":"restaurant","name":"Μέλισσες","lat":38.03614200079934,"lng":23.736207405528564,"url":"https://maps.app.goo.gl/Drq2Vavwjh6HDMKf9","address":"Νικ. Τρυρια 39, Νέα Φιλαδέλφεια Αττικής 143 41","categoryIds":["greek-restaurants"],"categories":["Greek Restaurants"]},"sameCategory":[{"id":"greekRestaurants_9c1516b8d16d","slug":"mister-loykidelis-9c15","kind":"restaurant","name":"Μίστερ Λουκιδέλης","lat":38.03885909725717,"lng":23.736070793481,"url":"https://maps.app.goo.gl/CMKSzphqRyS8ewpNA","address":"Γεωρ. Παπανδρέου 81, Νέα Φιλαδέλφεια Αττικής 143 41","categoryIds":["greek-restaurants"],"categories":["Greek Restaurants"]},{"id":"greekRestaurants_0ed6080d2409","slug":"barbalias-souvlaki-kebab-0ed6","kind":"restaurant","name":"Barbalias Souvlaki Kebab","lat":38.03360892002319,"lng":23.73962850589863,"url":"https://maps.app.goo.gl/Aubws2U5mv9vwN7i7?g_st=ipc","address":"Smyrnis 23, Nea Filadelfia 143 41","categoryIds":["greek-restaurants"],"categories":["Greek Restaurants"]},{"id":"greekRestaurants_4afe4ac40aa7","slug":"piatsa-mezedaki-4afe","kind":"restaurant","name":"Πιάτσα Μεζεδάκι","lat":38.03382490224538,"lng":23.74027260435793,"url":"https://maps.app.goo.gl/NQUdrufxEoMofvYP9","address":"Ιωνίας 35 και, Προύσης 15, Νέα Φιλαδέλφεια Αττικής 143 41","categoryIds":["greek-restaurants"],"categories":["Greek Restaurants"]},{"id":"greekRestaurants_32d9fbbeb9ef","slug":"to-karagatsi-32d9","kind":"restaurant","name":"Το Καραγάτσι","lat":38.039818289814335,"lng":23.738940522044075,"url":"https://maps.app.goo.gl/8aQhSfNrT1Z9qqEm7","address":"Αγίου Ιωάννου 1, Νέα Φιλαδέλφεια Αττικής 143 42","categoryIds":["greek-restaurants"],"categories":["Greek Restaurants"]},{"id":"greekRestaurants_ff1c24351a74","slug":"mparmpa-alexis-ff1c","kind":"restaurant","name":"Μπάρμπα Αλέξης","lat":38.03352855482005,"lng":23.731362347180447,"url":"https://maps.app.goo.gl/qgjaSL92MEaYTNnP8","address":"Σαλαμίνος 70, Νέα Χαλκηδόνα 143 43","categoryIds":["greek-restaurants"],"categories":["Greek Restaurants"]},{"id":"greekRestaurants_c66e14e23e12","slug":"stoy-lagoydaki-c66e","kind":"restaurant","name":"Στου Λαγουδάκη","lat":38.02939885957541,"lng":23.734627277985574,"url":"https://maps.app.goo.gl/4j67R3hXxbhm8zc98","address":"Λεωφ. Δεκελείας 36, Νέα Χαλκηδόνα 143 43","categoryIds":["greek-restaurants"],"categories":["Greek Restaurants"]},{"id":"greekRestaurants_977106c0152b","slug":"familokal-fagadiko-9771","kind":"restaurant","name":"Φαμιλόκαλ Φαγάδικο","lat":38.045110031748486,"lng":23.742897004373283,"url":"https://maps.app.goo.gl/cQhPg66yiWYq8LYP6","address":"Στρατάρχου Αλεξάνδρου Παπάγου 12, Νέα Φιλαδέλφεια Αττικής 143 42","categoryIds":["greek-restaurants"],"categories":["Greek Restaurants"]},{"id":"greekRestaurants_1c33d3a3b85a","slug":"i-voskopoyla-1c33","kind":"restaurant","name":"Η Βοσκοπούλα","lat":38.026845200131646,"lng":23.747963927790185,"url":"https://maps.app.goo.gl/hpb1BhW8cddVUadJA","address":"Σιβόρων 87, Αθήνα 111 42","categoryIds":["greek-restaurants"],"categories":["Greek Restaurants"]}],"nearby":[{"id":"dessertsRestaurants_db46a23fb660","slug":"fairytale-to-paramythopoleio-tis-n-filadelfeias-db46","kind":"restaurant","name":"Fairytale – Το Παραμυθοπωλείο της Ν. Φιλαδέλφειας","lat":38.03560030305474,"lng":23.736295147369493,"url":"https://maps.app.goo.gl/qceSwnEa8MBCzrza6?g_st=ipc","address":"Νικ. Τρυρια 48, Νέα Φιλαδέλφεια Αττικής 143 41","categoryIds":["desserts"],"categories":["Dessert Shops"],"distanceKm":0.06072223691970941},{"id":"coffeeBrunchRestaurants_9257bf81b3ff","slug":"fairytale-to-paramythopoleio-tis-n-filadelfeias-9257","kind":"restaurant","name":"Fairytale – Το Παραμυθοπωλείο της Ν. Φιλαδέλφειας","lat":38.03555224332492,"lng":23.73629276954315,"url":"https://maps.app.goo.gl/GoWf19SFoVJNYBHP9?g_st=ipc","address":"Νικ. Τρυρια 48, Νέα Φιλαδέλφεια Αττικής 143 41","categoryIds":["coffee-brunch"],"categories":["Coffee & Brunch Spots"],"distanceKm":0.06600282131964941},{"id":"cheapEatsRestaurants_8e920e95e567","slug":"slum-it-8e92","kind":"restaurant","name":"Slum it","lat":38.034971479219536,"lng":23.73628101866516,"url":"https://maps.app.goo.gl/m2fyvmtGXXiGevuC6?g_st=ipc","address":"Βρυούλων 15, Νέα Φιλαδέλφεια Αττικής 143 41","categoryIds":["cheap-eats"],"categories":["Gyros & Cheap Eats"],"distanceKm":0.13031563549685402},{"id":"cheapEatsRestaurants_93852e0ca98a","slug":"i-vromiara-the-gourmet-street-food-nea-filadelfeia-9385","kind":"restaurant","name":"Η Βρωμιάρα - The Gourmet Street Food - Νεα Φιλαδέλφεια","lat":38.03438911435279,"lng":23.73692338806855,"url":"https://maps.app.goo.gl/Q23dgN65gryr9fpi7?g_st=ipc","address":"Βρυούλων 5, Νέα Φιλαδέλφεια Αττικής 143 41","categoryIds":["cheap-eats"],"categories":["Gyros & Cheap Eats"],"distanceKm":0.20475055064322167},{"id":"burgersRestaurants_08ca7d0bda51","slug":"koutsi-katsika-street-food-nea-filadelfeia-08ca","kind":"restaurant","name":"Koutsi Katsika Street Food Νέα Φιλαδέλφεια","lat":38.03629712914596,"lng":23.73867302573474,"url":"https://maps.app.goo.gl/XqS8cuX3SxVKDWRr8?g_st=ipc","address":"Λεωφ. Δεκελείας 109, Νέα Φιλαδέλφεια Αττικής 143 41","categoryIds":["burgers"],"categories":["Burger Spots"],"distanceKm":0.2166256594630933},{"id":"cheapEatsRestaurants_25538f73c661","slug":"koutsi-katsika-street-food-nea-filadelfeia-2553","kind":"restaurant","name":"Koutsi Katsika Street Food Νέα Φιλαδέλφεια","lat":38.036295969328165,"lng":23.73867352816236,"url":"https://maps.app.goo.gl/SfprcJNzr7drSK6A6?g_st=ipc","address":"Λεωφ. Δεκελείας 109, Νέα Φιλαδέλφεια Αττικής 143 41","categoryIds":["cheap-eats"],"categories":["Gyros & Cheap Eats"],"distanceKm":0.21665929475046186},{"id":"coffeeBrunchRestaurants_1dc06dcd5307","slug":"libertine-drinkery-1dc0","kind":"restaurant","name":"Libertine drinkery","lat":38.035181855146,"lng":23.738539611236607,"url":"https://maps.app.goo.gl/8mxrF5SroX8mcG5e8?g_st=ipc","address":"Λεωφ. Δεκελείας 114, Νέα Φιλαδέλφεια Αττικής 143 41","categoryIds":["coffee-brunch"],"categories":["Coffee & Brunch Spots"],"distanceKm":0.23047451607415645},{"id":"dessertsRestaurants_72c80ba8b348","slug":"galaktopoleio-stamoy-72c8","kind":"restaurant","name":"Γαλακτοπωλείο ΣΤΑΜΟΥ","lat":38.03443491475164,"lng":23.737764183814345,"url":"https://maps.app.goo.gl/37pG5QPiULEUHnjT8?g_st=ipc","address":"Λεωφ. Δεκελείας 87, Δήμος Νέας Φιλαδέλφειας - Νέας Χαλκηδόνας 143 41","categoryIds":["desserts"],"categories":["Dessert Shops"],"distanceKm":0.2337112491715707}],"sameRegion":[],"mentionedGuides":[]},"__N_SSG":true}