{"pageProps":{"payload":{"area":{"id":"municipalities_af1f7d07cb18","name":"Γκάζι","nameEn":"Gazi","region":"Κέντρο Αθήνας","regionEn":"Athens Center","lat":37.9785,"lng":23.7144,"urlSlug":"gkazi","aliases":["Γκάζι","Gazi","Γκάζι Athens Center","Gazi Athens Center","Gkazi","gkazi-af1f","gkazi"]},"category":null,"entities":[{"entity":{"id":"luxuryDiningRestaurants_c1adda39b182","slug":"sta-kala-kathoymena-c1ad","kind":"restaurant","name":"Στα Καλά Καθούμενα","lat":37.97981343858823,"lng":23.713855292153,"url":"https://maps.app.goo.gl/kdwd63rguvb581o36?g_st=ipc","address":"Ιερά Οδός 25-27-29, Ιερά Οδός 29, Αθήνα 118 54","categoryIds":["luxury-dining"],"categories":["Luxury Dining"]},"distanceKm":0.1536530782630908},{"entity":{"id":"coffeeBrunchRestaurants_d3ad015b2f14","slug":"candycat-d3ad","kind":"restaurant","name":"CandyCat","lat":37.9775897353217,"lng":23.712604313955598,"url":"https://maps.app.goo.gl/bi9guRdYDSpWYmxn9?g_st=ipc","address":"Περσεφόνης 23, Αθήνα 118 54","categoryIds":["coffee-brunch","desserts"],"categories":["Coffee & Brunch Spots","Dessert Shops"]},"distanceKm":0.18712695225307277},{"entity":{"id":"asianRestaurants_f1cd493b50d2","slug":"zafran-indian-kitchen-f1cd","kind":"restaurant","name":"Zafran Indian Kitchen","lat":37.977657888236905,"lng":23.712403701256626,"url":"https://maps.app.goo.gl/JyaNzBjgKky4afGL8?g_st=ipc","address":"Περσεφόνης 25, Αθήνα 118 54","categoryIds":["asian"],"categories":["Asian Restaurants"]},"distanceKm":0.1984538338764129},{"entity":{"id":"greekRestaurants_e9caa161f872","slug":"to-steki-toy-ilia-e9ca","kind":"restaurant","name":"Το Στέκι του Ηλία","lat":37.977110249497095,"lng":23.715901670048872,"url":"https://maps.app.goo.gl/wSbCCiegqHvWj8KcA","address":"Θεσσαλονίκης 7, Αθήνα 118 51","categoryIds":["greek-restaurants"],"categories":["Greek Restaurants"]},"distanceKm":0.20298873494414882},{"entity":{"id":"cheapEatsRestaurants_a74d191853cb","slug":"wolfie-s-iera-odos-a74d","kind":"restaurant","name":"Wolfie’s Iera Odos","lat":37.98005072086818,"lng":23.713098576163578,"url":"https://maps.app.goo.gl/WroCvakHc4brPbjt7?g_st=ipc","address":"Ιερά Οδός 37, Αθήνα 118 54","categoryIds":["cheap-eats"],"categories":["Gyros & Cheap Eats"]},"distanceKm":0.20674643592578212},{"entity":{"id":"burgersRestaurants_6bb98587ed95","slug":"four-hands-6bb9","kind":"restaurant","name":"Four Hands","lat":37.98010264048048,"lng":23.71572330295299,"url":"https://maps.app.goo.gl/ppbxAjV7hVEDbZiV7?g_st=ipc","address":"Κεραμεικού 111, Αθήνα 104 35","categoryIds":["burgers"],"categories":["Burger Spots"]},"distanceKm":0.21262534595951693},{"entity":{"id":"cheapEatsRestaurants_9273dc402e3b","slug":"piccola-9273","kind":"restaurant","name":"Piccola","lat":37.980127892484575,"lng":23.715865229557284,"url":"https://maps.app.goo.gl/MuZFA3dXT4LnZFtL7?g_st=ipc","address":"Keramikou 111, Athina 104 35","categoryIds":["cheap-eats"],"categories":["Gyros & Cheap Eats"]},"distanceKm":0.2219425546203047},{"entity":{"id":"coffeeBrunchRestaurants_4c997e8e7df4","slug":"the-place-secret-yard-4c99","kind":"restaurant","name":"The Place Secret Yard","lat":37.979297007842895,"lng":23.7118945584477,"url":"https://maps.app.goo.gl/H2MApFAjiqUyTf7B8?g_st=ipc","address":"Τριπτολέμου 26, Αθήνα 118 54","categoryIds":["coffee-brunch","vegetarian"],"categories":["Coffee & Brunch Spots","Vegetarian Friendly Restaurants"]},"distanceKm":0.23680561285084292},{"entity":{"id":"mustSeeAttractions_31e331c60661","slug":"kerameikos-archaeological-site-31e3","kind":"restaurant","name":"Kerameikos Archaeological Site","lat":37.97803082106626,"lng":23.717271800112048,"url":"https://maps.app.goo.gl/21oaLw9mApwFReVy7?g_st=ipc","address":"Ermou 148, Athina 105 53","categoryIds":["attractions"],"categories":["Must-See Attractions"]},"distanceKm":0.25705938123848665},{"entity":{"id":"greekRestaurants_1b0710fd0635","slug":"loyis-kafeneio-1b07","kind":"restaurant","name":"Λούης καφενείο","lat":37.98085946462118,"lng":23.71532632472864,"url":"https://maps.app.goo.gl/HykcqWbVLkwR9HqJ7","address":"Λεωνίδου 87, Αθήνα 104 35","categoryIds":["greek-restaurants"],"categories":["Greek Restaurants"]},"distanceKm":0.2746357384225586},{"entity":{"id":"vegetarianRestaurants_92b90dbde5a4","slug":"veganistan-92b9","kind":"restaurant","name":"Veganistan","lat":37.980551028763045,"lng":23.716428370276027,"url":"https://maps.app.goo.gl/hviT1v1LXcBDpknS6?g_st=ipc","address":"Κεραμεικού 101, Αθήνα 104 35","categoryIds":["vegetarian"],"categories":["Vegetarian Friendly Restaurants"]},"distanceKm":0.28917001956391847},{"entity":{"id":"luxuryDiningRestaurants_a27bfcd50aac","slug":"ctc-urban-gastronomy-a27b","kind":"restaurant","name":"CTC Urban Gastronomy","lat":37.98049469537203,"lng":23.71689046945663,"url":"https://maps.app.goo.gl/GpnAhWfdMHLu7ZMPA?g_st=ipc","address":"Πλαταιών 15, Αθήνα 104 35","categoryIds":["luxury-dining"],"categories":["Luxury Dining"]},"distanceKm":0.3111955425192762},{"entity":{"id":"greekRestaurants_79d853816a19","slug":"rakor-79d8","kind":"restaurant","name":"Rakor","lat":37.98047740550758,"lng":23.717062587155947,"url":"https://maps.app.goo.gl/eVrzxTMuCzQvAE596","address":"Πλαταιών 10, Αθήνα 104 35","categoryIds":["greek-restaurants"],"categories":["Greek Restaurants"]},"distanceKm":0.32063528991404777},{"entity":{"id":"greekRestaurants_fe1298439f3b","slug":"pyroliki-fe12","kind":"restaurant","name":"Πυρολίκι","lat":37.98138914645396,"lng":23.713920948942256,"url":"https://maps.app.goo.gl/VoibgN4wKpaNpoSG7","address":"Μεγ. Αλεξάνδρου 117, Αθήνα 104 35","categoryIds":["greek-restaurants"],"categories":["Greek Restaurants"]},"distanceKm":0.3239905993709393},{"entity":{"id":"burgersRestaurants_cc99e8bcfb01","slug":"ortsag-nextgen-street-resto-cc99","kind":"restaurant","name":"ORTSAG - NextGen Street Resto","lat":37.980720186478266,"lng":23.716880146435926,"url":"https://maps.app.goo.gl/Ty754KFyBeh5iYD99?g_st=ipc","address":"Κεραμεικού 93-95, Αθήνα 104 35","categoryIds":["burgers"],"categories":["Burger Spots"]},"distanceKm":0.32893709130738613},{"entity":{"id":"greekRestaurants_91881b4e9587","slug":"seramiko-9188","kind":"restaurant","name":"Σεράμικο","lat":37.98162530293091,"lng":23.71443381634983,"url":"https://maps.app.goo.gl/o8XfcUJ1JPyFTfao8","address":"Μεγ. Αλεξάνδρου 109-111, Αθήνα 104 35","categoryIds":["greek-restaurants"],"categories":["Greek Restaurants"]},"distanceKm":0.34753046902959667},{"entity":{"id":"coffeeBrunchRestaurants_7d6f8bb1e944","slug":"cat-cafe-athens-7-pers-allowed-age-14-7d6f","kind":"restaurant","name":"Cat Cafe Athens (7€/pers, Allowed Age 14+)","lat":37.97535368517015,"lng":23.71475955469486,"url":"https://maps.app.goo.gl/QcdxYRurM98VpWWX7?g_st=ipc","address":"Νηλέως 54, Αθήνα 118 51","categoryIds":["coffee-brunch"],"categories":["Coffee & Brunch Spots"]},"distanceKm":0.3512708290616289},{"entity":{"id":"coffeeBrunchRestaurants_23781ddd1e06","slug":"10am-apotheke-2378","kind":"restaurant","name":"10AM apotheke","lat":37.98117919525422,"lng":23.71209439007436,"url":"https://maps.app.goo.gl/a8MxDmC9cjFhDaGA8?g_st=ic","address":"Konstantinoupoleos Ave. 82, Athina 104 35","categoryIds":["coffee-brunch"],"categories":["Coffee & Brunch Spots"]},"distanceKm":0.3599836653835915},{"entity":{"id":"vegetarianRestaurants_5038de25697a","slug":"los-v-vegan-vegetarian-restaurant-5038","kind":"restaurant","name":"Los V - Vegan & Vegetarian Restaurant","lat":37.98154957793841,"lng":23.71604712211994,"url":"https://maps.app.goo.gl/ZWkqdkixRwwqeKq8A?g_st=ipc","address":"Πλαταιών 37, Αθήνα 104 35","categoryIds":["vegetarian"],"categories":["Vegetarian Friendly Restaurants"]},"distanceKm":0.36854899339499597},{"entity":{"id":"greekRestaurants_7a0990462c96","slug":"to-steki-toy-ilia-7a09","kind":"restaurant","name":"Το Στέκι Του Ηλία","lat":37.97686050854808,"lng":23.718458701649066,"url":"https://maps.app.goo.gl/1XoTtwx2q6EitZZi8","address":"Επταχάλκου 5, Αθήνα 118 51","categoryIds":["greek-restaurants"],"categories":["Greek Restaurants"]},"distanceKm":0.39973430917812913},{"entity":{"id":"cheapEatsRestaurants_ed7bd1fc7e39","slug":"mirlo-kebabs-ed7b","kind":"restaurant","name":"mirlo kebabs","lat":37.976362795934286,"lng":23.71060804281136,"url":"https://maps.app.goo.gl/rT5pzNjpc9bM7HzT9?g_st=ipc","address":"Ελασιδών 5A, Αθήνα 118 54","categoryIds":["cheap-eats"],"categories":["Gyros & Cheap Eats"]},"distanceKm":0.4085849376637375},{"entity":{"id":"burgersRestaurants_96fe4c6a69f2","slug":"stivs-a-e-kerameikos-champoyrgker-pitses-96fe","kind":"restaurant","name":"ΣΤΗΒΣ Α.Ε. Κεραμεικός - ΧΑΜΠΟΥΡΓΚΕΡ & ΠΙΤΣΕΣ","lat":37.981862507718745,"lng":23.71676727771988,"url":"https://maps.app.goo.gl/dfoGjBoXnHtHAokj9?g_st=ipc","address":"Σαλαμίνος 42, Αθήνα 104 35","categoryIds":["burgers","italian"],"categories":["Burger Spots","Italian Restaurants"]},"distanceKm":0.427604949861045},{"entity":{"id":"coffeeBrunchRestaurants_d2dd2ec9a7b0","slug":"pangaia-the-food-project-d2dd","kind":"restaurant","name":"Pangaia - The Food Project","lat":37.979003020963276,"lng":23.70956014016223,"url":"https://maps.app.goo.gl/dttggVUcZNJqG52r9?g_st=ipc","address":"Λ. Κωνσταντινουπόλεως 67, Αθήνα 118 55","categoryIds":["coffee-brunch"],"categories":["Coffee & Brunch Spots"]},"distanceKm":0.4278765545344603},{"entity":{"id":"cheapEatsRestaurants_f6e9355765da","slug":"armando-pizzeria-cafeteria-f6e9","kind":"restaurant","name":"Armando Pizzeria Cafeteria","lat":37.98213236236815,"lng":23.71647213293712,"url":"https://maps.app.goo.gl/X5ofrEqzBi24eigT6?g_st=ipc","address":"Σαλαμίνος 43, Αθήνα 104 35","categoryIds":["cheap-eats","italian"],"categories":["Gyros & Cheap Eats","Italian Restaurants"]},"distanceKm":0.44285366037251134},{"entity":{"id":"mustSeeAttractions_6f694258a5ea","slug":"thiseio-6f69","kind":"restaurant","name":"Θησείο","lat":37.97501242037082,"lng":23.717080869886306,"url":"https://maps.app.goo.gl/i7GUzZ6ceEZCukDC6?g_st=ipc","address":"Αθήνα 118 51","categoryIds":["attractions"],"categories":["Must-See Attractions"]},"distanceKm":0.4534371242357443},{"entity":{"id":"coffeeBrunchRestaurants_62e18f8f4450","slug":"latraac-skate-cafe-62e1","kind":"restaurant","name":"Latraac Skate Cafe","lat":37.98176220702239,"lng":23.717574996831285,"url":"https://maps.app.goo.gl/J7RDc1cHJeB4hUZC7?g_st=ipc","address":"Λεωνίδου 63-65, Αθήνα 104 35","categoryIds":["coffee-brunch"],"categories":["Coffee & Brunch Spots"]},"distanceKm":0.45718627007641066},{"entity":{"id":"luxuryDiningRestaurants_79d4330d9768","slug":"osteria-mamma-79d4","kind":"restaurant","name":"Osteria Mamma","lat":37.98294206858995,"lng":23.71602963121187,"url":"https://maps.app.goo.gl/KpcsdbWmQM1rsB9dA?g_st=ipc","address":"Σαλαμίνος 64, Αθήνα 104 35","categoryIds":["luxury-dining"],"categories":["Luxury Dining"]},"distanceKm":0.514171941865925},{"entity":{"id":"mexicanRestaurants_624c5c1ab8d8","slug":"mentirosa-tacos-cocktails-624c","kind":"restaurant","name":"Mentirosa - Tacos & Cocktails","lat":37.982550988441936,"lng":23.717503924756294,"url":"https://maps.app.goo.gl/1xXknD2jtrEpodcR7?g_st=ipc","address":"Θερμοπυλών 41, Αθήνα 104 35","categoryIds":["mexican"],"categories":["Mexican Restaurants"]},"distanceKm":0.5262262619578019},{"entity":{"id":"italianRestaurants_301b52803ea0","slug":"amante-athens-301b","kind":"restaurant","name":"Amante Athens","lat":37.983114932894274,"lng":23.7159682164575,"url":"https://maps.app.goo.gl/9Zg1mEJh6x2SjrNx6?g_st=ipc","address":"Παραμυθίας 13, Αθήνα 104 35","categoryIds":["italian"],"categories":["Italian Restaurants"]},"distanceKm":0.5312457444549101},{"entity":{"id":"italianRestaurants_eda14ce07bd0","slug":"proveleggios-eda1","kind":"restaurant","name":"Proveleggioς","lat":37.98314343701362,"lng":23.716034626731084,"url":"https://maps.app.goo.gl/MitPmZaCFjCBtxr4A?g_st=ipc","address":"Παραμυθίας 11, Αθήνα 104 35","categoryIds":["italian"],"categories":["Italian Restaurants"]},"distanceKm":0.5358347896506904}],"counts":{"totalEntities":3884,"totalInArea":742,"totalInCategory":0,"totalCategoryArea":742},"relatedCategories":[{"categoryId":"coffee-brunch","categorySlug":"brunch","categoryName":"Coffee & Brunch Spots","count":130,"passesThreshold":true},{"categoryId":"cheap-eats","categorySlug":"cheap-eats","categoryName":"Gyros & Cheap Eats","count":106,"passesThreshold":true},{"categoryId":"greek-restaurants","categorySlug":"greek-restaurants","categoryName":"Greek Restaurants","count":90,"passesThreshold":true},{"categoryId":"desserts","categorySlug":"desserts","categoryName":"Dessert Shops","count":82,"passesThreshold":true},{"categoryId":"vegetarian","categorySlug":"vegetarian","categoryName":"Vegetarian Friendly Restaurants","count":72,"passesThreshold":true},{"categoryId":"luxury-dining","categorySlug":"luxury-dining","categoryName":"Luxury Dining","count":71,"passesThreshold":true},{"categoryId":"rooftop-lounges","categorySlug":"rooftops","categoryName":"Rooftop Lounges","count":52,"passesThreshold":true},{"categoryId":"italian","categorySlug":"italian","categoryName":"Italian Restaurants","count":49,"passesThreshold":true},{"categoryId":"attractions","categorySlug":"attractions","categoryName":"Must-See Attractions","count":42,"passesThreshold":true},{"categoryId":"asian","categorySlug":"asian-restaurants","categoryName":"Asian Restaurants","count":34,"passesThreshold":true}],"relatedAreas":[{"areaId":"municipalities_5bc013791cf8","areaName":"Πλάκα","areaSlug":"plaka","count":793,"passesThreshold":true,"nearestDistanceKm":0.012491754607387504},{"areaId":"municipalities_877c3bc81df5","areaName":"Σύνταγμα","areaSlug":"syntagma","count":790,"passesThreshold":true,"nearestDistanceKm":0.009392084429921843},{"areaId":"municipalities_0cae2c00b932","areaName":"Κολωνάκι","areaSlug":"kolonaki","count":781,"passesThreshold":true,"nearestDistanceKm":0.019551496670837543},{"areaId":"municipalities_d7e1aaaed4f9","areaName":"Μοναστηράκι","areaSlug":"monastiraki","count":779,"passesThreshold":true,"nearestDistanceKm":0.0015439249117317326},{"areaId":"municipalities_0fd1d03201a0","areaName":"Μετς","areaSlug":"mets","count":779,"passesThreshold":true,"nearestDistanceKm":0.0655206557127576},{"areaId":"municipalities_4149fa79e27b","areaName":"Ακρόπολη","areaSlug":"akropoli","count":778,"passesThreshold":true,"nearestDistanceKm":0.005729795337023071},{"areaId":"municipalities_2bcfcb8b899f","areaName":"Ψυρρή","areaSlug":"psyrri","count":777,"passesThreshold":true,"nearestDistanceKm":0.047074153549061026},{"areaId":"municipalities_616efd2a0d9b","areaName":"Κουκάκι","areaSlug":"koykaki","count":775,"passesThreshold":true,"nearestDistanceKm":0.03240357443173243},{"areaId":"municipalities_2f324ee27306","areaName":"Εξάρχεια","areaSlug":"exarcheia","count":770,"passesThreshold":true,"nearestDistanceKm":0.08690050688547628},{"areaId":"municipalities_b85b54408d92","areaName":"Θησείο","areaSlug":"thiseio","count":769,"passesThreshold":true,"nearestDistanceKm":0.08292401975417248}],"passesThreshold":true},"topGuides":[]},"__N_SSG":true}