{"pageProps":{"payload":{"area":{"id":"municipalities_6e0a80514433","name":"Καυτανζόγλειο περιοχή","nameEn":"Kaftanzoglio Area","region":"Θεσσαλονίκη","regionEn":"Thessaloniki","lat":40.6157,"lng":22.9613,"urlSlug":"kaytanzogleio-periochi","aliases":["Καυτανζόγλειο περιοχή","Kaftanzoglio Area","Καυτανζόγλειο περιοχή Thessaloniki","Kaftanzoglio Area Thessaloniki","kaytanzogleio-periochi-6e0a","kaytanzogleio-periochi"]},"category":null,"entities":[{"entity":{"id":"greekRestaurants_e19673ba852f","slug":"pire-kai-vradiazei-e196","kind":"restaurant","name":"Πήρε και Βραδιάζει","lat":40.6161654625719,"lng":22.96166588679185,"url":"https://maps.app.goo.gl/Y7iaetGgvQnRv1wAA?g_st=ipc","address":"Ομήρου 7, Θεσσαλονίκη 546 39","categoryIds":["greek-restaurants"],"categories":["Greek Restaurants"]},"distanceKm":0.06027088495536626},{"entity":{"id":"coffeeBrunchRestaurants_3f47d83b09c0","slug":"butterflies-and-hurricanes-3f47","kind":"restaurant","name":"Butterflies And Hurricanes","lat":40.61464844201882,"lng":22.960841697890658,"url":"https://maps.app.goo.gl/Gesp19RwCPBWQ9s58?g_st=ipc","address":"Pindarou 1, Thessaloniki 546 39","categoryIds":["coffee-brunch","vegetarian"],"categories":["Coffee & Brunch Spots","Vegetarian Friendly Restaurants"]},"distanceKm":0.1231609313554123},{"entity":{"id":"coffeeBrunchRestaurants_395eba0202c2","slug":"orange-395e","kind":"restaurant","name":"Orange","lat":40.61657039911688,"lng":22.959405836121938,"url":"https://maps.app.goo.gl/GeBX3Ci17XiZV9go6?g_st=ipc","address":"Konstantinoupoleos 21, Thessaloniki 546 40","categoryIds":["coffee-brunch"],"categories":["Coffee & Brunch Spots"]},"distanceKm":0.1868925123537374},{"entity":{"id":"cheapEatsRestaurants_fccedeec0967","slug":"to-myrmigki-hot-dog-vrasta-loykanika-fcce","kind":"restaurant","name":"Το Μυρμήγκι - HOT-DOG - Βραστά Λουκάνικα","lat":40.61789526919397,"lng":22.95852389027651,"url":"https://maps.app.goo.gl/u5NXam3TJPXTBEGQ6?g_st=ipc","address":"Konstantinoupoleos 8, Thessaloniki 546 40","categoryIds":["cheap-eats"],"categories":["Gyros & Cheap Eats"]},"distanceKm":0.33836674618616736},{"entity":{"id":"cheapEatsRestaurants_26918358a6af","slug":"pizza-sakis-2691","kind":"restaurant","name":"Pizza Sakis","lat":40.6189040866906,"lng":22.958041870578818,"url":"https://maps.app.goo.gl/taG7ENcMfbyzazQX7?g_st=ipc","address":"Leof. Stratou 26, Thessaloniki 546 40","categoryIds":["cheap-eats"],"categories":["Gyros & Cheap Eats"]},"distanceKm":0.4500677070700737},{"entity":{"id":"familyFriendly_06e3b0e7591a","slug":"hado-arena-toumpa-06e3","kind":"restaurant","name":"HADO ARENA TOUMPA","lat":40.61298475023653,"lng":22.966163361832432,"url":"https://maps.app.goo.gl/Y3M4X3SLfpUBctf88?g_st=ipc","address":"Kleanthous 25, Thessaloniki 544 53","categoryIds":["family-friendly"],"categories":["Kid Friendly Locations"]},"distanceKm":0.509584727648452},{"entity":{"id":"cheapEatsRestaurants_c679cc68cdf8","slug":"tost-spesial-c679","kind":"restaurant","name":"Tost Spesial","lat":40.616314670176166,"lng":22.955059124656405,"url":"https://maps.app.goo.gl/9AT6QmGaM1pLwsRb9?g_st=ipc","address":"Paraskevopoulou 12, Thessaloniki 546 40","categoryIds":["cheap-eats"],"categories":["Gyros & Cheap Eats"]},"distanceKm":0.5311884697734892},{"entity":{"id":"greekRestaurants_7a4337bc20a6","slug":"akrovatis-7a43","kind":"restaurant","name":"Ακροβάτης","lat":40.61307041653645,"lng":22.9677238002552,"url":"https://maps.app.goo.gl/kcK7ME3teiYGRent6?g_st=ipc","address":"Papafi 113, Thessaloniki 544 53","categoryIds":["greek-restaurants"],"categories":["Greek Restaurants"]},"distanceKm":0.6160396782884806},{"entity":{"id":"dessertsRestaurants_820e5a62f3a9","slug":"babalooka-to-aythentiko-galaktompoyreko-thessalonikis-820e","kind":"restaurant","name":"Babalooka-Το Αυθεντικό Γαλακτομπούρεκο Θεσσαλονίκης","lat":40.62123778051854,"lng":22.962627985179793,"url":"https://maps.app.goo.gl/tnzvbcbCY13DjRZe7?g_st=ipc","address":"Δίπλα στη στροφή Λαμπράκη, Leof. Kon/nou Karamanli 15, Thessaloniki 546 38","categoryIds":["desserts"],"categories":["Dessert Shops"]},"distanceKm":0.6258913640796591},{"entity":{"id":"dessertsRestaurants_e4f66f8adfe3","slug":"nikos-alexoudas-e4f6","kind":"restaurant","name":"Nikos Alexoudas","lat":40.610389059142975,"lng":22.958123238836652,"url":"https://maps.app.goo.gl/ifbqMFmsGqy7oaxA8?g_st=ipc","address":"Makedonias 18, Thessaloniki 546 42","categoryIds":["desserts"],"categories":["Dessert Shops"]},"distanceKm":0.6485789515252145},{"entity":{"id":"burgersRestaurants_d1aa1b03e041","slug":"evora-eatery-d1aa","kind":"restaurant","name":"Evora Eatery","lat":40.616537415041016,"lng":22.969055137519607,"url":"https://maps.app.goo.gl/nXZzhY9yFR2kDUGA9?g_st=ipc","address":"Diogenous 13, Thessaloniki 544 53","categoryIds":["burgers"],"categories":["Burger Spots"]},"distanceKm":0.6611758338601522},{"entity":{"id":"greekRestaurants_2b555dc83271","slug":"soyvlakia-o-giannis-2b55","kind":"restaurant","name":"Σουβλάκια \"Ο Γιάννης\"","lat":40.61367230211868,"lng":22.968664986882153,"url":"https://maps.app.goo.gl/rGd5Se34NDg2Q9er5?g_st=ipc","address":"Κλεάνθους 54, Θεσσαλονίκη 544 53","categoryIds":["greek-restaurants"],"categories":["Greek Restaurants"]},"distanceKm":0.6612924282389726},{"entity":{"id":"greekRestaurants_0677d6c362a6","slug":"evora-eatery-0677","kind":"restaurant","name":"Εβόρα Eatery","lat":40.61655136125546,"lng":22.969054811212995,"url":"https://maps.app.goo.gl/K4Cnh5DSvkNE3ttK8?g_st=ipc","address":"Διογένους 13, Θεσσαλονίκη 544 53","categoryIds":["greek-restaurants"],"categories":["Greek Restaurants"]},"distanceKm":0.6613686880057665},{"entity":{"id":"burgersRestaurants_5cdf5651be04","slug":"dunk-smash-burgers-5cdf","kind":"restaurant","name":"Dunk Smash Burgers","lat":40.614049656844195,"lng":22.968949553843263,"url":"https://maps.app.goo.gl/ECaRWM59W66g3f6h8?g_st=ipc","address":"Peston 82, Thessaloniki 544 53","categoryIds":["burgers"],"categories":["Burger Spots"]},"distanceKm":0.6712572655394855},{"entity":{"id":"dessertsRestaurants_7728725cae0c","slug":"zacharoplasteio-ilios-kleanthoys-hlios-pastry-shop-kleanthous-7728","kind":"restaurant","name":"ΖΑΧΑΡΟΠΛΑΣΤΕΙΟ ΗΛΙΟΣ ΚΛΕΑΝΘΟΥΣ /Hlios Pastry Shop Kleanthous","lat":40.61382568960551,"lng":22.969099400369018,"url":"https://maps.app.goo.gl/tNhNJReBE4oYvZx6A?g_st=ipc","address":"Kleanthous 60, Thessaloniki 544 53","categoryIds":["desserts"],"categories":["Dessert Shops"]},"distanceKm":0.6905373826478567},{"entity":{"id":"asianRestaurants_fa15bba13e7a","slug":"asian-house-fa15","kind":"restaurant","name":"Asian House","lat":40.61406863205144,"lng":22.96925982276085,"url":"https://maps.app.goo.gl/RZUt6eATfNjJBVMW9?g_st=ipc","address":"Kleanthous 49, Thessaloniki 544 53","categoryIds":["asian"],"categories":["Asian Restaurants"]},"distanceKm":0.6959326354392324},{"entity":{"id":"familyFriendly_220ccb0fa158","slug":"road-safety-park-220c","kind":"restaurant","name":"Road Safety Park","lat":40.61702068861312,"lng":22.952313879309372,"url":"https://maps.app.goo.gl/dvUGTVktdMviyjRy9?g_st=ic","address":"Leof. Meg. Alexandrou 6, Thessaloniki 546 41","categoryIds":["family-friendly"],"categories":["Kid Friendly Locations"]},"distanceKm":0.7725722740030497},{"entity":{"id":"coffeeBrunchRestaurants_4980bf5534c8","slug":"avenue-modern-cuisine-4980","kind":"restaurant","name":"AVENUE - Modern Cuisine","lat":40.6155426258885,"lng":22.952060123633387,"url":"https://maps.app.goo.gl/sbWsHkcndnd2Zv547?g_st=ipc","address":"Leof. Meg. Alexandrou 6, Thessaloniki 546 41","categoryIds":["coffee-brunch"],"categories":["Coffee & Brunch Spots"]},"distanceKm":0.7801100942302975},{"entity":{"id":"greekRestaurants_3e3bf2271718","slug":"tiganies-schares-meat-restaurant-3e3b","kind":"restaurant","name":"Τηγανιές & Σχάρες Meat Restaurant","lat":40.62182611021091,"lng":22.95622107562596,"url":"https://maps.app.goo.gl/LQSzg3m51jKr2wvR7?g_st=ipc","address":"Λυσιμάχου Καυταντζόγλου 12, Θεσσαλονίκη 546 40","categoryIds":["greek-restaurants"],"categories":["Greek Restaurants"]},"distanceKm":0.8048530076325653},{"entity":{"id":"italianRestaurants_0a96069b98fe","slug":"navona-restaurant-bar-0a96","kind":"restaurant","name":"Navona Restaurant Bar","lat":40.617883104732,"lng":22.952114230685524,"url":"https://maps.app.goo.gl/oPmtz2JTaw4nxWtp6","address":"Leof. Meg. Alexandrou 2, Thessaloniki 546 40","categoryIds":["italian"],"categories":["Italian Restaurants"]},"distanceKm":0.8124464249887904},{"entity":{"id":"italianRestaurants_57f0e6de9174","slug":"trattoria-santa-rita-57f0","kind":"restaurant","name":"Trattoria Santa Rita","lat":40.612086768976745,"lng":22.969846546876834,"url":"https://maps.app.goo.gl/tJ95kQkAp73h9qDi8?g_st=ipc","address":"Malakopis 19, Thessaloniki 544 53","categoryIds":["italian"],"categories":["Italian Restaurants"]},"distanceKm":0.8257447379649515},{"entity":{"id":"greekRestaurants_7ec3d69bed0e","slug":"paggaion-7ec3","kind":"restaurant","name":"Παγγαίον","lat":40.60814749933467,"lng":22.96161599459279,"url":"https://maps.app.goo.gl/LDfYbYAQqiNM26EUA?g_st=ipc","address":"Τομπάζη 31, Θεσσαλονίκη 546 44","categoryIds":["greek-restaurants"],"categories":["Greek Restaurants"]},"distanceKm":0.8402232570865708},{"entity":{"id":"luxuryDiningRestaurants_be300778d86d","slug":"salonika-restaurant-bar-be30","kind":"restaurant","name":"Salonika Restaurant & Bar","lat":40.618706388830155,"lng":22.951992243395964,"url":"https://maps.app.goo.gl/m2U4xxrF3WyY7WwP7?g_st=ipc","address":"Leof. Meg. Alexandrou 2, Thessaloniki 546 40","categoryIds":["luxury-dining"],"categories":["Luxury Dining"]},"distanceKm":0.8537913006651291},{"entity":{"id":"fishTavernasRestaurants_8c218ee54db9","slug":"trizoni-exclusive-8c21","kind":"restaurant","name":"Trizoni Exclusive","lat":40.6187461914036,"lng":22.951970459036858,"url":"https://maps.app.goo.gl/mWZS1wKdUUfV8Ris7?g_st=ipc","address":"Leof. Meg. Alexandrou 2, Thessaloniki 546 40","categoryIds":["fish-tavernas"],"categories":["Fish Tavernas"]},"distanceKm":0.8572224595519943},{"entity":{"id":"familyFriendly_7f25af87c856","slug":"bikeit-7f25","kind":"restaurant","name":"BikeIT","lat":40.61873680277816,"lng":22.95194585489908,"url":"https://maps.app.goo.gl/JgmdrRTYY3tBNz6y8?g_st=ic","address":"Leof. Meg. Alexandrou 2, Thessaloniki 546 40","categoryIds":["family-friendly"],"categories":["Kid Friendly Locations"]},"distanceKm":0.8587195649058235},{"entity":{"id":"familyFriendly_70d9d42feecb","slug":"odysseas-fokas-park-70d9","kind":"restaurant","name":"Odysseas Fokas Park","lat":40.612796604966135,"lng":22.95168040124591,"url":"https://maps.app.goo.gl/yMHqMAgG61irWESX9?g_st=ipc","address":"Επιθεωρητού Δημητρίου Μισυρλή 26, Thessaloniki 542 50","categoryIds":["family-friendly"],"categories":["Kid Friendly Locations"]},"distanceKm":0.8738089115889115},{"entity":{"id":"greekRestaurants_cc662124d683","slug":"kafe-oyzeri-alekos-cc66","kind":"restaurant","name":"Καφέ Ουζερί Αλέκος","lat":40.6091971451293,"lng":22.955175029539653,"url":"https://maps.app.goo.gl/yo3KzKF59icWfQtFA?g_st=ipc","address":"Kosma tou Εtolou 22, Thessaloniki 546 43","categoryIds":["greek-restaurants"],"categories":["Greek Restaurants"]},"distanceKm":0.8889083349962356},{"entity":{"id":"cheapEatsRestaurants_9e983ad5e812","slug":"prassas-9e98","kind":"restaurant","name":"Prassas","lat":40.60822104515919,"lng":22.96538292733955,"url":"https://maps.app.goo.gl/cajfpJVBkeREe7FNA?g_st=ipc","address":"Mark. Mpotsari 89, Thessaloniki 546 44","categoryIds":["cheap-eats"],"categories":["Gyros & Cheap Eats"]},"distanceKm":0.9002095256695595},{"entity":{"id":"familyFriendly_a5c1b620864c","slug":"pedion-areos-a5c1","kind":"restaurant","name":"Pedion Areos","lat":40.62247582832067,"lng":22.955391871168274,"url":"https://maps.app.goo.gl/hVHTxMywZzbL2Rr26?g_st=ic","address":"Eth. Aminis 28, Thessaloniki 546 21","categoryIds":["family-friendly"],"categories":["Kid Friendly Locations"]},"distanceKm":0.9035120532809707},{"entity":{"id":"cheapEatsRestaurants_c619a7c97409","slug":"to-kokoraki-c619","kind":"restaurant","name":"ΤΟ ΚΟΚΟΡΑΚΙ","lat":40.6088349903696,"lng":22.967918512345722,"url":"https://maps.app.goo.gl/KNA3DuGAxNV9SYMs8?g_st=ipc","address":"Mark. Mpotsari 105, Thessaloniki 544 53","categoryIds":["cheap-eats","greek-restaurants"],"categories":["Gyros & Cheap Eats","Greek Restaurants"]},"distanceKm":0.9459557744180618}],"counts":{"totalEntities":3884,"totalInArea":364,"totalInCategory":0,"totalCategoryArea":364},"relatedCategories":[{"categoryId":"cheap-eats","categorySlug":"cheap-eats","categoryName":"Gyros & Cheap Eats","count":79,"passesThreshold":true},{"categoryId":"greek-restaurants","categorySlug":"greek-restaurants","categoryName":"Greek Restaurants","count":76,"passesThreshold":true},{"categoryId":"coffee-brunch","categorySlug":"brunch","categoryName":"Coffee & Brunch Spots","count":64,"passesThreshold":true},{"categoryId":"desserts","categorySlug":"desserts","categoryName":"Dessert Shops","count":49,"passesThreshold":true},{"categoryId":"burgers","categorySlug":"burgers","categoryName":"Burger Spots","count":23,"passesThreshold":true},{"categoryId":"fish-tavernas","categorySlug":"fish-tavernas","categoryName":"Fish Tavernas","count":18,"passesThreshold":true},{"categoryId":"italian","categorySlug":"italian","categoryName":"Italian Restaurants","count":17,"passesThreshold":true},{"categoryId":"vegetarian","categorySlug":"vegetarian","categoryName":"Vegetarian Friendly Restaurants","count":16,"passesThreshold":true},{"categoryId":"asian","categorySlug":"asian-restaurants","categoryName":"Asian Restaurants","count":14,"passesThreshold":true},{"categoryId":"luxury-dining","categorySlug":"luxury-dining","categoryName":"Luxury Dining","count":13,"passesThreshold":true}],"relatedAreas":[{"areaId":"municipalities_5bc013791cf8","areaName":"Πλάκα","areaSlug":"plaka","count":793,"passesThreshold":true,"nearestDistanceKm":0.012491754607387504},{"areaId":"municipalities_877c3bc81df5","areaName":"Σύνταγμα","areaSlug":"syntagma","count":790,"passesThreshold":true,"nearestDistanceKm":0.009392084429921843},{"areaId":"municipalities_0cae2c00b932","areaName":"Κολωνάκι","areaSlug":"kolonaki","count":781,"passesThreshold":true,"nearestDistanceKm":0.019551496670837543},{"areaId":"municipalities_d7e1aaaed4f9","areaName":"Μοναστηράκι","areaSlug":"monastiraki","count":779,"passesThreshold":true,"nearestDistanceKm":0.0015439249117317326},{"areaId":"municipalities_0fd1d03201a0","areaName":"Μετς","areaSlug":"mets","count":779,"passesThreshold":true,"nearestDistanceKm":0.0655206557127576},{"areaId":"municipalities_4149fa79e27b","areaName":"Ακρόπολη","areaSlug":"akropoli","count":778,"passesThreshold":true,"nearestDistanceKm":0.005729795337023071},{"areaId":"municipalities_2bcfcb8b899f","areaName":"Ψυρρή","areaSlug":"psyrri","count":777,"passesThreshold":true,"nearestDistanceKm":0.047074153549061026},{"areaId":"municipalities_616efd2a0d9b","areaName":"Κουκάκι","areaSlug":"koykaki","count":775,"passesThreshold":true,"nearestDistanceKm":0.03240357443173243},{"areaId":"municipalities_2f324ee27306","areaName":"Εξάρχεια","areaSlug":"exarcheia","count":770,"passesThreshold":true,"nearestDistanceKm":0.08690050688547628},{"areaId":"municipalities_b85b54408d92","areaName":"Θησείο","areaSlug":"thiseio","count":769,"passesThreshold":true,"nearestDistanceKm":0.08292401975417248}],"passesThreshold":true},"topGuides":[{"slug":"athens-hop-on-hop-off-guide","title":"Ultimate Guide to Athens Hop-On-Hop-Off Bus Tours","date":"2025-09-29"}]},"__N_SSG":true}