{"pageProps":{"payload":{"area":{"id":"municipalities_2413d46e54f8","name":"Υμηττός","nameEn":"Ymittos","region":"Νότια Προάστια","regionEn":"Southern Suburbs","lat":37.9506,"lng":23.7511,"urlSlug":"ymittos","aliases":["Υμηττός","Ymittos","Υμηττός Southern Suburbs","Ymittos Southern Suburbs","Hymettos","Υμηττος","ymittos-2413","ymittos"]},"category":{"id":"greek-restaurants","name":"Greek Restaurants","urlSlug":"greek-restaurants","aliases":["greek-restaurants","Greek Restaurants"]},"entities":[{"entity":{"id":"greekRestaurants_11dff068e9ea","slug":"taverna-toy-vardi-11df","kind":"restaurant","name":"Ταβέρνα του Βαρδή","lat":37.95570603338151,"lng":23.74583290711746,"url":"https://maps.app.goo.gl/6RAXFnJTA2DTzwA88","address":"Καισαρείας 9, Υμηττός 172 37","categoryIds":["greek-restaurants"],"categories":["Greek Restaurants"]},"distanceKm":0.7318657672627725},{"entity":{"id":"greekRestaurants_548d92c2d4db","slug":"soyrtoyko-548d","kind":"restaurant","name":"Σουρτουκω","lat":37.96175056849477,"lng":23.75277374627553,"url":"https://maps.app.goo.gl/xYnatdAUqU3QWGLv9","address":"Λεωφ. Χρυσοστόμου Σμύρνης 47, Βύρωνας 162 32","categoryIds":["greek-restaurants"],"categories":["Greek Restaurants"]},"distanceKm":1.2485404529066026},{"entity":{"id":"greekRestaurants_9f875f84dbee","slug":"taverna-tzimis-9f87","kind":"restaurant","name":"Ταβέρνα Τζίμης","lat":37.96221220979963,"lng":23.752873943570865,"url":"https://maps.app.goo.gl/qCasHzTvfzEm5GVQ9","address":"Κωνσταντιλιέρη 2, Βύρωνας 162 31","categoryIds":["greek-restaurants"],"categories":["Greek Restaurants"]},"distanceKm":1.3005520722149806},{"entity":{"id":"greekRestaurants_5c7530a68c50","slug":"ladokolla-dafnis-5c75","kind":"restaurant","name":"Λαδόκολλα Δάφνης","lat":37.948710278848054,"lng":23.736099857630663,"url":"https://maps.app.goo.gl/DJkwhBF35mfEBRKG7","address":"Λεωφ. Αλ. Παπαναστασίου 8, Δάφνη Αττικής 172 35","categoryIds":["greek-restaurants"],"categories":["Greek Restaurants"]},"distanceKm":1.331935625614619},{"entity":{"id":"greekRestaurants_b996975f2765","slug":"to-koyzoylo-kritikes-geyseis-b996","kind":"restaurant","name":"Το Κουζουλό-Κρητικές Γεύσεις","lat":37.93790456342302,"lng":23.756307120209538,"url":"https://maps.app.goo.gl/92JS6PzrgTe3Moyv6","address":"Λεωφ. Ειρήνης 10, Ηλιούπολη 163 45","categoryIds":["greek-restaurants"],"categories":["Greek Restaurants"]},"distanceKm":1.4836774484087418},{"entity":{"id":"greekRestaurants_e8a12eb29aae","slug":"eylalia-e8a1","kind":"restaurant","name":"Ευλαλία","lat":37.96221703725563,"lng":23.742138763953527,"url":"https://maps.app.goo.gl/HVpdCimDL2uUQGMfA","address":"Φρύνωνος 10, Αθήνα 116 32","categoryIds":["greek-restaurants"],"categories":["Greek Restaurants"]},"distanceKm":1.5119252229960276},{"entity":{"id":"greekRestaurants_dcfbb404a98b","slug":"to-ypogeio-toy-marathoniti-dcfb","kind":"restaurant","name":"Το Υπόγειο του Μαραθωνίτη","lat":37.96187332155002,"lng":23.74031744806371,"url":"https://maps.app.goo.gl/pp5rzZKvkv6W1fXL7","address":"Βίνκελμαν 3, Αθήνα 116 32","categoryIds":["greek-restaurants"],"categories":["Greek Restaurants"]},"distanceKm":1.570051002277463},{"entity":{"id":"greekRestaurants_191784dd5c83","slug":"ta-filetakia-1917","kind":"restaurant","name":"Τα φιλετάκια","lat":37.94824819005281,"lng":23.729579675166935,"url":"https://maps.app.goo.gl/tBGQqYJbzo48VPWv9","address":"Εθνάρχου Μακαρίου 126, Δάφνη Αττικής 172 34","categoryIds":["greek-restaurants"],"categories":["Greek Restaurants"]},"distanceKm":1.9050054885736418},{"entity":{"id":"greekRestaurants_6d8ba6e8459c","slug":"o-tsompanakos-6d8b","kind":"restaurant","name":"Ο Τσομπανάκος","lat":37.96567041818392,"lng":23.763543849190544,"url":"https://maps.app.goo.gl/D1121EC8pmNBFqbK9","address":"Ανακρέοντος 2, Καισαριανή 161 22","categoryIds":["greek-restaurants"],"categories":["Greek Restaurants"]},"distanceKm":1.9996010435705387},{"entity":{"id":"greekRestaurants_1ce7ef86a93e","slug":"vyrinis-1ce7","kind":"restaurant","name":"ΒΥΡΙΝΗΣ","lat":37.96743484356373,"lng":23.742810422529566,"url":"https://maps.app.goo.gl/1Xuvp6z7zeGEESxk7","address":"Αρχιμήδους 11, Αθήνα 116 35","categoryIds":["greek-restaurants"],"categories":["Greek Restaurants"]},"distanceKm":2.008077774681475},{"entity":{"id":"greekRestaurants_33a0b55abdc4","slug":"to-trikyklo-33a0","kind":"restaurant","name":"Το Τρικυκλο","lat":37.96243041130632,"lng":23.732361770965667,"url":"https://maps.app.goo.gl/iQ4V71S2t14KAPNM9","address":"Πυθέου 34-Θ.Γεωμετρου 1, Πυθέου 34, Αθήνα 117 43","categoryIds":["greek-restaurants"],"categories":["Greek Restaurants"]},"distanceKm":2.1046403946861894},{"entity":{"id":"greekRestaurants_b3da8ddd3955","slug":"lostre-koyzina-b3da","kind":"restaurant","name":"Λοστρέ κουζίνα","lat":37.96258323945813,"lng":23.732334829769364,"url":"https://maps.app.goo.gl/T4yBbxnNyvkykNoS9","address":"Πυθέου 32, Αθήνα 117 43","categoryIds":["greek-restaurants"],"categories":["Greek Restaurants"]},"distanceKm":2.117137427008265},{"entity":{"id":"greekRestaurants_d05f0b437e54","slug":"osonoypo-d05f","kind":"restaurant","name":"Οσονούπω","lat":37.968722862920075,"lng":23.75908756393202,"url":"https://maps.app.goo.gl/HBqT7hbWLLfdjPem9","address":"Πλ. Αναγεννήσεως 2, Καισαριανή 161 21","categoryIds":["greek-restaurants"],"categories":["Greek Restaurants"]},"distanceKm":2.133377690311432},{"entity":{"id":"greekRestaurants_6c6d00a6a4f4","slug":"remoytsiko-taverna-6c6d","kind":"restaurant","name":"Ρεμουτσικο Ταβέρνα","lat":37.93888185097854,"lng":23.730869105234564,"url":"https://maps.app.goo.gl/zELuRQBZCjzsqwux5","address":"Λεωφ. Αγίου Δημητρίου 120, Αγ. Δημήτριος Αττικής 173 41","categoryIds":["greek-restaurants"],"categories":["Greek Restaurants"]},"distanceKm":2.201127332751002},{"entity":{"id":"greekRestaurants_5c488f0d8ce0","slug":"ether-athens-5c48","kind":"restaurant","name":"Ether Athens","lat":37.9300575683433,"lng":23.752395520807372,"url":"https://maps.app.goo.gl/X42jFmXfj3xf7XFx9","address":"Πριάμου 2, Ηλιούπολη 163 41","categoryIds":["greek-restaurants"],"categories":["Greek Restaurants"]},"distanceKm":2.2870377205162615},{"entity":{"id":"greekRestaurants_32eb2400b721","slug":"olympion-32eb","kind":"restaurant","name":"Ολύμπιον","lat":37.96661871653892,"lng":23.73449829017252,"url":"https://maps.app.goo.gl/ibRHUhwHzNffs1sC8","address":"Αναπαύσεως 9, Αθήνα 116 36","categoryIds":["greek-restaurants"],"categories":["Greek Restaurants"]},"distanceKm":2.3002564289629457},{"entity":{"id":"greekRestaurants_04415057069a","slug":"mayros-gatos-0441","kind":"restaurant","name":"Μαύρος Γάτος","lat":37.97162418889942,"lng":23.74471067108262,"url":"https://maps.app.goo.gl/aCqxbn2mAS63MWhA9","address":"Πολέμωνος 4, Αθήνα 116 35","categoryIds":["greek-restaurants"],"categories":["Greek Restaurants"]},"distanceKm":2.403954111584869},{"entity":{"id":"greekRestaurants_52e671578a6f","slug":"karavitis-52e6","kind":"restaurant","name":"Καραβίτης","lat":37.97158436368886,"lng":23.743633373686446,"url":"https://maps.app.goo.gl/8qs2pU39Ev8Bi4Gu6","address":"Παυσανίου 4, Αθήνα 116 35","categoryIds":["greek-restaurants"],"categories":["Greek Restaurants"]},"distanceKm":2.4234350337602493},{"entity":{"id":"cheapEatsRestaurants_c3e978d4eac2","slug":"5f-c3e9","kind":"restaurant","name":"5Φ","lat":37.97277642269308,"lng":23.753966804299914,"url":"https://maps.app.goo.gl/Jtpipww8tzt83Z1fA?g_st=ipc","address":"Diocharous 31 &, Κλεισούρας, Αθήνα 161 21","categoryIds":["cheap-eats","greek-restaurants"],"categories":["Gyros & Cheap Eats","Greek Restaurants"],"legacySlugs":["5f-7edc"]},"distanceKm":2.4786804859998135},{"entity":{"id":"greekRestaurants_a9322c09c3bf","slug":"kopsidi-kaisariani-a932","kind":"restaurant","name":"Κοψίδι Καισαριανή","lat":37.96646380448841,"lng":23.772981113467992,"url":"https://maps.app.goo.gl/CbctoDQWoy2zSwT78","address":"Λεωφ. Εθ. Αντιστάσεως 240, Αθήνα 161 22","categoryIds":["greek-restaurants"],"categories":["Greek Restaurants"]},"distanceKm":2.6060971037292036},{"entity":{"id":"greekRestaurants_c2d712c3a636","slug":"louiza-athens-c2d7","kind":"restaurant","name":"Louiza Athens","lat":37.958439423665176,"lng":23.722755568163475,"url":"https://maps.app.goo.gl/QPXwcnn7KEEcjqBb9","address":"Σφιγγός 13, Αθήνα 117 45","categoryIds":["greek-restaurants"],"categories":["Greek Restaurants"]},"distanceKm":2.6336054842335113},{"entity":{"id":"greekRestaurants_e9888507556f","slug":"fita-e988","kind":"restaurant","name":"Φιτα","lat":37.959800125380376,"lng":23.723270363621033,"url":"https://maps.app.goo.gl/dz2YxasHy4LnBQ668","address":"Ντουρμ 1, Αθήνα 117 45","categoryIds":["greek-restaurants"],"categories":["Greek Restaurants"]},"distanceKm":2.6457780478783217},{"entity":{"id":"greekRestaurants_c15edd7fcde2","slug":"estiatorio-smile-c15e","kind":"restaurant","name":"Εστιατόριο Smile","lat":37.967615812266935,"lng":23.729979287152204,"url":"https://maps.app.goo.gl/dzqWtwgMFs9Vcqew6","address":"Πλ. Τσώκρη 1, Αθήνα 117 42","categoryIds":["greek-restaurants"],"categories":["Greek Restaurants"]},"distanceKm":2.647391668743099},{"entity":{"id":"greekRestaurants_104d52bd2241","slug":"mpalkoni-estiatorio-kai-mpar-104d","kind":"restaurant","name":"Μπαλκόνι Εστιατόριο και Μπαρ","lat":37.96744106512062,"lng":23.72879886025239,"url":"https://maps.app.goo.gl/7XXsfB27aRZAsikR7","address":"Βεΐκου 1, Αθήνα 117 42","categoryIds":["greek-restaurants"],"categories":["Greek Restaurants"]},"distanceKm":2.707307126696859},{"entity":{"id":"greekRestaurants_2cc5d772f006","slug":"onos-taverna-2cc5","kind":"restaurant","name":"Onos Taverna","lat":37.96571079116367,"lng":23.725945276440267,"url":"https://maps.app.goo.gl/ur5XrAoMuE8FsR5c6","address":"Δράκου 14, Αθήνα 117 42","categoryIds":["greek-restaurants"],"categories":["Greek Restaurants"]},"distanceKm":2.772532694232425},{"entity":{"id":"greekRestaurants_fdc308cbed46","slug":"sfika-fdc3","kind":"restaurant","name":"Σφήκα","lat":37.966122619632145,"lng":23.726245016024656,"url":"https://maps.app.goo.gl/WDLKPoT2bayYqor96","address":"Στρ. Κοντούλη 15, Αθήνα 117 42","categoryIds":["greek-restaurants"],"categories":["Greek Restaurants"]},"distanceKm":2.7798696890570693},{"entity":{"id":"greekRestaurants_d3958d32f2a3","slug":"lotza-to-kalamaki-spiti-toy-d395","kind":"restaurant","name":"Λοτζα - Το Καλαμάκι Σπίτι Του","lat":37.92519193178049,"lng":23.751255406437117,"url":"https://maps.app.goo.gl/Dnr9SzVdyH6c3w6d7","address":"Λεωφ. Κυπρίων Ηρώων 57, Ηλιούπολη 163 41","categoryIds":["greek-restaurants"],"categories":["Greek Restaurants"]},"distanceKm":2.8252811532200557},{"entity":{"id":"burgersRestaurants_bfe01035e2db","slug":"agora-select-bfe0","kind":"restaurant","name":"Agora Select","lat":37.97626574663726,"lng":23.751456733864202,"url":"https://maps.app.goo.gl/GxR6tX8MHegtVPLA7?g_st=ipc","address":"Χατζηγιάννη Μέξη 8 και, Κων/νου Βεντήρη 9, Αθήνα 115 28","categoryIds":["burgers","greek-restaurants"],"categories":["Burger Spots","Greek Restaurants"],"legacySlugs":["agora-select-aecd"]},"distanceKm":2.8540721605408117},{"entity":{"id":"greekRestaurants_90f9e65f33cf","slug":"alsos-mezedopoleio-90f9","kind":"restaurant","name":"Αλσος μεζεδοπωλείο","lat":37.97542863089566,"lng":23.76053636122563,"url":"https://maps.app.goo.gl/LFkoegopciPhWfk59","address":"Ούλωφ Πάλμε 1, Ζωγράφου 115 28","categoryIds":["greek-restaurants"],"categories":["Greek Restaurants"]},"distanceKm":2.882094608324582},{"entity":{"id":"greekRestaurants_4d35ec674015","slug":"taverna-saita-4d35","kind":"restaurant","name":"Taverna Saita","lat":37.97248143588815,"lng":23.732031545694568,"url":"https://maps.app.goo.gl/SCwWcqyGvhz7WVrE8","address":"Κυδαθηναίων 21, Αθήνα 105 58","categoryIds":["greek-restaurants"],"categories":["Greek Restaurants"]},"distanceKm":2.9520506537297155}],"counts":{"totalEntities":3884,"totalInArea":442,"totalInCategory":779,"totalCategoryArea":44},"relatedCategories":[{"categoryId":"coffee-brunch","categorySlug":"brunch","categoryName":"Coffee & Brunch Spots","count":80,"passesThreshold":true},{"categoryId":"luxury-dining","categorySlug":"luxury-dining","categoryName":"Luxury Dining","count":57,"passesThreshold":true},{"categoryId":"cheap-eats","categorySlug":"cheap-eats","categoryName":"Gyros & Cheap Eats","count":56,"passesThreshold":true},{"categoryId":"desserts","categorySlug":"desserts","categoryName":"Dessert Shops","count":44,"passesThreshold":true},{"categoryId":"italian","categorySlug":"italian","categoryName":"Italian Restaurants","count":38,"passesThreshold":true},{"categoryId":"vegetarian","categorySlug":"vegetarian","categoryName":"Vegetarian Friendly Restaurants","count":34,"passesThreshold":true},{"categoryId":"attractions","categorySlug":"attractions","categoryName":"Must-See Attractions","count":29,"passesThreshold":true},{"categoryId":"rooftop-lounges","categorySlug":"rooftops","categoryName":"Rooftop Lounges","count":29,"passesThreshold":true},{"categoryId":"asian","categorySlug":"asian-restaurants","categoryName":"Asian Restaurants","count":27,"passesThreshold":true},{"categoryId":"burgers","categorySlug":"burgers","categoryName":"Burger Spots","count":23,"passesThreshold":true}],"relatedAreas":[{"areaId":"municipalities_877c3bc81df5","areaName":"Σύνταγμα","areaSlug":"syntagma","count":104,"passesThreshold":true,"nearestDistanceKm":0.25065315412584166},{"areaId":"municipalities_d7e1aaaed4f9","areaName":"Μοναστηράκι","areaSlug":"monastiraki","count":102,"passesThreshold":true,"nearestDistanceKm":0.11018896540685234},{"areaId":"municipalities_616efd2a0d9b","areaName":"Κουκάκι","areaSlug":"koykaki","count":102,"passesThreshold":true,"nearestDistanceKm":0.1192546213730499},{"areaId":"municipalities_0cae2c00b932","areaName":"Κολωνάκι","areaSlug":"kolonaki","count":102,"passesThreshold":true,"nearestDistanceKm":0.2699072412087797},{"areaId":"municipalities_2bcfcb8b899f","areaName":"Ψυρρή","areaSlug":"psyrri","count":101,"passesThreshold":true,"nearestDistanceKm":0.07774951180130882},{"areaId":"municipalities_5bc013791cf8","areaName":"Πλάκα","areaSlug":"plaka","count":100,"passesThreshold":true,"nearestDistanceKm":0.012491754607387504},{"areaId":"municipalities_2f324ee27306","areaName":"Εξάρχεια","areaSlug":"exarcheia","count":100,"passesThreshold":true,"nearestDistanceKm":0.18646577481015641},{"areaId":"municipalities_4149fa79e27b","areaName":"Ακρόπολη","areaSlug":"akropoli","count":100,"passesThreshold":true,"nearestDistanceKm":0.3588617537950929},{"areaId":"municipalities_7e1691d5f08d","areaName":"Μεταξουργείο","areaSlug":"metaxoyrgeio","count":98,"passesThreshold":true,"nearestDistanceKm":0.05816078489896007},{"areaId":"municipalities_b85b54408d92","areaName":"Θησείο","areaSlug":"thiseio","count":97,"passesThreshold":true,"nearestDistanceKm":0.1468570728458221}],"passesThreshold":true},"hasAreaGuidePage":true,"topGuides":[]},"__N_SSG":true}