{"pageProps":{"entity":{"id":"luxuryDiningRestaurants_daff556d4496","slug":"barbarossa-restaurant-daff","kind":"restaurant","name":"Barbarossa Restaurant","lat":37.12519351534626,"lng":25.23748367778552,"url":"https://maps.app.goo.gl/cdTNGtzo6JQDuLoVA?g_st=ipc","address":"Παλιό Λιμάνι Νάουσας, Limanaki, Naousa 844 01","categoryIds":["luxury-dining"],"categories":["Luxury Dining"]},"sameCategory":[{"id":"luxuryDiningRestaurants_1787918aabcc","slug":"matsuhisa-paros-1787","kind":"restaurant","name":"Matsuhisa Paros","lat":37.122332088945846,"lng":25.232444794394056,"url":"https://maps.app.goo.gl/MmRAPTUjpZ9ev73JA?g_st=ipc","address":"Avant Mar Hotel, Paros 844 01","categoryIds":["luxury-dining"],"categories":["Luxury Dining"]},{"id":"fishTavernasRestaurants_9bf6858efa20","slug":"siparos-seaside-restaurant-9bf6","kind":"restaurant","name":"Siparos Seaside Restaurant","lat":37.12641356420799,"lng":25.266629540061626,"url":"https://maps.app.goo.gl/Y5FqpWpLwoZYaHni9?g_st=ipc","address":"Ξιφαρά 844 01","categoryIds":["fish-tavernas","luxury-dining"],"categories":["Fish Tavernas","Luxury Dining"],"legacySlugs":["siparos-seaside-restaurant-0493"]},{"id":"luxuryDiningRestaurants_162c7c269249","slug":"mario-restaurant-162c","kind":"restaurant","name":"Mario Restaurant","lat":37.091334008503296,"lng":25.156686500869714,"url":"https://maps.app.goo.gl/XvstBKLEfdRFvAHv7?g_st=ipc","address":"Λιβάδια, Paros 844 00","categoryIds":["luxury-dining"],"categories":["Luxury Dining"]},{"id":"luxuryDiningRestaurants_1500d9d46225","slug":"scorpios-1500","kind":"restaurant","name":"Scorpios","lat":37.40690634816725,"lng":25.347629445529506,"url":"https://maps.app.goo.gl/BWoH4D79nkxuwHvt9?g_st=ipc","address":"Paraga, Mikonos 846 00","categoryIds":["luxury-dining"],"categories":["Luxury Dining"]},{"id":"fishTavernasRestaurants_f0d4e1537e1b","slug":"hippie-fish-mykonos-f0d4","kind":"restaurant","name":"Hippie Fish Mykonos","lat":37.4216168444124,"lng":25.3115215810695,"url":"https://maps.app.goo.gl/P1ey2vdmerWsiMqXA?g_st=ipc","address":"Agios Ioannis, Mikonos 846 00","categoryIds":["fish-tavernas","luxury-dining"],"categories":["Fish Tavernas","Luxury Dining"],"legacySlugs":["hippie-fish-mykonos-d24a"]},{"id":"luxuryDiningRestaurants_1ddd2e5b1131","slug":"botrini-s-restaurant-mykonos-1ddd","kind":"restaurant","name":"Botrini's Restaurant Mykonos","lat":37.42357245673207,"lng":25.30823643743267,"url":"https://maps.app.goo.gl/ZQF2Z95MsiUa9YY38?g_st=ipc","address":"Agios Ioannis Mykonos, Cyclades, 846 00","categoryIds":["luxury-dining"],"categories":["Luxury Dining"]},{"id":"asianRestaurants_5d69fac12c7f","slug":"tokyo-joe-mykonos-5d69","kind":"restaurant","name":"Tokyo Joe Mykonos","lat":37.43430209897853,"lng":25.33164889840815,"url":"https://maps.app.goo.gl/SbcxFuCJ6NAhCk248?g_st=ipc","address":"Ano Vrisi, My Mall, Mikonos 846 00","categoryIds":["asian","luxury-dining"],"categories":["Asian Restaurants","Luxury Dining"],"legacySlugs":["tokyo-joe-mykonos-5522"]},{"id":"luxuryDiningRestaurants_0e975a4fcafc","slug":"baos-greek-restaurant-0e97","kind":"restaurant","name":"BAOS Greek Restaurant","lat":37.43694847921598,"lng":25.32914124723638,"url":"https://maps.app.goo.gl/BQon51NoPRn4CLnY6?g_st=ipc","address":"Myconian Korali Mykonos Town, Mikonos 846 00","categoryIds":["luxury-dining"],"categories":["Luxury Dining"]},{"id":"luxuryDiningRestaurants_137cd7d1e18b","slug":"yevo-by-bill-coo-mykonos-137c","kind":"restaurant","name":"YĒVO By Bill&Coo Mykonos","lat":37.43758072227673,"lng":25.32795511521471,"url":"https://maps.app.goo.gl/dgiE2BaNVt8Jhb1F6?g_st=ipc","address":"Μεγάλη Άμμος, Mikonos 846 00","categoryIds":["luxury-dining"],"categories":["Luxury Dining"]},{"id":"luxuryDiningRestaurants_68f1019ed7a6","slug":"cabbanes-mykonos-68f1","kind":"restaurant","name":"Cabbanes Mykonos","lat":37.42267215380325,"lng":25.39444539705876,"url":"https://maps.app.goo.gl/dn2BSTCZPyK4NYU26?g_st=ipc","address":"Elia Beach, Mikonos 846 00","categoryIds":["luxury-dining"],"categories":["Luxury Dining"]},{"id":"luxuryDiningRestaurants_ed9cd1741842","slug":"matsuhisa-mykonos-ed9c","kind":"restaurant","name":"Matsuhisa Mykonos","lat":37.44329085125445,"lng":25.330097754352987,"url":"https://maps.app.goo.gl/WTcgX6M9Jp2R7YGdA?g_st=ipc","address":"Belvedere Hotel School of Fine Arts District, Agiou Ioannou 1, Mikonos 846 00","categoryIds":["luxury-dining"],"categories":["Luxury Dining"]},{"id":"luxuryDiningRestaurants_864249c0b1ea","slug":"lio-mykonos-8642","kind":"restaurant","name":"Lío Mykonos","lat":37.44500603308255,"lng":25.32823624391178,"url":"https://maps.app.goo.gl/hS1c8JjDNAyUufSc6?g_st=ipc","address":"Enoplon Dinameon 6, Mikonos 846 00","categoryIds":["luxury-dining"],"categories":["Luxury Dining"]}],"nearby":[{"id":"fishTavernasRestaurants_2b513f5d0dca","slug":"sigi-ikthios-2b51","kind":"restaurant","name":"Sigi Ikthios","lat":37.12488461984584,"lng":25.2375451186848,"url":"https://maps.app.goo.gl/a8XzzgdiGdqnwgxp6?g_st=ipc","address":"Limanaki Naousa, Naousa 844 01","categoryIds":["fish-tavernas"],"categories":["Fish Tavernas"],"distanceKm":0.0347768708628082},{"id":"cheapEatsRestaurants_666655654a40","slug":"souvlakia-kargas-6666","kind":"restaurant","name":"Souvlakia KARGAS","lat":37.124561868830334,"lng":25.238091044543676,"url":"https://maps.app.goo.gl/5vu438KzmoWTk1dRA?g_st=ipc","address":"Naousa 844 01","categoryIds":["cheap-eats"],"categories":["Gyros & Cheap Eats"],"distanceKm":0.08850247907491088},{"id":"italianRestaurants_b7cf983e2771","slug":"casa-giacomo-paros-b7cf","kind":"restaurant","name":"Casa Giacomo Paros","lat":37.12454320720165,"lng":25.238458349168585,"url":"https://maps.app.goo.gl/Ciaf8V2SrHA91Eqw7?g_st=ipc","address":"Little Venice, Naousa 844 01","categoryIds":["italian"],"categories":["Italian Restaurants"],"distanceKm":0.11267656963422858},{"id":"municipalities_e44f44ea872e","slug":"naoysa-paroy-e44f","kind":"municipality","name":"Ναούσα Πάρου","lat":37.1242,"lng":25.2383,"aliases":["Ναουσα Παρου","Naousa","Naoussa"],"region":"Κυκλάδες","name_en":"Naousa Paros","region_en":"Cyclades","distanceKm":0.1320698344954872},{"id":"coffeeBrunchRestaurants_cab3ccb32dd1","slug":"come-back-cab3","kind":"restaurant","name":"come back","lat":37.12451513145797,"lng":25.239009860245982,"url":"https://maps.app.goo.gl/iW2VgvcVsbQ7K6rVA?g_st=ipc","address":"Beach, Agios Dimitrios, Naousa 844 01","categoryIds":["coffee-brunch"],"categories":["Coffee & Brunch Spots"],"distanceKm":0.1549145619499493},{"id":"fishTavernasRestaurants_d0606bef60e0","slug":"bluefish-paros-d060","kind":"restaurant","name":"Bluefish Paros","lat":37.12385227854004,"lng":25.235378897681453,"url":"https://maps.app.goo.gl/YqeBLughpHcPmHy19?g_st=ipc","address":"Naoussa, Paros 844 01","categoryIds":["fish-tavernas"],"categories":["Fish Tavernas"],"distanceKm":0.23888167836836663},{"id":"luxuryDiningRestaurants_1787918aabcc","slug":"matsuhisa-paros-1787","kind":"restaurant","name":"Matsuhisa Paros","lat":37.122332088945846,"lng":25.232444794394056,"url":"https://maps.app.goo.gl/MmRAPTUjpZ9ev73JA?g_st=ipc","address":"Avant Mar Hotel, Paros 844 01","categoryIds":["luxury-dining"],"categories":["Luxury Dining"],"distanceKm":0.5484677224533002},{"id":"municipalities_57c14c9b4c1f","slug":"naoysa-paros-57c1","kind":"municipality","name":"Νάουσα Πάρος","lat":37.12,"lng":25.24,"region":"Πάρος","name_en":"Naousa Paros","region_en":"Paros","distanceKm":0.6190887745004053},{"id":"wineriesVineyards_f17638e49b8a","slug":"oinopoieio-moraiti-f176","kind":"restaurant","name":"Οινοποιείο Μωραΐτη","lat":37.1229987485843,"lng":25.244213980711866,"url":"https://maps.app.goo.gl/1HbespH52SwExwaW8?g_st=ipc","address":"Επαρχιακή Οδός Νάουσας-Μάρπισσας, Νάουσα 844 01","categoryIds":["wineries-vineyards"],"categories":["Wineries & Vineyards"],"distanceKm":0.6446802758400014},{"id":"coffeeBrunchRestaurants_aba1a76a9734","slug":"batistas-bakery-aba1","kind":"restaurant","name":"Batistas Bakery","lat":37.120044252975426,"lng":25.241091509858137,"url":"https://maps.app.goo.gl/VX68GiVxifYLzhWu6?g_st=ipc","address":"Naousa 844 01","categoryIds":["coffee-brunch","desserts"],"categories":["Coffee & Brunch Spots","Dessert Shops"],"legacySlugs":["batistas-bakery-29b6"],"distanceKm":0.6558638885570075},{"id":"fishTavernasRestaurants_9bf6858efa20","slug":"siparos-seaside-restaurant-9bf6","kind":"restaurant","name":"Siparos Seaside Restaurant","lat":37.12641356420799,"lng":25.266629540061626,"url":"https://maps.app.goo.gl/Y5FqpWpLwoZYaHni9?g_st=ipc","address":"Ξιφαρά 844 01","categoryIds":["fish-tavernas","luxury-dining"],"categories":["Fish Tavernas","Luxury Dining"],"legacySlugs":["siparos-seaside-restaurant-0493"],"distanceKm":2.5875455659077002},{"id":"asianRestaurants_77a64bfea5a1","slug":"tao-s-asian-restaurant-77a6","kind":"restaurant","name":"Tao's Asian Restaurant","lat":37.1152419319295,"lng":25.264893830214174,"url":"https://maps.app.goo.gl/QAY53CMCsWPZJ1nX7?g_st=ipc","address":"Ambelas 844 01","categoryIds":["asian"],"categories":["Asian Restaurants"],"distanceKm":2.6703489445442847},{"id":"dessertsRestaurants_8e6cc5f0cd66","slug":"xilofournos-8e6c","kind":"restaurant","name":"Xilofournos","lat":37.08496749131104,"lng":25.244272132832048,"url":"https://maps.app.goo.gl/rAbxWJidxPCZz1CF9?g_st=ipc","address":"Epar.Od. Naoussas-Marpissas, Paros 844 01","categoryIds":["desserts"],"categories":["Dessert Shops"],"distanceKm":4.513260025250615},{"id":"fishTavernasRestaurants_0de5c8be59df","slug":"o-katsoynas-0de5","kind":"restaurant","name":"Ο ΚΑΤΣΟΥΝΑΣ","lat":37.13969481378141,"lng":25.28757143574355,"url":"https://maps.app.goo.gl/oZW4nirAsKmE2gbg8?g_st=ipc","address":"Σάντα Μαρια 844 01","categoryIds":["fish-tavernas"],"categories":["Fish Tavernas"],"distanceKm":4.723963414214602},{"id":"luxuryDiningRestaurants_162c7c269249","slug":"mario-restaurant-162c","kind":"restaurant","name":"Mario Restaurant","lat":37.091334008503296,"lng":25.156686500869714,"url":"https://maps.app.goo.gl/XvstBKLEfdRFvAHv7?g_st=ipc","address":"Λιβάδια, Paros 844 00","categoryIds":["luxury-dining"],"categories":["Luxury Dining"],"distanceKm":8.093890282325358},{"id":"greekRestaurants_83e1c2c69f39","slug":"o-klarinos-83e1","kind":"restaurant","name":"Ο Κλαρίνος","lat":37.05648947923969,"lng":25.206502727549665,"url":"https://maps.app.goo.gl/4Tf96Q67ADKq6o4e8?g_st=ipc","address":"Unnamed Road, Λεύκες 844 00","categoryIds":["greek-restaurants"],"categories":["Greek Restaurants"],"distanceKm":8.118731054300323},{"id":"dessertsRestaurants_0565a393e110","slug":"sweet-smelling-kitchen-0565","kind":"restaurant","name":"Sweet Smelling Kitchen","lat":37.05574111764851,"lng":25.209011772952916,"url":"https://maps.app.goo.gl/S3vicBhUXPLLmBEK6?g_st=ipc","address":"ΧΩΡΙΟ ΛΕΥΚΕΣ Τ.Θ. 50104, Paros 844 00","categoryIds":["desserts"],"categories":["Dessert Shops"],"distanceKm":8.125185877601162},{"id":"municipalities_e281bb3a199f","slug":"paroikia-e281","kind":"municipality","name":"Παροικιά","lat":37.0858,"lng":25.1508,"aliases":["Παροικια","Paros Town"],"region":"Κυκλάδες","name_en":"Parikia","region_en":"Cyclades","distanceKm":8.847615905685464},{"id":"municipalities_9268ba4d6ee8","slug":"paros-9268","kind":"municipality","name":"Πάρος","lat":37.085,"lng":25.15,"aliases":["Paros","Πάριος","Παρος"],"region":"Κυκλάδες","name_en":"Paros","region_en":"Cyclades","distanceKm":8.95343152185164},{"id":"greekRestaurants_1ccef1a865fb","slug":"rema-floga-paros-rema-floga-paros-1cce","kind":"restaurant","name":"Rema Floga Paros | Ρέμα Φλόγα Πάρος","lat":37.083260531103015,"lng":25.151257743937837,"url":"https://maps.app.goo.gl/WS1Gkc789zcvCqy19?g_st=ipc","address":"Ρέμα Φλόγα, Paros 844 00","categoryIds":["greek-restaurants"],"categories":["Greek Restaurants"],"distanceKm":8.95619196351361},{"id":"dessertsRestaurants_b5a2b5f82729","slug":"vanilla-gelateria-b5a2","kind":"restaurant","name":"Vanilla Gelateria","lat":37.08455372963838,"lng":25.14916406230604,"url":"https://maps.app.goo.gl/QoqnghnxkCVXxyoT6?g_st=ipc","address":"Paroikias, Zoodochou Pigis 84400, Paros 844 00","categoryIds":["desserts"],"categories":["Dessert Shops"],"distanceKm":9.042459541286554},{"id":"greekRestaurants_bd1dd4fa8785","slug":"taverna-charoyla-bd1d","kind":"restaurant","name":"Ταβέρνα Χαρούλα","lat":37.044240609289616,"lng":25.24781569297046,"url":"https://maps.app.goo.gl/vTVSyzgoJGLRUtHJ6?g_st=ipc","address":"Μάρπησσα 844 00","categoryIds":["greek-restaurants"],"categories":["Greek Restaurants"],"distanceKm":9.048089537176569},{"id":"asianRestaurants_c5266398dba0","slug":"bebop-c526","kind":"restaurant","name":"Bebop","lat":37.08435266337157,"lng":25.146838121018355,"url":"https://maps.app.goo.gl/o98h6Mb7JAp58wHN7?g_st=ipc","address":"Paros 844 00","categoryIds":["asian","rooftop-lounges"],"categories":["Asian Restaurants","Rooftop Lounges"],"legacySlugs":["bebop-2446"],"distanceKm":9.232685087374461},{"id":"fishTavernasRestaurants_371770ae7cd1","slug":"taverna-mouragio-3717","kind":"restaurant","name":"Taverna Mouragio","lat":37.08418771728996,"lng":25.146730718001848,"url":"https://maps.app.goo.gl/ScnZGixdZ4dqUL3V6?g_st=ipc","address":"Παροικία - Παραλιακός Δρόμος Παροικίας Παρος, 844 00","categoryIds":["fish-tavernas"],"categories":["Fish Tavernas"],"distanceKm":9.250013922526067}],"sameRegion":[],"mentionedGuides":[],"canonicalSlug":"barbarossa-restaurant-daff","enrichment":{"summary_en":"Barbarossa Restaurant is a curated restaurant in Naousa 844 01 in the Luxury Dining collection. It is connected to 10 nearby Googlementor picks to help travelers build a stronger local route.","summary_el":"Barbarossa Restaurant είναι ένα επιλεγμένο σημείο φαγητού στην περιοχή Naousa 844 01 και ανήκει στη συλλογή Luxury Dining. Συνδέεται με 10 κοντινές προτάσεις του Googlementor για πιο ολοκληρωμένη εμπειρία.","vibe_tags":["curated","premium-dining"],"best_for":["first-time visitors","food lovers","special occasions"],"visit_moments":["lunch stop","dinner stop"],"practical_note":"Address and direct map link are available for easy turn-by-turn access.","nearby_walkable_count":10,"nearby_count_2km":10,"confidence":0.98},"areaContext":{"slug":"naoysa-paroy","name":"Naousa Paros","nameEl":"Ναούσα Πάρου"},"intentContexts":[]},"__N_SSG":true}