{"pageProps":{"entity":{"id":"coffeeBrunchRestaurants_3ad613746740","slug":"lalos-3ad6","kind":"restaurant","name":"Lalos","lat":37.95653694094431,"lng":23.71832970107999,"url":"https://maps.app.goo.gl/EWRQ18pu1HkgSHMM9?g_st=ipc","address":"Ευρυδάμαντος 19, Αθήνα 117 45","categoryIds":["coffee-brunch"],"categories":["Coffee & Brunch Spots"]},"sameCategory":[{"id":"coffeeBrunchRestaurants_0f49d35a64cc","slug":"naif-0f49","kind":"restaurant","name":"Naif","lat":37.95731969922388,"lng":23.71935175462416,"url":"https://maps.app.goo.gl/5eapXgYffcfJThv49?g_st=ipc","address":"Ευρυδάμαντος 15, Αθήνα 117 45","categoryIds":["coffee-brunch"],"categories":["Coffee & Brunch Spots"]},{"id":"coffeeBrunchRestaurants_191c759a08b3","slug":"roasting-warehouse-athens-191c","kind":"restaurant","name":"Roasting Warehouse Athens","lat":37.95668706209458,"lng":23.722828304668056,"url":"https://maps.app.goo.gl/fwCy3n7FRVzPEXwR8?g_st=ipc","address":"Ντελακρουά 2, Αθήνα 117 45","categoryIds":["coffee-brunch"],"categories":["Coffee & Brunch Spots"]},{"id":"coffeeBrunchRestaurants_45cff5aaefe1","slug":"peggy-sue-45cf","kind":"restaurant","name":"Peggy Sue","lat":37.9539520452851,"lng":23.715104827553436,"url":"https://maps.app.goo.gl/jJoRB32pj6dGvy9h9?g_st=ipc","address":"Σπαθαρη 2, Νέα Σμύρνη 171 21","categoryIds":["coffee-brunch"],"categories":["Coffee & Brunch Spots"]},{"id":"coffeeBrunchRestaurants_fb20c8dc39dd","slug":"louiza-athens-fb20","kind":"restaurant","name":"Louiza Athens","lat":37.95836602961577,"lng":23.722700242324212,"url":"https://maps.app.goo.gl/wDYFkKSw6y1KG4Ye8?g_st=ic","address":"Sfiggos 13, Athina 117 45","categoryIds":["coffee-brunch"],"categories":["Coffee & Brunch Spots"]},{"id":"coffeeBrunchRestaurants_43a4eab28734","slug":"omsom-koukaki-43a4","kind":"restaurant","name":"Omsom koukaki","lat":37.96237188971574,"lng":23.719324269228586,"url":"https://maps.app.goo.gl/JSsTgH7xa3anCw4c9?g_st=ipc","address":"Βεΐκου 110, Αθήνα 117 41","categoryIds":["coffee-brunch"],"categories":["Coffee & Brunch Spots"]},{"id":"coffeeBrunchRestaurants_6154e62b6cd6","slug":"mpel-rey-6154","kind":"restaurant","name":"Μπελ Ρεϋ","lat":37.96239606904346,"lng":23.722769926662476,"url":"https://maps.app.goo.gl/zGZShvHird8bq92Q9?g_st=ipc","address":"Φαλήρου 88, Αθήνα 117 41","categoryIds":["coffee-brunch"],"categories":["Coffee & Brunch Spots"]},{"id":"coffeeBrunchRestaurants_10b5704edcd7","slug":"karminio-all-day-eatery-10b5","kind":"restaurant","name":"KARMINIO - All Day Eatery","lat":37.963365261808825,"lng":23.721069408577183,"url":"https://maps.app.goo.gl/B47HWPSnhF6mtY1M8?g_st=ipc","address":"Βεΐκου 86, Αθήνα 117 41","categoryIds":["coffee-brunch","vegetarian"],"categories":["Coffee & Brunch Spots","Vegetarian Friendly Restaurants"],"legacySlugs":["karminio-all-day-eatery-44c1"]},{"id":"coffeeBrunchRestaurants_93d5a5bf934a","slug":"bite-box-93d5","kind":"restaurant","name":"Bite Box","lat":37.963687328724134,"lng":23.72159915102945,"url":"https://maps.app.goo.gl/szSB6mZP4tWEA46h7?g_st=ipc","address":"Βεΐκου 84, Αθήνα 117 41","categoryIds":["coffee-brunch"],"categories":["Coffee & Brunch Spots"]},{"id":"coffeeBrunchRestaurants_946f8ff0112c","slug":"hippy-hippo-946f","kind":"restaurant","name":"Hippy Hippo","lat":37.96338312245576,"lng":23.724161260955565,"url":"https://maps.app.goo.gl/dGXFqUaPgJg6izKF7?g_st=ipc","address":"Αναστασίου Ζίννη 37, Αθήνα 117 41","categoryIds":["coffee-brunch"],"categories":["Coffee & Brunch Spots"]},{"id":"coffeeBrunchRestaurants_c191ebb5fd6a","slug":"teras-athens-c191","kind":"restaurant","name":"Teras Athens","lat":37.96132522695651,"lng":23.727704519576132,"url":"https://maps.app.goo.gl/Q7ocWz9NPgB5Zoaa6?g_st=ipc","address":"Θεοδώρητου Βρεσθένης 45, Αθήνα 117 43","categoryIds":["coffee-brunch"],"categories":["Coffee & Brunch Spots"]},{"id":"coffeeBrunchRestaurants_bcef1a0d2ebe","slug":"aroma-plateias-bcef","kind":"restaurant","name":"Άρωμα πλατείας","lat":37.947245777072794,"lng":23.713361220767048,"url":"https://maps.app.goo.gl/6mPMQRmSeP8pK4Cu6?g_st=ipc","address":"25ης Μαρτίου 19, Νέα Σμύρνη 171 21","categoryIds":["coffee-brunch"],"categories":["Coffee & Brunch Spots"]},{"id":"coffeeBrunchRestaurants_bcfaf36dacbe","slug":"tyropites-o-mitsos-bcfa","kind":"restaurant","name":"Τυρόπιτες ο Μήτσος","lat":37.95255129753746,"lng":23.705922909041465,"url":"https://maps.app.goo.gl/SR156bdeLaJYk1WY6?g_st=ipc","address":"Συνταγματάρχου Δαβάκη 32A, Καλλιθέα 176 72","categoryIds":["coffee-brunch"],"categories":["Coffee & Brunch Spots"]}],"nearby":[{"id":"coffeeBrunchRestaurants_0f49d35a64cc","slug":"naif-0f49","kind":"restaurant","name":"Naif","lat":37.95731969922388,"lng":23.71935175462416,"url":"https://maps.app.goo.gl/5eapXgYffcfJThv49?g_st=ipc","address":"Ευρυδάμαντος 15, Αθήνα 117 45","categoryIds":["coffee-brunch"],"categories":["Coffee & Brunch Spots"],"distanceKm":0.12492115621116737},{"id":"italianRestaurants_20d0a7e98724","slug":"dei-fratelli-ristorante-italiano-20d0","kind":"restaurant","name":"Dei Fratelli - Ristorante Italiano","lat":37.954535351071335,"lng":23.71576098163187,"url":"https://maps.app.goo.gl/hbqzvikXoNEXvdgj7?g_st=ipc","address":"ΚΡΑΤΗΤΟΣ 10 &, Σπαθαρη, Νέα Σμύρνη 171 21","categoryIds":["italian"],"categories":["Italian Restaurants"],"distanceKm":0.31663481803295856},{"id":"cheapEatsRestaurants_4de598be41da","slug":"johnie-hot-dog-syggroy-4de5","kind":"restaurant","name":"Johnie Hot Dog Συγγρού","lat":37.959239923680194,"lng":23.71954717101243,"url":"https://maps.app.goo.gl/WUCUWAGV3GyPBumi7?g_st=ipc","address":"Λεωφ. Ανδρέα Συγγρού 136, Καλλιθέα 176 71","categoryIds":["cheap-eats"],"categories":["Gyros & Cheap Eats"],"distanceKm":0.3189488683879832},{"id":"coffeeBrunchRestaurants_191c759a08b3","slug":"roasting-warehouse-athens-191c","kind":"restaurant","name":"Roasting Warehouse Athens","lat":37.95668706209458,"lng":23.722828304668056,"url":"https://maps.app.goo.gl/fwCy3n7FRVzPEXwR8?g_st=ipc","address":"Ντελακρουά 2, Αθήνα 117 45","categoryIds":["coffee-brunch"],"categories":["Coffee & Brunch Spots"],"distanceKm":0.3947664163403623},{"id":"coffeeBrunchRestaurants_45cff5aaefe1","slug":"peggy-sue-45cf","kind":"restaurant","name":"Peggy Sue","lat":37.9539520452851,"lng":23.715104827553436,"url":"https://maps.app.goo.gl/jJoRB32pj6dGvy9h9?g_st=ipc","address":"Σπαθαρη 2, Νέα Σμύρνη 171 21","categoryIds":["coffee-brunch"],"categories":["Coffee & Brunch Spots"],"distanceKm":0.4031861456063541},{"id":"cheapEatsRestaurants_7f509ca8a241","slug":"doner-tzortz-7f50","kind":"restaurant","name":"DONER.TZORTZ","lat":37.95300238294556,"lng":23.716665931248773,"url":"https://maps.app.goo.gl/otFTTi2nsTTPYaYKA?g_st=ipc","address":"Βιζυηνού 2, Νέα Σμύρνη 171 21","categoryIds":["cheap-eats"],"categories":["Gyros & Cheap Eats"],"distanceKm":0.41922287645719386},{"id":"coffeeBrunchRestaurants_fb20c8dc39dd","slug":"louiza-athens-fb20","kind":"restaurant","name":"Louiza Athens","lat":37.95836602961577,"lng":23.722700242324212,"url":"https://maps.app.goo.gl/wDYFkKSw6y1KG4Ye8?g_st=ic","address":"Sfiggos 13, Athina 117 45","categoryIds":["coffee-brunch"],"categories":["Coffee & Brunch Spots"],"distanceKm":0.43381262812544485},{"id":"rooftopLoungesRestaurants_eff063b05a76","slug":"premiere-restaurant-eff0","kind":"restaurant","name":"Premiere Restaurant","lat":37.95933669311001,"lng":23.721893436588108,"url":"https://maps.app.goo.gl/xdoJybpRxJKYAgbKA?g_st=ipc","address":"Λεωφ. Ανδρέα Συγγρού 89-93, Αθήνα 117 45","categoryIds":["rooftop-lounges"],"categories":["Rooftop Lounges"],"distanceKm":0.4410668707160405},{"id":"greekRestaurants_c2d712c3a636","slug":"louiza-athens-c2d7","kind":"restaurant","name":"Louiza Athens","lat":37.958439423665176,"lng":23.722755568163475,"url":"https://maps.app.goo.gl/QPXwcnn7KEEcjqBb9","address":"Σφιγγός 13, Αθήνα 117 45","categoryIds":["greek-restaurants"],"categories":["Greek Restaurants"],"distanceKm":0.4419506545939012},{"id":"greekRestaurants_e9888507556f","slug":"fita-e988","kind":"restaurant","name":"Φιτα","lat":37.959800125380376,"lng":23.723270363621033,"url":"https://maps.app.goo.gl/dz2YxasHy4LnBQ668","address":"Ντουρμ 1, Αθήνα 117 45","categoryIds":["greek-restaurants"],"categories":["Greek Restaurants"],"distanceKm":0.565056355080234},{"id":"cheapEatsRestaurants_d758a1864776","slug":"tomas-marios-ovelistirio-d758","kind":"restaurant","name":"ΤΟΜΑΣ ΜΑΡΙΟΣ ΟΒΕΛΙΣΤΗΡΙΟ","lat":37.95740701533671,"lng":23.72476747255489,"url":"https://maps.app.goo.gl/B8R43v1kbWhoCBdJ9?g_st=ipc","address":"Μήτρου Σαρκουδίνου 49, Αθήνα 117 44","categoryIds":["cheap-eats"],"categories":["Gyros & Cheap Eats"],"distanceKm":0.5726580708450537},{"id":"mexicanRestaurants_ec31cb806a86","slug":"dos-banditos-ec31","kind":"restaurant","name":"Dos Banditos","lat":37.957023186399105,"lng":23.71172894880883,"url":"https://maps.app.goo.gl/A9S8uhRtFHyQhuDh6?g_st=ipc","address":"Δημοσθένους 31, Καλλιθέα 176 71","categoryIds":["mexican"],"categories":["Mexican Restaurants"],"distanceKm":0.5812373121810125},{"id":"cheapEatsRestaurants_4c857b269660","slug":"soyvlakia-kalamakia-panostimo-4c85","kind":"restaurant","name":"Σουβλακια καλαμάκια πανοστιμο","lat":37.95437724216138,"lng":23.71201791711626,"url":"https://maps.app.goo.gl/wSd2i93DKt8GM9aEA?g_st=ipc","address":"Δοϊράνης 35, Καλλιθέα 176 72","categoryIds":["cheap-eats"],"categories":["Gyros & Cheap Eats"],"distanceKm":0.6032524057242902},{"id":"coffeeBrunchRestaurants_43a4eab28734","slug":"omsom-koukaki-43a4","kind":"restaurant","name":"Omsom koukaki","lat":37.96237188971574,"lng":23.719324269228586,"url":"https://maps.app.goo.gl/JSsTgH7xa3anCw4c9?g_st=ipc","address":"Βεΐκου 110, Αθήνα 117 41","categoryIds":["coffee-brunch"],"categories":["Coffee & Brunch Spots"],"distanceKm":0.6546495854047047},{"id":"cheapEatsRestaurants_94dff4f67b62","slug":"to-soyvlaki-tis-charokopoy-94df","kind":"restaurant","name":"Το Σουβλάκι Της Χαροκόπου","lat":37.95770921844376,"lng":23.710571236714188,"url":"https://maps.app.goo.gl/Rh99dawd3iLza1Vz7?g_st=ipc","address":"Χαροκόπου 46, Καλλιθέα 176 71","categoryIds":["cheap-eats"],"categories":["Gyros & Cheap Eats"],"distanceKm":0.6925927903204101},{"id":"vegetarianRestaurants_06ce84bd30cd","slug":"mother-vegan-bistro-06ce","kind":"restaurant","name":"Mother Vegan Bistro","lat":37.962693218314804,"lng":23.721538252984118,"url":"https://maps.app.goo.gl/TZgz9fcY4M4aZZQD6?g_st=ipc","address":"Δημητρακοπούλου, Αγίου Νικολάου 95, Αθήνα 117 41","categoryIds":["vegetarian"],"categories":["Vegetarian Friendly Restaurants"],"distanceKm":0.7400894300881318},{"id":"dessertsRestaurants_0bd680afbb5e","slug":"zacharoplasteio-profiterol-dimopoylos-kallithea-0bd6","kind":"restaurant","name":"Ζαχαροπλαστείο Προφιτερόλ Δημόπουλος Καλλιθέα","lat":37.95693778495156,"lng":23.709710879410338,"url":"https://maps.app.goo.gl/t1RvynY9vJegnu6i6?g_st=ipc","address":"Αγ. Πάντων 46, Καλλιθέα 176 71","categoryIds":["desserts"],"categories":["Dessert Shops"],"distanceKm":0.7569639582622075},{"id":"coffeeBrunchRestaurants_6154e62b6cd6","slug":"mpel-rey-6154","kind":"restaurant","name":"Μπελ Ρεϋ","lat":37.96239606904346,"lng":23.722769926662476,"url":"https://maps.app.goo.gl/zGZShvHird8bq92Q9?g_st=ipc","address":"Φαλήρου 88, Αθήνα 117 41","categoryIds":["coffee-brunch"],"categories":["Coffee & Brunch Spots"],"distanceKm":0.7589453519965993},{"id":"mexicanRestaurants_b734434ef46c","slug":"el-burro-tacos-y-tequila-b734","kind":"restaurant","name":"El burro tacos y tequila","lat":37.962922862445566,"lng":23.7215865155236,"url":"https://maps.app.goo.gl/5kJKHTBcWjkVftX99?g_st=ipc","address":"Δημητρακοπούλου 102, Αθήνα 117 41","categoryIds":["mexican"],"categories":["Mexican Restaurants"],"distanceKm":0.7653382848243391},{"id":"dessertsRestaurants_565a86e193ac","slug":"loukoumania-koukaki-565a","kind":"restaurant","name":"Loukoumania Koukaki","lat":37.96292938267619,"lng":23.721586647006472,"url":"https://maps.app.goo.gl/ZLLgE9gFjGjPVqBp7?g_st=ipc","address":"Δημητρακοπούλου 102, Αθήνα 117 41","categoryIds":["desserts"],"categories":["Dessert Shops"],"distanceKm":0.7660152961766714},{"id":"greekRestaurants_6497d4b8be55","slug":"o-mitos-kritiko-rakadiko-mezedopoleio-6497","kind":"restaurant","name":"Ο Μίτος (Κρητικό Ρακάδικο-Μεζεδοπωλείο)","lat":37.95902391394004,"lng":23.710171017106486,"url":"https://maps.app.goo.gl/fWEdbaEvd9cA8Enr9","address":"Αριστείδου 62, Καλλιθέα 176 71","categoryIds":["greek-restaurants"],"categories":["Greek Restaurants"],"distanceKm":0.7668931156901831},{"id":"cheapEatsRestaurants_f167ae0efa67","slug":"kalyvas-oikogeneiako-psitopoleio-f167","kind":"restaurant","name":"Καλύβας οικογενειακό ψητοπωλείο","lat":37.962881286635515,"lng":23.721970322127277,"url":"https://maps.app.goo.gl/tfkKpGgKP9PAqPWX9?g_st=ipc","address":"Dimitrakopoulou 91-93, G Olymbiou 10, Athina 117 41","categoryIds":["cheap-eats"],"categories":["Gyros & Cheap Eats"],"distanceKm":0.7743036669476586},{"id":"asianRestaurants_674b8df64d5a","slug":"ceci-hong-kong-hot-pot-restaurant-674b","kind":"restaurant","name":"Ceci Hong Kong Hot Pot Restaurant","lat":37.96299269251651,"lng":23.714788342397448,"url":"https://maps.app.goo.gl/qSsZbhQeQPjLVDck8?g_st=ipc","address":"Λεωφ. Ελ. Βενιζέλου 14, Αθήνα 176 76","categoryIds":["asian"],"categories":["Asian Restaurants"],"distanceKm":0.7821113217828831},{"id":"coffeeBrunchRestaurants_10b5704edcd7","slug":"karminio-all-day-eatery-10b5","kind":"restaurant","name":"KARMINIO - All Day Eatery","lat":37.963365261808825,"lng":23.721069408577183,"url":"https://maps.app.goo.gl/B47HWPSnhF6mtY1M8?g_st=ipc","address":"Βεΐκου 86, Αθήνα 117 41","categoryIds":["coffee-brunch","vegetarian"],"categories":["Coffee & Brunch Spots","Vegetarian Friendly Restaurants"],"legacySlugs":["karminio-all-day-eatery-44c1"],"distanceKm":0.7963605419624574}],"sameRegion":[],"mentionedGuides":[],"canonicalSlug":"lalos-3ad6","enrichment":{"summary_en":"Lalos is a curated restaurant in Αθήνα 117 45 in the Coffee & Brunch Spots collection. It is connected to 24 nearby Googlementor picks to help travelers build a stronger local route.","summary_el":"Lalos είναι ένα επιλεγμένο σημείο φαγητού στην περιοχή Αθήνα 117 45 και ανήκει στη συλλογή Coffee & Brunch Spots. Συνδέεται με 24 κοντινές προτάσεις του Googlementor για πιο ολοκληρωμένη εμπειρία.","vibe_tags":["curated","daytime-favorite"],"best_for":["first-time visitors","food lovers"],"visit_moments":["early morning","late brunch"],"practical_note":"Address and direct map link are available for easy turn-by-turn access.","nearby_walkable_count":24,"nearby_count_2km":187,"confidence":0.98},"areaContext":{"slug":"neos-kosmos","name":"Neos Kosmos","nameEl":"Νέος Κόσμος"},"intentContexts":[{"href":"/brunch/neos-kosmos","label":"Coffee & Brunch Spots in Neos Kosmos","categorySlug":"brunch","categoryName":"Coffee & Brunch Spots","areaSlug":"neos-kosmos","areaName":"Neos Kosmos","areaNameEl":"Νέος Κόσμος"}]},"__N_SSG":true}