{"pageProps":{"entity":{"id":"municipalities_5b04c25765e9","slug":"zagori-5b04","kind":"municipality","name":"Ζαγόρι","lat":39.9,"lng":20.8,"region":"Ήπειρος","name_en":"Zagori","region_en":"Epirus"},"sameCategory":[],"nearby":[{"id":"greekRestaurants_df023e747e5f","slug":"kanela-kai-garyfallo-mushroom-restaurant-df02","kind":"restaurant","name":"ΚΑΝΕΛΑ ΚΑΙ ΓΑΡΥΦΑΛΛΟ, Mushroom Restaurant","lat":39.873717064633475,"lng":20.75043313227449,"url":"https://maps.app.goo.gl/RMbRCUycwB1E3Sf99?g_st=ipc","address":"Κεντρική Οδός Βίτσας, Βίτσα Ζαγορίου 440 07","categoryIds":["greek-restaurants"],"categories":["Greek Restaurants"],"distanceKm":5.1406724578671525},{"id":"municipalities_6d3e0429ac44","slug":"zagorochoria-6d3e","kind":"municipality","name":"Ζαγοροχώρια","lat":39.9167,"lng":20.7333,"region":"Ήπειρος","name_en":"Zagorochoria","region_en":"Epirus","distanceKm":5.9845311551968},{"id":"municipalities_cb2980eb2be9","slug":"papigko-cb29","kind":"municipality","name":"Πάπιγκο","lat":39.9667,"lng":20.7833,"region":"Ήπειρος","name_en":"Papingo","region_en":"Epirus","distanceKm":7.552148501133486},{"id":"mustSeeAttractions_8df91757921b","slug":"zagori-8df9","kind":"restaurant","name":"Zagori","lat":39.96846543207807,"lng":20.729047055658157,"url":"https://maps.app.goo.gl/rVafr1wHovCRyoj77?g_st=ipc","address":"Papingo 440 04","categoryIds":["attractions"],"categories":["Must-See Attractions"],"distanceKm":9.72397204601729},{"id":"familyFriendly_f1559b4827bb","slug":"sarakatsaniki-stani-f155","kind":"restaurant","name":"Σαρακατσάνικη Στάνη","lat":39.93486554028431,"lng":20.916784074474684,"url":"https://maps.app.goo.gl/hz7v5UJ8xo3K6aLE7?g_st=ic","address":"Γυφτόκαμπος Σκαμνέλι, Skamnelli 440 10","categoryIds":["family-friendly"],"categories":["Kid Friendly Locations"],"distanceKm":10.687658516733118},{"id":"mustSeeAttractions_c9dd48bbc2ef","slug":"pindos-national-park-c9dd","kind":"restaurant","name":"Pindos National Park","lat":39.94128033875326,"lng":20.950852335589502,"url":"https://maps.app.goo.gl/MwFRaHm4xMSpQ3w87?g_st=ipc","address":"WXR2+G8 Tymphaea","categoryIds":["attractions"],"categories":["Must-See Attractions"],"distanceKm":13.658935244806779},{"id":"familyFriendly_ef01ab8f9ddc","slug":"rafting-no-limits-gr-ef01","kind":"restaurant","name":"Rafting No Limits GR","lat":40.057225940419336,"lng":20.627015564275286,"url":"https://maps.app.goo.gl/JMXqaxKVD3CmU7Ft8?g_st=ipc","address":"BOURAZANI Konitsa, BOURAZANi KONITSA 441 00","categoryIds":["family-friendly"],"categories":["Kid Friendly Locations"],"distanceKm":22.86694778059355},{"id":"mustSeeAttractions_55879b7962ff","slug":"perama-cave-5587","kind":"restaurant","name":"Perama Cave","lat":39.694982816550095,"lng":20.846498129141942,"url":"https://maps.app.goo.gl/tihw1UrAiri8GoD29?g_st=ipc","address":"19, Spilaiou, Σπηλαίου 19, Πέραμα, Perama 455 00","categoryIds":["attractions"],"categories":["Must-See Attractions"],"distanceKm":23.140388367509804},{"id":"greekRestaurants_9563a3f3deb0","slug":"presveia-restaurant-9563","kind":"restaurant","name":"ΠΡΕΣΒΕΙΑ Restaurant","lat":39.67117709848311,"lng":20.857314565299106,"url":"https://maps.app.goo.gl/kkBJ4gJX3sVvx1L98?g_st=ipc","address":"Λεωφ. Καραμανλή 17, Ιωάννινα 452 21","categoryIds":["greek-restaurants"],"categories":["Greek Restaurants"],"distanceKm":25.910971835345006},{"id":"cheapEatsRestaurants_ff94ef2f8897","slug":"i-vromiara-the-gourmet-street-food-ff94","kind":"restaurant","name":"Η Βρωμιάρα - The Gourmet Street Food","lat":39.6691471152778,"lng":20.85696993484649,"url":"https://maps.app.goo.gl/qCiHQcXfuVPpbvs5A?g_st=ipc","address":"Averof 60, Ioannina 452 21","categoryIds":["cheap-eats"],"categories":["Gyros & Cheap Eats"],"distanceKm":26.12717275784929},{"id":"municipalities_01ab94a963a7","slug":"ioannina-01ab","kind":"municipality","name":"Ιωάννινα","lat":39.6675,"lng":20.85,"aliases":["Ioannina","Janina","Ιωάννινα","Γιάννινα","Ιωαννινα","Γιαννενα","Γιάννενα"],"region":"Ήπειρος","name_en":"Ioannina","region_en":"Epirus","distanceKm":26.203477880080086},{"id":"municipalities_d3feba2113c4","slug":"pogoni-d3fe","kind":"municipality","name":"Πωγώνι","lat":39.8,"lng":20.5167,"region":"Ήπειρος","name_en":"Pogoni","region_en":"Epirus","distanceKm":26.618263681094827},{"id":"familyFriendly_fca4b1834b63","slug":"play-hall-fca4","kind":"restaurant","name":"PLAY HALL","lat":39.65033321631473,"lng":20.865657018209728,"url":"https://maps.app.goo.gl/SFFV3HjpyPgVaZLc9?g_st=ipc","address":"Leof. Geor. Gennimata, Ioannina 452 21","categoryIds":["family-friendly"],"categories":["Kid Friendly Locations"],"distanceKm":28.323040552616384},{"id":"municipalities_78251352f402","slug":"dodoni-7825","kind":"municipality","name":"Δωδώνη","lat":39.6167,"lng":20.7833,"region":"Ήπειρος","name_en":"Dodoni","region_en":"Epirus","distanceKm":31.533851143414033},{"id":"municipalities_2bf842811a54","slug":"metsovo-2bf8","kind":"municipality","name":"Μετσόβο","lat":39.77,"lng":21.18,"region":"Ήπειρος","name_en":"Metsovo","region_en":"Epirus","distanceKm":35.52090071960895},{"id":"municipalities_d7318da3e580","slug":"metsovo-d731","kind":"municipality","name":"Μέτσοβο","lat":39.7703,"lng":21.1825,"aliases":["Μετσοβο"],"region":"Ήπειρος","name_en":"Metsovo","region_en":"Epirus","distanceKm":35.702441279119775},{"id":"municipalities_6d7c9163781b","slug":"filiates-6d7c","kind":"municipality","name":"Φιλιάτες","lat":39.601,"lng":20.309,"region":"Ήπειρος","name_en":"Filiates","region_en":"Epirus","distanceKm":53.54758397202514},{"id":"municipalities_7196d20fb090","slug":"igoymenitsa-7196","kind":"municipality","name":"Ηγουμενίτσα","lat":39.5036,"lng":20.2669,"region":"Ήπειρος","name_en":"Igoumenitsa","region_en":"Epirus","distanceKm":63.425816014926006},{"id":"municipalities_4044fe56cffd","slug":"parga-4044","kind":"municipality","name":"Πάργα","lat":39.2856,"lng":20.4014,"aliases":["Παργα"],"region":"Ήπειρος","name_en":"Parga","region_en":"Epirus","distanceKm":76.37972898191421},{"id":"municipalities_6249e4ce05d5","slug":"arta-6249","kind":"municipality","name":"Άρτα","lat":39.16,"lng":20.985,"region":"Ήπειρος","name_en":"Arta","region_en":"Epirus","distanceKm":83.79991231061558},{"id":"municipalities_531c931f5f7f","slug":"nikopoli-531c","kind":"municipality","name":"Νικόπολη","lat":39.003,"lng":20.716,"region":"Ήπειρος","name_en":"Nikopolis","region_en":"Epirus","distanceKm":100.00225179708991},{"id":"municipalities_761f6f2874f3","slug":"preveza-761f","kind":"municipality","name":"Πρέβεζα","lat":38.9567,"lng":20.75,"aliases":["Preveza"],"region":"Ήπειρος","name_en":"Preveza","region_en":"Epirus","distanceKm":104.97804416102748}],"sameRegion":[{"id":"municipalities_01ab94a963a7","slug":"ioannina-01ab","kind":"municipality","name":"Ιωάννινα","lat":39.6675,"lng":20.85,"aliases":["Ioannina","Janina","Ιωάννινα","Γιάννινα","Ιωαννινα","Γιαννενα","Γιάννενα"],"region":"Ήπειρος","name_en":"Ioannina","region_en":"Epirus"},{"id":"municipalities_2bf842811a54","slug":"metsovo-2bf8","kind":"municipality","name":"Μετσόβο","lat":39.77,"lng":21.18,"region":"Ήπειρος","name_en":"Metsovo","region_en":"Epirus"},{"id":"municipalities_4044fe56cffd","slug":"parga-4044","kind":"municipality","name":"Πάργα","lat":39.2856,"lng":20.4014,"aliases":["Παργα"],"region":"Ήπειρος","name_en":"Parga","region_en":"Epirus"},{"id":"municipalities_531c931f5f7f","slug":"nikopoli-531c","kind":"municipality","name":"Νικόπολη","lat":39.003,"lng":20.716,"region":"Ήπειρος","name_en":"Nikopolis","region_en":"Epirus"},{"id":"municipalities_6249e4ce05d5","slug":"arta-6249","kind":"municipality","name":"Άρτα","lat":39.16,"lng":20.985,"region":"Ήπειρος","name_en":"Arta","region_en":"Epirus"},{"id":"municipalities_6d3e0429ac44","slug":"zagorochoria-6d3e","kind":"municipality","name":"Ζαγοροχώρια","lat":39.9167,"lng":20.7333,"region":"Ήπειρος","name_en":"Zagorochoria","region_en":"Epirus"},{"id":"municipalities_6d7c9163781b","slug":"filiates-6d7c","kind":"municipality","name":"Φιλιάτες","lat":39.601,"lng":20.309,"region":"Ήπειρος","name_en":"Filiates","region_en":"Epirus"},{"id":"municipalities_7196d20fb090","slug":"igoymenitsa-7196","kind":"municipality","name":"Ηγουμενίτσα","lat":39.5036,"lng":20.2669,"region":"Ήπειρος","name_en":"Igoumenitsa","region_en":"Epirus"},{"id":"municipalities_761f6f2874f3","slug":"preveza-761f","kind":"municipality","name":"Πρέβεζα","lat":38.9567,"lng":20.75,"aliases":["Preveza"],"region":"Ήπειρος","name_en":"Preveza","region_en":"Epirus"},{"id":"municipalities_78251352f402","slug":"dodoni-7825","kind":"municipality","name":"Δωδώνη","lat":39.6167,"lng":20.7833,"region":"Ήπειρος","name_en":"Dodoni","region_en":"Epirus"},{"id":"municipalities_cb2980eb2be9","slug":"papigko-cb29","kind":"municipality","name":"Πάπιγκο","lat":39.9667,"lng":20.7833,"region":"Ήπειρος","name_en":"Papingo","region_en":"Epirus"},{"id":"municipalities_d3feba2113c4","slug":"pogoni-d3fe","kind":"municipality","name":"Πωγώνι","lat":39.8,"lng":20.5167,"region":"Ήπειρος","name_en":"Pogoni","region_en":"Epirus"},{"id":"municipalities_d7318da3e580","slug":"metsovo-d731","kind":"municipality","name":"Μέτσοβο","lat":39.7703,"lng":21.1825,"aliases":["Μετσοβο"],"region":"Ήπειρος","name_en":"Metsovo","region_en":"Epirus"}],"mentionedGuides":[],"canonicalSlug":"zagori-5b04","enrichment":{"summary_en":"Ζαγόρι is a curated neighborhood area in Ήπειρος. It is connected to 0 nearby Googlementor picks to help travelers build a stronger local route.","summary_el":"Ζαγόρι είναι ένα επιλεγμένο σημείο ενδιαφέροντος στην περιοχή Ήπειρος. Συνδέεται με 0 κοντινές προτάσεις του Googlementor για πιο ολοκληρωμένη εμπειρία.","vibe_tags":["local-neighborhood","base-for-exploring"],"best_for":["first-time visitors","walk-and-explore days","return visitors"],"visit_moments":["late morning walks","sunset exploration"],"practical_note":"0 curated places are within walkable distance from this area center.","nearby_walkable_count":0,"nearby_count_2km":0,"confidence":0.55},"areaContext":null,"intentContexts":[]},"__N_SSG":true}