{"pageProps":{"entity":{"id":"luxuryDiningRestaurants_574534b0d822","slug":"beefbar-athens-5745","kind":"restaurant","name":"Beefbar Athens","lat":37.80501795981881,"lng":23.770115727453245,"url":"https://maps.app.goo.gl/xvud7RHhQEFXiChq5?g_st=ipc","address":"Athens Αστήρ Πάλας, Βουλιαγμένη 166 71","categoryIds":["luxury-dining"],"categories":["Luxury Dining"]},"sameCategory":[{"id":"luxuryDiningRestaurants_ae1b39199c57","slug":"mercato-ae1b","kind":"restaurant","name":"Mercato","lat":37.80487446390269,"lng":23.76873382977138,"url":"https://maps.app.goo.gl/fFD9yZrQ2kZ4LxTn9?g_st=ipc","address":"Apollonos 40, Vouliagmeni 166 71","categoryIds":["luxury-dining"],"categories":["Luxury Dining"]},{"id":"luxuryDiningRestaurants_5ce4a2badf9b","slug":"pelagos-5ce4","kind":"restaurant","name":"Pelagos","lat":37.805275140067316,"lng":23.77164308843121,"url":"https://maps.app.goo.gl/QTPENP7kfSJRAMQTA?g_st=ipc","address":"Απόλλωνος 40, Βουλιαγμένη 166 71","categoryIds":["luxury-dining"],"categories":["Luxury Dining"]},{"id":"luxuryDiningRestaurants_6dc5534d9406","slug":"taverna-37-6dc5","kind":"restaurant","name":"Taverna 37","lat":37.80595380281949,"lng":23.772585533663307,"url":"https://maps.app.goo.gl/xaizfkEuwTxWbciw7?g_st=ipc","address":"Απόλλωνος 40, Βουλιαγμένη 166 71","categoryIds":["luxury-dining"],"categories":["Luxury Dining"]},{"id":"luxuryDiningRestaurants_c10da5caccee","slug":"matsuhisa-athens-c10d","kind":"restaurant","name":"Matsuhisa Athens","lat":37.80698321398831,"lng":23.772172298341644,"url":"https://maps.app.goo.gl/7ZfHDaS8XMMaED3P7?g_st=ipc","address":"40, Απόλλωνος street, Βουλιαγμένη 166 71","categoryIds":["luxury-dining"],"categories":["Luxury Dining"]},{"id":"luxuryDiningRestaurants_e85b7d2cb0e6","slug":"moorings-e85b","kind":"restaurant","name":"Moorings","lat":37.80205167123695,"lng":23.77263048977829,"url":"https://maps.app.goo.gl/oMKnEgoxXK8SmMSZ9?g_st=ipc","address":"Μαρινα Βουλιαγμενης, Βουλιαγμένη 166 71","categoryIds":["luxury-dining"],"categories":["Luxury Dining"]},{"id":"luxuryDiningRestaurants_cf5e588a6dce","slug":"estiatorio-ithaki-cf5e","kind":"restaurant","name":"Εστιατόριο Ιθάκη","lat":37.811063360560766,"lng":23.773264732265726,"url":"https://maps.app.goo.gl/bgcHWrkEN1tinWgK8?g_st=ipc","address":"Apollonos, Αθήνας 28, Βουλιαγμένη 166 71","categoryIds":["luxury-dining"],"categories":["Luxury Dining"]},{"id":"luxuryDiningRestaurants_08bbcc5a4dd6","slug":"labros-restaurant-08bb","kind":"restaurant","name":"Labros Restaurant","lat":37.8081975831625,"lng":23.78348018457994,"url":"https://maps.app.goo.gl/H6wg8L7hEhDJU9C38?g_st=ipc","address":"Λεωφ. Ποσειδώνος 20, Βουλιαγμένη 166 71","categoryIds":["luxury-dining"],"categories":["Luxury Dining"]},{"id":"luxuryDiningRestaurants_42ea23e17e35","slug":"abraovata-42ea","kind":"restaurant","name":"abraOvata","lat":37.806852023213075,"lng":23.785311811319485,"url":"https://maps.app.goo.gl/XBCeyEooo1BQ3GPW6?g_st=ipc","address":"Εστιατόριο Λίμνης, Αθήνα 166 71","categoryIds":["luxury-dining"],"categories":["Luxury Dining"]}],"nearby":[{"id":"luxuryDiningRestaurants_ae1b39199c57","slug":"mercato-ae1b","kind":"restaurant","name":"Mercato","lat":37.80487446390269,"lng":23.76873382977138,"url":"https://maps.app.goo.gl/fFD9yZrQ2kZ4LxTn9?g_st=ipc","address":"Apollonos 40, Vouliagmeni 166 71","categoryIds":["luxury-dining"],"categories":["Luxury Dining"],"distanceKm":0.12245112419530375},{"id":"italianRestaurants_26670e11b304","slug":"mercato-2667","kind":"restaurant","name":"Mercato","lat":37.804876583131545,"lng":23.768732488679262,"url":"https://maps.app.goo.gl/WygPaRiVJpzqrZBi8","address":"Apollonos 40, Vouliagmeni 166 71","categoryIds":["italian"],"categories":["Italian Restaurants"],"distanceKm":0.12253748689402097},{"id":"luxuryDiningRestaurants_5ce4a2badf9b","slug":"pelagos-5ce4","kind":"restaurant","name":"Pelagos","lat":37.805275140067316,"lng":23.77164308843121,"url":"https://maps.app.goo.gl/QTPENP7kfSJRAMQTA?g_st=ipc","address":"Απόλλωνος 40, Βουλιαγμένη 166 71","categoryIds":["luxury-dining"],"categories":["Luxury Dining"],"distanceKm":0.13719986442291532},{"id":"luxuryDiningRestaurants_6dc5534d9406","slug":"taverna-37-6dc5","kind":"restaurant","name":"Taverna 37","lat":37.80595380281949,"lng":23.772585533663307,"url":"https://maps.app.goo.gl/xaizfkEuwTxWbciw7?g_st=ipc","address":"Απόλλωνος 40, Βουλιαγμένη 166 71","categoryIds":["luxury-dining"],"categories":["Luxury Dining"],"distanceKm":0.24064659998083365},{"id":"luxuryDiningRestaurants_c10da5caccee","slug":"matsuhisa-athens-c10d","kind":"restaurant","name":"Matsuhisa Athens","lat":37.80698321398831,"lng":23.772172298341644,"url":"https://maps.app.goo.gl/7ZfHDaS8XMMaED3P7?g_st=ipc","address":"40, Απόλλωνος street, Βουλιαγμένη 166 71","categoryIds":["luxury-dining"],"categories":["Luxury Dining"],"distanceKm":0.28354601066923524},{"id":"fishTavernasRestaurants_a752a7fe8192","slug":"matsuhisa-athens-a752","kind":"restaurant","name":"Matsuhisa Athens","lat":37.806991167366505,"lng":23.7721702530857,"url":"https://maps.app.goo.gl/kX1Hohg5k4FcqjgeA?g_st=ipc","address":"40, Απόλλωνος street, Βουλιαγμένη 166 71","categoryIds":["fish-tavernas"],"categories":["Fish Tavernas"],"distanceKm":0.2841139552904204},{"id":"coffeeBrunchRestaurants_8b66a0a4f338","slug":"moorings-8b66","kind":"restaurant","name":"Moorings","lat":37.80205351483022,"lng":23.772631066760855,"url":"https://maps.app.goo.gl/YdREkVBev1UQTkqh6?g_st=ipc","address":"Μαρινα Βουλιαγμενης, Βουλιαγμένη 166 71","categoryIds":["coffee-brunch"],"categories":["Coffee & Brunch Spots"],"distanceKm":0.3968544254001381},{"id":"luxuryDiningRestaurants_e85b7d2cb0e6","slug":"moorings-e85b","kind":"restaurant","name":"Moorings","lat":37.80205167123695,"lng":23.77263048977829,"url":"https://maps.app.goo.gl/oMKnEgoxXK8SmMSZ9?g_st=ipc","address":"Μαρινα Βουλιαγμενης, Βουλιαγμένη 166 71","categoryIds":["luxury-dining"],"categories":["Luxury Dining"],"distanceKm":0.39699650319289126}],"sameRegion":[],"mentionedGuides":[{"slug":"tap-water-safe-greece-el","title":"Είναι Ασφαλές να Πίνετε Νερό Βρύσης στην Ελλάδα;"},{"slug":"tap-water-safe-greece","title":"Is Tap Water Safe to Drink in Greece?"},{"slug":"traveling-to-greece-on-a-budget-el","title":"Ταξιδι στην Ελλαδα με μικρο budget"},{"slug":"traveling-to-greece-on-a-budget","title":"Traveling to Greece on a Budget"}]},"__N_SSG":true}