{"pageProps":{"entity":{"id":"greekRestaurants_7b2f8cec89e8","slug":"estiatorio-thymari-7b2f","kind":"restaurant","name":"Εστιατόριο Θυμάρι","lat":37.74409980963869,"lng":23.53632010673103,"url":"https://maps.app.goo.gl/rzpZZmk1oVw5HpXk9?g_st=ipc","address":"Λεωφ. Αφαίας, Αγ. Μαρίνα 180 10","categoryIds":["greek-restaurants"],"categories":["Greek Restaurants"]},"sameCategory":[{"id":"greekRestaurants_4c0797e5b05b","slug":"to-steki-toy-kynigoy-4c07","kind":"restaurant","name":"Το Στέκι του Κυνηγού","lat":37.70692578125452,"lng":23.504550200008005,"url":"https://maps.app.goo.gl/eRHkBsaWKHX368U76?g_st=ipc","address":"Ανίτσαιο 180 10","categoryIds":["greek-restaurants"],"categories":["Greek Restaurants"]},{"id":"greekRestaurants_2017008c1880","slug":"paradosiaki-taverna-vatzoylias-2017","kind":"restaurant","name":"Παραδοσιακή Ταβέρνα Βατζούλιας","lat":37.74554524402309,"lng":23.44741816441979,"url":"https://maps.app.goo.gl/mXN4oehYWbVxscvt8?g_st=ipc","address":"Αφαίας 215, Αίγινα 180 10","categoryIds":["greek-restaurants"],"categories":["Greek Restaurants"]},{"id":"greekRestaurants_7e47ce5f873d","slug":"o-manitas-sto-kyma-7e47","kind":"restaurant","name":"Ο Μάνιτας στο Κύμα","lat":37.72802490000876,"lng":23.436258793291216,"url":"https://maps.app.goo.gl/mdpRWqsEC1ekDdu26?g_st=ipc","address":"Άγιος Βασίλης Περιβόλα, Αίγινα 180 10","categoryIds":["greek-restaurants"],"categories":["Greek Restaurants"]},{"id":"greekRestaurants_fe33131c983d","slug":"toxotis-fe33","kind":"restaurant","name":"ΤΟΞΟΤΗΣ","lat":37.70895258892911,"lng":23.363446090303647,"url":"https://maps.app.goo.gl/y4Wvco9rEc1QfYUM6?g_st=ipc","address":"Σκάλα 180 10","categoryIds":["greek-restaurants"],"categories":["Greek Restaurants"]},{"id":"greekRestaurants_0d2e578d4137","slug":"sasmos-kritiko-estiatorio-0d2e","kind":"restaurant","name":"Σασμός Κρητικό Εστιατόριο","lat":37.86096099153773,"lng":23.750381646450872,"url":"https://maps.app.goo.gl/hFF1UKLboDX66HUH8","address":"Γρ. Λαμπράκη 1-3, Γλυφάδα 166 75","categoryIds":["greek-restaurants"],"categories":["Greek Restaurants"]},{"id":"greekRestaurants_fd7a28a0649b","slug":"pasiphae-fd7a","kind":"restaurant","name":"PASIPHAE","lat":37.85781169380274,"lng":23.753685400099858,"url":"https://maps.app.goo.gl/w2UaAYT95xemDfAx9?g_st=ipc","address":"Lazaraki 63, Glifada 166 74","categoryIds":["greek-restaurants"],"categories":["Greek Restaurants"]},{"id":"greekRestaurants_2c46fb9be459","slug":"basegrill-2c46","kind":"restaurant","name":"Basegrill","lat":37.860629906056765,"lng":23.752227328267114,"url":"https://maps.app.goo.gl/Mg499qYpRgDUfYMg9","address":"Ζησιμοπούλου 5, Γλυφάδα 166 74","categoryIds":["greek-restaurants"],"categories":["Greek Restaurants"]},{"id":"greekRestaurants_cce1cd728bae","slug":"loyizidis-estiatorio-voyliagmeni-cce1","kind":"restaurant","name":"Λουιζίδης Εστιατόριο Βουλιαγμένη","lat":37.813204547074946,"lng":23.78315032705324,"url":"https://maps.app.goo.gl/DrVjHpSB5fMFZXij9","address":"Ερμού 2, Βουλιαγμένη 166 71","categoryIds":["greek-restaurants"],"categories":["Greek Restaurants"]}],"nearby":[{"id":"cheapEatsRestaurants_8ba4f0065f8a","slug":"pita-tom-8ba4","kind":"restaurant","name":"Pita Tom","lat":37.74366491916778,"lng":23.535568140347873,"url":"https://maps.app.goo.gl/YMXgj9Wj4KVHBdms9?g_st=ipc","address":"Αγ. Μαρίνα 180 10","categoryIds":["cheap-eats"],"categories":["Gyros & Cheap Eats"],"distanceKm":0.08191557574591536},{"id":"mustSeeAttractions_dff5abd15b84","slug":"naos-tis-afaias-dff5","kind":"restaurant","name":"Ναός της Αφαίας","lat":37.75437516471331,"lng":23.533121298393443,"url":"https://maps.app.goo.gl/TEdzv6vPybFxQzP18?g_st=ipc","address":"Αίγινα 180 10","categoryIds":["attractions"],"categories":["Must-See Attractions"],"distanceKm":1.1766726372780019},{"id":"monasteriesChurches_c167cd824b01","slug":"ieros-naos-agioy-nektarioy-aiginis-c167","kind":"restaurant","name":"Ιερός Ναός Αγίου Νεκταρίου Αιγίνης","lat":37.746945069118,"lng":23.484687951163814,"url":"https://maps.app.goo.gl/KjppqYPoe3hM1kHb9?g_st=ipc","address":"Κοντός 180 10","categoryIds":["monasteries-churches"],"categories":["Monasteries & Spiritual Sites"],"distanceKm":4.550819100762073},{"id":"monasteriesChurches_d020daa580d2","slug":"ieron-isychastirion-agias-triados-agioy-nektarioy-aiginis-d020","kind":"restaurant","name":"Ιερόν Ησυχαστήριον Αγίας Τριάδος - Αγίου Νεκταρίου Αιγίνης","lat":37.747756129707696,"lng":23.48419119090333,"url":"https://maps.app.goo.gl/FKwvJEY7DdQLDdKC7?g_st=ipc","address":"37°44'54.9\"N 23°29, 03 6\"E, Κοντός 180 10","categoryIds":["monasteries-churches"],"categories":["Monasteries & Spiritual Sites"],"distanceKm":4.601457588036551},{"id":"monasteriesChurches_e06cb099676f","slug":"iera-moni-panagias-chrysoleontissas-e06c","kind":"restaurant","name":"Ιερά Μονή Παναγίας Χρυσολεόντισσας","lat":37.72683515229462,"lng":23.487000558860796,"url":"https://maps.app.goo.gl/4wfUy4FPX2uzBPHt8?g_st=ipc","address":"Κοντός 180 10","categoryIds":["monasteries-churches"],"categories":["Monasteries & Spiritual Sites"],"distanceKm":4.742941207390014},{"id":"greekRestaurants_4c0797e5b05b","slug":"to-steki-toy-kynigoy-4c07","kind":"restaurant","name":"Το Στέκι του Κυνηγού","lat":37.70692578125452,"lng":23.504550200008005,"url":"https://maps.app.goo.gl/eRHkBsaWKHX368U76?g_st=ipc","address":"Ανίτσαιο 180 10","categoryIds":["greek-restaurants"],"categories":["Greek Restaurants"],"distanceKm":4.989353695508588},{"id":"fishTavernasRestaurants_ef34e6a5f34e","slug":"ammos-restaurant-ef34","kind":"restaurant","name":"AMMOS Restaurant","lat":37.719362798936,"lng":23.459117899142395,"url":"https://maps.app.goo.gl/zm3QJEgpXF2deJBSA?g_st=ipc","address":"Μαραθώνας, ΑΙΓΙΝΑ, Αίγινα 180 10","categoryIds":["fish-tavernas"],"categories":["Fish Tavernas"],"distanceKm":7.325378400958487},{"id":"fishTavernasRestaurants_036f2df06d0a","slug":"psarotaverna-aiginitissa-036f","kind":"restaurant","name":"Ψαροταβέρνα Αιγινήτισσα","lat":37.700098544992514,"lng":23.468697694131777,"url":"https://maps.app.goo.gl/Wvbm3uFeQe4HDRTB9?g_st=ipc","address":"Αιγινίτισσας, Αίγινα 180 10","categoryIds":["fish-tavernas"],"categories":["Fish Tavernas"],"distanceKm":7.701506525789581}],"sameRegion":[],"mentionedGuides":[]},"__N_SSG":true}