{"pageProps":{"entity":{"id":"fishTavernasRestaurants_bdb6fa732eec","slug":"foititis-bdb6","kind":"restaurant","name":"Φοιτητής","lat":38.00738588877098,"lng":23.783442614729104,"url":"https://maps.app.goo.gl/abzrUsQsRH3gKTL2A?g_st=ipc","address":"Θεμιστοκλέους 72-74, Νέο Ψυχικό 154 51","categoryIds":["fish-tavernas"],"categories":["Fish Tavernas"]},"sameCategory":[{"id":"fishTavernasRestaurants_e776bdd89777","slug":"psitos-mpakaliaros-e776","kind":"restaurant","name":"Ψητός Μπακαλιάρος","lat":38.01692370219889,"lng":23.79499254813244,"url":"https://maps.app.goo.gl/qf5FPeY2czx43z2TA?g_st=ipc","address":"Εθ. Αντιστάσεως 9, Χαλάνδρι 152 32","categoryIds":["fish-tavernas"],"categories":["Fish Tavernas"]},{"id":"fishTavernasRestaurants_28abc536c707","slug":"kapetanissa-28ab","kind":"restaurant","name":"Καπετάνισσα","lat":38.01937904398287,"lng":23.79769429563829,"url":"https://maps.app.goo.gl/eEbHLBANhp5td8HH9?g_st=ipc","address":"Ομήρου 24, Χαλάνδρι 152 32","categoryIds":["fish-tavernas"],"categories":["Fish Tavernas"]},{"id":"fishTavernasRestaurants_3ffa036aa4a7","slug":"psarakia-thalassina-3ffa","kind":"restaurant","name":"Ψαράκια & Θαλασσινά","lat":38.02324309009889,"lng":23.800101703415542,"url":"https://maps.app.goo.gl/WKwKfmp9nBvnCPzT9?g_st=ipc","address":"Κώστα Βάρναλη 5, Χαλάνδρι 152 33","categoryIds":["fish-tavernas"],"categories":["Fish Tavernas"]},{"id":"fishTavernasRestaurants_b281006b20df","slug":"kafeneio-oyzeri-lesvion-b281","kind":"restaurant","name":"Καφενείο Ουζερί Λέσβιον","lat":38.008048120056024,"lng":23.753608668653317,"url":"https://maps.app.goo.gl/RoRVKdrKmqxNRkrs5?g_st=ipc","address":"Βαρδουσίων 3, Γαλάτσι 111 47","categoryIds":["fish-tavernas"],"categories":["Fish Tavernas"]},{"id":"fishTavernasRestaurants_8be01291d057","slug":"steki-psarofagadon-8be0","kind":"restaurant","name":"ΣΤΕΚΙ ΨΑΡΟΦΑΓΑΔΩΝ","lat":38.0206189578116,"lng":23.753464770079276,"url":"https://maps.app.goo.gl/z4bfrFA8WgPgak7Q6?g_st=ipc","address":"Παπαφλέσσα 36, Γαλάτσι 111 46","categoryIds":["fish-tavernas"],"categories":["Fish Tavernas"]},{"id":"fishTavernasRestaurants_391097bf7912","slug":"mezedopoleio-psarotaverna-karavidas-3910","kind":"restaurant","name":"Μεζεδοπωλείο Ψαροταβέρνα Καραβίδας","lat":38.03096216854331,"lng":23.75947032164881,"url":"https://maps.app.goo.gl/JGxgiBHhNLEpm7F8A?g_st=ipc","address":"Δεμιρδεσίου 89, Νέα Ιωνία 142 33","categoryIds":["fish-tavernas"],"categories":["Fish Tavernas"]},{"id":"fishTavernasRestaurants_4ef32e781ddb","slug":"psaradiko-psarofageio-vlasis-4ef3","kind":"restaurant","name":"Ψαράδικο-Ψαροφαγείο Βλάσης","lat":38.00159683768883,"lng":23.739141642286196,"url":"https://maps.app.goo.gl/fHgyjqw3Rn6yqq6N6?g_st=ipc","address":"Φωκίωνος Νέγρη 47, Αθήνα 113 61","categoryIds":["fish-tavernas"],"categories":["Fish Tavernas"]},{"id":"fishTavernasRestaurants_2930f14bae6f","slug":"psariston-2930","kind":"restaurant","name":"Ψάριστον","lat":38.05007046502227,"lng":23.781403693268317,"url":"https://maps.app.goo.gl/4KPzMCG1HKq5Gpdw6?g_st=ipc","address":"Καλαβρύτων 16, Ηράκλειο 141 21, 141 21","categoryIds":["fish-tavernas"],"categories":["Fish Tavernas"]}],"nearby":[{"id":"greekRestaurants_f0ef65b37af1","slug":"klimataria-f0ef","kind":"restaurant","name":"Κληματαριά","lat":38.00778653011235,"lng":23.78331764900774,"url":"https://maps.app.goo.gl/KjvZHvC6ghfyBWSu9?g_st=ipc","address":"Κωστή Παλαμά 29, Νέο Ψυχικό 154 51","categoryIds":["greek-restaurants"],"categories":["Greek Restaurants"],"distanceKm":0.0458749722509769},{"id":"cheapEatsRestaurants_6fffd649c703","slug":"ta-soyvlakia-tis-lilas-6fff","kind":"restaurant","name":"Τα Σουβλάκια της Λίλας","lat":38.005272385766645,"lng":23.785280918308118,"url":"https://maps.app.goo.gl/47M2HP8TwbyX2Zp37?g_st=ipc","address":"25ης Μαρτίου 41, Νέο Ψυχικό 154 51","categoryIds":["cheap-eats"],"categories":["Gyros & Cheap Eats"],"distanceKm":0.2849061257456253},{"id":"italianRestaurants_ec803e4a09b8","slug":"etien-pizza-bar-ec80","kind":"restaurant","name":"Etien Pizza Bar","lat":38.00546047638011,"lng":23.78575711022555,"url":"https://maps.app.goo.gl/fXUuPjTevur2Va5m8?g_st=ipc","address":"25ης Μαρτίου 28, Νέο Ψυχικό 154 51","categoryIds":["italian"],"categories":["Italian Restaurants"],"distanceKm":0.29488779827652156},{"id":"dessertsRestaurants_bdb87120c3b8","slug":"athina-kon-bdb8","kind":"restaurant","name":"ΑΘΗΝΑΪΚΟΝ","lat":38.00959872140439,"lng":23.78101021168435,"url":"https://maps.app.goo.gl/ACrYfvjmkufL8q3g9?g_st=ipc","address":"Νικολάου Μάντζαρου 1 &, Εθ. Αντιστάσεως, Νέο Ψυχικό 154 51","categoryIds":["desserts"],"categories":["Dessert Shops"],"distanceKm":0.32551344383021846},{"id":"luxuryDiningRestaurants_c233036bba05","slug":"lolita-s-athens-c233","kind":"restaurant","name":"Lolita's Athens","lat":38.00900352290236,"lng":23.77984898036716,"url":"https://maps.app.goo.gl/wWwjB1wyAhWAY8CR9?g_st=ipc","address":"Λεωφ. Κηφισίας 340, Νέο Ψυχικό 154 51","categoryIds":["luxury-dining"],"categories":["Luxury Dining"],"distanceKm":0.36260743539824586},{"id":"italianRestaurants_11b5c7ddc2cb","slug":"lolita-s-athens-11b5","kind":"restaurant","name":"Lolita's Athens","lat":38.00900399306317,"lng":23.779848762939032,"url":"https://maps.app.goo.gl/yBBC5XtbjE87q2fEA?g_st=ipc","address":"Λεωφ. Κηφισίας 340, Νέο Ψυχικό 154 51","categoryIds":["italian"],"categories":["Italian Restaurants"],"distanceKm":0.36264991028774635},{"id":"luxuryDiningRestaurants_e53f7f76a550","slug":"dimitris-economides-athens-e53f","kind":"restaurant","name":"Dimitris Economides Athens","lat":38.00891269766893,"lng":23.779612298452548,"url":"https://maps.app.goo.gl/s1dqcjcL1yJpKM4D7?g_st=ipc","address":"Λεωφ. Κηφισίας 340, Νέο Ψυχικό 154 51","categoryIds":["luxury-dining"],"categories":["Luxury Dining"],"distanceKm":0.3760861479540813},{"id":"dessertsRestaurants_578f4bf4ed9c","slug":"dimitris-economides-athens-578f","kind":"restaurant","name":"Dimitris Economides Athens","lat":38.008931143721306,"lng":23.779615664170734,"url":"https://maps.app.goo.gl/wRvmhWMFJRUQ21b49?g_st=ipc","address":"Λεωφ. Κηφισίας 340, Νέο Ψυχικό 154 51","categoryIds":["desserts"],"categories":["Dessert Shops"],"distanceKm":0.37675401491120697}],"sameRegion":[],"mentionedGuides":[{"slug":"american-college-of-greece-agia-paraskevi-guide-el","title":"American College of Greece: Καλώς ήρθατε στην Αγία Παρασκευή"}]},"__N_SSG":true}