{"pageProps":{"entity":{"id":"italianRestaurants_4f96313e6daa","slug":"mitos-arternative-bar-4f96","kind":"restaurant","name":"Mitos ARTernative BAR","lat":37.06317254380818,"lng":25.48274579484659,"url":"https://maps.app.goo.gl/jstAML7uYBqEdQYq6?g_st=ipc","address":"Χαλκείο 843 02","categoryIds":["italian"],"categories":["Italian Restaurants"]},"sameCategory":[{"id":"italianRestaurants_81fb3a3e7792","slug":"etere-ristorante-spritzeria-81fb","kind":"restaurant","name":"ETERE Ristorante•Spritzeria","lat":37.10293986337665,"lng":25.375171669884853,"url":"https://maps.app.goo.gl/hwE3v2eAEfeWwtVD6?g_st=ipc","address":"Σχοινούσας, Kiprou &, Naxos 843 00","categoryIds":["italian"],"categories":["Italian Restaurants"]},{"id":"italianRestaurants_7d6f32d35713","slug":"dal-professore-naxos-7d6f","kind":"restaurant","name":"Dal Professore Naxos","lat":37.10347764120069,"lng":25.374650593867482,"url":"https://maps.app.goo.gl/GLP6dYmT8CK2v8Rk9?g_st=ipc","address":"Sea front - Naxos town Naxos Town, 843 00","categoryIds":["italian"],"categories":["Italian Restaurants"]},{"id":"italianRestaurants_338afaa92d9f","slug":"caya-italian-cuisine-cocktail-bar-338a","kind":"restaurant","name":"Caya Italian Cuisine Cocktail Bar","lat":37.05775350559496,"lng":25.360162570769955,"url":"https://maps.app.goo.gl/aQBfn7JeavM87SvT6?g_st=ipc","address":"Πλάκα Ναξος Κυκλάδες, 843 00","categoryIds":["italian"],"categories":["Italian Restaurants"]},{"id":"italianRestaurants_b24f49cdda5b","slug":"mikres-cyclades-b24f","kind":"restaurant","name":"Mikres Cyclades","lat":36.931957255563695,"lng":25.59902680119125,"url":"https://maps.app.goo.gl/JbLqAJKLLdfUdDyN8?g_st=ipc","address":"Άνω, 843 00","categoryIds":["italian"],"categories":["Italian Restaurants"]},{"id":"italianRestaurants_b7cf983e2771","slug":"casa-giacomo-paros-b7cf","kind":"restaurant","name":"Casa Giacomo Paros","lat":37.12454320720165,"lng":25.238458349168585,"url":"https://maps.app.goo.gl/Ciaf8V2SrHA91Eqw7?g_st=ipc","address":"Little Venice, Naousa 844 01","categoryIds":["italian"],"categories":["Italian Restaurants"]},{"id":"italianRestaurants_aef2b7848975","slug":"impasto-aef2","kind":"restaurant","name":"Impasto","lat":37.081621983659346,"lng":25.14571923250388,"url":"https://maps.app.goo.gl/Hzvu5t3VhUBHB7JC7?g_st=ipc","address":"Paros 844 00","categoryIds":["italian"],"categories":["Italian Restaurants"]},{"id":"italianRestaurants_26298b2afd51","slug":"sistina-mykonos-2629","kind":"restaurant","name":"Sistina Mykonos","lat":37.42270720054724,"lng":25.33392940009779,"url":"https://maps.app.goo.gl/jbVQZaFoXT3nCmEQ6?g_st=ipc","address":"Platis Gialos, Mikonos 846 00","categoryIds":["italian"],"categories":["Italian Restaurants"]},{"id":"italianRestaurants_519a6524c076","slug":"farina-cucina-italiana-ornos-beach-519a","kind":"restaurant","name":"Farina Cucina Italiana Ornos Beach","lat":37.423083029478946,"lng":25.323628340986495,"url":"https://maps.app.goo.gl/M9VCoMv93LnDJZyTA?g_st=ipc","address":"Beach, Ornos 846 00","categoryIds":["italian"],"categories":["Italian Restaurants"]}],"nearby":[{"id":"greekRestaurants_694ee1d214aa","slug":"paravas-traditional-tavern-souvlaki-694e","kind":"restaurant","name":"PARAVAS Traditional Tavern & Souvlaki","lat":37.06316256125292,"lng":25.482406792920514,"url":"https://maps.app.goo.gl/fmFJ2qDuDCSYVraUA?g_st=ipc","address":"Χαλκείο 843 02","categoryIds":["greek-restaurants"],"categories":["Greek Restaurants"],"distanceKm":0.030100245770269127},{"id":"coffeeBrunchRestaurants_4d900c72bc80","slug":"caffe-greco-4d90","kind":"restaurant","name":"Caffe Greco","lat":37.06283829210554,"lng":25.482179694372245,"url":"https://maps.app.goo.gl/bvxkDLgLP2gCrEDeA?g_st=ipc","address":"Χαλκείο 843 02","categoryIds":["coffee-brunch"],"categories":["Coffee & Brunch Spots"],"distanceKm":0.06248590279783366},{"id":"dessertsRestaurants_cc34d8a19c1a","slug":"caffe-greco-cc34","kind":"restaurant","name":"Caffe Greco","lat":37.0628393807371,"lng":25.48217786098,"url":"https://maps.app.goo.gl/LEeuqgamRoLhRLwm7?g_st=ipc","address":"Χαλκείο 843 02","categoryIds":["desserts"],"categories":["Dessert Shops"],"distanceKm":0.06254497355513501},{"id":"coffeeBrunchRestaurants_a1d642828b23","slug":"halki-cafe-bistro-a1d6","kind":"restaurant","name":"Halki Cafe Bistro","lat":37.0642321945567,"lng":25.484940977880758,"url":"https://maps.app.goo.gl/EM1dP9kHW3eWkooMA?g_st=ipc","address":"Epar.Od. Naxou-Apiranthou, Chalkio 843 00","categoryIds":["coffee-brunch"],"categories":["Coffee & Brunch Spots"],"distanceKm":0.22764420085015716},{"id":"coffeeBrunchRestaurants_adc2f257af84","slug":"platanos-cafe-restaurant-adc2","kind":"restaurant","name":"Platanos Cafe Restaurant","lat":37.0520184479865,"lng":25.4980988789785,"url":"https://maps.app.goo.gl/GftgqDRmHM6GREdg9?g_st=ipc","address":"Epar.Od. Naxou-Apiranthou, Filoti 843 02","categoryIds":["coffee-brunch"],"categories":["Coffee & Brunch Spots"],"distanceKm":1.8423856601923},{"id":"greekRestaurants_1c5a5710b282","slug":"amvrosia-1c5a","kind":"restaurant","name":"Αμβροσία","lat":37.05198027328874,"lng":25.498122685244876,"url":"https://maps.app.goo.gl/hServvR8erYFDEW79?g_st=ipc","address":"Επαρ.Οδ. Δαμαριώνα-Δανακού, Φιλότι 843 02","categoryIds":["greek-restaurants"],"categories":["Greek Restaurants"],"distanceKm":1.8468064200527239},{"id":"dessertsRestaurants_d95b7562195c","slug":"fasolas-gastrokafeneio-d95b","kind":"restaurant","name":"Fasolas Gastrokafeneio","lat":37.05047818826614,"lng":25.497802541590467,"url":"https://maps.app.goo.gl/BMT18eHqusic7eRN8?g_st=ipc","address":"Filoti 843 02","categoryIds":["desserts"],"categories":["Dessert Shops"],"distanceKm":1.943614624934339},{"id":"coffeeBrunchRestaurants_409a1c00e009","slug":"fasolas-gastrokafeneio-409a","kind":"restaurant","name":"Fasolas Gastrokafeneio","lat":37.05047829842748,"lng":25.497802752574465,"url":"https://maps.app.goo.gl/s28qFqLPN9on9SZy8?g_st=ipc","address":"Filoti 843 02","categoryIds":["coffee-brunch"],"categories":["Coffee & Brunch Spots"],"distanceKm":1.9436185985683385}],"sameRegion":[],"mentionedGuides":[]},"__N_SSG":true}