{"pageProps":{"entity":{"id":"municipalities_5f283b2642e4","slug":"mpali-5f28","kind":"municipality","name":"Μπαλί","lat":35.4124,"lng":24.786,"region":"Κρήτη","name_en":"Bali","region_en":"Crete"},"sameCategory":[],"nearby":[{"id":"municipalities_f84da76d1fdc","slug":"mylopotamos-f84d","kind":"municipality","name":"Μυλοπόταμος","lat":35.333,"lng":24.783,"region":"Κεντρική Κρήτη","name_en":"Mylopotamos","region_en":"Central Crete","distanceKm":8.833066260488172},{"id":"municipalities_88475eea1332","slug":"anogeia-8847","kind":"municipality","name":"Ανώγεια","lat":35.294,"lng":24.884,"region":"Κεντρική Κρήτη","name_en":"Anogeia","region_en":"Central Crete","distanceKm":15.884605925170021},{"id":"mustSeeAttractions_da0706993263","slug":"arkadi-monastery-da07","kind":"restaurant","name":"Arkadi Monastery","lat":35.30989822185389,"lng":24.629043901550116,"url":"https://maps.app.goo.gl/sig6rYbJ8UK4ZqaX7?g_st=ipc","address":"Arkadi 741 50","categoryIds":["attractions"],"categories":["Must-See Attractions"],"distanceKm":18.234215469487935},{"id":"municipalities_1719bd717428","slug":"malevizi-1719","kind":"municipality","name":"Μαλεβίζι","lat":35.333,"lng":25.033,"region":"Κεντρική Κρήτη","name_en":"Malevizi","region_en":"Central Crete","distanceKm":24.072657191780777},{"id":"wineriesVineyards_9cc28a86a508","slug":"diamantakis-winery-9cc2","kind":"restaurant","name":"Diamantakis Winery","lat":35.2119508828581,"lng":24.992812450943003,"url":"https://maps.app.goo.gl/bkHHKGBiuNPqDqhr9?g_st=ipc","address":"Kato Asites 700 13","categoryIds":["wineries-vineyards"],"categories":["Wineries & Vineyards"],"distanceKm":29.136547206446615},{"id":"wineriesVineyards_e898beacf16d","slug":"silva-daskalaki-winery-biodynamic-farming-e898","kind":"restaurant","name":"Silva Daskalaki Winery \"Biodynamic Farming\"","lat":35.208912270144424,"lng":25.03603983983806,"url":"https://maps.app.goo.gl/gpuUdyMFAFSDGWhB9?g_st=ipc","address":"Σίβα Ηρακλείου Κρήτης, Siva 700 11","categoryIds":["wineries-vineyards"],"categories":["Wineries & Vineyards"],"distanceKm":32.04256199632653},{"id":"wineriesVineyards_3fd2d09d6af1","slug":"amargiotakis-winery-3fd2","kind":"restaurant","name":"Amargiotakis Winery","lat":35.22052725096867,"lng":25.053509018560035,"url":"https://maps.app.goo.gl/w8PhqDhLwSHfYsK37?g_st=ipc","address":"Dafnes 700 11","categoryIds":["wineries-vineyards"],"categories":["Wineries & Vineyards"],"distanceKm":32.31567449206284},{"id":"wineriesVineyards_ed7776ab576e","slug":"douloufakis-winery-ed77","kind":"restaurant","name":"Douloufakis Winery","lat":35.21501780162754,"lng":25.04946643361547,"url":"https://maps.app.goo.gl/zMTfnAQij9XWewT4A?g_st=ipc","address":"Dafnes 700 11","categoryIds":["wineries-vineyards"],"categories":["Wineries & Vineyards"],"distanceKm":32.45284734646605}],"sameRegion":[{"id":"municipalities_0abaeb44cae9","slug":"malia-0aba","kind":"municipality","name":"Μάλια","lat":35.283,"lng":25.462,"region":"Κρήτη","name_en":"Malia","region_en":"Crete"},{"id":"municipalities_43ae67a78abe","slug":"agios-georgios-lasithioy-43ae","kind":"municipality","name":"Άγιος Γεώργιος Λασιθίου","lat":35.207,"lng":25.511,"region":"Κρήτη","name_en":"Agios Georgios Lasithiou","region_en":"Crete"},{"id":"municipalities_4e60225f7fa0","slug":"falasarna-4e60","kind":"municipality","name":"Φαλάσαρνα","lat":35.49,"lng":23.588,"region":"Κρήτη","name_en":"Falasarna","region_en":"Crete"},{"id":"municipalities_847eab0fe55c","slug":"stalida-847e","kind":"municipality","name":"Σταλίδα","lat":35.2932,"lng":25.4426,"region":"Κρήτη","name_en":"Stalida","region_en":"Crete"},{"id":"municipalities_a0cd23d8e321","slug":"matala-a0cd","kind":"municipality","name":"Μάταλα","lat":34.9953,"lng":24.7496,"region":"Κρήτη","name_en":"Matala","region_en":"Crete"},{"id":"municipalities_cb8d047a94ef","slug":"plakias-cb8d","kind":"municipality","name":"Πλακιάς","lat":35.176,"lng":24.3935,"region":"Κρήτη","name_en":"Plakias","region_en":"Crete"},{"id":"municipalities_d3b3bd48a579","slug":"agia-marina-d3b3","kind":"municipality","name":"Αγία Μαρίνα","lat":35.515,"lng":23.915,"region":"Κρήτη","name_en":"Agia Marina","region_en":"Crete"},{"id":"municipalities_ebc0891e3ed9","slug":"elafonisi-ebc0","kind":"municipality","name":"Ελαφονήσι","lat":35.2722,"lng":23.542,"region":"Κρήτη","name_en":"Elafonisi","region_en":"Crete"}],"mentionedGuides":[]},"__N_SSG":true}