{"pageProps":{"entity":{"id":"fishTavernasRestaurants_31d05d8989b3","slug":"riza-31d0","kind":"restaurant","name":"Rizá","lat":39.884706865069624,"lng":25.06758130540464,"url":"https://maps.app.goo.gl/mjn9nrVY8o8u2BtBA?g_st=ipc","address":"Ιωάννη ξυραδη, Mirina 814 00","categoryIds":["fish-tavernas"],"categories":["Fish Tavernas"]},"sameCategory":[{"id":"fishTavernasRestaurants_ec6f8deb686c","slug":"romeo-restaurant-ec6f","kind":"restaurant","name":"Romeo Restaurant","lat":39.877624727759105,"lng":25.0589103454787,"url":"https://maps.app.goo.gl/gcPprUPwwjyMys6K6?g_st=ipc","address":"Navarchou Kountourioti 4, Mirina 814 00","categoryIds":["fish-tavernas"],"categories":["Fish Tavernas"]},{"id":"fishTavernasRestaurants_3f01da32250d","slug":"barbounaki-lemnos-3f01","kind":"restaurant","name":"Barbounaki | Lemnos","lat":39.922645057066866,"lng":25.071051886904925,"url":"https://maps.app.goo.gl/Y8MNEpBKf9pJKHNg8?g_st=ipc","address":"Λημνος, Αγιος Ιωαννης, Kaspakas 814 00","categoryIds":["fish-tavernas"],"categories":["Fish Tavernas"]},{"id":"fishTavernasRestaurants_50ee9738a03b","slug":"giannakaros-50ee","kind":"restaurant","name":"Giannakaros","lat":39.84054300748565,"lng":25.08178620013765,"url":"https://maps.app.goo.gl/pXxiEsVASm4fz94F7?g_st=ipc","address":"Παραλία Θάνους 814 00","categoryIds":["fish-tavernas"],"categories":["Fish Tavernas"]},{"id":"fishTavernasRestaurants_782c004f6a18","slug":"glykanisos-782c","kind":"restaurant","name":"Glykanisos","lat":39.89189656070638,"lng":25.20287613011476,"url":"https://maps.app.goo.gl/tCAL6L44HZbqrniJ6?g_st=ipc","address":"Unnamed Road, Limnos 814 00","categoryIds":["fish-tavernas"],"categories":["Fish Tavernas"]},{"id":"fishTavernasRestaurants_038ab4889bb3","slug":"taverna-flomari-038a","kind":"restaurant","name":"Taverna Flomari","lat":39.98832919487252,"lng":25.155079152226218,"url":"https://maps.app.goo.gl/G6hKXeSWoodnwXMF6?g_st=ipc","address":"Gomati Beach, Limnos 814 01","categoryIds":["fish-tavernas"],"categories":["Fish Tavernas"]},{"id":"fishTavernasRestaurants_872df0d46026","slug":"tavern-restaurant-giannakaros-872d","kind":"restaurant","name":"Tavern Restaurant GIANNAKAROS","lat":39.94049535145995,"lng":25.283557993247516,"url":"https://maps.app.goo.gl/Y8y6JAFkf3x52TAJA?g_st=ipc","address":"ΛΙΜΑΝΑΚΙ, Kotsinas 814 01","categoryIds":["fish-tavernas"],"categories":["Fish Tavernas"]},{"id":"fishTavernasRestaurants_16a4e67c3c63","slug":"agios-charalampos-taverna-16a4","kind":"restaurant","name":"Άγιος Χαράλαμπος Ταβέρνα","lat":40.01540251451066,"lng":25.41273241641246,"url":"https://maps.app.goo.gl/TDkDp1LztBnJyFX67?g_st=ipc","address":"Λημνος, Plaka 814 01","categoryIds":["fish-tavernas"],"categories":["Fish Tavernas"]},{"id":"fishTavernasRestaurants_24fad5bd6b6a","slug":"5-steps-in-the-sand-24fa","kind":"restaurant","name":"5 steps in the sand","lat":40.034668702268604,"lng":23.99606130491612,"url":"https://maps.app.goo.gl/iP8wYvDkitTVjfa76?g_st=ipc","address":"Unnamed Rd, Sithonia 630 72","categoryIds":["fish-tavernas"],"categories":["Fish Tavernas"]}],"nearby":[{"id":"coffeeBrunchRestaurants_869f5a48d72d","slug":"isalos-869f","kind":"restaurant","name":"Ίσαλος","lat":39.87908391847142,"lng":25.06099156906446,"url":"https://maps.app.goo.gl/c8yCK9js6cNHpCoA9?g_st=ipc","address":"Navarchou Kountourioti 44, Mirina 814 00","categoryIds":["coffee-brunch"],"categories":["Coffee & Brunch Spots"],"distanceKm":0.8408885315549769},{"id":"coffeeBrunchRestaurants_068b0da95bfe","slug":"to-sokaki-068b","kind":"restaurant","name":"Το Σοκάκι","lat":39.8775422598192,"lng":25.06020004123801,"url":"https://maps.app.goo.gl/XpuXpx6W5o54Ee8g9?g_st=ipc","address":"Π.Κυδά 95, Mirina 814 00","categoryIds":["coffee-brunch"],"categories":["Coffee & Brunch Spots"],"distanceKm":1.0155623372631155},{"id":"fishTavernasRestaurants_ec6f8deb686c","slug":"romeo-restaurant-ec6f","kind":"restaurant","name":"Romeo Restaurant","lat":39.877624727759105,"lng":25.0589103454787,"url":"https://maps.app.goo.gl/gcPprUPwwjyMys6K6?g_st=ipc","address":"Navarchou Kountourioti 4, Mirina 814 00","categoryIds":["fish-tavernas"],"categories":["Fish Tavernas"],"distanceKm":1.0805427915152748},{"id":"dessertsRestaurants_f7fc652adf76","slug":"m-m-cafe-f7fc","kind":"restaurant","name":"M&M cafe","lat":39.874546870141494,"lng":25.06021064657425,"url":"https://maps.app.goo.gl/SJcXoVQYWqcw91ws8?g_st=ipc","address":"Παλαιο λιμανι, Mirina 814 00","categoryIds":["desserts"],"categories":["Dessert Shops"],"distanceKm":1.2930111180719337},{"id":"fishTavernasRestaurants_3f01da32250d","slug":"barbounaki-lemnos-3f01","kind":"restaurant","name":"Barbounaki | Lemnos","lat":39.922645057066866,"lng":25.071051886904925,"url":"https://maps.app.goo.gl/Y8MNEpBKf9pJKHNg8?g_st=ipc","address":"Λημνος, Αγιος Ιωαννης, Kaspakas 814 00","categoryIds":["fish-tavernas"],"categories":["Fish Tavernas"],"distanceKm":4.228909287737606},{"id":"coffeeBrunchRestaurants_97411cb6d764","slug":"beach-bar-pantelis-9741","kind":"restaurant","name":"Beach Bar Pantelis","lat":39.842026669826275,"lng":25.07833979185058,"url":"https://maps.app.goo.gl/GU9DYNTRrV3ugcbq6?g_st=ipc","address":"Λημνος, Thanos 814 00","categoryIds":["coffee-brunch"],"categories":["Coffee & Brunch Spots"],"distanceKm":4.8338376542775405},{"id":"fishTavernasRestaurants_50ee9738a03b","slug":"giannakaros-50ee","kind":"restaurant","name":"Giannakaros","lat":39.84054300748565,"lng":25.08178620013765,"url":"https://maps.app.goo.gl/pXxiEsVASm4fz94F7?g_st=ipc","address":"Παραλία Θάνους 814 00","categoryIds":["fish-tavernas"],"categories":["Fish Tavernas"],"distanceKm":5.058246504199414},{"id":"coffeeBrunchRestaurants_996e363973c7","slug":"karavi-beach-bar-996e","kind":"restaurant","name":"Karavi Beach Bar","lat":39.85090912842053,"lng":25.123611423243542,"url":"https://maps.app.goo.gl/6JePMXECkf2soAvE9?g_st=ipc","address":"Nea Koutali 814 01","categoryIds":["coffee-brunch"],"categories":["Coffee & Brunch Spots"],"distanceKm":6.081942978958958}],"sameRegion":[],"mentionedGuides":[]},"__N_SSG":true}