{"pageProps":{"entity":{"id":"coffeeBrunchRestaurants_34ae78424cdb","slug":"abuelo-34ae","kind":"restaurant","name":"Abuelo","lat":37.977278007040915,"lng":23.732254640031748,"url":"https://maps.app.goo.gl/mtDzW4EBiKS3shLM8?g_st=ipc","address":"Κολοκοτρώνη 11, Αθήνα 105 62","categoryIds":["coffee-brunch"],"categories":["Coffee & Brunch Spots"]},"sameCategory":[{"id":"coffeeBrunchRestaurants_10f7636fb183","slug":"fillo-10f7","kind":"restaurant","name":"Fillo","lat":37.97664924966537,"lng":23.732881855883917,"url":"https://maps.app.goo.gl/kXhn28aSgrw8SgU47?g_st=ipc","address":"105 62, Βουλής 11, Αθήνα 105 62","categoryIds":["coffee-brunch"],"categories":["Coffee & Brunch Spots"]},{"id":"coffeeBrunchRestaurants_75593e6eed28","slug":"pura-vida-athens-7559","kind":"restaurant","name":"PURA VIDA athens","lat":37.97668183849927,"lng":23.73150959247157,"url":"https://maps.app.goo.gl/e9ktUnuxp3FdRJyF8?g_st=ipc","address":"Περικλέους 24-26, Αθήνα 105 62","categoryIds":["coffee-brunch"],"categories":["Coffee & Brunch Spots"]},{"id":"coffeeBrunchRestaurants_3321b1393c9d","slug":"s-agapw-coffee-wine-and-love-3321","kind":"restaurant","name":"S’agapw Coffee Wine and Love","lat":37.97818149501619,"lng":23.732268569349888,"url":"https://maps.app.goo.gl/oYaBfSgA7BG2s8ph8?g_st=ipc","address":"Ανθίμου Γαζή 15, Αθήνα 105 61","categoryIds":["coffee-brunch"],"categories":["Coffee & Brunch Spots"]},{"id":"coffeeBrunchRestaurants_eb79294668c4","slug":"ermou-18-beyond-the-horizon-eb79","kind":"restaurant","name":"Ermou 18 Beyond the Horizon","lat":37.97612271055357,"lng":23.731891623776487,"url":"https://maps.app.goo.gl/2L1MqjzdZCmDsrCj6?g_st=ipc","address":"Ερμού 18, Αθήνα 105 63","categoryIds":["coffee-brunch"],"categories":["Coffee & Brunch Spots"]},{"id":"coffeeBrunchRestaurants_1d255ac807f1","slug":"sol-bake-and-coffee-project-athens-1d25","kind":"restaurant","name":"Sol Bake and Coffee Project - Athens","lat":37.97816157851863,"lng":23.73056218480863,"url":"https://maps.app.goo.gl/fW434BxjyGNZzoC17?g_st=ipc","address":"Πραξιτέλους 11, Χαβρίου 9, Αθήνα 105 62","categoryIds":["coffee-brunch"],"categories":["Coffee & Brunch Spots"]},{"id":"coffeeBrunchRestaurants_268ab51f91a8","slug":"smak-zymeria-268a","kind":"restaurant","name":"Smak Ζυμερία","lat":37.97751180003605,"lng":23.730066447556442,"url":"https://maps.app.goo.gl/dAYcRqw7bHXmUKJz6?g_st=ipc","address":"Ρόμβης 21, Αθήνα 105 60","categoryIds":["coffee-brunch"],"categories":["Coffee & Brunch Spots"]},{"id":"coffeeBrunchRestaurants_a3e6dda2655d","slug":"tazza-caffe-a3e6","kind":"restaurant","name":"Tazza caffe","lat":37.975499371808404,"lng":23.73172660898901,"url":"https://maps.app.goo.gl/uGLfA2cFXs7RueeS6?g_st=ipc","address":"Πετράκη 5, Αθήνα 105 63","categoryIds":["coffee-brunch"],"categories":["Coffee & Brunch Spots"]},{"id":"coffeeBrunchRestaurants_d761c46075d4","slug":"le-petit-village-d761","kind":"restaurant","name":"Le Petit Village","lat":37.97573184070448,"lng":23.730557151684366,"url":"https://maps.app.goo.gl/yQDokn8qrofNRvbN9?g_st=ipc","address":"Φωκίωνος 2, Αθήνα 105 63","categoryIds":["coffee-brunch"],"categories":["Coffee & Brunch Spots"]}],"nearby":[{"id":"luxuryDiningRestaurants_c75b4f75eed4","slug":"geco-athens-c75b","kind":"restaurant","name":"Geco Athens","lat":37.97686179118327,"lng":23.732026538746123,"url":"https://maps.app.goo.gl/p3ytMHs2cKCwK2j76?g_st=ipc","address":"Λέκκα 14, Αθήνα 105 62","categoryIds":["luxury-dining"],"categories":["Luxury Dining"],"distanceKm":0.05041492167988715},{"id":"dessertsRestaurants_ce9de85fc0a1","slug":"aristokratikon-epich-ap-to-1928-syntagma-athina-ce9d","kind":"restaurant","name":"Αριστοκρατικόν (Επιχ. απ'το 1928) - Σύνταγμα, Αθήνα","lat":37.97685312862056,"lng":23.732864293474787,"url":"https://maps.app.goo.gl/ZpgyyzyeJjW4e7Y58?g_st=ipc","address":"Βουλής 7, Αθήνα 105 62","categoryIds":["desserts"],"categories":["Dessert Shops"],"distanceKm":0.07132642016635038},{"id":"dessertsRestaurants_c341ccbd87e0","slug":"ariston-lompotesis-c341","kind":"restaurant","name":"ΑΡΙΣΤΟΝ ΛΟΜΠΟΤΕΣΗΣ","lat":37.97670511785389,"lng":23.732649290748736,"url":"https://maps.app.goo.gl/GQVtxtBLY3rpmzsa9?g_st=ipc","address":"Βουλής 10, Αθήνα 105 62","categoryIds":["desserts"],"categories":["Dessert Shops"],"distanceKm":0.0724882502834193},{"id":"vegetarianRestaurants_daefe155ad5d","slug":"ariston-lompotesis-daef","kind":"restaurant","name":"ΑΡΙΣΤΟΝ ΛΟΜΠΟΤΕΣΗΣ","lat":37.976694641795845,"lng":23.73264366188707,"url":"https://maps.app.goo.gl/huQdY2MTzopiE8uQ8?g_st=ipc","address":"Βουλής 10, Αθήνα 105 62","categoryIds":["vegetarian"],"categories":["Vegetarian Friendly Restaurants"],"distanceKm":0.07328319124489939},{"id":"cheapEatsRestaurants_7f568e47c0a8","slug":"fuddy-duddy-7f56","kind":"restaurant","name":"FUDDY DUDDY","lat":37.97744212384706,"lng":23.73144118284602,"url":"https://maps.app.goo.gl/vVmR4bTFHYKewmjK9?g_st=ipc","address":"Λέκκα 32, Αθήνα 105 62","categoryIds":["cheap-eats"],"categories":["Gyros & Cheap Eats"],"distanceKm":0.0735977441485524},{"id":"italianRestaurants_e7c94ca15e1b","slug":"granello-pizza-italiana-e7c9","kind":"restaurant","name":"Granello - Pizza Italiana","lat":37.97667761548528,"lng":23.73173801660532,"url":"https://maps.app.goo.gl/nkhWXfUCf8UqXp5W9?g_st=ipc","address":"Περικλέους 18, Αθήνα 105 62","categoryIds":["italian"],"categories":["Italian Restaurants"],"distanceKm":0.08066871201418134},{"id":"coffeeBrunchRestaurants_10f7636fb183","slug":"fillo-10f7","kind":"restaurant","name":"Fillo","lat":37.97664924966537,"lng":23.732881855883917,"url":"https://maps.app.goo.gl/kXhn28aSgrw8SgU47?g_st=ipc","address":"105 62, Βουλής 11, Αθήνα 105 62","categoryIds":["coffee-brunch"],"categories":["Coffee & Brunch Spots"],"distanceKm":0.08894031429597439},{"id":"coffeeBrunchRestaurants_75593e6eed28","slug":"pura-vida-athens-7559","kind":"restaurant","name":"PURA VIDA athens","lat":37.97668183849927,"lng":23.73150959247157,"url":"https://maps.app.goo.gl/e9ktUnuxp3FdRJyF8?g_st=ipc","address":"Περικλέους 24-26, Αθήνα 105 62","categoryIds":["coffee-brunch"],"categories":["Coffee & Brunch Spots"],"distanceKm":0.09305402186393888}],"sameRegion":[],"mentionedGuides":[]},"__N_SSG":true}