{"pageProps":{"entity":{"id":"municipalities_f635a4bd67b3","slug":"agkistri-f635","kind":"municipality","name":"Αγκίστρι","lat":37.7124,"lng":23.3447,"region":"Νησιά Αργοσαρωνικού","name_en":"Agistri","region_en":"Saronic Islands"},"sameCategory":[],"nearby":[{"id":"greekRestaurants_fe33131c983d","slug":"toxotis-fe33","kind":"restaurant","name":"ΤΟΞΟΤΗΣ","lat":37.70895258892911,"lng":23.363446090303647,"url":"https://maps.app.goo.gl/y4Wvco9rEc1QfYUM6?g_st=ipc","address":"Σκάλα 180 10","categoryIds":["greek-restaurants"],"categories":["Greek Restaurants"],"distanceKm":1.6930128266419062},{"id":"italianRestaurants_cea069598e2c","slug":"avli-pizzeria-italian-restaurant-cea0","kind":"restaurant","name":"Avli Pizzeria Italian Restaurant","lat":37.70852668969966,"lng":23.364217806517935,"url":"https://maps.app.goo.gl/CQiwfGN8vkcQtv7x8?g_st=ipc","address":"Σκάλα 180 10","categoryIds":["italian"],"categories":["Italian Restaurants"],"distanceKm":1.77013048940162},{"id":"municipalities_1fbee9b0f2e3","slug":"aigina-1fbe","kind":"municipality","name":"Αίγινα","lat":37.746,"lng":23.4273,"aliases":["Αιγινα","Aegina","Egina"],"region":"Νησιά Αργοσαρωνικού","name_en":"Aegina","region_en":"Saronic Islands","distanceKm":8.168762911657835},{"id":"dessertsRestaurants_4635c9cb6502","slug":"mourtzis-pistachio-and-traditional-sweets-4635","kind":"restaurant","name":"Mourtzis Pistachio and Traditional Sweets","lat":37.746386834552986,"lng":23.4275254000964,"url":"https://maps.app.goo.gl/coEx1V66UyCjngKx6?g_st=ipc","address":"Leof. Dimokratias 6, Egina 180 10","categoryIds":["desserts"],"categories":["Dessert Shops"],"distanceKm":8.206099290975805},{"id":"dessertsRestaurants_90e20287b05d","slug":"mourtzis-pistachio-and-traditional-sweets-90e2","kind":"restaurant","name":"Mourtzis Pistachio and Traditional Sweets","lat":37.74642667880152,"lng":23.427540300709033,"url":"https://maps.app.goo.gl/9jp6Sh2msw2SifXAA?g_st=ipc","address":"Leof. Dimokratias 6, Egina 180 10","categoryIds":["desserts"],"categories":["Dessert Shops"],"distanceKm":8.209301799355249},{"id":"greekRestaurants_7e47ce5f873d","slug":"o-manitas-sto-kyma-7e47","kind":"restaurant","name":"Ο Μάνιτας στο Κύμα","lat":37.72802490000876,"lng":23.436258793291216,"url":"https://maps.app.goo.gl/mdpRWqsEC1ekDdu26?g_st=ipc","address":"Άγιος Βασίλης Περιβόλα, Αίγινα 180 10","categoryIds":["greek-restaurants"],"categories":["Greek Restaurants"],"distanceKm":8.238434694086923},{"id":"coffeeBrunchRestaurants_a0f98e1c2b12","slug":"aiakeion-a0f9","kind":"restaurant","name":"Αιάκειον","lat":37.746460271999695,"lng":23.42831871522419,"url":"https://maps.app.goo.gl/Qzj36fpjYDeGE7CdA?g_st=ipc","address":"Λεωφ. Δημοκρατίας 18, Αίγινα 180 10","categoryIds":["coffee-brunch"],"categories":["Coffee & Brunch Spots"],"distanceKm":8.271823409580417},{"id":"coffeeBrunchRestaurants_376f978cdcbd","slug":"leof-dimokratias-51-aigina-180-10-376f","kind":"restaurant","name":"Λεωφ. Δημοκρατίας 51, Αίγινα 180 10","lat":37.74458755004641,"lng":23.429733301742875,"url":"https://maps.app.goo.gl/iAGPEbpGe5cmBZmJ9?g_st=ipc","address":"Λεωφ. Δημοκρατίας 51, Αίγινα 180 10","categoryIds":["coffee-brunch"],"categories":["Coffee & Brunch Spots"],"distanceKm":8.290700691482892}],"sameRegion":[{"id":"municipalities_1fbee9b0f2e3","slug":"aigina-1fbe","kind":"municipality","name":"Αίγινα","lat":37.746,"lng":23.4273,"aliases":["Αιγινα","Aegina","Egina"],"region":"Νησιά Αργοσαρωνικού","name_en":"Aegina","region_en":"Saronic Islands"},{"id":"municipalities_5b2ddd41014c","slug":"ydra-5b2d","kind":"municipality","name":"Ύδρα","lat":37.35,"lng":23.4667,"aliases":["Υδρα"],"region":"Νησιά Αργοσαρωνικού","name_en":"Hydra","region_en":"Saronic Islands"},{"id":"municipalities_8fb165d3aa1c","slug":"salamina-8fb1","kind":"municipality","name":"Σαλαμίνα","lat":37.9645,"lng":23.4965,"region":"Νησιά Αργοσαρωνικού","name_en":"Salamina","region_en":"Saronic Islands"},{"id":"municipalities_a3110e651ee8","slug":"spetses-a311","kind":"municipality","name":"Σπέτσες","lat":37.2634,"lng":23.1564,"aliases":["Σπετσες"],"region":"Νησιά Αργοσαρωνικού","name_en":"Spetses","region_en":"Saronic Islands"},{"id":"municipalities_fabe4f2e7a38","slug":"poros-fabe","kind":"municipality","name":"Πόρος","lat":37.4996,"lng":23.4534,"aliases":["Πορος"],"region":"Νησιά Αργοσαρωνικού","name_en":"Poros","region_en":"Saronic Islands"}],"mentionedGuides":[{"slug":"traveling-to-greece-on-a-budget-el","title":"Ταξιδι στην Ελλαδα με μικρο budget"}]},"__N_SSG":true}