{"pageProps":{"entity":{"id":"municipalities_75ddb64a42fd","slug":"gyzi-75dd","kind":"municipality","name":"Γύζη","lat":37.9933,"lng":23.7439,"aliases":["Γυζη","Gizi"],"region":"Κέντρο Αθήνας","name_en":"Gyzi","region_en":"Athens Center"},"sameCategory":[],"nearby":[{"id":"dessertsRestaurants_98b6e615d276","slug":"chunky-cookie-bar-98b6","kind":"restaurant","name":"Chunky Cookie Bar","lat":37.990432042632165,"lng":23.743378760155576,"url":"https://maps.app.goo.gl/RyoKAVU7gY9FtBng6?g_st=ipc","address":"Πέτρου Καλλιγά 6, Αθήνα 114 74","categoryIds":["desserts"],"categories":["Dessert Shops"],"distanceKm":0.32215698371358104},{"id":"greekRestaurants_e2f8a1a4ded7","slug":"katsarola-e2f8","kind":"restaurant","name":"Κατσαρόλα","lat":37.98993156504118,"lng":23.741864128657266,"url":"https://maps.app.goo.gl/R5o9th6YAJUun6xp6","address":"Λεωφ. Αλεξάνδρας 74, Αθήνα 114 73","categoryIds":["greek-restaurants"],"categories":["Greek Restaurants"],"distanceKm":0.41487308703213016},{"id":"greekRestaurants_47b0ee0c8d13","slug":"mi-la-re-47b0","kind":"restaurant","name":"Μι λα ρε","lat":37.99704423560871,"lng":23.74315138793718,"url":"https://maps.app.goo.gl/mURYyiemhV3PvXjDA","address":"Ευελπίδων 87, Αθήνα 113 62","categoryIds":["greek-restaurants"],"categories":["Greek Restaurants"],"distanceKm":0.4214763727384005},{"id":"cheapEatsRestaurants_9b9687edb09a","slug":"cantina-alexandras-9b96","kind":"restaurant","name":"Cantina Alexandras","lat":37.990601219280784,"lng":23.740100216268857,"url":"https://maps.app.goo.gl/sC6f9QqoMvhYZn9L6?g_st=ipc","address":"Λεωφ. Αλεξάνδρας 31, Αθήνα 114 73","categoryIds":["cheap-eats"],"categories":["Gyros & Cheap Eats"],"distanceKm":0.4482554359154914},{"id":"vegetarianRestaurants_3ea2a766339f","slug":"mimi-s-cafe-vegan-3ea2","kind":"restaurant","name":"Mimi's Cafe Vegan","lat":37.98928428831877,"lng":23.74327396218684,"url":"https://maps.app.goo.gl/iJpPrYiwEWZ6Zhk59?g_st=ipc","address":"Πλ. Αργεντινής Δημοκρατίας 4, Αθήνα 114 72","categoryIds":["vegetarian"],"categories":["Vegetarian Friendly Restaurants"],"distanceKm":0.44988438344122067},{"id":"dessertsRestaurants_500065b70e96","slug":"mpozas-5000","kind":"restaurant","name":"Μπόζας","lat":37.99742038031428,"lng":23.73986164387991,"url":"https://maps.app.goo.gl/zSMSytPeL1fEn7U3A?g_st=ipc","address":"Κερκύρας 39 &, Παξών, Αθήνα 113 62","categoryIds":["desserts"],"categories":["Dessert Shops"],"distanceKm":0.578915060292869},{"id":"coffeeBrunchRestaurants_a3230d252f22","slug":"bayard-cafe-bar-a323","kind":"restaurant","name":"Bayard Cafe Bar","lat":37.98818653598511,"lng":23.742397891424794,"url":"https://maps.app.goo.gl/uimsu3ktFK4Xu2bBA?g_st=ipc","address":"Ζωοδόχου Πηγής 134, Αθήνα 114 72","categoryIds":["coffee-brunch"],"categories":["Coffee & Brunch Spots"],"distanceKm":0.5836299676849019},{"id":"dessertsRestaurants_d3301ebc9d06","slug":"portatif-ippokratous-d330","kind":"restaurant","name":"Portatif - ippokratous","lat":37.98880796872772,"lng":23.747928642094816,"url":"https://maps.app.goo.gl/Hjds2t3JrKoqCot39?g_st=ipc","address":"Ιπποκράτους 206, Αθήνα 114 72","categoryIds":["desserts"],"categories":["Dessert Shops"],"distanceKm":0.6116627968811552}],"sameRegion":[{"id":"municipalities_0889636ab7df","slug":"petralona-0889","kind":"municipality","name":"Πετράλωνα","lat":37.9656,"lng":23.7108,"region":"Κέντρο Αθήνας","name_en":"Petralona","region_en":"Athens Center"},{"id":"municipalities_0cae2c00b932","slug":"kolonaki-0cae","kind":"municipality","name":"Κολωνάκι","lat":37.9769,"lng":23.7436,"aliases":["Kolonaki"],"region":"Κέντρο Αθήνας","name_en":"Kolonaki","region_en":"Athens Center"},{"id":"municipalities_0eb5ad956816","slug":"neos-kosmos-0eb5","kind":"municipality","name":"Νέος Κόσμος","lat":37.9563,"lng":23.7289,"region":"Κέντρο Αθήνας","name_en":"Neos Kosmos","region_en":"Athens Center"},{"id":"municipalities_0fd1d03201a0","slug":"mets-0fd1","kind":"municipality","name":"Μετς","lat":37.9685,"lng":23.7453,"region":"Κέντρο Αθήνας","name_en":"Mets","region_en":"Athens Center"},{"id":"municipalities_1760d194c086","slug":"ampelokipoi-1760","kind":"municipality","name":"Αμπελόκηποι","lat":38.002,"lng":23.753,"aliases":["Ampelopoi","Ampelokipoi","Ampelokipi","Αμπελοκηποι","Αμπελοκηπι"],"region":"Κέντρο Αθήνας","name_en":"Ambelokipi","region_en":"Athens Center"},{"id":"municipalities_23828bbce235","slug":"patisia-2382","kind":"municipality","name":"Πατήσια","lat":38.0167,"lng":23.7333,"aliases":["Πατησια","Patissia"],"region":"Κέντρο Αθήνας","name_en":"Patisia","region_en":"Athens Center"},{"id":"municipalities_2bcfcb8b899f","slug":"psyrri-2bcf","kind":"municipality","name":"Ψυρρή","lat":37.9761,"lng":23.7246,"aliases":["Psirri","Psyrri"],"region":"Κέντρο Αθήνας","name_en":"Psyrri","region_en":"Athens Center"},{"id":"municipalities_2dbf77b73060","slug":"royf-2dbf","kind":"municipality","name":"Ρουφ","lat":37.9767,"lng":23.7074,"region":"Κέντρο Αθήνας","name_en":"Rouf","region_en":"Athens Center"}],"mentionedGuides":[]},"__N_SSG":true}