{"pageProps":{"entity":{"id":"greekRestaurants_d65972b4152c","slug":"i-psistaria-toy-vazoyra-d659","kind":"restaurant","name":"Η ΨΗΣΤΑΡΙΑ ΤΟΥ ΒΑΖΟΥΡΑ","lat":38.954704269481525,"lng":22.968242283211623,"url":"https://maps.app.goo.gl/uLTg4awodZSNtjhP8?g_st=ipc","address":"Unnamed Road, Γλύφα 350 13","categoryIds":["greek-restaurants"],"categories":["Greek Restaurants"]},"sameCategory":[{"id":"greekRestaurants_f58f287acaec","slug":"1900-paradosiako-taverneio-traditional-tavern-f58f","kind":"restaurant","name":"1900 Παραδοσιακό Ταβερνείο (Traditional Tavern)","lat":39.30568114219273,"lng":23.12040447873948,"url":"https://maps.app.goo.gl/Zbob4RrewGaAi1fY9?g_st=ipc","address":"Kala Nera 370 10","categoryIds":["greek-restaurants"],"categories":["Greek Restaurants"]},{"id":"greekRestaurants_e3849f333d19","slug":"estiatorio-kryfi-ammos-e384","kind":"restaurant","name":"Εστιατόριο Κρυφή Άμμος","lat":39.15831978512696,"lng":23.390064394645744,"url":"https://maps.app.goo.gl/AsLp5CVRi7LKmbyu5?g_st=ipc","address":"Σκιάθος 370 02","categoryIds":["greek-restaurants"],"categories":["Greek Restaurants"]},{"id":"greekRestaurants_e6f75b86de1f","slug":"to-salkimi-e6f7","kind":"restaurant","name":"Το Σαλκίμι","lat":39.32842613710333,"lng":23.150200950982853,"url":"https://maps.app.goo.gl/a2R9yDYGNQsY2fUS6?g_st=ipc","address":"Πήλιο 370 10","categoryIds":["greek-restaurants"],"categories":["Greek Restaurants"]},{"id":"greekRestaurants_f034f0fe0cac","slug":"salt-and-pepper-skiathos-f034","kind":"restaurant","name":"Salt and Pepper Skiathos","lat":39.14185621850757,"lng":23.426181107584785,"url":"https://maps.app.goo.gl/VjcQnWCRSBW1Vy5HA?g_st=ipc","address":"Τρούλος 370 02","categoryIds":["greek-restaurants"],"categories":["Greek Restaurants"]},{"id":"greekRestaurants_f8c7fc9e1119","slug":"mezen-mezen-f8c7","kind":"restaurant","name":"Μεζέν - Mezen","lat":39.360202586197914,"lng":22.94855189327868,"url":"https://maps.app.goo.gl/8kEStDeZbgxBjzsH6?g_st=ipc","address":"Αλοννήσου 8, Βόλος 382 21","categoryIds":["greek-restaurants"],"categories":["Greek Restaurants"]},{"id":"greekRestaurants_267ed799993c","slug":"platanus-orientalis-267e","kind":"restaurant","name":"Platanus Orientalis","lat":39.36160028394274,"lng":23.05970176441853,"url":"https://maps.app.goo.gl/CeNcPhtv8mJKEc4q7?g_st=ipc","address":"Αγ. Λαυρέντιος 373 00","categoryIds":["greek-restaurants"],"categories":["Greek Restaurants"]},{"id":"greekRestaurants_40646fb63153","slug":"crazy-rooster-4064","kind":"restaurant","name":"Crazy Rooster","lat":39.14456218374441,"lng":23.44548982931251,"url":"https://maps.app.goo.gl/oMMC2zscQn9skACV6?g_st=ipc","address":"Κολιός 370 02","categoryIds":["greek-restaurants"],"categories":["Greek Restaurants"]},{"id":"greekRestaurants_5dc20ab83ca7","slug":"mpokos-oyzeri-5dc2","kind":"restaurant","name":"ΜΠΟΚΟΣ ΟΥΖΕΡΙ","lat":39.37241914499682,"lng":22.928826450978278,"url":"https://maps.app.goo.gl/cXQP3wmZ2PgCjwePA?g_st=ipc","address":"Μαιάνδρου 143, Νέα Ιωνία 384 45","categoryIds":["greek-restaurants"],"categories":["Greek Restaurants"]}],"nearby":[{"id":"fishTavernasRestaurants_86c2766cd30e","slug":"maravelis-tavern-86c2","kind":"restaurant","name":"Maravelis Tavern","lat":38.87783676050129,"lng":23.034445964763474,"url":"https://maps.app.goo.gl/hQcCLsq7XdBziH8Y6?g_st=ipc","address":"Paraliaki Agiou Nikolaou, Paralia Agiou Nikolaou 343 00","categoryIds":["fish-tavernas"],"categories":["Fish Tavernas"],"distanceKm":10.288968402710866},{"id":"fishTavernasRestaurants_6b40bcc51614","slug":"antonis-greek-traditional-cuisine-6b40","kind":"restaurant","name":"Antonis Greek Traditional Cuisine","lat":38.83737186575876,"lng":22.887933091146778,"url":"https://maps.app.goo.gl/G8KXo81mCU6jbPnZ8?g_st=ipc","address":"Αγ.Γεώργιος 34, Οδός Κάβου 300, Ag. Georgios 343 00","categoryIds":["fish-tavernas"],"categories":["Fish Tavernas"],"distanceKm":14.782479713541829},{"id":"municipalities_30068cb262bd","slug":"istiaia-3006","kind":"municipality","name":"Ιστιαία","lat":38.95,"lng":23.15,"aliases":["Ιστιαίων"],"region":"Στερεά Ελλάδα","name_en":"Istiaia","region_en":"Central Greece","distanceKm":15.72580781321574},{"id":"fishTavernasRestaurants_fb10a0ef09f6","slug":"to-karnagio-to-karnagio-agia-kyriaki-notioy-pilioy-fb10","kind":"restaurant","name":"To Karnagio / Το Καρνάγιο - Αγία Κυριακή Νοτίου Πηλίου","lat":39.09262802220784,"lng":23.06864421145359,"url":"https://maps.app.goo.gl/9qZMAALf8EZ6XnGKA?g_st=ipc","address":"Epar.Od. Trikeriou-Agias Kiriakis 212, Ag. Kiriaki 370 09","categoryIds":["fish-tavernas"],"categories":["Fish Tavernas"],"distanceKm":17.61907541514139},{"id":"fishTavernasRestaurants_592c32eec338","slug":"pharos-restaurant-592c","kind":"restaurant","name":"Pharos Restaurant","lat":38.84777841501031,"lng":23.122079543325817,"url":"https://maps.app.goo.gl/J6rBsvJ8fqbki2T77?g_st=ipc","address":"Ilia, Ilia, Edipsos 343 00","categoryIds":["fish-tavernas"],"categories":["Fish Tavernas"],"distanceKm":17.848835904912793},{"id":"municipalities_2a5550d7f6f9","slug":"kamena-voyrla-2a55","kind":"municipality","name":"Καμένα Βούρλα","lat":38.7833,"lng":22.7833,"region":"Στερεά Ελλάδα","name_en":"Kamena Vourla","region_en":"Central Greece","distanceKm":24.892101122797428},{"id":"fishTavernasRestaurants_36305b19ba52","slug":"anemoia-3630","kind":"restaurant","name":"Anemoia","lat":38.80770176326322,"lng":23.228365127072003,"url":"https://maps.app.goo.gl/UE7bKqxToKu8gHZ56?g_st=ipc","address":"Evia Island, Rovies 340 05","categoryIds":["fish-tavernas"],"categories":["Fish Tavernas"],"distanceKm":27.8238091586383},{"id":"municipalities_d6cca0ebc16b","slug":"almyros-d6cc","kind":"municipality","name":"Αλμυρός","lat":39.1833,"lng":22.75,"region":"Θεσσαλία","name_en":"Almyros","region_en":"Thessaly","distanceKm":31.639986599985583}],"sameRegion":[],"mentionedGuides":[]},"__N_SSG":true}