{"pageProps":{"entity":{"id":"coffeeBrunchRestaurants_273a7e7d2a9d","slug":"piu-verde-273a","kind":"restaurant","name":"Piu Verde","lat":37.993592134048,"lng":23.792630644928746,"url":"https://maps.app.goo.gl/uttCEc9rHvmfUF3c7?g_st=ipc","address":"Στρατ, Αλ. Παπάγου, Παπάγου 156 69","categoryIds":["coffee-brunch"],"categories":["Coffee & Brunch Spots"]},"sameCategory":[{"id":"coffeeBrunchRestaurants_8ebbeeadfb00","slug":"jerry-s-8ebb","kind":"restaurant","name":"JERRY’S","lat":37.99081436071943,"lng":23.798622930452883,"url":"https://maps.app.goo.gl/s7TjtfQj1q9s9Tnk8?g_st=ipc","address":"Εθ. Αμύνης 27, Παπάγου 156 69","categoryIds":["coffee-brunch"],"categories":["Coffee & Brunch Spots"]},{"id":"coffeeBrunchRestaurants_1fbd5adec6bb","slug":"olivia-s-brother-1fbd","kind":"restaurant","name":"Olivia’s Brother","lat":37.99842910582675,"lng":23.799666763449746,"url":"https://maps.app.goo.gl/j4jHouWVFDNbqaBK6?g_st=ipc","address":"Leof. Perikleous, Κεραμεικού 4, Χολαργός 155 61","categoryIds":["coffee-brunch"],"categories":["Coffee & Brunch Spots"]},{"id":"coffeeBrunchRestaurants_f3a3be0d750a","slug":"alsos-cholargou-alsos-cholargoy-f3a3","kind":"restaurant","name":"Alsos Cholargou / Άλσος Χολαργού","lat":37.99731205193856,"lng":23.801346586633024,"url":"https://maps.app.goo.gl/9NgrgwXAtnAhzyQM7?g_st=ipc","address":"Ευριπίδου 1, Χολαργός 155 62","categoryIds":["coffee-brunch"],"categories":["Coffee & Brunch Spots"]},{"id":"coffeeBrunchRestaurants_848168a5d6a3","slug":"cornell-8481","kind":"restaurant","name":"Cornell","lat":38.00169766553315,"lng":23.79390617469456,"url":"https://maps.app.goo.gl/GzFQB9fD18CsSH7k9?g_st=ipc","address":"Αετιδέων 18 &, Βουτσινά, Χολαργός 155 61","categoryIds":["coffee-brunch"],"categories":["Coffee & Brunch Spots"]},{"id":"coffeeBrunchRestaurants_e4c2bdc534b9","slug":"bookali-e4c2","kind":"restaurant","name":"bookAli","lat":38.00429979988101,"lng":23.794394502333493,"url":"https://maps.app.goo.gl/36ShHJ9gS1j7CesG9?g_st=ipc","address":"Λεωφ. Μεσογείων 236, Χολαργός 155 61","categoryIds":["coffee-brunch"],"categories":["Coffee & Brunch Spots"]},{"id":"coffeeBrunchRestaurants_a82e7e155ac7","slug":"micafetal-a82e","kind":"restaurant","name":"miCafetal","lat":38.00628521283868,"lng":23.79310128971578,"url":"https://maps.app.goo.gl/eFtNz9rPLtHdLmHP6?g_st=ipc","address":"Ηρ. Πολυτεχνείου 17, Χαλάνδρι 152 31","categoryIds":["coffee-brunch"],"categories":["Coffee & Brunch Spots"]},{"id":"coffeeBrunchRestaurants_3e3ae547e829","slug":"hidden-cholargos-3e3a","kind":"restaurant","name":"Hidden Χολαργός","lat":38.00530967929583,"lng":23.799191777899182,"url":"https://maps.app.goo.gl/NV3sFCcDPqZUeRzWA?g_st=ipc","address":"Πυθαγόρα, Χίου 6, Χολαργός 155 62","categoryIds":["coffee-brunch"],"categories":["Coffee & Brunch Spots"]},{"id":"coffeeBrunchRestaurants_7101d26f85dd","slug":"montakioy-neo-psychiko-7101","kind":"restaurant","name":"ΜΟΝΤΑΚΙΟΥ - ΝΕΟ ΨΥΧΙΚΟ","lat":38.00899356630051,"lng":23.779485267398293,"url":"https://maps.app.goo.gl/e75yZ6CbqLTXVusq7?g_st=ipc","address":"Λεωφ. Κηφισίας 340, Νέο Ψυχικό 154 51","categoryIds":["coffee-brunch"],"categories":["Coffee & Brunch Spots"]}],"nearby":[{"id":"familyFriendly_840f0ee77d5e","slug":"piu-verde-840f","kind":"restaurant","name":"Piu Verde","lat":37.993574877289596,"lng":23.792630011880384,"url":"https://maps.app.goo.gl/bhvyTpRQmsaLe3W48?g_st=ipc","address":"Στρατ, Αλ. Παπάγου, Παπάγου 156 69","categoryIds":["family-friendly"],"categories":["Kid Friendly Locations"],"distanceKm":0.0019196656982259518},{"id":"familyFriendly_c4b368df83c1","slug":"oikogeneiako-parko-perivallontikis-eyaisthitopoiisis-c4b3","kind":"restaurant","name":"Οικογενειακό Πάρκο Περιβαλλοντικής Ευαισθητοποίησης","lat":37.99329104933058,"lng":23.791786076511723,"url":"https://maps.app.goo.gl/ah7MLHXrkbxTWacS8?g_st=ipc","address":"Λεωφ. Παπάγου, Παπάγου 156 69","categoryIds":["family-friendly"],"categories":["Kid Friendly Locations"],"distanceKm":0.081230163474241},{"id":"familyFriendly_7679184c0c6a","slug":"alsos-papagoy-7679","kind":"restaurant","name":"Άλσος Παπάγου","lat":37.99340202683861,"lng":23.794076076253262,"url":"https://maps.app.goo.gl/rJbRGPSSoVw8phSo6?g_st=ipc","address":"Κορυτσάς 31, Παπάγου 156 69","categoryIds":["family-friendly"],"categories":["Kid Friendly Locations"],"distanceKm":0.12841579346608242},{"id":"italianRestaurants_9e93d0527186","slug":"casareccio-trattoria-pizzeria-9e93","kind":"restaurant","name":"Casareccio trattoria pizzeria","lat":37.995258640416544,"lng":23.796024502616564,"url":"https://maps.app.goo.gl/f357srheHFN2PfBk6?g_st=ipc","address":"Ξανθίππου 84, Χολαργός 155 61","categoryIds":["italian"],"categories":["Italian Restaurants"],"distanceKm":0.35040918987303427},{"id":"cheapEatsRestaurants_b8837f726b0e","slug":"avraam-cholargos-b883","kind":"restaurant","name":"Αβραάμ Χολαργός","lat":37.99365661341766,"lng":23.796975079778093,"url":"https://maps.app.goo.gl/njaacvURe6u87qaX6?g_st=ipc","address":"Αναστάσεως 111, Χολαργός 155 61","categoryIds":["cheap-eats"],"categories":["Gyros & Cheap Eats"],"distanceKm":0.3807721373799252},{"id":"cheapEatsRestaurants_69bbfb44507d","slug":"papigko-69bb","kind":"restaurant","name":"Πάπιγκο","lat":37.9930301423727,"lng":23.798961270934143,"url":"https://maps.app.goo.gl/7eU14tbuLV6n9imX7?g_st=ipc","address":"25ης Μαρτίου 9, Χολαργός 155 61","categoryIds":["cheap-eats"],"categories":["Gyros & Cheap Eats"],"distanceKm":0.5582662836891953},{"id":"dessertsRestaurants_d158a63c41b4","slug":"dix-sept-d158","kind":"restaurant","name":"Dix Sept","lat":37.99369747729579,"lng":23.799520990696347,"url":"https://maps.app.goo.gl/X3YKFWNvxVgu7W8Z9?g_st=ipc","address":"25is Martiou 17, Cholargos 155 61","categoryIds":["desserts"],"categories":["Dessert Shops"],"distanceKm":0.6039173019173334},{"id":"cheapEatsRestaurants_33f4e7b2d02a","slug":"dix-sept-33f4","kind":"restaurant","name":"Dix Sept","lat":37.99369686292994,"lng":23.79952330912713,"url":"https://maps.app.goo.gl/LQP8izqcwdktGcwX6?g_st=ipc","address":"25ης Μαρτίου 17, Χολαργός 155 61","categoryIds":["cheap-eats"],"categories":["Gyros & Cheap Eats"],"distanceKm":0.6041191105097702}],"sameRegion":[],"mentionedGuides":[{"slug":"american-college-of-greece-agia-paraskevi-guide-el","title":"American College of Greece: Καλώς ήρθατε στην Αγία Παρασκευή"},{"slug":"american-college-of-greece-agia-paraskevi-guide","title":"American College of Greece: Welcome to Agia Paraskevi"}]},"__N_SSG":true}