{"pageProps":{"entity":{"id":"vegetarianRestaurants_bddb739d813a","slug":"plan-e-t-ice-cream-bddb","kind":"restaurant","name":"Plan(e)t Ice Cream","lat":37.976877362334406,"lng":23.72538097636171,"url":"https://maps.app.goo.gl/9hUg9Uc89kW2GUqL6?g_st=ipc","address":"Ερμού 86, Αθήνα 105 54","categoryIds":["vegetarian"],"categories":["Vegetarian Friendly Restaurants"]},"sameCategory":[{"id":"vegetarianRestaurants_21104db9215f","slug":"the-brunchers-2110","kind":"restaurant","name":"The Brunchers","lat":37.977231132541924,"lng":23.724930584606714,"url":"https://maps.app.goo.gl/3bSGpHkX69LYwsFY7?g_st=ipc","address":"Αγ. Θέκλας 5, Αθήνα 105 54","categoryIds":["vegetarian"],"categories":["Vegetarian Friendly Restaurants"]},{"id":"vegetarianRestaurants_089d08918f7a","slug":"the-doc-s-burger-bar-089d","kind":"restaurant","name":"The Doc's Burger Bar","lat":37.977440412426056,"lng":23.725635777283433,"url":"https://maps.app.goo.gl/tKAx8hEqAm45KgqJ7?g_st=ipc","address":"Ανδρέα Μιαούλη 10, Αθήνα 105 54","categoryIds":["vegetarian"],"categories":["Vegetarian Friendly Restaurants"]},{"id":"vegetarianRestaurants_6103b84128cb","slug":"vegan-tour-athens-6103","kind":"restaurant","name":"Vegan tour Athens","lat":37.97635862482565,"lng":23.725860112285382,"url":"https://maps.app.goo.gl/HNSYbNbjWA38vytK7?g_st=ipc","address":"Πλ. Μοναστηρακίου, Αθήνα 105 55","categoryIds":["vegetarian"],"categories":["Vegetarian Friendly Restaurants"]},{"id":"vegetarianRestaurants_f6b4938b2d93","slug":"happy-blender-f6b4","kind":"restaurant","name":"HAPPY BLENDER","lat":37.97632639671211,"lng":23.72337814744719,"url":"https://maps.app.goo.gl/CNcvWTpCEhrBWFrb6?g_st=ipc","address":"Ηφαίστου 39, Αθήνα 105 55","categoryIds":["vegetarian"],"categories":["Vegetarian Friendly Restaurants"]},{"id":"vegetarianRestaurants_7e314f6791f9","slug":"fontana-7e31","kind":"restaurant","name":"Fontana","lat":37.976643434278735,"lng":23.727544640785275,"url":"https://maps.app.goo.gl/AuBtWGWtH3xRZBEV8?g_st=ipc","address":"Αιόλου 17, Αθήνα 105 51","categoryIds":["vegetarian"],"categories":["Vegetarian Friendly Restaurants"]},{"id":"vegetarianRestaurants_e4171a750969","slug":"feyrouz-athens-e417","kind":"restaurant","name":"Feyrouz_Athens","lat":37.97815368375059,"lng":23.72764654408699,"url":"https://maps.app.goo.gl/cceYxANJTPRNHFuB6?g_st=ipc","address":"Καρόρη 23 και, Αγάθωνος 1, Αθήνα 105 51","categoryIds":["vegetarian"],"categories":["Vegetarian Friendly Restaurants"]},{"id":"vegetarianRestaurants_6e1c781427b5","slug":"ntao-vietnameziki-koyzina-6e1c","kind":"restaurant","name":"Ντάο Βιετναμέζικη Κουζίνα","lat":37.97853266592714,"lng":23.722814547226115,"url":"https://maps.app.goo.gl/MyM1aFjtySe38NKA9?g_st=ipc","address":"Λεπενιώτου 14, Αθήνα 105 54","categoryIds":["vegetarian"],"categories":["Vegetarian Friendly Restaurants"]},{"id":"vegetarianRestaurants_5b207cd61024","slug":"av-it-5b20","kind":"restaurant","name":"AV IT","lat":37.976939825548584,"lng":23.728942581826033,"url":"https://maps.app.goo.gl/Kt7esiHQgo5rmoWc7?g_st=ipc","address":"Καλαμιώτου 8, Αθήνα 105 60","categoryIds":["vegetarian"],"categories":["Vegetarian Friendly Restaurants"]}],"nearby":[{"id":"dessertsRestaurants_ae317ae9a63f","slug":"plan-e-t-ice-cream-ae31","kind":"restaurant","name":"Plan(e)t Ice Cream","lat":37.9768796209685,"lng":23.725383311814642,"url":"https://maps.app.goo.gl/zzypW34gBH83e5G99?g_st=ipc","address":"Ερμού 86, Αθήνα 105 54","categoryIds":["desserts"],"categories":["Dessert Shops"],"distanceKm":0.0003240048409429765},{"id":"coffeeBrunchRestaurants_10001909d6f1","slug":"attic-urban-rooftop-1000","kind":"restaurant","name":"Attic Urban Rooftop","lat":37.97687145726863,"lng":23.725410732994586,"url":"https://maps.app.goo.gl/9Zyy977FxxHx9dgc9?g_st=ipc","address":"Ερμού 86, Αθήνα 105 54","categoryIds":["coffee-brunch"],"categories":["Coffee & Brunch Spots"],"distanceKm":0.002689563429344873},{"id":"rooftopLoungesRestaurants_7332acc097be","slug":"attic-urban-rooftop-7332","kind":"restaurant","name":"Attic Urban Rooftop","lat":37.97687080438377,"lng":23.725410532690592,"url":"https://maps.app.goo.gl/QSZ7GB5QdH583XqD6?g_st=ipc","address":"Ερμού 86, Αθήνα 105 54","categoryIds":["rooftop-lounges"],"categories":["Rooftop Lounges"],"distanceKm":0.002691297979922691},{"id":"rooftopLoungesRestaurants_18ce337fd426","slug":"a-for-athens-18ce","kind":"restaurant","name":"A for Athens","lat":37.97687634031922,"lng":23.725767271545557,"url":"https://maps.app.goo.gl/Vq5qVpsf9STrBATY9?g_st=ipc","address":"Μιαούλη 2-4, Αθήνα 105 54","categoryIds":["rooftop-lounges"],"categories":["Rooftop Lounges"],"distanceKm":0.03385912540519406},{"id":"vegetarianRestaurants_21104db9215f","slug":"the-brunchers-2110","kind":"restaurant","name":"The Brunchers","lat":37.977231132541924,"lng":23.724930584606714,"url":"https://maps.app.goo.gl/3bSGpHkX69LYwsFY7?g_st=ipc","address":"Αγ. Θέκλας 5, Αθήνα 105 54","categoryIds":["vegetarian"],"categories":["Vegetarian Friendly Restaurants"],"distanceKm":0.05573027184767134},{"id":"coffeeBrunchRestaurants_26528fa68af9","slug":"the-brunchers-2652","kind":"restaurant","name":"The Brunchers","lat":37.97723167635048,"lng":23.724930062728706,"url":"https://maps.app.goo.gl/28Tan1nmqMaPBFMr7?g_st=ipc","address":"Αγ. Θέκλας 5, Αθήνα 105 54","categoryIds":["coffee-brunch"],"categories":["Coffee & Brunch Spots"],"distanceKm":0.05580535704412278},{"id":"rooftopLoungesRestaurants_9481fd0f2935","slug":"360-cocktail-bar-9481","kind":"restaurant","name":"360 Cocktail Bar","lat":37.97638780084513,"lng":23.72554423506802,"url":"https://maps.app.goo.gl/MDc3Ag3ciiiASdRN8?g_st=ipc","address":"Ηφαίστου 2, Αθήνα 105 55","categoryIds":["rooftop-lounges"],"categories":["Rooftop Lounges"],"distanceKm":0.05628613398716507},{"id":"rooftopLoungesRestaurants_484f7844d0e6","slug":"liystor-484f","kind":"restaurant","name":"LIYSTOR","lat":37.97699862058507,"lng":23.724754043275098,"url":"https://maps.app.goo.gl/VJigoWChXTdvaWWm8?g_st=ipc","address":"Ερμού 92-94, Αθήνα 105 54","categoryIds":["rooftop-lounges"],"categories":["Rooftop Lounges"],"distanceKm":0.056580924882530026}],"sameRegion":[],"mentionedGuides":[]},"__N_SSG":true}