{"pageProps":{"entity":{"id":"vegetarianRestaurants_83a2e8e8f0cf","slug":"amigos-83a2","kind":"restaurant","name":"Amigos","lat":37.944997225203664,"lng":23.712218480792846,"url":"https://maps.app.goo.gl/WmqorR4WUEup986y6?g_st=ipc","address":"Μεγ. Αλεξάνδρου 70, Νέα Σμύρνη 171 22","categoryIds":["vegetarian"],"categories":["Vegetarian Friendly Restaurants"]},"sameCategory":[{"id":"vegetarianRestaurants_de7324c496a6","slug":"fakafel-de73","kind":"restaurant","name":"Φakafel","lat":37.945977379116876,"lng":23.71063148252821,"url":"https://maps.app.goo.gl/r5AXr2ToKxBqZpAv9?g_st=ipc","address":"Φakafel","categoryIds":["vegetarian"],"categories":["Vegetarian Friendly Restaurants"]},{"id":"vegetarianRestaurants_06ce84bd30cd","slug":"mother-vegan-bistro-06ce","kind":"restaurant","name":"Mother Vegan Bistro","lat":37.962693218314804,"lng":23.721538252984118,"url":"https://maps.app.goo.gl/TZgz9fcY4M4aZZQD6?g_st=ipc","address":"Δημητρακοπούλου, Αγίου Νικολάου 95, Αθήνα 117 41","categoryIds":["vegetarian"],"categories":["Vegetarian Friendly Restaurants"]},{"id":"vegetarianRestaurants_74f8ca9bcb55","slug":"dinette-dafni-74f8","kind":"restaurant","name":"Dinette Dafni","lat":37.949260684351316,"lng":23.73612865746863,"url":"https://maps.app.goo.gl/kkxVViHsfrAhDtz38?g_st=ipc","address":"Μιχαήλ Καραολή 1-3, Αθήνα 172 35","categoryIds":["vegetarian"],"categories":["Vegetarian Friendly Restaurants"]},{"id":"vegetarianRestaurants_44c1f82d91b6","slug":"karminio-all-day-eatery-44c1","kind":"restaurant","name":"KARMINIO - All Day Eatery","lat":37.96336476791024,"lng":23.721067012407463,"url":"https://maps.app.goo.gl/RDq6Zcbr1mNrdbLN6?g_st=ipc","address":"Βεΐκου 86, Αθήνα 117 41","categoryIds":["vegetarian"],"categories":["Vegetarian Friendly Restaurants"]},{"id":"vegetarianRestaurants_663d79e21a0f","slug":"noa-poke-koukaki-663d","kind":"restaurant","name":"Noa Poke Koukaki","lat":37.962721066064105,"lng":23.72328239582356,"url":"https://maps.app.goo.gl/2BHN8JbCEv2oz4LT8?g_st=ipc","address":"Φαλήρου 84, Αθήνα 117 41","categoryIds":["vegetarian"],"categories":["Vegetarian Friendly Restaurants"]},{"id":"vegetarianRestaurants_617b8834cbfd","slug":"city-bliss-617b","kind":"restaurant","name":"City Bliss","lat":37.962615845106846,"lng":23.696852638288863,"url":"https://maps.app.goo.gl/yu97jv8qaY2BF8AQ8?g_st=ipc","address":"Κύπρου 14, Ταύρος Αττικής 177 78","categoryIds":["vegetarian"],"categories":["Vegetarian Friendly Restaurants"]},{"id":"vegetarianRestaurants_ce0918ac5e44","slug":"big-nick-ce09","kind":"restaurant","name":"Big Nick","lat":37.95644842524022,"lng":23.735670588284904,"url":"https://maps.app.goo.gl/3kEuq9FgPSZDgC3t8?g_st=ipc","address":"Λεωφόρος Βουλιαγμένης 145, Αθήνα 116 31","categoryIds":["vegetarian"],"categories":["Vegetarian Friendly Restaurants"]},{"id":"vegetarianRestaurants_4db58e18de0e","slug":"peas-vegan-4db5","kind":"restaurant","name":"Peas Vegan","lat":37.965309081383936,"lng":23.72648212033699,"url":"https://maps.app.goo.gl/8AeCWeh7LczgaD87A?g_st=ipc","address":"Φαλήρου 40, Αθήνα 117 42","categoryIds":["vegetarian"],"categories":["Vegetarian Friendly Restaurants"]}],"nearby":[{"id":"mexicanRestaurants_e022afb77fe2","slug":"amigos-e022","kind":"restaurant","name":"Amigos","lat":37.94499454255761,"lng":23.71221746209658,"url":"https://maps.app.goo.gl/BHdiVv9h7dD8bkiu6?g_st=ipc","address":"Μεγ. Αλεξάνδρου 70, Νέα Σμύρνη 171 22","categoryIds":["mexican"],"categories":["Mexican Restaurants"],"distanceKm":0.0003113845829037713},{"id":"coffeeBrunchRestaurants_2673b2efe834","slug":"fred-2673","kind":"restaurant","name":"Fred","lat":37.94562369764514,"lng":23.71066649818301,"url":"https://maps.app.goo.gl/HMmCPXK9BhvDtR538?g_st=ipc","address":"Κων/νου Παλαιολόγου 24, Νέα Σμύρνη 171 21","categoryIds":["coffee-brunch"],"categories":["Coffee & Brunch Spots"],"distanceKm":0.15288293869029915},{"id":"coffeeBrunchRestaurants_0aaa1d7425c8","slug":"o-nikos-0aaa","kind":"restaurant","name":"\"ο Νίκος\"","lat":37.94446727754758,"lng":23.71036042368455,"url":"https://maps.app.goo.gl/Hjscsj6jJP8Ehtjz8?g_st=ipc","address":"Κων/νου Παλαιολόγου 36, Νέα Σμύρνη 171 22","categoryIds":["coffee-brunch"],"categories":["Coffee & Brunch Spots"],"distanceKm":0.17325960171318647},{"id":"italianRestaurants_da11e2c73563","slug":"cavaliere-ristorante-concettuale-da11","kind":"restaurant","name":"Cavaliere Ristorante Concettuale","lat":37.944619471140975,"lng":23.71414682617668,"url":"https://maps.app.goo.gl/WcUWRBUhr7SBrvaw8?g_st=ipc","address":"Λεωφ. Ελ. Βενιζέλου 42, Νέα Σμύρνη 171 22","categoryIds":["italian"],"categories":["Italian Restaurants"],"distanceKm":0.1742331193077782},{"id":"vegetarianRestaurants_de7324c496a6","slug":"fakafel-de73","kind":"restaurant","name":"Φakafel","lat":37.945977379116876,"lng":23.71063148252821,"url":"https://maps.app.goo.gl/r5AXr2ToKxBqZpAv9?g_st=ipc","address":"Φakafel","categoryIds":["vegetarian"],"categories":["Vegetarian Friendly Restaurants"],"distanceKm":0.1767599183253765},{"id":"coffeeBrunchRestaurants_01d039eed44f","slug":"flaked-croissanterie-nea-smyrni-01d0","kind":"restaurant","name":"Flaked Croissanterie Nea Smyrni","lat":37.94664941791958,"lng":23.71226377005945,"url":"https://maps.app.goo.gl/XhDMxWuwRuMVcghH9?g_st=ipc","address":"2ας Μαΐου 10, Νέα Σμύρνη 171 21","categoryIds":["coffee-brunch"],"categories":["Coffee & Brunch Spots"],"distanceKm":0.18375836584754715},{"id":"municipalities_093f8da9eef7","slug":"nea-smyrni-093f","kind":"municipality","name":"Νέα Σμύρνη","lat":37.9456,"lng":23.7142,"aliases":["Nea Smyrni","Nea Smirni","Νεα Σμυρνη","Nea Smyrne"],"region":"Νότια Προάστια","name_en":"Nea Smyrni","region_en":"Southern Suburbs","distanceKm":0.18623494946752667},{"id":"dessertsRestaurants_90551d221579","slug":"zuccherino-9055","kind":"restaurant","name":"Zuccherino","lat":37.94670677191045,"lng":23.712370393556583,"url":"https://maps.app.goo.gl/AvtpV9edEhsRgr9r5?g_st=ipc","address":"2ας Μαΐου 12, Νέα Σμύρνη 171 21","categoryIds":["desserts"],"categories":["Dessert Shops"],"distanceKm":0.19055908103152627}],"sameRegion":[],"mentionedGuides":[],"canonicalSlug":"amigos-83a2","isCanonicalEntity":true},"__N_SSG":true}