{"pageProps":{"entity":{"id":"mustSeeAttractions_20af350a9d06","slug":"blue-caves-zakynthos-20af","kind":"restaurant","name":"Blue Caves Zakynthos","lat":37.93034342843555,"lng":20.705251154680667,"url":"https://maps.app.goo.gl/aFhekQczUnCUCkXt7?g_st=ipc","address":"Porthmos Zakinthou","categoryIds":["attractions"],"categories":["Must-See Attractions"]},"sameCategory":[{"id":"mustSeeAttractions_08514e911c7d","slug":"navagio-0851","kind":"restaurant","name":"Navagio","lat":37.85945060305929,"lng":20.624902110473712,"url":"https://maps.app.goo.gl/7zGrDtLoU6SSdcuS9?g_st=ipc","address":"Elatia 290 91","categoryIds":["attractions"],"categories":["Must-See Attractions"]},{"id":"mustSeeAttractions_5b0540533ca6","slug":"melissani-cave-5b05","kind":"restaurant","name":"Melissani Cave","lat":38.25698727901152,"lng":20.6235483284677,"url":"https://maps.app.goo.gl/DamgwWTndmBhKj5W9?g_st=ipc","address":"Σάμη 280 80","categoryIds":["attractions"],"categories":["Must-See Attractions"]},{"id":"mustSeeAttractions_616648db6ed1","slug":"porto-katsiki-6166","kind":"restaurant","name":"Porto Katsiki","lat":38.601119061578444,"lng":20.550313570650722,"url":"https://maps.app.goo.gl/vwCXBmq1Cpbwnz9c6?g_st=ipc","address":"JH32+48, Apollonioi 310 82","categoryIds":["attractions"],"categories":["Must-See Attractions"]},{"id":"mustSeeAttractions_9807d4208c78","slug":"archaeological-site-of-olympia-9807","kind":"restaurant","name":"Archaeological Site of Olympia","lat":37.638459018633775,"lng":21.62988056909868,"url":"https://maps.app.goo.gl/XwgzhKtMosL3r1vr5?g_st=ipc","address":"Archaia Olympia 270 65","categoryIds":["attractions"],"categories":["Must-See Attractions"]},{"id":"mustSeeAttractions_6898f516936d","slug":"temple-of-apollo-epicurius-at-bassae-of-phigaleia-6898","kind":"restaurant","name":"Temple of Apollo Epicurius at Bassae of Phigaleia","lat":37.42992485152253,"lng":21.900009196247805,"url":"https://maps.app.goo.gl/PVQYbF6evZv9zjAc9?g_st=ipc","address":"Figaleia 270 61","categoryIds":["attractions"],"categories":["Must-See Attractions"]},{"id":"mustSeeAttractions_cf30313c597a","slug":"byzantine-walls-of-nikopolis-cf30","kind":"restaurant","name":"Byzantine Walls of Nikopolis","lat":39.0118446526379,"lng":20.732022944510806,"url":"https://maps.app.goo.gl/VMrzqGqwGc2EoieJ7?g_st=ipc","address":"Unnamed Road, 481 00","categoryIds":["attractions"],"categories":["Must-See Attractions"]},{"id":"mustSeeAttractions_6493befc2e7b","slug":"nicopolis-6493","kind":"restaurant","name":"Nicopolis","lat":39.02636525396993,"lng":20.733626410935955,"url":"https://maps.app.goo.gl/satDDwkecYRf2TSBA?g_st=ipc","address":"Nicopolis 481 00","categoryIds":["attractions"],"categories":["Must-See Attractions"]},{"id":"mustSeeAttractions_5294b68117cd","slug":"messene-5294","kind":"restaurant","name":"Messene","lat":37.17493508533683,"lng":21.920008046316784,"url":"https://maps.app.goo.gl/9vhQhAziWNVFNwudA?g_st=ipc","address":"Unnamed Road, Messene 240 02","categoryIds":["attractions"],"categories":["Must-See Attractions"]}],"nearby":[{"id":"greekRestaurants_039c6865507c","slug":"taverna-to-poyrnari-039c","kind":"restaurant","name":"Ταβέρνα Το Πουρνάρι","lat":37.845018124044586,"lng":20.69557997574229,"url":"https://maps.app.goo.gl/KraNs6fJrs6US1EV7?g_st=ipc","address":"Ορθονιές 290 91","categoryIds":["greek-restaurants"],"categories":["Greek Restaurants"],"distanceKm":9.525625454005066},{"id":"mustSeeAttractions_08514e911c7d","slug":"navagio-0851","kind":"restaurant","name":"Navagio","lat":37.85945060305929,"lng":20.624902110473712,"url":"https://maps.app.goo.gl/7zGrDtLoU6SSdcuS9?g_st=ipc","address":"Elatia 290 91","categoryIds":["attractions"],"categories":["Must-See Attractions"],"distanceKm":10.575906828813832},{"id":"fishTavernasRestaurants_7b6b6c02756b","slug":"blue-sea-restaurant-7b6b","kind":"restaurant","name":"Blue Sea Restaurant","lat":38.06482061618168,"lng":20.749944356791246,"url":"https://maps.app.goo.gl/w2imtD4bnSK6jDox6?g_st=ipc","address":"Κάτω Κατελειός 280 86","categoryIds":["fish-tavernas"],"categories":["Fish Tavernas"],"distanceKm":15.457515750228039},{"id":"luxuryDiningRestaurants_889a9d30e511","slug":"melia-fine-dining-889a","kind":"restaurant","name":"Melia fine dining","lat":37.828072825552965,"lng":20.841384143587636,"url":"https://maps.app.goo.gl/vE8rWsiQpSVYvijD9?g_st=ipc","address":"Τραγάκι 291 00","categoryIds":["luxury-dining"],"categories":["Luxury Dining"],"distanceKm":16.494717596014112},{"id":"fishTavernasRestaurants_aba93243463b","slug":"sunrise-fish-restaurant-aba9","kind":"restaurant","name":"Sunrise fish restaurant","lat":38.069862361650536,"lng":20.798458806990475,"url":"https://maps.app.goo.gl/zpgr1Pu7huw8UAn16?g_st=ipc","address":"Sunrise, Skala 280 86","categoryIds":["fish-tavernas"],"categories":["Fish Tavernas"],"distanceKm":17.53223888327389},{"id":"greekRestaurants_c713b6900534","slug":"mikelatos-restaurant-c713","kind":"restaurant","name":"Mikelatos Restaurant","lat":38.07400478265195,"lng":20.79838946434788,"url":"https://maps.app.goo.gl/ds2jewM3NunSWLKo6?g_st=ipc","address":"Central pedestrian road of Skala, Σκάλα 280 86","categoryIds":["greek-restaurants"],"categories":["Greek Restaurants"],"distanceKm":17.938238579105413},{"id":"coffeeBrunchRestaurants_f69353dde3df","slug":"ammos-beach-bar-restaurant-kefalonia-f693","kind":"restaurant","name":"Ammos Beach Bar & Restaurant | Kefalonia","lat":38.08122535953636,"lng":20.800056619766497,"url":"https://maps.app.goo.gl/SxeeHeaBpXq8VgZe8?g_st=ipc","address":"Κεφαλληνίας, Skala 281 00","categoryIds":["coffee-brunch"],"categories":["Coffee & Brunch Spots"],"distanceKm":18.7209831738527},{"id":"greekRestaurants_e73aaa95127b","slug":"paradosiaki-taverna-to-piroynaki-e73a","kind":"restaurant","name":"Παραδοσιακή Ταβέρνα Το Πηρουνάκι","lat":37.775396020007214,"lng":20.812027974617365,"url":"https://maps.app.goo.gl/fGjWbBB2hRjDmHD9A?g_st=ipc","address":"Ζάκυνθος, Λαγκαδάκια 290 92","categoryIds":["greek-restaurants"],"categories":["Greek Restaurants"],"distanceKm":19.614744495867455}],"sameRegion":[],"mentionedGuides":[],"canonicalSlug":"blue-caves-zakynthos-20af","isCanonicalEntity":true},"__N_SSG":true}