{"pageProps":{"entity":{"id":"coffeeBrunchRestaurants_7d6f8bb1e944","slug":"cat-cafe-athens-7-pers-allowed-age-14-7d6f","kind":"restaurant","name":"Cat Cafe Athens (7€/pers, Allowed Age 14+)","lat":37.97535368517015,"lng":23.71475955469486,"url":"https://maps.app.goo.gl/QcdxYRurM98VpWWX7?g_st=ipc","address":"Νηλέως 54, Αθήνα 118 51","categoryIds":["coffee-brunch"],"categories":["Coffee & Brunch Spots"]},"sameCategory":[{"id":"coffeeBrunchRestaurants_d3ad015b2f14","slug":"candycat-d3ad","kind":"restaurant","name":"CandyCat","lat":37.9775897353217,"lng":23.712604313955598,"url":"https://maps.app.goo.gl/bi9guRdYDSpWYmxn9?g_st=ipc","address":"Περσεφόνης 23, Αθήνα 118 54","categoryIds":["coffee-brunch"],"categories":["Coffee & Brunch Spots"]},{"id":"coffeeBrunchRestaurants_97adfd0567d5","slug":"the-underdog-flagship-store-thissio-97ad","kind":"restaurant","name":"The Underdog® Flagship Store Thissio","lat":37.97497137545366,"lng":23.719135012325086,"url":"https://maps.app.goo.gl/LEHRwEwwo2yTd8KD9?g_st=ipc","address":"Ηρακλειδών 8, Αθήνα 118 51","categoryIds":["coffee-brunch"],"categories":["Coffee & Brunch Spots"]},{"id":"coffeeBrunchRestaurants_4c997e8e7df4","slug":"the-place-secret-yard-4c99","kind":"restaurant","name":"The Place Secret Yard","lat":37.979297007842895,"lng":23.7118945584477,"url":"https://maps.app.goo.gl/H2MApFAjiqUyTf7B8?g_st=ipc","address":"Τριπτολέμου 26, Αθήνα 118 54","categoryIds":["coffee-brunch"],"categories":["Coffee & Brunch Spots"]},{"id":"coffeeBrunchRestaurants_f2909cf2cf63","slug":"fresko-yogurt-bar-f290","kind":"restaurant","name":"Fresko Yogurt Bar","lat":37.97293031928317,"lng":23.72030106020887,"url":"https://maps.app.goo.gl/i3qPMdgczqaXz45r8?g_st=ipc","address":"Ιουλίου Σμιθ 2, Αθήνα 118 51","categoryIds":["coffee-brunch"],"categories":["Coffee & Brunch Spots"]},{"id":"coffeeBrunchRestaurants_d2dd2ec9a7b0","slug":"pangaia-the-food-project-d2dd","kind":"restaurant","name":"Pangaia - The Food Project","lat":37.979003020963276,"lng":23.70956014016223,"url":"https://maps.app.goo.gl/dttggVUcZNJqG52r9?g_st=ipc","address":"Λ. Κωνσταντινουπόλεως 67, Αθήνα 118 55","categoryIds":["coffee-brunch"],"categories":["Coffee & Brunch Spots"]},{"id":"coffeeBrunchRestaurants_2452f7594f0b","slug":"minu-2452","kind":"restaurant","name":"Minu","lat":37.97817591370217,"lng":23.721282309779998,"url":"https://maps.app.goo.gl/1aZiacmQUVysdZ976?g_st=ipc","address":"Σαρρή 50, Αθήνα 105 53","categoryIds":["coffee-brunch"],"categories":["Coffee & Brunch Spots"]},{"id":"coffeeBrunchRestaurants_fb26a559a60b","slug":"fairytale-athens-cafe-suites-fb26","kind":"restaurant","name":"Fairytale Athens Café & Suites","lat":37.97805432206773,"lng":23.72175598680767,"url":"https://maps.app.goo.gl/4J2S3rbDjHuSFWW98?g_st=ipc","address":"Λεωκορίου 16, Αθήνα 105 54","categoryIds":["coffee-brunch"],"categories":["Coffee & Brunch Spots"]},{"id":"coffeeBrunchRestaurants_23781ddd1e06","slug":"10am-apotheke-2378","kind":"restaurant","name":"10AM apotheke","lat":37.98117919525422,"lng":23.71209439007436,"url":"https://maps.app.goo.gl/a8MxDmC9cjFhDaGA8?g_st=ic","address":"Konstantinoupoleos Ave. 82, Athina 104 35","categoryIds":["coffee-brunch"],"categories":["Coffee & Brunch Spots"]}],"nearby":[{"id":"mustSeeAttractions_6f694258a5ea","slug":"thiseio-6f69","kind":"restaurant","name":"Θησείο","lat":37.97501242037082,"lng":23.717080869886306,"url":"https://maps.app.goo.gl/i7GUzZ6ceEZCukDC6?g_st=ipc","address":"Αθήνα 118 51","categoryIds":["attractions"],"categories":["Must-See Attractions"],"distanceKm":0.2069772441854838},{"id":"greekRestaurants_e9caa161f872","slug":"to-steki-toy-ilia-e9ca","kind":"restaurant","name":"Το Στέκι του Ηλία","lat":37.977110249497095,"lng":23.715901670048872,"url":"https://maps.app.goo.gl/wSbCCiegqHvWj8KcA","address":"Θεσσαλονίκης 7, Αθήνα 118 51","categoryIds":["greek-restaurants"],"categories":["Greek Restaurants"],"distanceKm":0.21948092085141413},{"id":"dessertsRestaurants_50a1e483b616","slug":"candycat-50a1","kind":"restaurant","name":"CandyCat","lat":37.97759231826935,"lng":23.712610574379138,"url":"https://maps.app.goo.gl/LLdXVM5e2J4vwRD48?g_st=ipc","address":"Περσεφόνης 23, Αθήνα 118 54","categoryIds":["desserts"],"categories":["Dessert Shops"],"distanceKm":0.3121585986478346},{"id":"coffeeBrunchRestaurants_d3ad015b2f14","slug":"candycat-d3ad","kind":"restaurant","name":"CandyCat","lat":37.9775897353217,"lng":23.712604313955598,"url":"https://maps.app.goo.gl/bi9guRdYDSpWYmxn9?g_st=ipc","address":"Περσεφόνης 23, Αθήνα 118 54","categoryIds":["coffee-brunch"],"categories":["Coffee & Brunch Spots"],"distanceKm":0.31226127878836046},{"id":"asianRestaurants_f1cd493b50d2","slug":"zafran-indian-kitchen-f1cd","kind":"restaurant","name":"Zafran Indian Kitchen","lat":37.977657888236905,"lng":23.712403701256626,"url":"https://maps.app.goo.gl/JyaNzBjgKky4afGL8?g_st=ipc","address":"Περσεφόνης 25, Αθήνα 118 54","categoryIds":["asian"],"categories":["Asian Restaurants"],"distanceKm":0.32906787724258635},{"id":"municipalities_af1f7d07cb18","slug":"gkazi-af1f","kind":"municipality","name":"Γκάζι","lat":37.9785,"lng":23.7144,"aliases":["Gkazi"],"region":"Κέντρο Αθήνας","name_en":"Gazi","region_en":"Athens Center","distanceKm":0.3512708290616289},{"id":"greekRestaurants_7a0990462c96","slug":"to-steki-toy-ilia-7a09","kind":"restaurant","name":"Το Στέκι Του Ηλία","lat":37.97686050854808,"lng":23.718458701649066,"url":"https://maps.app.goo.gl/1XoTtwx2q6EitZZi8","address":"Επταχάλκου 5, Αθήνα 118 51","categoryIds":["greek-restaurants"],"categories":["Greek Restaurants"],"distanceKm":0.3649682567477291},{"id":"mustSeeAttractions_31e331c60661","slug":"kerameikos-archaeological-site-31e3","kind":"restaurant","name":"Kerameikos Archaeological Site","lat":37.97803082106626,"lng":23.717271800112048,"url":"https://maps.app.goo.gl/21oaLw9mApwFReVy7?g_st=ipc","address":"Ermou 148, Athina 105 53","categoryIds":["attractions"],"categories":["Must-See Attractions"],"distanceKm":0.37027520222848054}],"sameRegion":[],"mentionedGuides":[{"slug":"tap-water-safe-greece-el","title":"Είναι Ασφαλές να Πίνετε Νερό Βρύσης στην Ελλάδα;"},{"slug":"tap-water-safe-greece","title":"Is Tap Water Safe to Drink in Greece?"},{"slug":"traveling-to-greece-on-a-budget-el","title":"Ταξιδι στην Ελλαδα με μικρο budget"},{"slug":"traveling-to-greece-on-a-budget","title":"Traveling to Greece on a Budget"}],"canonicalSlug":"cat-cafe-athens-7-pers-allowed-age-14-7d6f","isCanonicalEntity":true},"__N_SSG":true}