{"pageProps":{"entity":{"id":"italianRestaurants_449a551f4dc8","slug":"come-a-casa-449a","kind":"restaurant","name":"Come A Casa","lat":38.020170312119056,"lng":23.798225694950606,"url":"https://maps.app.goo.gl/Go53VnWKyGjFvBK38?g_st=ipc","address":"Καραολη Δημήτριου 17, Χαλάνδρι 152 32","categoryIds":["italian"],"categories":["Italian Restaurants"]},"sameCategory":[{"id":"italianRestaurants_0499cd7a1aa6","slug":"totonno-pizzeria-0499","kind":"restaurant","name":"Totonno Pizzeria","lat":38.0207813740758,"lng":23.7979881651798,"url":"https://maps.app.goo.gl/nUn81XsFVAHwxcV18?g_st=ipc","address":"Καλογρέζης 1, Χαλάνδρι 152 32","categoryIds":["italian"],"categories":["Italian Restaurants"]},{"id":"italianRestaurants_08976c540f77","slug":"alpino-cucina-italiana-0897","kind":"restaurant","name":"Alpino Cucina Italiana","lat":38.017273062811554,"lng":23.796958155707255,"url":"https://maps.app.goo.gl/vifqCWxK1J8ZiiCu7?g_st=ipc","address":"Παπανικολή 66, Χαλάνδρι 152 32","categoryIds":["italian"],"categories":["Italian Restaurants"]},{"id":"italianRestaurants_6b466717928c","slug":"lollo-s-atene-6b46","kind":"restaurant","name":"Lollo's Atene","lat":38.01753697922701,"lng":23.795618164928833,"url":"https://maps.app.goo.gl/1D9mpaGYtG23tshYA?g_st=ipc","address":"Εθ. Αντιστάσεως 3α, Χαλάνδρι 152 32","categoryIds":["italian"],"categories":["Italian Restaurants"]},{"id":"italianRestaurants_5125cdfe0b5a","slug":"portofino-pizza-xalandri-5125","kind":"restaurant","name":"Portofino Pizza Xalandri","lat":38.0247038627797,"lng":23.797586721157028,"url":"https://maps.app.goo.gl/D9rRduThcXn2ff1i8?g_st=ipc","address":"Γρ. Γυφτοπούλου 23, Χαλάνδρι 152 33","categoryIds":["italian"],"categories":["Italian Restaurants"]},{"id":"italianRestaurants_99d6d6ea615c","slug":"alio-99d6","kind":"restaurant","name":"ALIO","lat":38.02380840827294,"lng":23.79252131680721,"url":"https://maps.app.goo.gl/pCWntKXiEkk3VBdj8?g_st=ipc","address":"Βασιλέως Γεωργίου 34, Χαλάνδρι 152 33","categoryIds":["italian"],"categories":["Italian Restaurants"]},{"id":"italianRestaurants_f7f3095a84cf","slug":"marika-f7f3","kind":"restaurant","name":"Μαρίκα","lat":38.01804412743968,"lng":23.809906247881305,"url":"https://maps.app.goo.gl/osUqCcuWwvgZPCpT6?g_st=ipc","address":"Αγίας Παρασκευής 109, Χαλάνδρι 152 34","categoryIds":["italian"],"categories":["Italian Restaurants"]},{"id":"italianRestaurants_6c7a694e9681","slug":"kentrina-6c7a","kind":"restaurant","name":"Kentrina","lat":38.013966629254554,"lng":23.786077267676728,"url":"https://maps.app.goo.gl/3jtSyfSCsogG92777?g_st=ipc","address":"Likourgou, Chalandri 152 31","categoryIds":["italian"],"categories":["Italian Restaurants"]},{"id":"italianRestaurants_9ab88b8b6007","slug":"innamorata-9ab8","kind":"restaurant","name":"Innamorata","lat":38.01461502802222,"lng":23.785308731358,"url":"https://maps.app.goo.gl/6pHzTzWoidEixrLw8?g_st=ipc","address":"Likourgou 5Α, Chalandri 152 31","categoryIds":["italian"],"categories":["Italian Restaurants"]}],"nearby":[{"id":"greekRestaurants_f52198928cda","slug":"mystikos-kipos-f521","kind":"restaurant","name":"Μυστικός Κήπος","lat":38.02018220795105,"lng":23.798366893276665,"url":"https://maps.app.goo.gl/RvfsJX8RaCUstXSa6?g_st=ipc","address":"Καραολη Δημήτριου 21, Χαλάνδρι 152 32","categoryIds":["greek-restaurants"],"categories":["Greek Restaurants"],"distanceKm":0.012439316466330485},{"id":"dessertsRestaurants_babd3d2ca062","slug":"evita-loves-cakes-babd","kind":"restaurant","name":"Evita Loves Cakes","lat":38.0200138607173,"lng":23.79854862190682,"url":"https://maps.app.goo.gl/uPYrT5Fyo6EZTYdv7?g_st=ipc","address":"Καραολη Δημήτριου 23A, Χαλάνδρι 152 32","categoryIds":["desserts"],"categories":["Dessert Shops"],"distanceKm":0.03320923423531499},{"id":"vegetarianRestaurants_a667646c43d0","slug":"pink-elephant-a667","kind":"restaurant","name":"Pink Elephant","lat":38.02048886312005,"lng":23.79851470032454,"url":"https://maps.app.goo.gl/JBEM9qi3Gh27zDWa9?g_st=ipc","address":"Sokratous 4Α, Chalandri 152 32","categoryIds":["vegetarian"],"categories":["Vegetarian Friendly Restaurants"],"distanceKm":0.04353834339029321},{"id":"mexicanRestaurants_6c5519ffe304","slug":"picasso-athens-6c55","kind":"restaurant","name":"Picasso Athens","lat":38.019815508215686,"lng":23.798687453855152,"url":"https://maps.app.goo.gl/J7mbR7We3G9gTLqS6?g_st=ipc","address":"Καραολη Δημήτριου 22, Χαλάνδρι 152 32","categoryIds":["mexican"],"categories":["Mexican Restaurants"],"distanceKm":0.05650362331183821},{"id":"coffeeBrunchRestaurants_c494cdae0eac","slug":"penny-lane-comfort-food-c494","kind":"restaurant","name":"Penny Lane Comfort Food","lat":38.02034857308637,"lng":23.798833782982413,"url":"https://maps.app.goo.gl/pHD9NuQvxt5E3ECz5?g_st=ipc","address":"Θουκυδίδου 12, Χαλάνδρι 152 32","categoryIds":["coffee-brunch"],"categories":["Coffee & Brunch Spots"],"distanceKm":0.05683610748640722},{"id":"coffeeBrunchRestaurants_e07c2fe046a1","slug":"koulouri-lab-e07c","kind":"restaurant","name":"Koulouri Lab","lat":38.02001411382259,"lng":23.797606580273964,"url":"https://maps.app.goo.gl/PenVFxTnARKzLw62A?g_st=ipc","address":"Ανδρέα Παπανδρέου 36, Αθήνα 152 32","categoryIds":["coffee-brunch"],"categories":["Coffee & Brunch Spots"],"distanceKm":0.05694696569055206},{"id":"italianRestaurants_0499cd7a1aa6","slug":"totonno-pizzeria-0499","kind":"restaurant","name":"Totonno Pizzeria","lat":38.0207813740758,"lng":23.7979881651798,"url":"https://maps.app.goo.gl/nUn81XsFVAHwxcV18?g_st=ipc","address":"Καλογρέζης 1, Χαλάνδρι 152 32","categoryIds":["italian"],"categories":["Italian Restaurants"],"distanceKm":0.07106147612656454},{"id":"dessertsRestaurants_8bed364f6d2d","slug":"solo-gelato-chalandri-8bed","kind":"restaurant","name":"Solo Gelato Chalandri","lat":38.01968693370907,"lng":23.79741986314135,"url":"https://maps.app.goo.gl/VbYTpPhNsegGr8sa6?g_st=ipc","address":"Ανδρέα Παπανδρέου 44, Χαλάνδρι 152 32","categoryIds":["desserts"],"categories":["Dessert Shops"],"distanceKm":0.08872391975335087}],"sameRegion":[],"mentionedGuides":[{"slug":"american-college-of-greece-agia-paraskevi-guide-el","title":"American College of Greece: Οδηγός Αγίας Παρασκευής"},{"slug":"american-college-of-greece-agia-paraskevi-guide","title":"American College of Greece: Welcome to Agia Paraskevi"}],"canonicalSlug":"come-a-casa-449a","isCanonicalEntity":true},"__N_SSG":true}