{"pageProps":{"entity":{"id":"coffeeBrunchRestaurants_8e0209d5d821","slug":"efimerida-ath-8e02","kind":"restaurant","name":"Εφημερίδα ATH","lat":37.97982401641368,"lng":23.734805099489133,"url":"https://maps.app.goo.gl/Kv2HqL5VxXf39c5Y7?g_st=ipc","address":"Βησσαρίωνος 9, Αθήνα 106 72","categoryIds":["coffee-brunch"],"categories":["Coffee & Brunch Spots"]},"sameCategory":[{"id":"coffeeBrunchRestaurants_467447d36a44","slug":"montakioy-4674","kind":"restaurant","name":"ΜΟΝΤΑΚΙΟΥ","lat":37.979477424699695,"lng":23.732289365097284,"url":"https://maps.app.goo.gl/CeF2nsyqfmvgyLPC9?g_st=ipc","address":"Σταδίου 30, Αθήνα 105 64","categoryIds":["coffee-brunch"],"categories":["Coffee & Brunch Spots"]},{"id":"coffeeBrunchRestaurants_d047b317da2a","slug":"to-tsai-d047","kind":"restaurant","name":"To Tsai","lat":37.97897316301174,"lng":23.737126960431553,"url":"https://maps.app.goo.gl/xwzLF5n6xn8fr2tf8?g_st=ipc","address":"Αλ. Σούτσου 19, Αθήνα 106 71","categoryIds":["coffee-brunch"],"categories":["Coffee & Brunch Spots"]},{"id":"coffeeBrunchRestaurants_ad607df7652f","slug":"samba-coffee-roasters-the-shop-ad60","kind":"restaurant","name":"Samba Coffee Roasters | The Shop","lat":37.9794317267494,"lng":23.73762622482217,"url":"https://maps.app.goo.gl/34yfEmMHeLiaz3iD9?g_st=ipc","address":"Σόλωνος 36, Αθήνα 106 73","categoryIds":["coffee-brunch"],"categories":["Coffee & Brunch Spots"]},{"id":"coffeeBrunchRestaurants_741e5993d85c","slug":"paul-athens-741e","kind":"restaurant","name":"PAUL Athens","lat":37.977628510320386,"lng":23.735790636370144,"url":"https://maps.app.goo.gl/2zHj3YHoNrWUYk8f8?g_st=ipc","address":"Πανεπιστημίου 10, Αθήνα 106 71","categoryIds":["coffee-brunch"],"categories":["Coffee & Brunch Spots"]},{"id":"coffeeBrunchRestaurants_89f23e6089a9","slug":"philos-athens-89f2","kind":"restaurant","name":"Philos Athens","lat":37.97913933627947,"lng":23.73788834865789,"url":"https://maps.app.goo.gl/jExQQH2yipA8bApt9?g_st=ipc","address":"Σόλωνος 32, Αθήνα 106 73","categoryIds":["coffee-brunch"],"categories":["Coffee & Brunch Spots"]},{"id":"coffeeBrunchRestaurants_3321b1393c9d","slug":"s-agapw-coffee-wine-and-love-3321","kind":"restaurant","name":"S’agapw Coffee Wine and Love","lat":37.97818149501619,"lng":23.732268569349888,"url":"https://maps.app.goo.gl/oYaBfSgA7BG2s8ph8?g_st=ipc","address":"Ανθίμου Γαζή 15, Αθήνα 105 61","categoryIds":["coffee-brunch"],"categories":["Coffee & Brunch Spots"]},{"id":"coffeeBrunchRestaurants_fbce3a8d9ac7","slug":"free-thinking-zone-fbce","kind":"restaurant","name":"Free Thinking Zone","lat":37.982167427382876,"lng":23.7367442995071,"url":"https://maps.app.goo.gl/MVnbPnESdj5g5dLr8?g_st=ipc","address":"106 80, Skoufa 64 &, Γριβαίων 1, Αθήνα 106 80","categoryIds":["coffee-brunch"],"categories":["Coffee & Brunch Spots"]},{"id":"coffeeBrunchRestaurants_19d13a25b343","slug":"filion-19d1","kind":"restaurant","name":"Φίλιον","lat":37.980020632255595,"lng":23.738452651724426,"url":"https://maps.app.goo.gl/Ts2X8wZmEjWPZrR3A?g_st=ipc","address":"Σκουφά 34, Αθήνα 106 72","categoryIds":["coffee-brunch"],"categories":["Coffee & Brunch Spots"]}],"nearby":[{"id":"mustSeeAttractions_4c1bed18d9f3","slug":"academy-of-athens-4c1b","kind":"restaurant","name":"Academy of Athens","lat":37.980052000475574,"lng":23.73401307902472,"url":"https://maps.app.goo.gl/ggPZ2e3QeajFYXJX8?g_st=ipc","address":"Panepistimiou 28, Athina 106 79","categoryIds":["attractions"],"categories":["Must-See Attractions"],"distanceKm":0.0739020934591176},{"id":"burgersRestaurants_73735eff606b","slug":"meat-n-roses-kolonaki-7373","kind":"restaurant","name":"Meat n Roses Kolonaki","lat":37.97930236645354,"lng":23.735454286708567,"url":"https://maps.app.goo.gl/KJyNqjkU3cm9AqGa8?g_st=ic","address":"Omirou 13, Athina 106 72","categoryIds":["burgers"],"categories":["Burger Spots"],"distanceKm":0.0812533537537111},{"id":"italianRestaurants_b4580bbde39a","slug":"piadina-lumbro-b458","kind":"restaurant","name":"Piadina Lumbro","lat":37.97943796124596,"lng":23.735657958882037,"url":"https://maps.app.goo.gl/uGAbtwYha4Eeb7c56?g_st=ipc","address":"Ομήρου 15, Αθήνα 106 72","categoryIds":["italian"],"categories":["Italian Restaurants"],"distanceKm":0.08619990408525621},{"id":"rooftopLoungesRestaurants_f14ebba0617a","slug":"nyx-japanese-rooftop-gastrobar-f14e","kind":"restaurant","name":"NYX Japanese Rooftop Gastrobar","lat":37.979694011195086,"lng":23.736122213234587,"url":"https://maps.app.goo.gl/KtiRSvuVXyUpBSTu8?g_st=ipc","address":"Ομήρου 19, Αθήνα 106 19","categoryIds":["rooftop-lounges"],"categories":["Rooftop Lounges"],"distanceKm":0.11634262721620157},{"id":"luxuryDiningRestaurants_3e6e3521555a","slug":"nyx-japanese-rooftop-gastrobar-3e6e","kind":"restaurant","name":"NYX Japanese Rooftop Gastrobar","lat":37.979692789342245,"lng":23.73612228752731,"url":"https://maps.app.goo.gl/pUYvBf9Pyie8Th6y6?g_st=ipc","address":"Ομήρου 19, Αθήνα 106 19","categoryIds":["luxury-dining"],"categories":["Luxury Dining"],"distanceKm":0.1163660478863889},{"id":"asianRestaurants_e45a00190680","slug":"nyx-japanese-rooftop-gastrobar-e45a","kind":"restaurant","name":"NYX Japanese Rooftop Gastrobar","lat":37.979692107976724,"lng":23.736124325689694,"url":"https://maps.app.goo.gl/Tg5ncVYwYwG98YZBA?g_st=ipc","address":"Ομήρου 19, Αθήνα 106 19","categoryIds":["asian"],"categories":["Asian Restaurants"],"distanceKm":0.11655278962649311},{"id":"burgersRestaurants_3c1c73d21fec","slug":"meat-n-roses-kolonaki-3c1c","kind":"restaurant","name":"Meat n Roses Kolonaki","lat":37.97828442263524,"lng":23.735087640545906,"url":"https://maps.app.goo.gl/qGwCStnKNtrJzrtm6?g_st=ipc","address":"Αμερικής 7, Αθήνα 106 72","categoryIds":["burgers"],"categories":["Burger Spots"],"distanceKm":0.17297686245132213},{"id":"cheapEatsRestaurants_9219e90cddb7","slug":"meat-n-roses-kolonaki-9219","kind":"restaurant","name":"Meat n Roses Kolonaki","lat":37.978279031472866,"lng":23.735087026551565,"url":"https://maps.app.goo.gl/GBuJz25j2wAhPUrr6?g_st=ipc","address":"Αμερικής 7, Αθήνα 106 72","categoryIds":["cheap-eats"],"categories":["Gyros & Cheap Eats"],"distanceKm":0.173562508612991}],"sameRegion":[],"mentionedGuides":[],"canonicalSlug":"efimerida-ath-8e02","isCanonicalEntity":true},"__N_SSG":true}