{"pageProps":{"entity":{"id":"cheapEatsRestaurants_d02e33f8bb10","slug":"food-plaza-d02e","kind":"restaurant","name":"Food Plaza","lat":40.57666918251193,"lng":22.94927301198073,"url":"https://maps.app.goo.gl/zwY1QQTAGPf4oH7s8?g_st=ipc","address":"Skra 16, Kalamaria 551 32","categoryIds":["cheap-eats"],"categories":["Gyros & Cheap Eats"]},"sameCategory":[{"id":"cheapEatsRestaurants_3a3bde48c733","slug":"thess-gyro-3a3b","kind":"restaurant","name":"Thess...Gyro","lat":40.57305742887387,"lng":22.955729191150056,"url":"https://maps.app.goo.gl/UxFcV7SWYu9feyef9?g_st=ipc","address":"Smirnis 14, Kalamaria 551 32","categoryIds":["cheap-eats"],"categories":["Gyros & Cheap Eats"]},{"id":"cheapEatsRestaurants_70bee89e8126","slug":"serafino-70be","kind":"restaurant","name":"Serafino","lat":40.58386899036688,"lng":22.951506267568906,"url":"https://maps.app.goo.gl/M1gK3j7aiDegVjjs6?g_st=ipc","address":"Metamorfoseos 11, Kalamaria 551 32","categoryIds":["cheap-eats"],"categories":["Gyros & Cheap Eats"]},{"id":"cheapEatsRestaurants_62516fc5ff91","slug":"theologos-fast-food-6251","kind":"restaurant","name":"Theologos Fast Food","lat":40.56936513403147,"lng":22.960477178944696,"url":"https://maps.app.goo.gl/ivkmYsPpBSwDCJHG7?g_st=ipc","address":"18, Aidiniou 14, Kalamaria 551 32","categoryIds":["cheap-eats"],"categories":["Gyros & Cheap Eats"]},{"id":"cheapEatsRestaurants_77c25b5f5623","slug":"maverick-handmade-street-food-77c2","kind":"restaurant","name":"MAVERICK Handmade Street Food","lat":40.57336217336095,"lng":22.971758064415795,"url":"https://maps.app.goo.gl/HnPEQCvY87w7EXK28?g_st=ipc","address":"Eth. Antistaseos 179, Kalamaria 551 34","categoryIds":["cheap-eats"],"categories":["Gyros & Cheap Eats"]},{"id":"cheapEatsRestaurants_a56a10299d2d","slug":"paul-s-burger-a56a","kind":"restaurant","name":"Paul’s Burger","lat":40.59788238085435,"lng":22.952162245113325,"url":"https://maps.app.goo.gl/AezkPnQB7kKjE1Cr5?g_st=ipc","address":"Geor. Papandreou 38, Thessaloniki 546 46","categoryIds":["cheap-eats"],"categories":["Gyros & Cheap Eats"]},{"id":"cheapEatsRestaurants_7caa0b61c60c","slug":"o-giros-tis-ellados-7caa","kind":"restaurant","name":"O Giros Tis Ellados","lat":40.59770145420411,"lng":22.9555911779157,"url":"https://maps.app.goo.gl/dfbEJidizuzLLALq8?g_st=ipc","address":"Leof. Vasilissis Olgas 176, Thessaloniki 546 46","categoryIds":["cheap-eats"],"categories":["Gyros & Cheap Eats"]},{"id":"cheapEatsRestaurants_811c63bc08c5","slug":"devido-811c","kind":"restaurant","name":"Devido","lat":40.599230791467505,"lng":22.95314409507896,"url":"https://maps.app.goo.gl/2EFX2fMBPiwhmmAv5?g_st=ipc","address":"25is Martiou 17, Thessaloniki 546 45","categoryIds":["cheap-eats"],"categories":["Gyros & Cheap Eats"]},{"id":"cheapEatsRestaurants_7eb356f33485","slug":"subito-7eb3","kind":"restaurant","name":"subito","lat":40.6000123876882,"lng":22.959807900547272,"url":"https://maps.app.goo.gl/hJJxUbRut66xbMFs5?g_st=ipc","address":"Delfon 145, Thessaloniki 542 48","categoryIds":["cheap-eats"],"categories":["Gyros & Cheap Eats"]}],"nearby":[{"id":"fishTavernasRestaurants_696f7178604d","slug":"petros-ouzo-tavern-696f","kind":"restaurant","name":"\"Petros\" Ouzo Tavern","lat":40.5758568701644,"lng":22.94955610306511,"url":"https://maps.app.goo.gl/zWRjvQW7U7jg2RVz9?g_st=ipc","address":"Evelpidou 12, Kalamaria 551 32","categoryIds":["fish-tavernas"],"categories":["Fish Tavernas"],"distanceKm":0.09343580895733505},{"id":"fishTavernasRestaurants_36204a46aece","slug":"to-karnagio-3620","kind":"restaurant","name":"Το Καρνάγιο","lat":40.574881874460935,"lng":22.94956377176227,"url":"https://maps.app.goo.gl/pPBVRQW1crZFz6ho8?g_st=ipc","address":"Agiou Nikolaou 4, Thessaloniki 551 32","categoryIds":["fish-tavernas"],"categories":["Fish Tavernas"],"distanceKm":0.20025100551065753},{"id":"fishTavernasRestaurants_e98c62e6ec54","slug":"en-plo-e98c","kind":"restaurant","name":"En Plo","lat":40.57398660392286,"lng":22.949456391166105,"url":"https://maps.app.goo.gl/veiyM1VvYLvbo86r8?g_st=ipc","address":"Nik. Plastira 14Β, Kalamaria 551 32","categoryIds":["fish-tavernas"],"categories":["Fish Tavernas"],"distanceKm":0.2986909430018936},{"id":"dessertsRestaurants_971d24d9e3ed","slug":"pagota-themis-971d","kind":"restaurant","name":"Παγωτά 'Θέμης'","lat":40.58103606730307,"lng":22.951200963653005,"url":"https://maps.app.goo.gl/hLPTQRcHhxotqq366?g_st=ipc","address":"I. Passalidi 69, Kalamaria 551 32","categoryIds":["desserts"],"categories":["Dessert Shops"],"distanceKm":0.5121472381061023},{"id":"luxuryDiningRestaurants_e02771b2a295","slug":"mavri-thalassa-e027","kind":"restaurant","name":"Mavri Thalassa","lat":40.57843617435474,"lng":22.943234064415787,"url":"https://maps.app.goo.gl/CFRMztsRLco8Wy1G9?g_st=ipc","address":"Nik. Plastira 3, Kalamaria 551 32","categoryIds":["luxury-dining"],"categories":["Luxury Dining"],"distanceKm":0.5465593669459085},{"id":"fishTavernasRestaurants_f8b7ef1f9834","slug":"mavri-thalassa-f8b7","kind":"restaurant","name":"Mavri Thalassa","lat":40.57843253808032,"lng":22.94322807682347,"url":"https://maps.app.goo.gl/BS4tZgxTYFAhXywDA?g_st=ipc","address":"Nik. Plastira 3, Kalamaria 551 32","categoryIds":["fish-tavernas"],"categories":["Fish Tavernas"],"distanceKm":0.546886192797691},{"id":"fishTavernasRestaurants_470d39921896","slug":"hamodrakas-seafood-restaurant-470d","kind":"restaurant","name":"Hamodrakas - Seafood Restaurant","lat":40.571711946022305,"lng":22.95231475803018,"url":"https://maps.app.goo.gl/6TCCV8GEPKaHee5b6?g_st=ipc","address":"Μ. Γαγύλη 13, Παραλία, Kalamaria 551 32","categoryIds":["fish-tavernas"],"categories":["Fish Tavernas"],"distanceKm":0.608147314280328},{"id":"coffeeBrunchRestaurants_37a99c7a5e9b","slug":"cafe-plateia-37a9","kind":"restaurant","name":"Café Plateia","lat":40.58219813646138,"lng":22.94932374129252,"url":"https://maps.app.goo.gl/9R5MQ6z3jfLnmMwu7?g_st=ipc","address":"Mitropolitou Chrisanthou 0, Kalamaria 551 32","categoryIds":["coffee-brunch"],"categories":["Coffee & Brunch Spots"],"distanceKm":0.6148065562856516}],"sameRegion":[],"mentionedGuides":[],"canonicalSlug":"food-plaza-d02e","isCanonicalEntity":true},"__N_SSG":true}