{"pageProps":{"entity":{"id":"coffeeBrunchRestaurants_a1d642828b23","slug":"halki-cafe-bistro-a1d6","kind":"restaurant","name":"Halki Cafe Bistro","lat":37.0642321945567,"lng":25.484940977880758,"url":"https://maps.app.goo.gl/EM1dP9kHW3eWkooMA?g_st=ipc","address":"Epar.Od. Naxou-Apiranthou, Chalkio 843 00","categoryIds":["coffee-brunch"],"categories":["Coffee & Brunch Spots"]},"sameCategory":[{"id":"coffeeBrunchRestaurants_4d900c72bc80","slug":"caffe-greco-4d90","kind":"restaurant","name":"Caffe Greco","lat":37.06283829210554,"lng":25.482179694372245,"url":"https://maps.app.goo.gl/bvxkDLgLP2gCrEDeA?g_st=ipc","address":"Χαλκείο 843 02","categoryIds":["coffee-brunch"],"categories":["Coffee & Brunch Spots"]},{"id":"coffeeBrunchRestaurants_adc2f257af84","slug":"platanos-cafe-restaurant-adc2","kind":"restaurant","name":"Platanos Cafe Restaurant","lat":37.0520184479865,"lng":25.4980988789785,"url":"https://maps.app.goo.gl/GftgqDRmHM6GREdg9?g_st=ipc","address":"Epar.Od. Naxou-Apiranthou, Filoti 843 02","categoryIds":["coffee-brunch"],"categories":["Coffee & Brunch Spots"]},{"id":"coffeeBrunchRestaurants_409a1c00e009","slug":"fasolas-gastrokafeneio-409a","kind":"restaurant","name":"Fasolas Gastrokafeneio","lat":37.05047829842748,"lng":25.497802752574465,"url":"https://maps.app.goo.gl/s28qFqLPN9on9SZy8?g_st=ipc","address":"Filoti 843 02","categoryIds":["coffee-brunch"],"categories":["Coffee & Brunch Spots"]},{"id":"coffeeBrunchRestaurants_c49fc6ae7fef","slug":"rotonda-cafe-bar-restaurant-in-naxos-c49f","kind":"restaurant","name":"Rotonda - Cafe Bar Restaurant in Naxos","lat":37.05872571074158,"lng":25.510854348333638,"url":"https://maps.app.goo.gl/CVfadsvfxt5JGHVb8?g_st=ipc","address":"ai giannis, Apirathos 843 00","categoryIds":["coffee-brunch"],"categories":["Coffee & Brunch Spots"]},{"id":"coffeeBrunchRestaurants_901c6f873e9a","slug":"pantry-coffee-and-brunch-spot-901c","kind":"restaurant","name":"Pantry coffee and brunch spot","lat":37.10537841466819,"lng":25.380795502578987,"url":"https://maps.app.goo.gl/ExrjzA4WbcAXVt436?g_st=ipc","address":"Naxos 843 00","categoryIds":["coffee-brunch"],"categories":["Coffee & Brunch Spots"]},{"id":"coffeeBrunchRestaurants_6269550b6464","slug":"naxaki-beach-lounge-bar-restaurant-6269","kind":"restaurant","name":"Naxaki Beach Lounge Bar & Restaurant","lat":37.096820663451155,"lng":25.37554032822482,"url":"https://maps.app.goo.gl/pycw7dvrTdi8yEicA?g_st=ipc","address":"Agios Georgios Beach - Naxos, Naxos 843 00","categoryIds":["coffee-brunch"],"categories":["Coffee & Brunch Spots"]},{"id":"coffeeBrunchRestaurants_a4f088033efd","slug":"petrino-beach-restaurant-a4f0","kind":"restaurant","name":"Petrino Beach Restaurant","lat":37.05234820744201,"lng":25.368775961363156,"url":"https://maps.app.goo.gl/zpHeyfTFhxTR1uEU8?g_st=ipc","address":"Μαραγκας 843 00","categoryIds":["coffee-brunch"],"categories":["Coffee & Brunch Spots"]},{"id":"coffeeBrunchRestaurants_e00fbc861ff8","slug":"avaton-1739-coffee-wine-roof-e00f","kind":"restaurant","name":"AVATON 1739 - Coffee & Wine Roof","lat":37.10529514165084,"lng":25.377380277769117,"url":"https://maps.app.goo.gl/31ofe6z6fLcDE8U48?g_st=ipc","address":"Kastro, Naxos 843 00","categoryIds":["coffee-brunch"],"categories":["Coffee & Brunch Spots"]}],"nearby":[{"id":"italianRestaurants_4f96313e6daa","slug":"mitos-arternative-bar-4f96","kind":"restaurant","name":"Mitos ARTernative BAR","lat":37.06317254380818,"lng":25.48274579484659,"url":"https://maps.app.goo.gl/jstAML7uYBqEdQYq6?g_st=ipc","address":"Χαλκείο 843 02","categoryIds":["italian"],"categories":["Italian Restaurants"],"distanceKm":0.22764420085015716},{"id":"greekRestaurants_694ee1d214aa","slug":"paravas-traditional-tavern-souvlaki-694e","kind":"restaurant","name":"PARAVAS Traditional Tavern & Souvlaki","lat":37.06316256125292,"lng":25.482406792920514,"url":"https://maps.app.goo.gl/fmFJ2qDuDCSYVraUA?g_st=ipc","address":"Χαλκείο 843 02","categoryIds":["greek-restaurants"],"categories":["Greek Restaurants"],"distanceKm":0.2543760163944184},{"id":"coffeeBrunchRestaurants_4d900c72bc80","slug":"caffe-greco-4d90","kind":"restaurant","name":"Caffe Greco","lat":37.06283829210554,"lng":25.482179694372245,"url":"https://maps.app.goo.gl/bvxkDLgLP2gCrEDeA?g_st=ipc","address":"Χαλκείο 843 02","categoryIds":["coffee-brunch"],"categories":["Coffee & Brunch Spots"],"distanceKm":0.2899182813551676},{"id":"dessertsRestaurants_cc34d8a19c1a","slug":"caffe-greco-cc34","kind":"restaurant","name":"Caffe Greco","lat":37.0628393807371,"lng":25.48217786098,"url":"https://maps.app.goo.gl/LEeuqgamRoLhRLwm7?g_st=ipc","address":"Χαλκείο 843 02","categoryIds":["desserts"],"categories":["Dessert Shops"],"distanceKm":0.2899911036355872},{"id":"coffeeBrunchRestaurants_adc2f257af84","slug":"platanos-cafe-restaurant-adc2","kind":"restaurant","name":"Platanos Cafe Restaurant","lat":37.0520184479865,"lng":25.4980988789785,"url":"https://maps.app.goo.gl/GftgqDRmHM6GREdg9?g_st=ipc","address":"Epar.Od. Naxou-Apiranthou, Filoti 843 02","categoryIds":["coffee-brunch"],"categories":["Coffee & Brunch Spots"],"distanceKm":1.7910065042723504},{"id":"greekRestaurants_1c5a5710b282","slug":"amvrosia-1c5a","kind":"restaurant","name":"Αμβροσία","lat":37.05198027328874,"lng":25.498122685244876,"url":"https://maps.app.goo.gl/hServvR8erYFDEW79?g_st=ipc","address":"Επαρ.Οδ. Δαμαριώνα-Δανακού, Φιλότι 843 02","categoryIds":["greek-restaurants"],"categories":["Greek Restaurants"],"distanceKm":1.7956030548100193},{"id":"greekRestaurants_b2aaf0dfb9a4","slug":"kalliopi-b2aa","kind":"restaurant","name":"Καλλιόπη","lat":37.07778318483779,"lng":25.496090474760013,"url":"https://maps.app.goo.gl/m8AnzCybw8VgSFBX7?g_st=ipc","address":"Μονή Νάξου, Δήμος Δρυμαλίας, Λούροι 843 02","categoryIds":["greek-restaurants"],"categories":["Greek Restaurants"],"distanceKm":1.802487416104988},{"id":"dessertsRestaurants_d95b7562195c","slug":"fasolas-gastrokafeneio-d95b","kind":"restaurant","name":"Fasolas Gastrokafeneio","lat":37.05047818826614,"lng":25.497802541590467,"url":"https://maps.app.goo.gl/BMT18eHqusic7eRN8?g_st=ipc","address":"Filoti 843 02","categoryIds":["desserts"],"categories":["Dessert Shops"],"distanceKm":1.9082854523000163}],"sameRegion":[],"mentionedGuides":[],"canonicalSlug":"halki-cafe-bistro-a1d6","isCanonicalEntity":true},"__N_SSG":true}