{"pageProps":{"entity":{"id":"greekRestaurants_259ad1a4a416","slug":"i-meropi-259a","kind":"restaurant","name":"Η ΜΕΡΟΠΗ","lat":36.98892038412835,"lng":24.67563104680434,"url":"https://maps.app.goo.gl/6mzPsRRf26rUzcpT7?g_st=ipc","address":"Καμάρες 840 03","categoryIds":["greek-restaurants"],"categories":["Greek Restaurants"]},"sameCategory":[{"id":"greekRestaurants_9e0c5c2d6f56","slug":"o-simos-9e0c","kind":"restaurant","name":"Ο ΣΙΜΟΣ","lat":36.98874960651575,"lng":24.675797411728432,"url":"https://maps.app.goo.gl/LmWkmfGPjhMBpKoQ6?g_st=ipc","address":"Καμάρες 840 03","categoryIds":["greek-restaurants"],"categories":["Greek Restaurants"]},{"id":"greekRestaurants_e46c14fa463c","slug":"cayenne-restaurant-art-gallery-e46c","kind":"restaurant","name":"Cayenne Restaurant Art Gallery","lat":36.97306144321347,"lng":24.723650051381746,"url":"https://maps.app.goo.gl/mz6pX32TuR9ieYY67?g_st=ipc","address":"Επαρ.Οδ. Απολλωνίας-Όρμος Φάρου, Απολλωνία 840 03","categoryIds":["greek-restaurants"],"categories":["Greek Restaurants"]},{"id":"greekRestaurants_7921aa5472db","slug":"kafeneio-drakakis-7921","kind":"restaurant","name":"KAFENEIO DRAKAKIS","lat":36.972959258998515,"lng":24.723737653225438,"url":"https://maps.app.goo.gl/HT6hzXp5huwaTTHm7?g_st=ipc","address":"Απολλωνία 840 03","categoryIds":["greek-restaurants"],"categories":["Greek Restaurants"]},{"id":"greekRestaurants_abbc05eb93be","slug":"estiatorio-lempesis-abbc","kind":"restaurant","name":"Εστιατόριο Λεμπέσης","lat":36.97977476107011,"lng":24.72663670780289,"url":"https://maps.app.goo.gl/uu2dJGd3dS7HNDiS6?g_st=ipc","address":"Αρτεμώνας 840 03","categoryIds":["greek-restaurants"],"categories":["Greek Restaurants"]},{"id":"greekRestaurants_21f1a58b70a1","slug":"drimoni-21f1","kind":"restaurant","name":"Δριμόνι","lat":36.97111592359732,"lng":24.726882746663012,"url":"https://maps.app.goo.gl/FjBr963bhTreLrq66?g_st=ipc","address":"Απολλωνία 840 03","categoryIds":["greek-restaurants"],"categories":["Greek Restaurants"]},{"id":"greekRestaurants_ff320530ac97","slug":"stiadi-restaurant-ff32","kind":"restaurant","name":"STIADI RESTAURANT","lat":36.97561287483543,"lng":24.743588724806322,"url":"https://maps.app.goo.gl/GtrgABFRG3Uq2rKP9?g_st=ipc","address":"Κάστρο 840 03","categoryIds":["greek-restaurants"],"categories":["Greek Restaurants"]},{"id":"greekRestaurants_95678f462cb1","slug":"okeanida-9567","kind":"restaurant","name":"Ωκεανίδα","lat":36.93305392530472,"lng":24.690130051637126,"url":"https://maps.app.goo.gl/PhqjSxYuDqrVS2dw6?g_st=ipc","address":"Βαθύ 840 03","categoryIds":["greek-restaurants"],"categories":["Greek Restaurants"]},{"id":"greekRestaurants_556ba6aea8bf","slug":"to-steki-556b","kind":"restaurant","name":"Το Στέκι","lat":36.932144891987825,"lng":24.732143733490126,"url":"https://maps.app.goo.gl/V9M4s1KNBNRDerWW8?g_st=ipc","address":"Πλατύς Γυαλός, Σίφνος 840 03","categoryIds":["greek-restaurants"],"categories":["Greek Restaurants"]}],"nearby":[{"id":"greekRestaurants_9e0c5c2d6f56","slug":"o-simos-9e0c","kind":"restaurant","name":"Ο ΣΙΜΟΣ","lat":36.98874960651575,"lng":24.675797411728432,"url":"https://maps.app.goo.gl/LmWkmfGPjhMBpKoQ6?g_st=ipc","address":"Καμάρες 840 03","categoryIds":["greek-restaurants"],"categories":["Greek Restaurants"],"distanceKm":0.0240611197779345},{"id":"municipalities_72366b2ec926","slug":"sifnos-7236","kind":"municipality","name":"Σίφνος","lat":36.9717,"lng":24.7036,"aliases":["Σιφνος"],"region":"Κυκλάδες","name_en":"Sifnos","region_en":"Cyclades","distanceKm":3.136685573935299},{"id":"luxuryDiningRestaurants_bfd21fa32b8e","slug":"perivoli-restaurant-bfd2","kind":"restaurant","name":"Perivoli Restaurant","lat":36.98184971359456,"lng":24.72167247742077,"url":"https://maps.app.goo.gl/iAutDnpTgMPkufBt7?g_st=ipc","address":"Αρτεμώνας 840 03","categoryIds":["luxury-dining"],"categories":["Luxury Dining"],"distanceKm":4.164351136597021},{"id":"dessertsRestaurants_3a9ca127474c","slug":"yellow-bicycle-3a9c","kind":"restaurant","name":"Yellow Bicycle","lat":36.981512610738626,"lng":24.723907398959476,"url":"https://maps.app.goo.gl/jrFAxiopPa2HXAPw6?g_st=ipc","address":"Αρτεμώνας 840 03","categoryIds":["desserts"],"categories":["Dessert Shops"],"distanceKm":4.36637604881284},{"id":"dessertsRestaurants_1e21715c1ba4","slug":"theodorou-1e21","kind":"restaurant","name":"Theodorou","lat":36.98032236422911,"lng":24.725175617740387,"url":"https://maps.app.goo.gl/3Jy7ZAZANHv7j8Zv5?g_st=ipc","address":"Αρτεμώνας 840 03","categoryIds":["desserts"],"categories":["Dessert Shops"],"distanceKm":4.503312236042224},{"id":"coffeeBrunchRestaurants_c3458e08944b","slug":"to-stavri-bakery-to-stayri-c345","kind":"restaurant","name":"To Stavri bakery (Το Σταυρί)","lat":36.97380305039157,"lng":24.72319061672324,"url":"https://maps.app.goo.gl/uYWL7LrV5mmCq24M8?g_st=ipc","address":"Epar.Od. Limani Kamaron-Artemonas, Apollonia 840 03","categoryIds":["coffee-brunch"],"categories":["Coffee & Brunch Spots"],"distanceKm":4.546677633450461},{"id":"coffeeBrunchRestaurants_afaf99ec8235","slug":"cafe-prago-afaf","kind":"restaurant","name":"Cafe Prago","lat":36.975461059633815,"lng":24.7240519346836,"url":"https://maps.app.goo.gl/isrdd8GJ3jpsZQ7W7?g_st=ipc","address":"Apollonias, Artemona 840 03","categoryIds":["coffee-brunch"],"categories":["Coffee & Brunch Spots"],"distanceKm":4.553934258655353},{"id":"coffeeBrunchRestaurants_efd5bd610439","slug":"threefolds-sifnos-efd5","kind":"restaurant","name":"Threefolds sifnos","lat":36.974665514362115,"lng":24.72381923558153,"url":"https://maps.app.goo.gl/PqpVut6E24nuqAUq6?g_st=ipc","address":"Απολλωνία 840 03","categoryIds":["coffee-brunch"],"categories":["Coffee & Brunch Spots"],"distanceKm":4.564399698371513}],"sameRegion":[],"mentionedGuides":[],"canonicalSlug":"i-meropi-259a","isCanonicalEntity":true},"__N_SSG":true}