{"pageProps":{"entity":{"id":"cheapEatsRestaurants_4ec639153a0b","slug":"kantina-billy-4ec6","kind":"restaurant","name":"Καντίνα - Billy","lat":38.02609394796825,"lng":23.81064307512727,"url":"https://maps.app.goo.gl/9r8QWiSRkMH7dPqZA?g_st=ipc","address":"Λεωφ. Πεντέλης 68, Χαλάνδρι 152 34","categoryIds":["cheap-eats"],"categories":["Gyros & Cheap Eats"]},"sameCategory":[{"id":"cheapEatsRestaurants_3872707b22c4","slug":"gianniotiko-soyvlaki-3872","kind":"restaurant","name":"ΓΙΑΝΝΙΩΤΙΚΟ ΣΟΥΒΛΑΚΙ","lat":38.018885728218706,"lng":23.80780825876153,"url":"https://maps.app.goo.gl/VSmxeGeUsq75QADx9?g_st=ic","address":"Agias Paraskevis 95, Chalandri 152 34","categoryIds":["cheap-eats"],"categories":["Gyros & Cheap Eats"]},{"id":"cheapEatsRestaurants_8385a72feb82","slug":"taco-bell-8385","kind":"restaurant","name":"Taco Bell","lat":38.0228052820458,"lng":23.79853818143159,"url":"https://maps.app.goo.gl/f47SevFfDgNbNtWk7?g_st=ipc","address":"Κολοκοτρώνη 13, Χαλάνδρι 152 33","categoryIds":["cheap-eats"],"categories":["Gyros & Cheap Eats"]},{"id":"cheapEatsRestaurants_70af29f6373f","slug":"holy-pasta-chalandri-70af","kind":"restaurant","name":"Holy Pasta Chalandri","lat":38.02090646389776,"lng":23.799055964157045,"url":"https://maps.app.goo.gl/dD7x8SrXxBd8mmDX7?g_st=ipc","address":"Ηρακλείου 3, Χαλάνδρι 152 32","categoryIds":["cheap-eats"],"categories":["Gyros & Cheap Eats"]},{"id":"cheapEatsRestaurants_6071194d9f9f","slug":"curry-express-indian-chef-6071","kind":"restaurant","name":"Curry Express & Indian Chef","lat":38.02245552538877,"lng":23.798012966612305,"url":"https://maps.app.goo.gl/z58YmxhSwvtKJai57?g_st=ipc","address":"Γρ. Γυφτοπούλου 7, Χαλάνδρι 152 33","categoryIds":["cheap-eats"],"categories":["Gyros & Cheap Eats"]},{"id":"cheapEatsRestaurants_4176abbd859b","slug":"to-soyvlaki-toy-chalandrioy-express-4176","kind":"restaurant","name":"Το Σουβλάκι του Χαλανδρίου «Express»","lat":38.02210047029897,"lng":23.79733270387276,"url":"https://maps.app.goo.gl/jvDmvkwHFZFAd18e6?g_st=ipc","address":"Κολοκοτρώνη 26, Χαλάνδρι 152 33","categoryIds":["cheap-eats"],"categories":["Gyros & Cheap Eats"]},{"id":"cheapEatsRestaurants_d9e484914294","slug":"mparmpalias-d9e4","kind":"restaurant","name":"Μπαρμπαλιάς","lat":38.022224299572,"lng":23.79656538042495,"url":"https://maps.app.goo.gl/LeEZCDs2GRC6YKuT7?g_st=ipc","address":"Λεωφ. Βασιλέως Γεωργίου B 6, Χαλάνδρι 152 33","categoryIds":["cheap-eats"],"categories":["Gyros & Cheap Eats"]},{"id":"cheapEatsRestaurants_ec9b2c37ec79","slug":"o-ellinaras-ec9b","kind":"restaurant","name":"Ο ΕΛΛΗΝΑΡΑΣ","lat":38.017568546798636,"lng":23.799181700850475,"url":"https://maps.app.goo.gl/3g2yxFrBJ6V2KPZm7?g_st=ipc","address":"Παλαιολόγου 63, Χαλάνδρι 152 32","categoryIds":["cheap-eats"],"categories":["Gyros & Cheap Eats"]},{"id":"cheapEatsRestaurants_19bf55f57647","slug":"soyvlakochorio-19bf","kind":"restaurant","name":"Σουβλακοχωριό","lat":38.019021009797974,"lng":23.79620669265203,"url":"https://maps.app.goo.gl/Qngg6pY64nb2i3sX9?g_st=ipc","address":"25ης Μαρτίου 33, Χαλάνδρι 152 32","categoryIds":["cheap-eats"],"categories":["Gyros & Cheap Eats"]}],"nearby":[{"id":"dessertsRestaurants_4f529b02c261","slug":"zacharoplasteia-konstantinidis-4f52","kind":"restaurant","name":"ΖΑΧΑΡΟΠΛΑΣΤΕΙΑ ΚΩΝΣΤΑΝΤΙΝΙΔΗΣ","lat":38.02641289961005,"lng":23.811254354041353,"url":"https://maps.app.goo.gl/eFBXtmFxkCpQxQLK7?g_st=ipc","address":"Λεωφ. Πεντέλης 72, Αθήνα 115 24","categoryIds":["desserts"],"categories":["Dessert Shops"],"distanceKm":0.06422346512563595},{"id":"greekRestaurants_420dc8617ebb","slug":"to-vrasto-420d","kind":"restaurant","name":"Το Βραστό","lat":38.02920880289756,"lng":23.811047379895488,"url":"https://maps.app.goo.gl/GRjH6qkfc2wa5Tcv9?g_st=ipc","address":"Ρόδων 3, Χαλάνδρι 152 33","categoryIds":["greek-restaurants"],"categories":["Greek Restaurants"],"distanceKm":0.3481617458552586},{"id":"dessertsRestaurants_2866616f6c72","slug":"passarella-chalandri-2866","kind":"restaurant","name":"Passarella - Χαλάνδρι","lat":38.02448370470044,"lng":23.80670910273873,"url":"https://maps.app.goo.gl/dryCvKG6qyofyvsP9?g_st=ipc","address":"Λεωφ. Πεντέλης 42 &, Ευριπίδου, Χαλάνδρι 152 34","categoryIds":["desserts"],"categories":["Dessert Shops"],"distanceKm":0.38832880120250185},{"id":"familyFriendly_8c5536516bb1","slug":"theatraki-8c55","kind":"restaurant","name":"Theatraki","lat":38.02225032968998,"lng":23.814351171164784,"url":"https://maps.app.goo.gl/jauuVyHDGdr1MR746?g_st=ic","address":"Iraklidon 31, Chalandri 152 34","categoryIds":["family-friendly"],"categories":["Kid Friendly Locations"],"distanceKm":0.536807493183753},{"id":"greekRestaurants_773d46c778fd","slug":"estiatorio-taverna-o-manolis-773d","kind":"restaurant","name":"Εστιατόριο Ταβέρνα Ο Μανώλης","lat":38.030716089112936,"lng":23.806470122135025,"url":"https://maps.app.goo.gl/E6ZfG324dBPeoKmz5?g_st=ipc","address":"Σάμου 1, Χαλάνδρι 152 33","categoryIds":["greek-restaurants"],"categories":["Greek Restaurants"],"distanceKm":0.6306716814640106},{"id":"greekRestaurants_141b4df624df","slug":"peri-oysias-141b","kind":"restaurant","name":"Περί Ουσίας","lat":38.0199005649911,"lng":23.809145664428573,"url":"https://maps.app.goo.gl/gEFvWf42qxvaJBEX9?g_st=ipc","address":"Θησέως 25, Χαλάνδρι 152 34","categoryIds":["greek-restaurants"],"categories":["Greek Restaurants"],"distanceKm":0.7010525940622473},{"id":"coffeeBrunchRestaurants_fee7b450e2e2","slug":"bored-c-mon-hub-fee7","kind":"restaurant","name":"Bored, C'mon hub","lat":38.02345514252141,"lng":23.803073599949013,"url":"https://maps.app.goo.gl/VKSg4V9NPf89H1ha7?g_st=ipc","address":"Λεωφ. Πεντέλης 15, Χαλάνδρι 152 34","categoryIds":["coffee-brunch"],"categories":["Coffee & Brunch Spots"],"distanceKm":0.725059337383124},{"id":"greekRestaurants_d2dfa77acfa8","slug":"doykissa-mezedopoleio-d2df","kind":"restaurant","name":"Δούκισσα Μεζεδοπωλείο","lat":38.0195289224619,"lng":23.810346764437185,"url":"https://maps.app.goo.gl/xuDMuCBBZTFu1suy8?g_st=ipc","address":"Δουκίσσης Πλακεντίας 14, Χαλάνδρι 152 34","categoryIds":["greek-restaurants"],"categories":["Greek Restaurants"],"distanceKm":0.7304588153078293}],"sameRegion":[],"mentionedGuides":[{"slug":"american-college-of-greece-agia-paraskevi-guide-el","title":"American College of Greece: Οδηγός Αγίας Παρασκευής"},{"slug":"american-college-of-greece-agia-paraskevi-guide","title":"American College of Greece: Welcome to Agia Paraskevi"}],"canonicalSlug":"kantina-billy-4ec6","isCanonicalEntity":true},"__N_SSG":true}