{"pageProps":{"entity":{"id":"greekRestaurants_88c2247c1ee0","slug":"kivotos-88c2","kind":"restaurant","name":"Κιβωτός","lat":38.09806564019595,"lng":23.80316229730133,"url":"https://maps.app.goo.gl/U5NQdUWeNcGPMbcs9","address":"Διός 32, Κηφισιά 145 64","categoryIds":["greek-restaurants"],"categories":["Greek Restaurants"]},"sameCategory":[{"id":"greekRestaurants_7971743137f0","slug":"tavernier-7971","kind":"restaurant","name":"Tavernier","lat":38.09316882456775,"lng":23.805434203164346,"url":"https://maps.app.goo.gl/irth7CYMSHY5DX7t5","address":"Ελπίδος 24, Κηφισιά 145 64","categoryIds":["greek-restaurants"],"categories":["Greek Restaurants"]},{"id":"greekRestaurants_ea49f706ac3a","slug":"vathis-taverna-kifisia-ea49","kind":"restaurant","name":"Βαθης - Ταβέρνα - Κηφισιά","lat":38.08767324286352,"lng":23.812020752033984,"url":"https://maps.app.goo.gl/8zy6QLVSBAEWjShh9","address":"Κύρου 7, Κηφισιά 145 64","categoryIds":["greek-restaurants"],"categories":["Greek Restaurants"]},{"id":"greekRestaurants_c38384cb3d4e","slug":"gakias-c383","kind":"restaurant","name":"Γάκιας","lat":38.09024721634053,"lng":23.815925478181978,"url":"https://maps.app.goo.gl/5fW7sQn1VfXFue1i8","address":"Ευαγγελίστριας και Κρήνης, Νέα Ερυθραία 146 71","categoryIds":["greek-restaurants"],"categories":["Greek Restaurants"]},{"id":"greekRestaurants_b22d69737b66","slug":"parasia-istories-geyseon-b22d","kind":"restaurant","name":"Παρασιά Ιστορίες Γεύσεων","lat":38.08628061091575,"lng":23.81539216213334,"url":"https://maps.app.goo.gl/FtKavrSVarJSeYwXA","address":"Σκιάθου 3, Κηφισιά 145 64","categoryIds":["greek-restaurants"],"categories":["Greek Restaurants"]},{"id":"greekRestaurants_89a2b5f64a13","slug":"taverna-to-koytoyki-89a2","kind":"restaurant","name":"Ταβέρνα Το Κουτούκι","lat":38.083850431201256,"lng":23.816117674528748,"url":"https://maps.app.goo.gl/wD1K2DMnmMrpmHVu7","address":"Λεωφ. Κηφισίας 308, Κηφισιά 145 63","categoryIds":["greek-restaurants"],"categories":["Greek Restaurants"]},{"id":"greekRestaurants_b901d82ee343","slug":"vasilis-kifisia-b901","kind":"restaurant","name":"Βασίλης Κηφισιά","lat":38.08032122894861,"lng":23.814581872798477,"url":"https://maps.app.goo.gl/eB16zN6dJoMUydyJA","address":"Λεωφ. Κηφισίας 284, Κηφισιά 145 61","categoryIds":["greek-restaurants"],"categories":["Greek Restaurants"]},{"id":"greekRestaurants_ee1040d986a2","slug":"o-tzitzikas-kai-o-mermigkas-ee10","kind":"restaurant","name":"Ο Τζίτζικας και ο Μέρμηγκας","lat":38.071444564634874,"lng":23.81158159449847,"url":"https://maps.app.goo.gl/Baz66z9eF1nXkQDe8","address":"Γεωρ. Δροσίνη 12, Κηφισιά 145 62","categoryIds":["greek-restaurants"],"categories":["Greek Restaurants"]},{"id":"greekRestaurants_81215dd76f6b","slug":"artisanal-8121","kind":"restaurant","name":"Artisanal","lat":38.067981010642875,"lng":23.811453792339574,"url":"https://maps.app.goo.gl/WsfMSGTo3b3Mq3hS6","address":"Ζηρίνη 2, Κηφισιά 145 62","categoryIds":["greek-restaurants"],"categories":["Greek Restaurants"]}],"nearby":[{"id":"familyFriendly_914b28d0bdc8","slug":"playmobil-funpark-914b","kind":"restaurant","name":"PLAYMOBIL FunPark","lat":38.101749739078855,"lng":23.80667805908177,"url":"https://maps.app.goo.gl/iUSz6s7BVEgZACCj9?g_st=ipc","address":"Αμαλιάδος 4, Κηφισιά 145 64","categoryIds":["family-friendly"],"categories":["Kid Friendly Locations"],"distanceKm":0.5123070233522352},{"id":"greekRestaurants_7971743137f0","slug":"tavernier-7971","kind":"restaurant","name":"Tavernier","lat":38.09316882456775,"lng":23.805434203164346,"url":"https://maps.app.goo.gl/irth7CYMSHY5DX7t5","address":"Ελπίδος 24, Κηφισιά 145 64","categoryIds":["greek-restaurants"],"categories":["Greek Restaurants"],"distanceKm":0.5796612618214881},{"id":"familyFriendly_f33e0651961a","slug":"gymboree-play-music-n-erythraia-f33e","kind":"restaurant","name":"Gymboree Play & Music Ν.Ερυθραία","lat":38.09316691407804,"lng":23.80936117936556,"url":"https://maps.app.goo.gl/azuqAZc93giJTXmj8?g_st=ipc","address":"Τατοΐου 102, Νέα Ερυθραία 146 71","categoryIds":["family-friendly"],"categories":["Kid Friendly Locations"],"distanceKm":0.7687454792876278},{"id":"italianRestaurants_d9d720a42c99","slug":"pizza-park-d9d7","kind":"restaurant","name":"Pizza Park","lat":38.09198960934523,"lng":23.81402750121575,"url":"https://maps.app.goo.gl/Qw99VuJkc2GbipvDA?g_st=ipc","address":"Ηρ. Πολυτεχνείου 24, Νέα Ερυθραία 146 71","categoryIds":["italian"],"categories":["Italian Restaurants"],"distanceKm":1.1664034142291757},{"id":"municipalities_21a4cf6d5b03","slug":"nea-erythraia-21a4","kind":"municipality","name":"Νέα Ερυθραία","lat":38.1025,"lng":23.817,"region":"Βόρεια Προάστια","name_en":"Nea Erythraia","region_en":"Northern Suburbs","distanceKm":1.3073850556641762},{"id":"greekRestaurants_ea49f706ac3a","slug":"vathis-taverna-kifisia-ea49","kind":"restaurant","name":"Βαθης - Ταβέρνα - Κηφισιά","lat":38.08767324286352,"lng":23.812020752033984,"url":"https://maps.app.goo.gl/8zy6QLVSBAEWjShh9","address":"Κύρου 7, Κηφισιά 145 64","categoryIds":["greek-restaurants"],"categories":["Greek Restaurants"],"distanceKm":1.391521945028759},{"id":"mexicanRestaurants_fa8ffda60946","slug":"balero-fa8f","kind":"restaurant","name":"Balero","lat":38.08846033344393,"lng":23.813655936317737,"url":"https://maps.app.goo.gl/z2SGuye5ZYrGd3Ft7?g_st=ipc","address":"Χαρ. Τρικούπη 162, Νέα Ερυθραία 145 62","categoryIds":["mexican"],"categories":["Mexican Restaurants"],"distanceKm":1.4085634651297607},{"id":"greekRestaurants_c38384cb3d4e","slug":"gakias-c383","kind":"restaurant","name":"Γάκιας","lat":38.09024721634053,"lng":23.815925478181978,"url":"https://maps.app.goo.gl/5fW7sQn1VfXFue1i8","address":"Ευαγγελίστριας και Κρήνης, Νέα Ερυθραία 146 71","categoryIds":["greek-restaurants"],"categories":["Greek Restaurants"],"distanceKm":1.4153750732217145}],"sameRegion":[],"mentionedGuides":[],"canonicalSlug":"kivotos-88c2","isCanonicalEntity":true},"__N_SSG":true}