{"pageProps":{"entity":{"id":"italianRestaurants_e4215b95fee5","slug":"la-greca-peristeri-e421","kind":"restaurant","name":"La Greca Περιστέρι","lat":38.010196542861046,"lng":23.67916957954494,"url":"https://maps.app.goo.gl/HJ2LMpj8kWkR6MSZ9?g_st=ipc","address":"Τζων Κέννεντυ 149, Περιστέρι 121 36","categoryIds":["italian"],"categories":["Italian Restaurants"]},"sameCategory":[{"id":"italianRestaurants_b8dec0e1044a","slug":"makaroynes-exceptional-cuisine-b8de","kind":"restaurant","name":"Μακαρούνες (exceptional cuisine)","lat":38.01172277822911,"lng":23.691017826226332,"url":"https://maps.app.goo.gl/h2o6228dtCcx8xr98?g_st=ipc","address":"Αιμιλίου Βεάκη 70, Περιστέρι 121 34","categoryIds":["italian"],"categories":["Italian Restaurants"]},{"id":"italianRestaurants_1b88f38100c7","slug":"the-italians-peristeri-1b88","kind":"restaurant","name":"The italians_peristeri","lat":38.01175840681134,"lng":23.693124439008372,"url":"https://maps.app.goo.gl/EPn5hzC47NSHkek9A?g_st=ipc","address":"Αιμιλίου Βεάκη 46, Περιστέρι 121 34","categoryIds":["italian"],"categories":["Italian Restaurants"]},{"id":"italianRestaurants_2e4b8b331a1f","slug":"trattoria-casa-bianca-2e4b","kind":"restaurant","name":"Trattoria Casa Bianca","lat":38.004704945340144,"lng":23.664059272009183,"url":"https://maps.app.goo.gl/akcP8bTGNqFh27cR9?g_st=ipc","address":"Στρ. Καραϊσκάκη 43, Χαϊδάρι 124 61","categoryIds":["italian"],"categories":["Italian Restaurants"]},{"id":"italianRestaurants_9ad90cbc1718","slug":"goloso-cucina-e-pizza-italiana-9ad9","kind":"restaurant","name":"Goloso Cucina e Pizza Italiana","lat":38.034154813582916,"lng":23.69590782983928,"url":"https://maps.app.goo.gl/pg641ieu7sSBX3fa7","address":"Petroupoleos 68-70, Petroupoli 131 23","categoryIds":["italian"],"categories":["Italian Restaurants"]},{"id":"italianRestaurants_f98d171cbc3e","slug":"la-greca-ilion-f98d","kind":"restaurant","name":"La Greca Ίλιον","lat":38.033370068810264,"lng":23.70123370557317,"url":"https://maps.app.goo.gl/Btmva8rtUGkuoUtX6?g_st=ipc","address":"Έκτορος 140, Ίλιον 131 23","categoryIds":["italian"],"categories":["Italian Restaurants"]},{"id":"italianRestaurants_301b52803ea0","slug":"amante-athens-301b","kind":"restaurant","name":"Amante Athens","lat":37.983114932894274,"lng":23.7159682164575,"url":"https://maps.app.goo.gl/9Zg1mEJh6x2SjrNx6?g_st=ipc","address":"Παραμυθίας 13, Αθήνα 104 35","categoryIds":["italian"],"categories":["Italian Restaurants"]},{"id":"italianRestaurants_eda14ce07bd0","slug":"proveleggios-eda1","kind":"restaurant","name":"Proveleggioς","lat":37.98314343701362,"lng":23.716034626731084,"url":"https://maps.app.goo.gl/MitPmZaCFjCBtxr4A?g_st=ipc","address":"Παραμυθίας 11, Αθήνα 104 35","categoryIds":["italian"],"categories":["Italian Restaurants"]},{"id":"italianRestaurants_a2a46beb60d1","slug":"mamas-pizza-a2a4","kind":"restaurant","name":"mamas pizza","lat":38.00286067766126,"lng":23.729687108811326,"url":"https://maps.app.goo.gl/GBCYCeq3F77e7FqH8?g_st=ipc","address":"Φυλής 197, Αθήνα 112 52","categoryIds":["italian"],"categories":["Italian Restaurants"]}],"nearby":[{"id":"municipalities_786b92402462","slug":"aigaleo-786b","kind":"municipality","name":"Αιγάλεω","lat":38.0089,"lng":23.6825,"aliases":["Aigaleo","Egaleo"],"region":"Δυτικά Προάστια","name_en":"Aigaleo","region_en":"Western Suburbs","distanceKm":0.3254564116082195},{"id":"coffeeBrunchRestaurants_ebe61501db3c","slug":"anemologio-enallaktiko-kafe-ebe6","kind":"restaurant","name":"Ανεμολόγιο εναλλακτικό καφέ","lat":38.01553415279337,"lng":23.680397259584772,"url":"https://maps.app.goo.gl/CdGAWQcCNoqhMaoLA?g_st=ipc","address":"Πελοπίδα 106, Περιστέρι 121 35","categoryIds":["coffee-brunch"],"categories":["Coffee & Brunch Spots"],"distanceKm":0.6031816190007161},{"id":"asianRestaurants_fd79716bd06b","slug":"mayman-fd79","kind":"restaurant","name":"Mayman","lat":38.01237886315462,"lng":23.686035629770352,"url":"https://maps.app.goo.gl/u5z1UYphrgpUNHe16","address":"Dodekanisou 1, Peristeri 121 36","categoryIds":["asian"],"categories":["Asian Restaurants"],"distanceKm":0.6486320587060896},{"id":"coffeeBrunchRestaurants_56346e942815","slug":"qahwa-roastery-5634","kind":"restaurant","name":"Qahwa Roastery","lat":38.00443805181344,"lng":23.67683735104457,"url":"https://maps.app.goo.gl/iwKrvWdDuhAmB8YHA?g_st=ipc","address":"Αγίου Σπυρίδωνος 48, Αιγάλεω 122 43","categoryIds":["coffee-brunch"],"categories":["Coffee & Brunch Spots"],"distanceKm":0.6721283244334338},{"id":"greekRestaurants_3bf98dd0eb38","slug":"anemologio-enallaktiko-kafe-3bf9","kind":"restaurant","name":"Ανεμολόγιο εναλλακτικό καφέ","lat":38.016523540675394,"lng":23.68057325145113,"url":"https://maps.app.goo.gl/jpKMuFsoZ998HnQE8","address":"Πελοπίδα 106, Περιστέρι 121 35","categoryIds":["greek-restaurants"],"categories":["Greek Restaurants"],"distanceKm":0.7141963809219247},{"id":"cheapEatsRestaurants_9b3a59c497dd","slug":"to-magkali-peristeri-9b3a","kind":"restaurant","name":"Το Μαγκάλι (Περιστέρι)","lat":38.01338073065152,"lng":23.686862336191798,"url":"https://maps.app.goo.gl/cpKq1vTipGxLPNCu7?g_st=ipc","address":"Δωδεκανήσου 24, Πελοπίδα 48, Περιστέρι 121 34","categoryIds":["cheap-eats"],"categories":["Gyros & Cheap Eats"],"distanceKm":0.7612978120023193},{"id":"cheapEatsRestaurants_e447034a05ff","slug":"o-oraios-tis-geitonias-ovelistirio-e447","kind":"restaurant","name":"Ο ΩΡΑΙΟΣ ΤΗΣ ΓΕΙΤΟΝΙΑΣ ΟΒΕΛΙΣΤΗΡΙΟ","lat":38.01006375373495,"lng":23.6881134895059,"url":"https://maps.app.goo.gl/MTNygxiVF9e3viYE9?g_st=ipc","address":"Θηβών 119, Περιστέρι 121 36","categoryIds":["cheap-eats"],"categories":["Gyros & Cheap Eats"],"distanceKm":0.7837212526084477},{"id":"municipalities_856f4c0ff4e6","slug":"agia-varvara-856f","kind":"municipality","name":"Αγία Βαρβάρα","lat":38.0065,"lng":23.6715,"region":"Δυτικά Προάστια","name_en":"Agia Varvara","region_en":"Western Suburbs","distanceKm":0.7877009454986941}],"sameRegion":[],"mentionedGuides":[],"canonicalSlug":"la-greca-peristeri-e421","isCanonicalEntity":true},"__N_SSG":true}