{"pageProps":{"entity":{"id":"italianRestaurants_6b466717928c","slug":"lollo-s-atene-6b46","kind":"restaurant","name":"Lollo's Atene","lat":38.01753697922701,"lng":23.795618164928833,"url":"https://maps.app.goo.gl/1D9mpaGYtG23tshYA?g_st=ipc","address":"Εθ. Αντιστάσεως 3α, Χαλάνδρι 152 32","categoryIds":["italian"],"categories":["Italian Restaurants"]},"sameCategory":[{"id":"italianRestaurants_08976c540f77","slug":"alpino-cucina-italiana-0897","kind":"restaurant","name":"Alpino Cucina Italiana","lat":38.017273062811554,"lng":23.796958155707255,"url":"https://maps.app.goo.gl/vifqCWxK1J8ZiiCu7?g_st=ipc","address":"Παπανικολή 66, Χαλάνδρι 152 32","categoryIds":["italian"],"categories":["Italian Restaurants"]},{"id":"italianRestaurants_449a551f4dc8","slug":"come-a-casa-449a","kind":"restaurant","name":"Come A Casa","lat":38.020170312119056,"lng":23.798225694950606,"url":"https://maps.app.goo.gl/Go53VnWKyGjFvBK38?g_st=ipc","address":"Καραολη Δημήτριου 17, Χαλάνδρι 152 32","categoryIds":["italian"],"categories":["Italian Restaurants"]},{"id":"italianRestaurants_0499cd7a1aa6","slug":"totonno-pizzeria-0499","kind":"restaurant","name":"Totonno Pizzeria","lat":38.0207813740758,"lng":23.7979881651798,"url":"https://maps.app.goo.gl/nUn81XsFVAHwxcV18?g_st=ipc","address":"Καλογρέζης 1, Χαλάνδρι 152 32","categoryIds":["italian"],"categories":["Italian Restaurants"]},{"id":"italianRestaurants_99d6d6ea615c","slug":"alio-99d6","kind":"restaurant","name":"ALIO","lat":38.02380840827294,"lng":23.79252131680721,"url":"https://maps.app.goo.gl/pCWntKXiEkk3VBdj8?g_st=ipc","address":"Βασιλέως Γεωργίου 34, Χαλάνδρι 152 33","categoryIds":["italian"],"categories":["Italian Restaurants"]},{"id":"italianRestaurants_5125cdfe0b5a","slug":"portofino-pizza-xalandri-5125","kind":"restaurant","name":"Portofino Pizza Xalandri","lat":38.0247038627797,"lng":23.797586721157028,"url":"https://maps.app.goo.gl/D9rRduThcXn2ff1i8?g_st=ipc","address":"Γρ. Γυφτοπούλου 23, Χαλάνδρι 152 33","categoryIds":["italian"],"categories":["Italian Restaurants"]},{"id":"italianRestaurants_6c7a694e9681","slug":"kentrina-6c7a","kind":"restaurant","name":"Kentrina","lat":38.013966629254554,"lng":23.786077267676728,"url":"https://maps.app.goo.gl/3jtSyfSCsogG92777?g_st=ipc","address":"Likourgou, Chalandri 152 31","categoryIds":["italian"],"categories":["Italian Restaurants"]},{"id":"italianRestaurants_9ab88b8b6007","slug":"innamorata-9ab8","kind":"restaurant","name":"Innamorata","lat":38.01461502802222,"lng":23.785308731358,"url":"https://maps.app.goo.gl/6pHzTzWoidEixrLw8?g_st=ipc","address":"Likourgou 5Α, Chalandri 152 31","categoryIds":["italian"],"categories":["Italian Restaurants"]},{"id":"italianRestaurants_f7f3095a84cf","slug":"marika-f7f3","kind":"restaurant","name":"Μαρίκα","lat":38.01804412743968,"lng":23.809906247881305,"url":"https://maps.app.goo.gl/osUqCcuWwvgZPCpT6?g_st=ipc","address":"Αγίας Παρασκευής 109, Χαλάνδρι 152 34","categoryIds":["italian"],"categories":["Italian Restaurants"]}],"nearby":[{"id":"fishTavernasRestaurants_e776bdd89777","slug":"psitos-mpakaliaros-e776","kind":"restaurant","name":"Ψητός Μπακαλιάρος","lat":38.01692370219889,"lng":23.79499254813244,"url":"https://maps.app.goo.gl/qf5FPeY2czx43z2TA?g_st=ipc","address":"Εθ. Αντιστάσεως 9, Χαλάνδρι 152 32","categoryIds":["fish-tavernas"],"categories":["Fish Tavernas"],"distanceKm":0.08748690499209176},{"id":"italianRestaurants_08976c540f77","slug":"alpino-cucina-italiana-0897","kind":"restaurant","name":"Alpino Cucina Italiana","lat":38.017273062811554,"lng":23.796958155707255,"url":"https://maps.app.goo.gl/vifqCWxK1J8ZiiCu7?g_st=ipc","address":"Παπανικολή 66, Χαλάνδρι 152 32","categoryIds":["italian"],"categories":["Italian Restaurants"],"distanceKm":0.12099851166143888},{"id":"cheapEatsRestaurants_19bf55f57647","slug":"soyvlakochorio-19bf","kind":"restaurant","name":"Σουβλακοχωριό","lat":38.019021009797974,"lng":23.79620669265203,"url":"https://maps.app.goo.gl/Qngg6pY64nb2i3sX9?g_st=ipc","address":"25ης Μαρτίου 33, Χαλάνδρι 152 32","categoryIds":["cheap-eats"],"categories":["Gyros & Cheap Eats"],"distanceKm":0.1728828515275649},{"id":"dessertsRestaurants_9de68b3616c9","slug":"nana-gioti-glyka-apo-spiti-9de6","kind":"restaurant","name":"ΝΑΝΑ ΓΙΩΤΗ - ΓΛΥΚΑ ΑΠΟ ΣΠΙΤΙ","lat":38.01918939040668,"lng":23.794563800847534,"url":"https://maps.app.goo.gl/Pj3P4kdv7qvwkpQG6?g_st=ic","address":"Papanikoli 46, Chalandri 152 32","categoryIds":["desserts"],"categories":["Dessert Shops"],"distanceKm":0.20564836822540275},{"id":"fishTavernasRestaurants_28abc536c707","slug":"kapetanissa-28ab","kind":"restaurant","name":"Καπετάνισσα","lat":38.01937904398287,"lng":23.79769429563829,"url":"https://maps.app.goo.gl/eEbHLBANhp5td8HH9?g_st=ipc","address":"Ομήρου 24, Χαλάνδρι 152 32","categoryIds":["fish-tavernas"],"categories":["Fish Tavernas"],"distanceKm":0.27391882721479005},{"id":"dessertsRestaurants_8bed364f6d2d","slug":"solo-gelato-chalandri-8bed","kind":"restaurant","name":"Solo Gelato Chalandri","lat":38.01968693370907,"lng":23.79741986314135,"url":"https://maps.app.goo.gl/VbYTpPhNsegGr8sa6?g_st=ipc","address":"Ανδρέα Παπανδρέου 44, Χαλάνδρι 152 32","categoryIds":["desserts"],"categories":["Dessert Shops"],"distanceKm":0.2864643873802157},{"id":"cheapEatsRestaurants_ec9b2c37ec79","slug":"o-ellinaras-ec9b","kind":"restaurant","name":"Ο ΕΛΛΗΝΑΡΑΣ","lat":38.017568546798636,"lng":23.799181700850475,"url":"https://maps.app.goo.gl/3g2yxFrBJ6V2KPZm7?g_st=ipc","address":"Παλαιολόγου 63, Χαλάνδρι 152 32","categoryIds":["cheap-eats"],"categories":["Gyros & Cheap Eats"],"distanceKm":0.312191971125346},{"id":"coffeeBrunchRestaurants_e07c2fe046a1","slug":"koulouri-lab-e07c","kind":"restaurant","name":"Koulouri Lab","lat":38.02001411382259,"lng":23.797606580273964,"url":"https://maps.app.goo.gl/PenVFxTnARKzLw62A?g_st=ipc","address":"Ανδρέα Παπανδρέου 36, Αθήνα 152 32","categoryIds":["coffee-brunch"],"categories":["Coffee & Brunch Spots"],"distanceKm":0.3258996244866371}],"sameRegion":[],"mentionedGuides":[{"slug":"american-college-of-greece-agia-paraskevi-guide-el","title":"American College of Greece: Οδηγός Αγίας Παρασκευής"},{"slug":"american-college-of-greece-agia-paraskevi-guide","title":"American College of Greece: Welcome to Agia Paraskevi"}],"canonicalSlug":"lollo-s-atene-6b46","isCanonicalEntity":true},"__N_SSG":true}