{"pageProps":{"entity":{"id":"rooftopLoungesRestaurants_f3d7923bdece","slug":"metropolis-roof-garden-f3d7","kind":"restaurant","name":"Metropolis Roof Garden","lat":37.97522089278689,"lng":23.732019228567697,"url":"https://maps.app.goo.gl/AzbgD3qbjVmSu6L77?g_st=ipc","address":"Μητροπόλεως 15, Αθήνα 105 57","categoryIds":["rooftop-lounges"],"categories":["Rooftop Lounges"]},"sameCategory":[{"id":"rooftopLoungesRestaurants_a01decd3b001","slug":"ergon-house-athens-a01d","kind":"restaurant","name":"ERGON House Athens","lat":37.975246808550054,"lng":23.73151614516128,"url":"https://maps.app.goo.gl/B5dVNDQK9SeSRhFZ9?g_st=ipc","address":"23, Μητροπόλεως Street, Αθήνα 105 57","categoryIds":["rooftop-lounges"],"categories":["Rooftop Lounges"]},{"id":"rooftopLoungesRestaurants_fb4de5c9639b","slug":"elysium-athens-rooftop-dining-cocktails-fb4d","kind":"restaurant","name":"Elysium Athens Rooftop | Dining & Cocktails","lat":37.97568079594514,"lng":23.731930908514958,"url":"https://maps.app.goo.gl/XadarqG8B9MPBT9e7?g_st=ipc","address":"15-17, Ερμού 105 63, Αθήνα","categoryIds":["rooftop-lounges"],"categories":["Rooftop Lounges"]},{"id":"rooftopLoungesRestaurants_986af6d41f8f","slug":"ermou-18-beyond-the-horizon-986a","kind":"restaurant","name":"Ermou 18 Beyond the Horizon","lat":37.97612467035227,"lng":23.731892472806617,"url":"https://maps.app.goo.gl/29x8TUkS1Zi5ckeK6?g_st=ipc","address":"Ermou 18 Beyond the Horizon","categoryIds":["rooftop-lounges"],"categories":["Rooftop Lounges"]},{"id":"rooftopLoungesRestaurants_ffccd88e3b0f","slug":"thea-terrace-bar-ffcc","kind":"restaurant","name":"Thea Terrace Bar","lat":37.97456272302777,"lng":23.731138501787182,"url":"https://maps.app.goo.gl/KVbnoHN86FaFe6Ch8?g_st=ipc","address":"Απόλλωνος 21, Αθήνα 105 57","categoryIds":["rooftop-lounges"],"categories":["Rooftop Lounges"]},{"id":"rooftopLoungesRestaurants_e53024397065","slug":"electra-roof-garden-e530","kind":"restaurant","name":"Electra Roof Garden","lat":37.973799293487446,"lng":23.731619153637734,"url":"https://maps.app.goo.gl/ieHySBRUu73ccrv99?g_st=ipc","address":"Ναυάρχου Νικοδήμου 18-20, Αθήνα 105 57","categoryIds":["rooftop-lounges"],"categories":["Rooftop Lounges"]},{"id":"rooftopLoungesRestaurants_deda42ca6a1c","slug":"the-zillers-rooftop-gastronomy-deda","kind":"restaurant","name":"The Zillers Rooftop Gastronomy","lat":37.975610918169195,"lng":23.729618662596703,"url":"https://maps.app.goo.gl/ewydNFU5RP3inTPF7?g_st=ipc","address":"Μητροπόλεως 54, Αθήνα 105 63","categoryIds":["rooftop-lounges"],"categories":["Rooftop Lounges"]},{"id":"rooftopLoungesRestaurants_f22b7c0a1efd","slug":"art-lounge-rooftop-f22b","kind":"restaurant","name":"Art Lounge Rooftop","lat":37.97343228721452,"lng":23.733497513314063,"url":"https://maps.app.goo.gl/CrXGtb53B5ftpJTg6?g_st=ipc","address":"Ναυάρχου Νικοδήμου 1, Αθήνα 105 57","categoryIds":["rooftop-lounges"],"categories":["Rooftop Lounges"]},{"id":"rooftopLoungesRestaurants_dccec8a54ab2","slug":"taratsa-athens-dcce","kind":"restaurant","name":"Taratsa Athens","lat":37.97577225088555,"lng":23.729185158634564,"url":"https://maps.app.goo.gl/jwnF2SS5G6PYqRPf9?g_st=ipc","address":"Μητροπόλεως 60, Αθήνα 105 63","categoryIds":["rooftop-lounges"],"categories":["Rooftop Lounges"]}],"nearby":[{"id":"luxuryDiningRestaurants_45e8a4dd5c78","slug":"metropolis-roof-garden-45e8","kind":"restaurant","name":"Metropolis Roof Garden","lat":37.97522262578899,"lng":23.732019777211896,"url":"https://maps.app.goo.gl/zUugGUWG4UDszZX58?g_st=ipc","address":"Μητροπόλεως 15, Αθήνα 105 57","categoryIds":["luxury-dining"],"categories":["Luxury Dining"],"distanceKm":0.00019861101956369706},{"id":"coffeeBrunchRestaurants_a3e6dda2655d","slug":"tazza-caffe-a3e6","kind":"restaurant","name":"Tazza caffe","lat":37.975499371808404,"lng":23.73172660898901,"url":"https://maps.app.goo.gl/uGLfA2cFXs7RueeS6?g_st=ipc","address":"Πετράκη 5, Αθήνα 105 63","categoryIds":["coffee-brunch"],"categories":["Coffee & Brunch Spots"],"distanceKm":0.04020843425500028},{"id":"italianRestaurants_ef8284fad678","slug":"v1935-roof-garden-ef82","kind":"restaurant","name":"V1935 Roof Garden","lat":37.974997891356715,"lng":23.732428069404467,"url":"https://maps.app.goo.gl/TKodgxdpAuijQZCk7?g_st=ipc","address":"Βουλής 29, Αθήνα 105 57","categoryIds":["italian"],"categories":["Italian Restaurants"],"distanceKm":0.04357851393552688},{"id":"asianRestaurants_42df17dcd2e4","slug":"dosirak-42df","kind":"restaurant","name":"Dosirak","lat":37.97494107666411,"lng":23.732376863056064,"url":"https://maps.app.goo.gl/PwDtN3ePd5r7qvjc7?g_st=ipc","address":"Βουλής 33, Αθήνα 105 57","categoryIds":["asian"],"categories":["Asian Restaurants"],"distanceKm":0.04416740926567365},{"id":"rooftopLoungesRestaurants_a01decd3b001","slug":"ergon-house-athens-a01d","kind":"restaurant","name":"ERGON House Athens","lat":37.975246808550054,"lng":23.73151614516128,"url":"https://maps.app.goo.gl/B5dVNDQK9SeSRhFZ9?g_st=ipc","address":"23, Μητροπόλεως Street, Αθήνα 105 57","categoryIds":["rooftop-lounges"],"categories":["Rooftop Lounges"],"distanceKm":0.04419051760565819},{"id":"dessertsRestaurants_dd2783c4061c","slug":"my-cookie-dough-athens-dd27","kind":"restaurant","name":"My Cookie Dough Athens","lat":37.97549732457017,"lng":23.731646460060947,"url":"https://maps.app.goo.gl/h3es1mjnAZfnhipp6?g_st=ipc","address":"Petraki 7, Athina 105 63","categoryIds":["desserts"],"categories":["Dessert Shops"],"distanceKm":0.0448598126700497},{"id":"dessertsRestaurants_2434d906577a","slug":"le-greche-syntagma-2434","kind":"restaurant","name":"Le Greche Syntagma","lat":37.975295473634475,"lng":23.732572121627147,"url":"https://maps.app.goo.gl/8ERFwaLDZCRWvw329?g_st=ipc","address":"Μητροπόλεως 16, Αθήνα 105 63","categoryIds":["desserts"],"categories":["Dessert Shops"],"distanceKm":0.04916681840615511},{"id":"burgersRestaurants_fed9fc98ba72","slug":"lobby-athens-fed9","kind":"restaurant","name":"Lobby Athens","lat":37.97480226330857,"lng":23.732216902854162,"url":"https://maps.app.goo.gl/McpvxRFgv3HSY4VF6?g_st=ipc","address":"Βουλής 30, Αθήνα 105 57","categoryIds":["burgers"],"categories":["Burger Spots"],"distanceKm":0.04966958008268267}],"sameRegion":[],"mentionedGuides":[{"slug":"luxury-rooftop-restaurants-athens-el","title":"Πολυτελή Rooftop Εστιατόρια και Μπαρ στην Αθήνα"},{"slug":"luxury-rooftop-restaurants-athens","title":"Luxury Rooftop Restaurants & Bars in Athens"}],"canonicalSlug":"metropolis-roof-garden-45e8","isCanonicalEntity":false},"__N_SSG":true}