{"pageProps":{"entity":{"id":"municipalities_3f24476b7888","slug":"nikiti-3f24","kind":"municipality","name":"Νικήτη","lat":40.2215,"lng":23.6624,"region":"Χαλκιδική","name_en":"Nikiti","region_en":"Halkidiki"},"sameCategory":[],"nearby":[{"id":"dessertsRestaurants_2e19f32f107c","slug":"revani-me-pagoto-patisserie-anatoli-2e19","kind":"restaurant","name":"Revani me Pagoto - Patisserie Anatoli","lat":40.21741442419358,"lng":23.666604738726736,"url":"https://maps.app.goo.gl/h2Tc6Wrf9W1Td7877?g_st=ipc","address":"Nikiti 630 88","categoryIds":["desserts"],"categories":["Dessert Shops"],"distanceKm":0.5777873356964502},{"id":"fishTavernasRestaurants_eaca4ed31815","slug":"akrogiali-2-eaca","kind":"restaurant","name":"Akrogiali 2","lat":40.21686489057887,"lng":23.665587945674364,"url":"https://maps.app.goo.gl/oid3twRv2Aw1mCyb9?g_st=ipc","address":"Neakitou 1, Nikiti 630 88","categoryIds":["fish-tavernas"],"categories":["Fish Tavernas"],"distanceKm":0.5821542208507139},{"id":"coffeeBrunchRestaurants_67b37013fc99","slug":"day-by-day-67b3","kind":"restaurant","name":"Day by Day","lat":40.222448904043915,"lng":23.669671135590562,"url":"https://maps.app.goo.gl/HcoxLeAt4x4SJsFy8?g_st=ipc","address":"Λεωφόρος Σιθωνίας, Nikiti 630 88","categoryIds":["coffee-brunch"],"categories":["Coffee & Brunch Spots"],"distanceKm":0.6262911874170504},{"id":"dessertsRestaurants_98dd00cbac34","slug":"gelateria-ksilaki-98dd","kind":"restaurant","name":"Gelateria Ksilaki","lat":40.21685753813557,"lng":23.667097053863888,"url":"https://maps.app.goo.gl/YNZtpmoKz7NF28Uy9?g_st=ipc","address":"Unnamed Road, Nikiti 630 88","categoryIds":["desserts"],"categories":["Dessert Shops"],"distanceKm":0.6523265319687398},{"id":"cheapEatsRestaurants_777a89009202","slug":"o-gyros-tis-nikitis-777a","kind":"restaurant","name":"Ο Γύρος της Νικήτης","lat":40.21635208465205,"lng":23.666421853120887,"url":"https://maps.app.goo.gl/tK8o5vXTSUBvD7U3A?g_st=ipc","address":"Egialou, Nikiti 630 88","categoryIds":["cheap-eats"],"categories":["Gyros & Cheap Eats"],"distanceKm":0.6665408511756131},{"id":"fishTavernasRestaurants_5ddf9e953038","slug":"thymari-taverna-5ddf","kind":"restaurant","name":"Thymari taverna","lat":40.21611233902217,"lng":23.666893873150787,"url":"https://maps.app.goo.gl/PcZJeEER8XQLBzFZ8?g_st=ipc","address":"παραλία Νικήτης, Nikiti 630 88","categoryIds":["fish-tavernas"],"categories":["Fish Tavernas"],"distanceKm":0.7102713908641874},{"id":"greekRestaurants_f0a356ccb873","slug":"taverna-mantsios-f0a3","kind":"restaurant","name":"ΤΑΒΕΡΝΑ ΜΑΝΤΣΙΟΣ","lat":40.2251007447917,"lng":23.66996943488826,"url":"https://maps.app.goo.gl/TGb93Ar7UHWnmUaf8?g_st=ipc","address":"Νεακίτου 10, Νικήτη 630 88","categoryIds":["greek-restaurants"],"categories":["Greek Restaurants"],"distanceKm":0.7571727812983965},{"id":"greekRestaurants_f396e19049a3","slug":"alexandros-cafe-restaurant-bar-f396","kind":"restaurant","name":"Alexandros Cafe Restaurant Bar","lat":40.215334673838484,"lng":23.6678969632437,"url":"https://maps.app.goo.gl/Ro9BpyMU87qLU8Uc8?g_st=ipc","address":"Αιγιαλού 30, Νικήτη 630 88","categoryIds":["greek-restaurants"],"categories":["Greek Restaurants"],"distanceKm":0.8293499101947815}],"sameRegion":[{"id":"municipalities_1623a62b9782","slug":"peykochori-1623","kind":"municipality","name":"Πευκοχώρι","lat":39.9854,"lng":23.611,"region":"Χαλκιδική","name_en":"Pefkochori","region_en":"Halkidiki"},{"id":"municipalities_21964f0d30dc","slug":"voyrvoyroy-2196","kind":"municipality","name":"Βουρβουρού","lat":40.1985,"lng":23.7725,"region":"Χαλκιδική","name_en":"Vourvourou","region_en":"Halkidiki"},{"id":"municipalities_2e6aac1a10ea","slug":"kavoyrotrypes-2e6a","kind":"municipality","name":"Καβουρότρυπες","lat":40.1914,"lng":23.9761,"region":"Χαλκιδική","name_en":"Kavourotrypes","region_en":"Halkidiki"},{"id":"municipalities_9110079bb855","slug":"polychrono-9110","kind":"municipality","name":"Πολύχρονο","lat":40.0153,"lng":23.5327,"region":"Χαλκιδική","name_en":"Polichrono","region_en":"Halkidiki"},{"id":"municipalities_9881ef0d546d","slug":"sarti-9881","kind":"municipality","name":"Σάρτη","lat":40.092,"lng":23.9774,"region":"Χαλκιδική","name_en":"Sarti","region_en":"Halkidiki"},{"id":"municipalities_c1cea04425ed","slug":"kallithea-chalkidiki-c1ce","kind":"municipality","name":"Καλλιθέα Χαλκιδική","lat":40.08,"lng":23.448,"region":"Χαλκιδική","name_en":"Kallithea Halkidiki","region_en":"Halkidiki"},{"id":"municipalities_c475d7743b5a","slug":"kryopigi-c475","kind":"municipality","name":"Κρυοπηγή","lat":40.0403,"lng":23.4507,"region":"Χαλκιδική","name_en":"Kryopigi","region_en":"Halkidiki"}],"mentionedGuides":[],"canonicalSlug":"nikiti-3f24","isCanonicalEntity":true},"__N_SSG":true}