{"pageProps":{"entity":{"id":"cheapEatsRestaurants_3ea6371d1865","slug":"ochsenkopf-german-delicatessen-3ea6","kind":"restaurant","name":"Ochsenkopf German Delicatessen","lat":40.634945471087235,"lng":22.941783687986916,"url":"https://maps.app.goo.gl/B68oxS5kPucvmKVy7?g_st=ipc","address":"Αγορά Μοδιανο, Thessaloniki 546 24","categoryIds":["cheap-eats"],"categories":["Gyros & Cheap Eats"]},"sameCategory":[{"id":"cheapEatsRestaurants_5ddb8d5c463a","slug":"kyrios-mpampatsikos-5ddb","kind":"restaurant","name":"Κύριος Μπαμπάτσικος","lat":40.63461122232153,"lng":22.941727966275263,"url":"https://maps.app.goo.gl/dBrKhYFMn7bdAAyAA?g_st=ipc","address":"Vasileos Irakleiou 33, Thessaloniki 546 24","categoryIds":["cheap-eats"],"categories":["Gyros & Cheap Eats"]},{"id":"cheapEatsRestaurants_2a4da9b1c110","slug":"grn-2a4d","kind":"restaurant","name":"ΓΡΝ","lat":40.634922554090494,"lng":22.9424405001041,"url":"https://maps.app.goo.gl/QeUW3QZjeTvschnB8?g_st=ipc","address":"Ermou 24, Thessaloniki 546 24","categoryIds":["cheap-eats"],"categories":["Gyros & Cheap Eats"]},{"id":"cheapEatsRestaurants_e9c2d48343e0","slug":"bombidia-bombs-e9c2","kind":"restaurant","name":"Bombídia - Bombs","lat":40.63441434318281,"lng":22.94206825187552,"url":"https://maps.app.goo.gl/a5enHSGzpNb2rYAJ7?g_st=ipc","address":"Vasileos Irakleiou 35, 37, Thessaloniki 546 24","categoryIds":["cheap-eats"],"categories":["Gyros & Cheap Eats"]},{"id":"cheapEatsRestaurants_0768eebe37ba","slug":"o-gyros-tis-aristoteloys-0768","kind":"restaurant","name":"Ο Γύρος της Αριστοτέλους","lat":40.63507047582695,"lng":22.94368729541851,"url":"https://maps.app.goo.gl/j8pVp1d58tFR3FKR6?g_st=ipc","address":"Aristotélous 24, Thessaloniki 546 23","categoryIds":["cheap-eats"],"categories":["Gyros & Cheap Eats"]},{"id":"cheapEatsRestaurants_d643220ae6b0","slug":"thess-bao-d643","kind":"restaurant","name":"Thess Bao","lat":40.633724315611715,"lng":22.93899137586201,"url":"https://maps.app.goo.gl/eQJvB2FMkUEghr9y7?g_st=ipc","address":"Kalapothaki 3, Thessaloniki 546 45","categoryIds":["cheap-eats"],"categories":["Gyros & Cheap Eats"]},{"id":"cheapEatsRestaurants_d0809c48801b","slug":"22-soyvlakia-d080","kind":"restaurant","name":"22 Σουβλάκια","lat":40.632325575157445,"lng":22.941533229878075,"url":"https://maps.app.goo.gl/dAaaqBN4npr7HBBU7?g_st=ipc","address":"Aristotelous Sq 8, Thessaloniki 546 23","categoryIds":["cheap-eats"],"categories":["Gyros & Cheap Eats"]},{"id":"cheapEatsRestaurants_e0434e3ff629","slug":"kyr-giorgis-e043","kind":"restaurant","name":"Kyr Giorgis","lat":40.63768120747627,"lng":22.942676100417227,"url":"https://maps.app.goo.gl/BFLYuybZSdJEwfK87?g_st=ipc","address":"Βενιζέλου 54, Thessaloniki 546 31","categoryIds":["cheap-eats"],"categories":["Gyros & Cheap Eats"]},{"id":"cheapEatsRestaurants_3308da140a86","slug":"cantina-manara-3308","kind":"restaurant","name":"Cantina Manara","lat":40.637111408911565,"lng":22.9392252159668,"url":"https://maps.app.goo.gl/D5vAgy9G1TNsAAyJ9?g_st=ipc","address":"Στοά, Ermou 1, Thessaloniki 546 25","categoryIds":["cheap-eats"],"categories":["Gyros & Cheap Eats"]}],"nearby":[{"id":"burgersRestaurants_e1c3b2a2acd7","slug":"tarantino-modiano-e1c3","kind":"restaurant","name":"Tarantino Modiano","lat":40.63523520193276,"lng":22.941893523743314,"url":"https://maps.app.goo.gl/bUgobpjQbL4yxA2J7?g_st=ipc","address":"Vasileos Irakleiou 33, Thessaloniki 546 24","categoryIds":["burgers"],"categories":["Burger Spots"],"distanceKm":0.0335232713594132},{"id":"vegetarianRestaurants_32a8aea960ab","slug":"falafel-taste-middle-east-32a8","kind":"restaurant","name":"Falafel Taste Middle East","lat":40.63474906740278,"lng":22.94144363936892,"url":"https://maps.app.goo.gl/WjaRXr3X47WgLXLC6?g_st=ipc","address":"Agora Modiano, Vasileos Irakleiou 33, Thessaloniki 546 24","categoryIds":["vegetarian"],"categories":["Vegetarian Friendly Restaurants"],"distanceKm":0.03605983792187371},{"id":"cheapEatsRestaurants_5ddb8d5c463a","slug":"kyrios-mpampatsikos-5ddb","kind":"restaurant","name":"Κύριος Μπαμπάτσικος","lat":40.63461122232153,"lng":22.941727966275263,"url":"https://maps.app.goo.gl/dBrKhYFMn7bdAAyAA?g_st=ipc","address":"Vasileos Irakleiou 33, Thessaloniki 546 24","categoryIds":["cheap-eats"],"categories":["Gyros & Cheap Eats"],"distanceKm":0.03746301026158267},{"id":"greekRestaurants_4c3b01ea4aaf","slug":"bazagiazi-4c3b","kind":"restaurant","name":"Bazagiazi","lat":40.63449745236604,"lng":22.94197317773979,"url":"https://maps.app.goo.gl/aQvcxn9tCqZ7ihHN7?g_st=ipc","address":"Vasileos Irakleiou 35, Thessaloniki 546 24","categoryIds":["greek-restaurants"],"categories":["Greek Restaurants"],"distanceKm":0.05232061433522277},{"id":"cheapEatsRestaurants_2a4da9b1c110","slug":"grn-2a4d","kind":"restaurant","name":"ΓΡΝ","lat":40.634922554090494,"lng":22.9424405001041,"url":"https://maps.app.goo.gl/QeUW3QZjeTvschnB8?g_st=ipc","address":"Ermou 24, Thessaloniki 546 24","categoryIds":["cheap-eats"],"categories":["Gyros & Cheap Eats"],"distanceKm":0.05548231486115755},{"id":"cheapEatsRestaurants_e9c2d48343e0","slug":"bombidia-bombs-e9c2","kind":"restaurant","name":"Bombídia - Bombs","lat":40.63441434318281,"lng":22.94206825187552,"url":"https://maps.app.goo.gl/a5enHSGzpNb2rYAJ7?g_st=ipc","address":"Vasileos Irakleiou 35, 37, Thessaloniki 546 24","categoryIds":["cheap-eats"],"categories":["Gyros & Cheap Eats"],"distanceKm":0.06375367205822366},{"id":"fishTavernasRestaurants_34f5266090d9","slug":"frutti-di-mare-34f5","kind":"restaurant","name":"Frutti Di Mare","lat":40.63438694848729,"lng":22.940888460152426,"url":"https://maps.app.goo.gl/QXynDpqsYRkbv9EK8?g_st=ipc","address":"Komninon 20, Thessaloniki 546 24","categoryIds":["fish-tavernas"],"categories":["Fish Tavernas"],"distanceKm":0.09779393952315019},{"id":"dessertsRestaurants_dcc7c5a7a10c","slug":"proficherie-dcc7","kind":"restaurant","name":"PROFICHÉRIE","lat":40.635435050961,"lng":22.940491002950786,"url":"https://maps.app.goo.gl/vrmA8yCaVwtzavyo7?g_st=ic","address":"El. Venizelou 28, Thessaloniki 546 24","categoryIds":["desserts"],"categories":["Dessert Shops"],"distanceKm":0.12191009965012281}],"sameRegion":[],"mentionedGuides":[],"canonicalSlug":"ochsenkopf-german-delicatessen-3ea6","isCanonicalEntity":true},"__N_SSG":true}