{"pageProps":{"entity":{"id":"municipalities_55c07bf61bfe","slug":"oia-55c0","kind":"municipality","name":"Οία","lat":36.461,"lng":25.375,"region":"Σαντορίνη","name_en":"Oia","region_en":"Santorini"},"sameCategory":[],"nearby":[{"id":"dessertsRestaurants_ebef2944eed9","slug":"lolita-s-gelato-ebef","kind":"restaurant","name":"Lolita's Gelato","lat":36.46273695850675,"lng":25.376386479037105,"url":"https://maps.app.goo.gl/c2iaJjfqekF4QV9w5?g_st=ipc","address":"Oia 847 02","categoryIds":["desserts"],"categories":["Dessert Shops"],"distanceKm":0.22951523639996707},{"id":"luxuryDiningRestaurants_92281f88cd62","slug":"lauda-restaurant-9228","kind":"restaurant","name":"Lauda Restaurant","lat":36.461955784508554,"lng":25.377938602582883,"url":"https://maps.app.goo.gl/qsriKPJsQcgJ43x46?g_st=ipc","address":"Oia 847 02","categoryIds":["luxury-dining"],"categories":["Luxury Dining"],"distanceKm":0.283473769355468},{"id":"cheapEatsRestaurants_de78a5847b53","slug":"pitogyros-traditional-grill-house-gyros-souvlaki-kebab-de78","kind":"restaurant","name":"Pitogyros Traditional Grill House - Gyros, souvlaki, kebab.","lat":36.462570266691884,"lng":25.37797515114607,"url":"https://maps.app.goo.gl/Xyq1DhyUhw2mJaPq9?g_st=ipc","address":"Oia 847 02","categoryIds":["cheap-eats"],"categories":["Gyros & Cheap Eats"],"distanceKm":0.31824119933515926},{"id":"luxuryDiningRestaurants_1dc2bd6a8064","slug":"elements-restaurant-bar-1dc2","kind":"restaurant","name":"Elements Restaurant Bar","lat":36.46364006260335,"lng":25.371104539849476,"url":"https://maps.app.goo.gl/ehAKLfSTD13fa851A?g_st=ipc","address":"Oia 847 02","categoryIds":["luxury-dining"],"categories":["Luxury Dining"],"distanceKm":0.4555612875510789},{"id":"luxuryDiningRestaurants_ab3674135abd","slug":"lycabettus-restaurant-ab36","kind":"restaurant","name":"Lycabettus Restaurant","lat":36.4620987049079,"lng":25.379910060169035,"url":"https://maps.app.goo.gl/2mrH4kakyMDha6iV9?g_st=ipc","address":"Nik. Nomikou, Oía 847 02","categoryIds":["luxury-dining"],"categories":["Luxury Dining"],"distanceKm":0.45578143140680094},{"id":"vegetarianRestaurants_e61f564cf6f0","slug":"melitini-e61f","kind":"restaurant","name":"Melitini","lat":36.46251191786666,"lng":25.380930558895514,"url":"https://maps.app.goo.gl/diHJtayCn8kgFPxW7?g_st=ipc","address":"Oia 847 02","categoryIds":["vegetarian"],"categories":["Vegetarian Friendly Restaurants"],"distanceKm":0.55637130194008},{"id":"luxuryDiningRestaurants_473c799c8410","slug":"botrini-s-santorini-473c","kind":"restaurant","name":"Botrini's Santorini","lat":36.46201811215205,"lng":25.382543844805166,"url":"https://maps.app.goo.gl/e9tmihEjv2QRq6DKA?g_st=ipc","address":"Main Street, Nik. Nomikou, Oía 847 02","categoryIds":["luxury-dining"],"categories":["Luxury Dining"],"distanceKm":0.6840727845076698},{"id":"greekRestaurants_19a1aff10d3b","slug":"lefkes-santorini-19a1","kind":"restaurant","name":"Lefkes ΣΑΝΤΟΡΙΝΗ","lat":36.46311561251902,"lng":25.393685023435904,"url":"https://maps.app.goo.gl/6kjSiC5Bk9fdfy1b8?g_st=ipc","address":"Φοινικιά 847 02","categoryIds":["greek-restaurants"],"categories":["Greek Restaurants"],"distanceKm":1.6874532620638258}],"sameRegion":[{"id":"municipalities_1eedf0b4b9bd","slug":"perissa-1eed","kind":"municipality","name":"Περίσσα","lat":36.3536,"lng":25.4739,"region":"Σαντορίνη","name_en":"Perissa","region_en":"Santorini"},{"id":"municipalities_4a175944114f","slug":"kamari-4a17","kind":"municipality","name":"Καμάρι","lat":36.3711,"lng":25.4804,"region":"Σαντορίνη","name_en":"Kamari","region_en":"Santorini"},{"id":"municipalities_a8cf7f89f0ad","slug":"imerovigli-a8cf","kind":"municipality","name":"Ημεροβίγλι","lat":36.4352,"lng":25.4235,"region":"Σαντορίνη","name_en":"Imerovigli","region_en":"Santorini"},{"id":"municipalities_d0dfb358cefd","slug":"fira-d0df","kind":"municipality","name":"Φηρά","lat":36.4167,"lng":25.4326,"region":"Σαντορίνη","name_en":"Fira","region_en":"Santorini"}],"mentionedGuides":[],"canonicalSlug":"oia-55c0","isCanonicalEntity":true},"__N_SSG":true}