{"pageProps":{"entity":{"id":"municipalities_a230abd1223f","slug":"oropos-a230","kind":"municipality","name":"Ωρωπός","lat":38.3,"lng":23.7833,"region":"Ανατολικά Προάστια","name_en":"Oropos","region_en":"Eastern Suburbs"},"sameCategory":[],"nearby":[{"id":"greekRestaurants_fb8150b1b5bf","slug":"taverna-o-litsas-fb81","kind":"restaurant","name":"Ταβέρνα Ο Λίτσας","lat":38.2808566827325,"lng":23.792798463384955,"url":"https://maps.app.goo.gl/DPJMb7ZiPi9MTzov7","address":"Λεωφ. Αθηνών Ωρωπού, Μήλεσι Αττικής 190 11","categoryIds":["greek-restaurants"],"categories":["Greek Restaurants"],"distanceKm":2.2843614136252928},{"id":"greekRestaurants_e4ab2f008904","slug":"paradosiako-kafeneio-kotsannitsa-e4ab","kind":"restaurant","name":"Παραδοσιακό Καφενείο ΚωτσΑνΝίτσα","lat":38.23932131119346,"lng":23.792367425380203,"url":"https://maps.app.goo.gl/QsRPY3vUeGKY5wLB6","address":"Λεωφόρος Αθηνών Χαλκίδος, Μαλακάσα 190 11","categoryIds":["greek-restaurants"],"categories":["Greek Restaurants"],"distanceKm":6.793438238142193},{"id":"greekRestaurants_eab29c812967","slug":"to-syntrivani-perifanos-eab2","kind":"restaurant","name":"Το Συντριβάνι-Περήφανος","lat":38.239213748428575,"lng":23.795988231331933,"url":"https://maps.app.goo.gl/jUCxRPxswFJerx5H9","address":"Λεωφόρος Αθηνών, Μαλακάσα 190 11","categoryIds":["greek-restaurants"],"categories":["Greek Restaurants"],"distanceKm":6.849284099158157},{"id":"familyFriendly_1a17238d519a","slug":"adventure-park-1a17","kind":"restaurant","name":"Adventure Park","lat":38.23252814955923,"lng":23.80993374825537,"url":"https://maps.app.goo.gl/uqiE3UGiFvDWS7Da8?g_st=ipc","address":"Επαρ.Οδ. Μαλακάσας-Μαρκόπουλου, Μαλακάσα 190 11","categoryIds":["family-friendly"],"categories":["Kid Friendly Locations"],"distanceKm":7.854590276432349},{"id":"familyFriendly_0acb8f4f4e6f","slug":"mia-fora-ki-enan-kairo-the-greeks-0acb","kind":"restaurant","name":"Μια φορά κι έναν καιρό - the Greeks","lat":38.25621870422675,"lng":23.68492152014709,"url":"https://maps.app.goo.gl/g4HUGMwd4cCRvGvE8?g_st=ipc","address":"Παναγίας Γρηγορούσης, Αυλώνας 190 11","categoryIds":["family-friendly"],"categories":["Kid Friendly Locations"],"distanceKm":9.871345288911051},{"id":"familyFriendly_a642c6dd69d1","slug":"limni-mpeletsi-a642","kind":"restaurant","name":"Λίμνη Μπελέτσι","lat":38.21272884882845,"lng":23.804742885101245,"url":"https://maps.app.goo.gl/FTF7uvik6S36p7TQ9?g_st=ipc","address":"Ιπποκράτειος Πολιτεία 190 14","categoryIds":["family-friendly"],"categories":["Kid Friendly Locations"],"distanceKm":9.883078293162562},{"id":"municipalities_6af6e7b2b379","slug":"eretria-6af6","kind":"municipality","name":"Ερέτρια","lat":38.39,"lng":23.8,"region":"Στερεά Ελλάδα","name_en":"Eretria","region_en":"Central Greece","distanceKm":10.112961790600894},{"id":"fishTavernasRestaurants_63c1df7c960e","slug":"remetzo-63c1","kind":"restaurant","name":"Ρεμέτζο","lat":38.39112282038602,"lng":23.797236892149673,"url":"https://maps.app.goo.gl/oqv397oz79KFz6w69?g_st=ipc","address":"Λεωφ. Αρχαίου Θεάτρου 42, Ερέτρια 340 08","categoryIds":["fish-tavernas"],"categories":["Fish Tavernas"],"distanceKm":10.205031253270153}],"sameRegion":[{"id":"municipalities_0343e4758ade","slug":"saronikos-0343","kind":"municipality","name":"Σαρωνικός","lat":37.8333,"lng":23.9333,"region":"Ανατολικά Προάστια","name_en":"Saronikos","region_en":"Eastern Suburbs"},{"id":"municipalities_0633126f3d11","slug":"rafina-0633","kind":"municipality","name":"Ραφήνα","lat":38,"lng":24,"region":"Ανατολικά Προάστια","name_en":"Rafina","region_en":"Eastern Suburbs"},{"id":"municipalities_1f26dbe948b9","slug":"pikermi-1f26","kind":"municipality","name":"Πικέρμι","lat":38,"lng":23.9,"region":"Ανατολικά Προάστια","name_en":"Pikermi","region_en":"Eastern Suburbs"},{"id":"municipalities_3b0d7e6ae7e7","slug":"marathonas-3b0d","kind":"municipality","name":"Μαραθώνας","lat":38.15,"lng":23.95,"region":"Ανατολικά Προάστια","name_en":"Marathon","region_en":"Eastern Suburbs"},{"id":"municipalities_84c97cf0a61f","slug":"layreotiki-84c9","kind":"municipality","name":"Λαυρεωτική","lat":37.7333,"lng":24.0667,"region":"Ανατολικά Προάστια","name_en":"Lavreotiki","region_en":"Eastern Suburbs"},{"id":"municipalities_a1757f1f5877","slug":"koropi-a175","kind":"municipality","name":"Κορωπί","lat":37.8833,"lng":23.9,"region":"Ανατολικά Προάστια","name_en":"Koropi","region_en":"Eastern Suburbs"},{"id":"municipalities_a9741c8ba56d","slug":"artemida-a974","kind":"municipality","name":"Αρτέμιδα","lat":37.95,"lng":24,"region":"Ανατολικά Προάστια","name_en":"Artemida","region_en":"Eastern Suburbs"},{"id":"municipalities_bd27c693edbc","slug":"anthoysa-bd27","kind":"municipality","name":"Ανθούσα","lat":38.04,"lng":23.87,"region":"Ανατολικά Προάστια","name_en":"Anthousa","region_en":"Eastern Suburbs"}],"mentionedGuides":[],"canonicalSlug":"oropos-a230","isCanonicalEntity":true},"__N_SSG":true}