{"pageProps":{"entity":{"id":"familyFriendly_1f20e7775883","slug":"pantheon-water-park-crete-1f20","kind":"restaurant","name":"PANTHEON WATER PARK | CRETE","lat":35.33123334208483,"lng":25.379236274931273,"url":"https://maps.app.goo.gl/HkckbLGJwUu91L4a6?g_st=ic","address":"Σολωμού Τέρμα, Anissaras 700 14","categoryIds":["family-friendly"],"categories":["Kid Friendly Locations"]},"sameCategory":[{"id":"familyFriendly_1ddd662e5e58","slug":"labyrinth-park-1ddd","kind":"restaurant","name":"Labyrinth Park","lat":35.2948469322292,"lng":25.35746794187921,"url":"https://maps.app.goo.gl/hzfaUBDJZ9VG57An9?g_st=ipc","address":"Hersonissos 700 14","categoryIds":["family-friendly"],"categories":["Kid Friendly Locations"]},{"id":"familyFriendly_b97882ce1ef1","slug":"gouves-water-park-water-slides-b978","kind":"restaurant","name":"Gouves Water Park Water Slides","lat":35.330529620260506,"lng":25.30109647574127,"url":"https://maps.app.goo.gl/VVxJNmLN85fw55Gd7?g_st=ipc","address":"88J2+J7, Kato Gouves 700 14","categoryIds":["family-friendly"],"categories":["Kid Friendly Locations"]},{"id":"familyFriendly_f556661b0d5a","slug":"dinosaur-park-f556","kind":"restaurant","name":"Dinosaur Park","lat":35.32673458782771,"lng":25.287539183910724,"url":"https://maps.app.goo.gl/Bv4uWJJC4Gk8ssCE8?g_st=ipc","address":"DEKK, Gournes 715 00","categoryIds":["family-friendly"],"categories":["Kid Friendly Locations"]},{"id":"familyFriendly_073dab707c07","slug":"cretaquarium-thalassokosmos-073d","kind":"restaurant","name":"CRETAquarium Thalassokosmos","lat":35.332361553594524,"lng":25.282456113974675,"url":"https://maps.app.goo.gl/4Hf2kigPt77kQGn87?g_st=ipc","address":"Heraklion 710 03","categoryIds":["family-friendly"],"categories":["Kid Friendly Locations"]},{"id":"familyFriendly_5c291a1b67e5","slug":"sport-point-5c29","kind":"restaurant","name":"Sport Point","lat":35.329005872034685,"lng":25.15446679791221,"url":"https://maps.app.goo.gl/UUXRrELKzb2aEokB8?g_st=ipc","address":"Καστρινογιαννάκη 1 και, Dervenakion, Iraklio 714 09","categoryIds":["family-friendly"],"categories":["Kid Friendly Locations"]},{"id":"familyFriendly_e3a260aa1584","slug":"calcetto-e3a2","kind":"restaurant","name":"Calcetto","lat":35.35988785622983,"lng":24.496442751230653,"url":"https://maps.app.goo.gl/acAH5pkUBqCJVJGj6?g_st=ipc","address":"Ιωάννου Καλαϊτζάκη, Rethymno 741 00","categoryIds":["family-friendly"],"categories":["Kid Friendly Locations"]},{"id":"familyFriendly_179239195c85","slug":"biotopoi-of-crete-nature-park-1792","kind":"restaurant","name":"Biotopoi of Crete Nature Park","lat":35.36002627927518,"lng":24.496326916546945,"url":"https://maps.app.goo.gl/bgFXGA2JPNnDk4Nh8?g_st=ipc","address":"Kalaitzakis Kastelakia, Rethymno 741 33","categoryIds":["family-friendly"],"categories":["Kid Friendly Locations"]},{"id":"familyFriendly_647731b73787","slug":"lake-kournas-6477","kind":"restaurant","name":"Lake Kournas","lat":35.33085393719484,"lng":24.275768556511693,"url":"https://maps.app.goo.gl/jBCqSTmypZMRabtf7?g_st=ipc","address":"Georgioupoli 730 07","categoryIds":["family-friendly"],"categories":["Kid Friendly Locations"]}],"nearby":[{"id":"municipalities_d1ff977f1393","slug":"chersonisos-d1ff","kind":"municipality","name":"Χερσόνησος","lat":35.3167,"lng":25.3833,"aliases":["Xersonissos","Hersonissos"],"region":"Κεντρική Κρήτη","name_en":"Hersonissos","region_en":"Central Crete","distanceKm":1.6575545332192052},{"id":"familyFriendly_1ddd662e5e58","slug":"labyrinth-park-1ddd","kind":"restaurant","name":"Labyrinth Park","lat":35.2948469322292,"lng":25.35746794187921,"url":"https://maps.app.goo.gl/hzfaUBDJZ9VG57An9?g_st=ipc","address":"Hersonissos 700 14","categoryIds":["family-friendly"],"categories":["Kid Friendly Locations"],"distanceKm":4.5023623774006385},{"id":"familyFriendly_b97882ce1ef1","slug":"gouves-water-park-water-slides-b978","kind":"restaurant","name":"Gouves Water Park Water Slides","lat":35.330529620260506,"lng":25.30109647574127,"url":"https://maps.app.goo.gl/VVxJNmLN85fw55Gd7?g_st=ipc","address":"88J2+J7, Kato Gouves 700 14","categoryIds":["family-friendly"],"categories":["Kid Friendly Locations"],"distanceKm":7.088939380972033},{"id":"municipalities_847eab0fe55c","slug":"stalida-847e","kind":"municipality","name":"Σταλίδα","lat":35.2932,"lng":25.4426,"region":"Κρήτη","name_en":"Stalida","region_en":"Crete","distanceKm":7.1373070464494415},{"id":"familyFriendly_f556661b0d5a","slug":"dinosaur-park-f556","kind":"restaurant","name":"Dinosaur Park","lat":35.32673458782771,"lng":25.287539183910724,"url":"https://maps.app.goo.gl/Bv4uWJJC4Gk8ssCE8?g_st=ipc","address":"DEKK, Gournes 715 00","categoryIds":["family-friendly"],"categories":["Kid Friendly Locations"],"distanceKm":8.333589463788549},{"id":"familyFriendly_073dab707c07","slug":"cretaquarium-thalassokosmos-073d","kind":"restaurant","name":"CRETAquarium Thalassokosmos","lat":35.332361553594524,"lng":25.282456113974675,"url":"https://maps.app.goo.gl/4Hf2kigPt77kQGn87?g_st=ipc","address":"Heraklion 710 03","categoryIds":["family-friendly"],"categories":["Kid Friendly Locations"],"distanceKm":8.780277821818677},{"id":"municipalities_0abaeb44cae9","slug":"malia-0aba","kind":"municipality","name":"Μάλια","lat":35.283,"lng":25.462,"region":"Κρήτη","name_en":"Malia","region_en":"Crete","distanceKm":9.228638487943421},{"id":"wineriesVineyards_c0a0097ca7d1","slug":"scalarea-estate-c0a0","kind":"restaurant","name":"Scalarea Estate","lat":35.27599918818081,"lng":25.19305839713735,"url":"https://maps.app.goo.gl/NubfvqJ28uAYTWoX7?g_st=ipc","address":"Σκαλάνι 701 00","categoryIds":["wineries-vineyards"],"categories":["Wineries & Vineyards"],"distanceKm":17.976666199547843}],"sameRegion":[],"mentionedGuides":[{"slug":"choose-perfect-greek-island-el","title":"Πώς να Επιλέξετε το Ιδανικό Ελληνικό Νησί"},{"slug":"choose-perfect-greek-island","title":"How to Choose the Perfect Greek Island for Your Trip"},{"slug":"greece-weather-swimming-ferry-guide-el","title":"Πότε να Επισκεφτείτε την Ελλάδα: Καιρός & Κολύμπι"},{"slug":"greece-weather-swimming-ferry-guide","title":"When to Visit Greece: Weather, Swimming & Ferries"},{"slug":"tap-water-safe-greece-el","title":"Είναι Ασφαλές να Πίνετε Νερό Βρύσης στην Ελλάδα;"},{"slug":"tap-water-safe-greece","title":"Is Tap Water Safe to Drink in Greece?"},{"slug":"traveling-to-greece-on-a-budget-el","title":"Ταξιδι στην Ελλαδα με μικρο budget"},{"slug":"traveling-to-greece-on-a-budget","title":"Traveling to Greece on a Budget"}],"canonicalSlug":"pantheon-water-park-crete-1f20","isCanonicalEntity":true},"__N_SSG":true}