{"pageProps":{"entity":{"id":"coffeeBrunchRestaurants_b9249c7456d4","slug":"patriko-pub-cafe-b924","kind":"restaurant","name":"Patriko Pub-Cafe","lat":36.844945849235245,"lng":22.259663624938703,"url":"https://maps.app.goo.gl/cmXtN3A11tRUN13MA?g_st=ipc","address":"Παραλία Στούπας, Stoupa 240 24","categoryIds":["coffee-brunch"],"categories":["Coffee & Brunch Spots"]},"sameCategory":[{"id":"coffeeBrunchRestaurants_de7e3474dbb3","slug":"bouka-bouka-mare-de7e","kind":"restaurant","name":"Bouka Bouka Mare","lat":37.013989599006756,"lng":21.99717016667302,"url":"https://maps.app.goo.gl/8DUAGWFE2uqSxjoi6?g_st=ipc","address":"Παραλία, Messini 242 00","categoryIds":["coffee-brunch"],"categories":["Coffee & Brunch Spots"]},{"id":"coffeeBrunchRestaurants_63f25ca28818","slug":"ear-cafe-bar-63f2","kind":"restaurant","name":"Έαρ Cafe Bar","lat":37.67079207904159,"lng":22.182043630957757,"url":"https://maps.app.goo.gl/JnZa27RuEpaKVL4p6?g_st=ipc","address":"Τρύφωνα Ζαχαρόπουλου, Vitina 220 10","categoryIds":["coffee-brunch"],"categories":["Coffee & Brunch Spots"]},{"id":"coffeeBrunchRestaurants_4eafd9c8fe54","slug":"ar-ko-4eaf","kind":"restaurant","name":"Ar&Ko","lat":37.565832099209665,"lng":22.80288803557191,"url":"https://maps.app.goo.gl/VsqimzGRSLvrL3FN7?g_st=ipc","address":"Πάρκο Κολοκοτρώνη, Vasileos Pavlou, Nafplio 211 00","categoryIds":["coffee-brunch"],"categories":["Coffee & Brunch Spots"]},{"id":"coffeeBrunchRestaurants_1d9f7f941901","slug":"liberty-view-of-nafplio-1d9f","kind":"restaurant","name":"Liberty View Of Nafplio","lat":37.56620305969031,"lng":22.806201213990434,"url":"https://maps.app.goo.gl/ZB4UYRxyx55zXBkS9?g_st=ipc","address":"Sidiras Merarchias 39, Nafplio 211 00","categoryIds":["coffee-brunch"],"categories":["Coffee & Brunch Spots"]},{"id":"coffeeBrunchRestaurants_24def4a9906d","slug":"ydroneta-24de","kind":"restaurant","name":"Υδρονέτα","lat":37.35156953668086,"lng":23.462454743451826,"url":"https://maps.app.goo.gl/JdZyRYb4EEJyr1MGA?g_st=ipc","address":"Επαρ.Οδ. Μανδρακίου-Μωλόυ, Ύδρα 180 40","categoryIds":["coffee-brunch"],"categories":["Coffee & Brunch Spots"]},{"id":"coffeeBrunchRestaurants_6a007e672d77","slug":"the-pirate-bar-6a00","kind":"restaurant","name":"The Pirate Bar","lat":37.34970734644238,"lng":23.46509825080948,"url":"https://maps.app.goo.gl/kHR9XPEtdhdttpmr9?g_st=ipc","address":"Βότση, Ύδρα 180 40","categoryIds":["coffee-brunch"],"categories":["Coffee & Brunch Spots"]},{"id":"coffeeBrunchRestaurants_e7e97fb2d3e5","slug":"anemos-cafe-bar-e7e9","kind":"restaurant","name":"Anemos Cafe Bar","lat":37.77116024105471,"lng":21.29250825374054,"url":"https://maps.app.goo.gl/M2pxCK9uxiBVApkD7?g_st=ipc","address":"Kourouta 272 00","categoryIds":["coffee-brunch"],"categories":["Coffee & Brunch Spots"]},{"id":"coffeeBrunchRestaurants_52f2d70fc21e","slug":"to-mikro-cafe-52f2","kind":"restaurant","name":"Το Μικρό Cafe","lat":37.69190688153916,"lng":23.451237398771788,"url":"https://maps.app.goo.gl/KwgXY17CGsEWtAUX7?g_st=ipc","address":"Unnamed Road, Πέρδικα 180 10","categoryIds":["coffee-brunch"],"categories":["Coffee & Brunch Spots"]}],"nearby":[{"id":"municipalities_c096fa7dc3e8","slug":"stoypa-c096","kind":"municipality","name":"Στούπα","lat":36.8437,"lng":22.2511,"region":"Μάνη","name_en":"Stoupa","region_en":"Mani","distanceKm":0.7745298661852703},{"id":"municipalities_916c7fc5dbd0","slug":"kardamyli-916c","kind":"municipality","name":"Καρδαμύλη","lat":36.887,"lng":22.231,"region":"Μάνη","name_en":"Kardamyli","region_en":"Mani","distanceKm":5.326262206725635},{"id":"greekRestaurants_bea663c90687","slug":"old-kardamili-traditional-restaurant-bea6","kind":"restaurant","name":"Old Kardamili Traditional Restaurant","lat":36.89060323769192,"lng":22.234603142422902,"url":"https://maps.app.goo.gl/6q92ZmmxYbRjcPAK7?g_st=ipc","address":"Καρδαμύλη 240 22","categoryIds":["greek-restaurants"],"categories":["Greek Restaurants"],"distanceKm":5.544778454084945},{"id":"fishTavernasRestaurants_46da75bbca86","slug":"kitro-beach-bar-46da","kind":"restaurant","name":"KITRO beach bar","lat":36.929308748219135,"lng":22.141911839670122,"url":"https://maps.app.goo.gl/UZ9gptAC7Z6jkYbL6?g_st=ipc","address":"Kitries 240 16","categoryIds":["fish-tavernas"],"categories":["Fish Tavernas"],"distanceKm":14.059453832866831},{"id":"greekRestaurants_4b292579b6c1","slug":"kastraki-4b29","kind":"restaurant","name":"Καστράκι","lat":36.99814863061726,"lng":22.16327783385712,"url":"https://maps.app.goo.gl/ruMr5U1HpLAsRyMj8?g_st=ipc","address":"Verga, Καλαμάτα 241 00","categoryIds":["greek-restaurants"],"categories":["Greek Restaurants"],"distanceKm":19.068805491430673},{"id":"fishTavernasRestaurants_665f7217dc6b","slug":"black-pirate-665f","kind":"restaurant","name":"Black Pirate","lat":36.690856383249425,"lng":22.389756995558262,"url":"https://maps.app.goo.gl/heQpgB74pYJ6gzkA7?g_st=ipc","address":"Νέο Οίτυλο 230 62","categoryIds":["fish-tavernas"],"categories":["Fish Tavernas"],"distanceKm":20.684645947427832},{"id":"luxuryDiningRestaurants_572c742b427a","slug":"teloneio-572c","kind":"restaurant","name":"Teloneio","lat":36.679751486113695,"lng":22.377303718290054,"url":"https://maps.app.goo.gl/yvA5KkBJg5eZfsvV9?g_st=ipc","address":"Limeni 230 62","categoryIds":["luxury-dining"],"categories":["Luxury Dining"],"distanceKm":21.14785061523156},{"id":"municipalities_509e8926d849","slug":"areopoli-509e","kind":"municipality","name":"Αρεόπολη","lat":36.6667,"lng":22.3833,"region":"Μάνη","name_en":"Areopoli","region_en":"Mani","distanceKm":22.674979462587952}],"sameRegion":[],"mentionedGuides":[],"canonicalSlug":"patriko-pub-cafe-b924","isCanonicalEntity":true},"__N_SSG":true}