{"pageProps":{"entity":{"id":"municipalities_af26c33fb168","slug":"plaka-milos-af26","kind":"municipality","name":"Πλάκα Μήλος","lat":36.744,"lng":24.425,"region":"Μήλος","name_en":"Plaka Milos","region_en":"Milos"},"sameCategory":[],"nearby":[{"id":"municipalities_e18b28aacc13","slug":"milos-e18b","kind":"municipality","name":"Μήλος","lat":36.7446,"lng":24.426,"aliases":["Μηλος"],"region":"Κυκλάδες","name_en":"Milos","region_en":"Cyclades","distanceKm":0.1113117898417366},{"id":"rooftopLoungesRestaurants_55f4048d25e6","slug":"mosaic-milos-55f4","kind":"restaurant","name":"Mosaic Milos","lat":36.744311630154215,"lng":24.421917685649166,"url":"https://maps.app.goo.gl/w6QH5tCXxfavUiaSA?g_st=ipc","address":"Plaka 848 00","categoryIds":["rooftop-lounges"],"categories":["Rooftop Lounges"],"distanceKm":0.2768182061024181},{"id":"coffeeBrunchRestaurants_22ed699a380f","slug":"mosaic-milos-22ed","kind":"restaurant","name":"Mosaic Milos","lat":36.74431276131015,"lng":24.421917244173116,"url":"https://maps.app.goo.gl/5Mzweh8YnbTNhVaQ9?g_st=ipc","address":"Plaka 848 00","categoryIds":["coffee-brunch"],"categories":["Coffee & Brunch Spots"],"distanceKm":0.2768730018956418},{"id":"municipalities_89c635fb5cca","slug":"adamantas-89c6","kind":"municipality","name":"Αδάμαντας","lat":36.7236,"lng":24.4446,"region":"Μήλος","name_en":"Adamas","region_en":"Milos","distanceKm":2.8629137238070483},{"id":"dessertsRestaurants_227e46360090","slug":"aggeliki-ice-cream-shop-227e","kind":"restaurant","name":"Aggeliki ice cream shop","lat":36.724956307095454,"lng":24.446679354720963,"url":"https://maps.app.goo.gl/Lr6pCYmiGibrxw1B7?g_st=ipc","address":"Greece, Adamas 848 00","categoryIds":["desserts"],"categories":["Dessert Shops"],"distanceKm":2.866423890101277},{"id":"luxuryDiningRestaurants_9f9cf29a5760","slug":"makris-milos-fine-dining-restaurant-9f9c","kind":"restaurant","name":"Makris Milos Fine Dining Restaurant","lat":36.744626545035004,"lng":24.481317634143164,"url":"https://maps.app.goo.gl/DyjWXnMeBVwqWcfy6?g_st=ipc","address":"Mytakas, Island 848 00","categoryIds":["luxury-dining"],"categories":["Luxury Dining"],"distanceKm":5.018495219794111},{"id":"municipalities_9168baac00c3","slug":"pollonia-9168","kind":"municipality","name":"Πολλώνια","lat":36.7534,"lng":24.5087,"region":"Μήλος","name_en":"Pollonia","region_en":"Milos","distanceKm":7.5303013962334635},{"id":"wineriesVineyards_946eb8e58cb0","slug":"kostantakis-winery-946e","kind":"restaurant","name":"Kostantakis Winery","lat":36.75755644321186,"lng":24.52676070016812,"url":"https://maps.app.goo.gl/6jEcs57aPdcQLmi17?g_st=ipc","address":"Πολλώνια 848 00","categoryIds":["wineries-vineyards"],"categories":["Wineries & Vineyards"],"distanceKm":9.190773715059281}],"sameRegion":[{"id":"municipalities_89c635fb5cca","slug":"adamantas-89c6","kind":"municipality","name":"Αδάμαντας","lat":36.7236,"lng":24.4446,"region":"Μήλος","name_en":"Adamas","region_en":"Milos"},{"id":"municipalities_9168baac00c3","slug":"pollonia-9168","kind":"municipality","name":"Πολλώνια","lat":36.7534,"lng":24.5087,"region":"Μήλος","name_en":"Pollonia","region_en":"Milos"}],"mentionedGuides":[{"slug":"acropolis-complete-guide-el","title":"Επίσκεψη στην Ακρόπολη & το Μουσείο Ακρόπολης"},{"slug":"acropolis-complete-guide","title":"Visiting the Acropolis & Acropolis Museum"},{"slug":"athens-hop-on-hop-off-guide-el","title":"Οδηγός για τα Hop-On-Hop-Off Λεωφορεία της Αθήνας"},{"slug":"athens-hop-on-hop-off-guide","title":"Ultimate Guide to Athens Hop-On-Hop-Off Bus Tours"},{"slug":"athens-layover-6-hours-guide-el","title":"Πώς να Αξιοποιήσετε 6 Ώρες Αναμονής στην Αθήνα"},{"slug":"athens-layover-6-hours-guide","title":"How to Spend a 6 Hour Layover in Athens"},{"slug":"athens-live-greek-music-guide-el","title":"Ζωντανή Ελληνική Μουσική Αθήνα: Οδηγός για Μπουζούκια"},{"slug":"athens-live-greek-music-guide","title":"Live Greek Music in Athens: Bouzoukia & Taverns Guide"}],"canonicalSlug":"plaka-milos-af26","isCanonicalEntity":true},"__N_SSG":true}