{"pageProps":{"entity":{"id":"municipalities_9110079bb855","slug":"polychrono-9110","kind":"municipality","name":"Πολύχρονο","lat":40.0153,"lng":23.5327,"region":"Χαλκιδική","name_en":"Polichrono","region_en":"Halkidiki"},"sameCategory":[],"nearby":[{"id":"coffeeBrunchRestaurants_aaacdfd97bc2","slug":"lemonis-bakery-aaac","kind":"restaurant","name":"Lemonis Bakery","lat":40.01696151934303,"lng":23.52512566073754,"url":"https://maps.app.goo.gl/xaGsvgZfv5mMRi2e6?g_st=ipc","address":"Polychrono 630 85","categoryIds":["coffee-brunch"],"categories":["Coffee & Brunch Spots"],"distanceKm":0.6709690048539172},{"id":"coffeeBrunchRestaurants_b84b53e707eb","slug":"crystal-beach-bar-b84b","kind":"restaurant","name":"Crystal Beach Bar","lat":40.02336409343884,"lng":23.51395324156485,"url":"https://maps.app.goo.gl/Q863Q6e1e1985SvJ9?g_st=ipc","address":"Unnamed Road, Kassandra 630 85","categoryIds":["coffee-brunch"],"categories":["Coffee & Brunch Spots"],"distanceKm":1.830995347913992},{"id":"coffeeBrunchRestaurants_9b3f9081336d","slug":"amaya-beach-club-9b3f","kind":"restaurant","name":"Amaya Beach Club","lat":40.026446407870004,"lng":23.507188076460846,"url":"https://maps.app.goo.gl/DziL4jUhyUbQGmrNA?g_st=ipc","address":"2GG4+9J, Pallini 630 85","categoryIds":["coffee-brunch"],"categories":["Coffee & Brunch Spots"],"distanceKm":2.501139924004683},{"id":"coffeeBrunchRestaurants_65ba92d0cd82","slug":"golden-beach-near-paliouri-65ba","kind":"restaurant","name":"Golden Beach Near Paliouri","lat":40.00000157623716,"lng":23.566669631082956,"url":"https://maps.app.goo.gl/BuoQtJYMzAyirA8L6?g_st=ipc","address":"Pallini 630 85","categoryIds":["coffee-brunch"],"categories":["Coffee & Brunch Spots"],"distanceKm":3.356258833554714},{"id":"cheapEatsRestaurants_e78668bce22c","slug":"garry-s-e786","kind":"restaurant","name":"Garry's","lat":40.000628811076744,"lng":23.573772244228277,"url":"https://maps.app.goo.gl/AswmP29i78TmQa9F9?g_st=ipc","address":"plateia, Chaniotis 630 85","categoryIds":["cheap-eats"],"categories":["Gyros & Cheap Eats"],"distanceKm":3.859831270151138},{"id":"dessertsRestaurants_4d9f43af452c","slug":"patisserie-achlatis-4d9f","kind":"restaurant","name":"patisserie Achlatis","lat":40.0008948533071,"lng":23.574509488353804,"url":"https://maps.app.goo.gl/LLNEhXXp3PJCCKgu7?g_st=ipc","address":"Chaniotis 630 85","categoryIds":["desserts"],"categories":["Dessert Shops"],"distanceKm":3.904593623435548},{"id":"coffeeBrunchRestaurants_1ac37112f669","slug":"achinos-tuti-beach-halkidiki-1ac3","kind":"restaurant","name":"Achinos Tuti Beach Halkidiki","lat":39.999483989821414,"lng":23.582157727223603,"url":"https://maps.app.goo.gl/diBbGVkfHMvFE7VE7?g_st=ipc","address":"Nisos Beach, Chaniotis 630 85","categoryIds":["coffee-brunch"],"categories":["Coffee & Brunch Spots"],"distanceKm":4.564746403262022},{"id":"greekRestaurants_51d0de5678c5","slug":"mnemes-farm-51d0","kind":"restaurant","name":"Mnēmes Farm","lat":39.995744895148555,"lng":23.586019155143934,"url":"https://maps.app.goo.gl/Yr8SQnhBoShFTSkP6?g_st=ipc","address":"Εκτός Οικισμού Πευκοχωρίου, Πευκοχώρι 630 85","categoryIds":["greek-restaurants"],"categories":["Greek Restaurants"],"distanceKm":5.0350965044553115}],"sameRegion":[{"id":"municipalities_1623a62b9782","slug":"peykochori-1623","kind":"municipality","name":"Πευκοχώρι","lat":39.9854,"lng":23.611,"region":"Χαλκιδική","name_en":"Pefkochori","region_en":"Halkidiki"},{"id":"municipalities_21964f0d30dc","slug":"voyrvoyroy-2196","kind":"municipality","name":"Βουρβουρού","lat":40.1985,"lng":23.7725,"region":"Χαλκιδική","name_en":"Vourvourou","region_en":"Halkidiki"},{"id":"municipalities_2e6aac1a10ea","slug":"kavoyrotrypes-2e6a","kind":"municipality","name":"Καβουρότρυπες","lat":40.1914,"lng":23.9761,"region":"Χαλκιδική","name_en":"Kavourotrypes","region_en":"Halkidiki"},{"id":"municipalities_3f24476b7888","slug":"nikiti-3f24","kind":"municipality","name":"Νικήτη","lat":40.2215,"lng":23.6624,"region":"Χαλκιδική","name_en":"Nikiti","region_en":"Halkidiki"},{"id":"municipalities_9881ef0d546d","slug":"sarti-9881","kind":"municipality","name":"Σάρτη","lat":40.092,"lng":23.9774,"region":"Χαλκιδική","name_en":"Sarti","region_en":"Halkidiki"},{"id":"municipalities_c1cea04425ed","slug":"kallithea-chalkidiki-c1ce","kind":"municipality","name":"Καλλιθέα Χαλκιδική","lat":40.08,"lng":23.448,"region":"Χαλκιδική","name_en":"Kallithea Halkidiki","region_en":"Halkidiki"},{"id":"municipalities_c475d7743b5a","slug":"kryopigi-c475","kind":"municipality","name":"Κρυοπηγή","lat":40.0403,"lng":23.4507,"region":"Χαλκιδική","name_en":"Kryopigi","region_en":"Halkidiki"}],"mentionedGuides":[],"canonicalSlug":"polychrono-9110","isCanonicalEntity":true},"__N_SSG":true}