{"pageProps":{"entity":{"id":"fishTavernasRestaurants_8519dfc7e5a0","slug":"prigkipas-8519","kind":"restaurant","name":"Prigkipas","lat":40.56870307397198,"lng":22.96042239278236,"url":"https://maps.app.goo.gl/CftYQWb7WS78EL267?g_st=ipc","address":"Chanion 8, Kalamaria 551 32","categoryIds":["fish-tavernas"],"categories":["Fish Tavernas"]},"sameCategory":[{"id":"fishTavernasRestaurants_d3195d3c5fff","slug":"arodo-d319","kind":"restaurant","name":"Aródo","lat":40.566822399097624,"lng":22.957889078590952,"url":"https://maps.app.goo.gl/1PTePSM62TKyXYyd9?g_st=ipc","address":"Thetidos 25, Θεσσαλονίκη 551 32","categoryIds":["fish-tavernas"],"categories":["Fish Tavernas"]},{"id":"fishTavernasRestaurants_0b1c52c256c7","slug":"thermaikos-psarotaverna-kalamaria-thessaloniki-0b1c","kind":"restaurant","name":"Θερμαϊκός Ψαροταβέρνα | Καλαμαρία, Θεσσαλονίκη","lat":40.56643535238568,"lng":22.958306698225478,"url":"https://maps.app.goo.gl/fGHKAJK8MvBqvND6A?g_st=ipc","address":"Thetidos, Kalamaria 551 32","categoryIds":["fish-tavernas"],"categories":["Fish Tavernas"]},{"id":"fishTavernasRestaurants_12f95d4f93d0","slug":"maiami-seafood-restaurant-12f9","kind":"restaurant","name":"Maiami Seafood Restaurant","lat":40.5660781564898,"lng":22.958426191574933,"url":"https://maps.app.goo.gl/iH1kytUDBvfY1Xmu5?g_st=ipc","address":"Thetidos 18, Kalamaria 551 32","categoryIds":["fish-tavernas"],"categories":["Fish Tavernas"]},{"id":"fishTavernasRestaurants_470d39921896","slug":"hamodrakas-seafood-restaurant-470d","kind":"restaurant","name":"Hamodrakas - Seafood Restaurant","lat":40.571711946022305,"lng":22.95231475803018,"url":"https://maps.app.goo.gl/6TCCV8GEPKaHee5b6?g_st=ipc","address":"Μ. Γαγύλη 13, Παραλία, Kalamaria 551 32","categoryIds":["fish-tavernas"],"categories":["Fish Tavernas"]},{"id":"fishTavernasRestaurants_e98c62e6ec54","slug":"en-plo-e98c","kind":"restaurant","name":"En Plo","lat":40.57398660392286,"lng":22.949456391166105,"url":"https://maps.app.goo.gl/veiyM1VvYLvbo86r8?g_st=ipc","address":"Nik. Plastira 14Β, Kalamaria 551 32","categoryIds":["fish-tavernas"],"categories":["Fish Tavernas"]},{"id":"fishTavernasRestaurants_36204a46aece","slug":"to-karnagio-3620","kind":"restaurant","name":"Το Καρνάγιο","lat":40.574881874460935,"lng":22.94956377176227,"url":"https://maps.app.goo.gl/pPBVRQW1crZFz6ho8?g_st=ipc","address":"Agiou Nikolaou 4, Thessaloniki 551 32","categoryIds":["fish-tavernas"],"categories":["Fish Tavernas"]},{"id":"fishTavernasRestaurants_696f7178604d","slug":"petros-ouzo-tavern-696f","kind":"restaurant","name":"\"Petros\" Ouzo Tavern","lat":40.5758568701644,"lng":22.94955610306511,"url":"https://maps.app.goo.gl/zWRjvQW7U7jg2RVz9?g_st=ipc","address":"Evelpidou 12, Kalamaria 551 32","categoryIds":["fish-tavernas"],"categories":["Fish Tavernas"]},{"id":"fishTavernasRestaurants_f8b7ef1f9834","slug":"mavri-thalassa-f8b7","kind":"restaurant","name":"Mavri Thalassa","lat":40.57843253808032,"lng":22.94322807682347,"url":"https://maps.app.goo.gl/BS4tZgxTYFAhXywDA?g_st=ipc","address":"Nik. Plastira 3, Kalamaria 551 32","categoryIds":["fish-tavernas"],"categories":["Fish Tavernas"]}],"nearby":[{"id":"cheapEatsRestaurants_62516fc5ff91","slug":"theologos-fast-food-6251","kind":"restaurant","name":"Theologos Fast Food","lat":40.56936513403147,"lng":22.960477178944696,"url":"https://maps.app.goo.gl/ivkmYsPpBSwDCJHG7?g_st=ipc","address":"18, Aidiniou 14, Kalamaria 551 32","categoryIds":["cheap-eats"],"categories":["Gyros & Cheap Eats"],"distanceKm":0.07376302024086094},{"id":"fishTavernasRestaurants_d3195d3c5fff","slug":"arodo-d319","kind":"restaurant","name":"Aródo","lat":40.566822399097624,"lng":22.957889078590952,"url":"https://maps.app.goo.gl/1PTePSM62TKyXYyd9?g_st=ipc","address":"Thetidos 25, Θεσσαλονίκη 551 32","categoryIds":["fish-tavernas"],"categories":["Fish Tavernas"],"distanceKm":0.29920018732290515},{"id":"fishTavernasRestaurants_0b1c52c256c7","slug":"thermaikos-psarotaverna-kalamaria-thessaloniki-0b1c","kind":"restaurant","name":"Θερμαϊκός Ψαροταβέρνα | Καλαμαρία, Θεσσαλονίκη","lat":40.56643535238568,"lng":22.958306698225478,"url":"https://maps.app.goo.gl/fGHKAJK8MvBqvND6A?g_st=ipc","address":"Thetidos, Kalamaria 551 32","categoryIds":["fish-tavernas"],"categories":["Fish Tavernas"],"distanceKm":0.30906471933362},{"id":"fishTavernasRestaurants_12f95d4f93d0","slug":"maiami-seafood-restaurant-12f9","kind":"restaurant","name":"Maiami Seafood Restaurant","lat":40.5660781564898,"lng":22.958426191574933,"url":"https://maps.app.goo.gl/iH1kytUDBvfY1Xmu5?g_st=ipc","address":"Thetidos 18, Kalamaria 551 32","categoryIds":["fish-tavernas"],"categories":["Fish Tavernas"],"distanceKm":0.337081196415711},{"id":"luxuryDiningRestaurants_20a0f2d7ec25","slug":"maiami-seafood-restaurant-20a0","kind":"restaurant","name":"Maiami Seafood Restaurant","lat":40.56607027401273,"lng":22.958428998890472,"url":"https://maps.app.goo.gl/Py5DhXkzzrWSZ9VV6?g_st=ipc","address":"Thetidos 18, Kalamaria 551 32","categoryIds":["luxury-dining"],"categories":["Luxury Dining"],"distanceKm":0.33772214863259653},{"id":"greekRestaurants_0e26d4a47188","slug":"to-steki-0e26","kind":"restaurant","name":"Το Στέκι","lat":40.572585888519654,"lng":22.955645778588657,"url":"https://maps.app.goo.gl/1rTE4MnvZB8TLm2j8?g_st=ipc","address":"Κουντουριώτου 16, Καλαμαριά 551 32","categoryIds":["greek-restaurants"],"categories":["Greek Restaurants"],"distanceKm":0.5909159055052486},{"id":"cheapEatsRestaurants_3a3bde48c733","slug":"thess-gyro-3a3b","kind":"restaurant","name":"Thess...Gyro","lat":40.57305742887387,"lng":22.955729191150056,"url":"https://maps.app.goo.gl/UxFcV7SWYu9feyef9?g_st=ipc","address":"Smirnis 14, Kalamaria 551 32","categoryIds":["cheap-eats"],"categories":["Gyros & Cheap Eats"],"distanceKm":0.6257556420059687},{"id":"fishTavernasRestaurants_470d39921896","slug":"hamodrakas-seafood-restaurant-470d","kind":"restaurant","name":"Hamodrakas - Seafood Restaurant","lat":40.571711946022305,"lng":22.95231475803018,"url":"https://maps.app.goo.gl/6TCCV8GEPKaHee5b6?g_st=ipc","address":"Μ. Γαγύλη 13, Παραλία, Kalamaria 551 32","categoryIds":["fish-tavernas"],"categories":["Fish Tavernas"],"distanceKm":0.7621690129553832}],"sameRegion":[],"mentionedGuides":[],"canonicalSlug":"prigkipas-8519","isCanonicalEntity":true},"__N_SSG":true}