{"pageProps":{"entity":{"id":"burgersRestaurants_c05eb7f13ddf","slug":"psychiatreio-c05e","kind":"restaurant","name":"Ψυχιατρείο","lat":37.941454787946455,"lng":23.74643002685345,"url":"https://maps.app.goo.gl/nvzgc7zjFUEkgZMN8?g_st=ipc","address":"Αγίου Κωνσταντίνου 16, Ηλιούπολη 163 46","categoryIds":["burgers"],"categories":["Burger Spots"]},"sameCategory":[{"id":"burgersRestaurants_1d9dede89409","slug":"hippy-joe-1d9d","kind":"restaurant","name":"Hippy Joe","lat":37.95458600508715,"lng":23.75943276506492,"url":"https://maps.app.goo.gl/crkq6yzRLRbaTy288?g_st=ipc","address":"Καραολή και Δημητρίου 5, Βύρωνας 162 31","categoryIds":["burgers"],"categories":["Burger Spots"]},{"id":"burgersRestaurants_82d2f41d9265","slug":"big-nick-82d2","kind":"restaurant","name":"Big Nick","lat":37.956445331565305,"lng":23.73566615673783,"url":"https://maps.app.goo.gl/j5eRwkA5Uf2bwVHs7?g_st=ipc","address":"Λεωφόρος Βουλιαγμένης 145, Αθήνα 116 31","categoryIds":["burgers"],"categories":["Burger Spots"]},{"id":"burgersRestaurants_2488bfd093b0","slug":"raw-street-burger-2488","kind":"restaurant","name":"RAW Street Burger","lat":37.96608078812892,"lng":23.747084457131937,"url":"https://maps.app.goo.gl/WsNpm6Ti1nzJiYwd7?g_st=ipc","address":"Υμηττού 130, Αθήνα 116 34","categoryIds":["burgers"],"categories":["Burger Spots"]},{"id":"burgersRestaurants_af2bce83bf0a","slug":"mpar-mpee-kioy-af2b","kind":"restaurant","name":"Μπαρ Μπεε Κιου","lat":37.947758433049515,"lng":23.715813044078192,"url":"https://maps.app.goo.gl/4dN2cUdHdLqSEgRQA?g_st=ipc","address":"Λεωφ. Ελ. Βενιζέλου 18, Νέα Σμύρνη 171 23","categoryIds":["burgers"],"categories":["Burger Spots"]},{"id":"burgersRestaurants_b47d84823c91","slug":"the-burger-joint-b47d","kind":"restaurant","name":"The Burger Joint","lat":37.942262724437896,"lng":23.71398429679752,"url":"https://maps.app.goo.gl/4gyyrfZJhxvHeHNj8?g_st=ipc","address":"Λεωφ. Ελ. Βενιζέλου 93, Νέα Σμύρνη 171 22","categoryIds":["burgers"],"categories":["Burger Spots"]},{"id":"burgersRestaurants_e6f63be043f2","slug":"mpear-e6f6","kind":"restaurant","name":"MPEAR","lat":37.96749991846514,"lng":23.744555997873523,"url":"https://maps.app.goo.gl/7youU9MYZn4rqr2E8?g_st=ic","address":"Ευφράνορος 8, Athina 116 35","categoryIds":["burgers"],"categories":["Burger Spots"]},{"id":"burgersRestaurants_15242c3b8b89","slug":"mpear-1524","kind":"restaurant","name":"MPEAR","lat":37.96750105563297,"lng":23.744555646756957,"url":"https://maps.app.goo.gl/yKgLKc4LFJhxaawY6","address":"Ευφράνορος 8, Athina 116 35","categoryIds":["burgers"],"categories":["Burger Spots"]},{"id":"burgersRestaurants_333f3b6e6592","slug":"chicken-queen-333f","kind":"restaurant","name":"Chicken Queen","lat":37.96764787341708,"lng":23.749271201498335,"url":"https://maps.app.goo.gl/y9qpEuxuYdxvEzYY9?g_st=ipc","address":"Ευτυχίδου 47, Αθήνα 116 34","categoryIds":["burgers"],"categories":["Burger Spots"]}],"nearby":[{"id":"cheapEatsRestaurants_6c0cf407b78a","slug":"psychiatreio-6c0c","kind":"restaurant","name":"Ψυχιατρείο","lat":37.941456168126024,"lng":23.74643601644418,"url":"https://maps.app.goo.gl/crPg8bmbS6pB7CL9A?g_st=ipc","address":"Αγίου Κωνσταντίνου 16, Ηλιούπολη 163 46","categoryIds":["cheap-eats"],"categories":["Gyros & Cheap Eats"],"distanceKm":0.0005472050360595497},{"id":"cheapEatsRestaurants_53eb96e06f78","slug":"zampelis-soyvlaki-53eb","kind":"restaurant","name":"ΖΑΜΠΕΛΗΣ Σουβλάκι","lat":37.942278449963005,"lng":23.7489165228981,"url":"https://maps.app.goo.gl/mBFJVYTZsF1kBbtk7?g_st=ipc","address":"Λεωφ. Μαρίνου Αντύπα 42, Ηλιούπολη 163 46","categoryIds":["cheap-eats"],"categories":["Gyros & Cheap Eats"],"distanceKm":0.23650029836530495},{"id":"coffeeBrunchRestaurants_04323df5602c","slug":"moments-cafe-0432","kind":"restaurant","name":"Moments cafe","lat":37.94145822074275,"lng":23.750459312660134,"url":"https://maps.app.goo.gl/6q9NBBvgffKvbrnG7?g_st=ipc","address":"Αγγέλου Σικελιανού 65, Ηλιούπολη 163 45","categoryIds":["coffee-brunch"],"categories":["Coffee & Brunch Spots"],"distanceKm":0.35333916335310045},{"id":"fishTavernasRestaurants_57034fb5f673","slug":"mikres-kyklades-5703","kind":"restaurant","name":"ΜΙΚΡΕΣ ΚΥΚΛΑΔΕΣ","lat":37.938213721782944,"lng":23.745141100112257,"url":"https://maps.app.goo.gl/Za7BJdXKEyy2FFiM7","address":"Pantazi 56, Ilioupoli 163 46","categoryIds":["fish-tavernas"],"categories":["Fish Tavernas"],"distanceKm":0.3776999591103415},{"id":"cheapEatsRestaurants_11e58e7bd1c7","slug":"pita-pan-11e5","kind":"restaurant","name":"Pita Pan","lat":37.93966105014638,"lng":23.74003701406881,"url":"https://maps.app.goo.gl/ub6T2bWkrrx9QZt69?g_st=ipc","address":"Παρ. Λεωφ. Βουλιαγμένης 276, Αγ. Δημήτριος Αττικής 173 43","categoryIds":["cheap-eats"],"categories":["Gyros & Cheap Eats"],"distanceKm":0.5950505981086122},{"id":"dessertsRestaurants_65e04c3f641c","slug":"cinnabon-athens-metro-mall-65e0","kind":"restaurant","name":"Cinnabon (Athens Metro Mall)","lat":37.93941612015106,"lng":23.739972879470894,"url":"https://maps.app.goo.gl/71DTBLWMjXBGonps5?g_st=ipc","address":"Παρ. Λεωφ. Βουλιαγμένης 276, Αγ. Δημήτριος Αττικής 173 43","categoryIds":["desserts"],"categories":["Dessert Shops"],"distanceKm":0.6099427050082369},{"id":"cheapEatsRestaurants_a6f267f71448","slug":"psitopoleio-o-kostas-a6f2","kind":"restaurant","name":"Ψητοπωλείο Ο Κώστας","lat":37.94774148940973,"lng":23.74608370924349,"url":"https://maps.app.goo.gl/8n9ne3gHR6APgQwh6?g_st=ipc","address":"Ηλιουπόλεως 157, Υμηττός 172 36","categoryIds":["cheap-eats"],"categories":["Gyros & Cheap Eats"],"distanceKm":0.6997086281980657},{"id":"asianRestaurants_36f4a8956e8a","slug":"oma-sushi-bar-36f4","kind":"restaurant","name":"Oma Sushi Bar","lat":37.94009382367438,"lng":23.754689791765557,"url":"https://maps.app.goo.gl/sQ4YgJ2S6xgEEqCf7?g_st=ipc","address":"Ανδρέα Παπανδρέου 22, Ηλιούπολη 163 45","categoryIds":["asian"],"categories":["Asian Restaurants"],"distanceKm":0.739967746012698}],"sameRegion":[],"mentionedGuides":[],"canonicalSlug":"psychiatreio-6c0c","isCanonicalEntity":false},"__N_SSG":true}