{"pageProps":{"entity":{"id":"greekRestaurants_7e068071958f","slug":"rafiki-7e06","kind":"restaurant","name":"Ραφίκι","lat":37.98338715429696,"lng":23.71184940799049,"url":"https://maps.app.goo.gl/awtPeTxoWYGakCkX9","address":"Πέλλης 22, Αθήνα 104 47","categoryIds":["greek-restaurants"],"categories":["Greek Restaurants"]},"sameCategory":[{"id":"greekRestaurants_9611782bc12d","slug":"o-thessalos-9611","kind":"restaurant","name":"Ο Θεσσαλός","lat":37.98471994306453,"lng":23.712346428545427,"url":"https://maps.app.goo.gl/nM83keU2k42E2kxJ6","address":"Μελενίκου 2, Αθήνα 104 47","categoryIds":["greek-restaurants"],"categories":["Greek Restaurants"]},{"id":"greekRestaurants_c6cbcafef8ce","slug":"to-palaio-kafeneio-c6cb","kind":"restaurant","name":"Το παλαιό καφενείο","lat":37.984456056477114,"lng":23.70991900524202,"url":"https://maps.app.goo.gl/giNLK8YBTxmzzF9PA","address":"Κορυτσάς 48, Αθήνα 104 47","categoryIds":["greek-restaurants"],"categories":["Greek Restaurants"]},{"id":"greekRestaurants_fe1298439f3b","slug":"pyroliki-fe12","kind":"restaurant","name":"Πυρολίκι","lat":37.98138914645396,"lng":23.713920948942256,"url":"https://maps.app.goo.gl/VoibgN4wKpaNpoSG7","address":"Μεγ. Αλεξάνδρου 117, Αθήνα 104 35","categoryIds":["greek-restaurants"],"categories":["Greek Restaurants"]},{"id":"greekRestaurants_91881b4e9587","slug":"seramiko-9188","kind":"restaurant","name":"Σεράμικο","lat":37.98162530293091,"lng":23.71443381634983,"url":"https://maps.app.goo.gl/o8XfcUJ1JPyFTfao8","address":"Μεγ. Αλεξάνδρου 109-111, Αθήνα 104 35","categoryIds":["greek-restaurants"],"categories":["Greek Restaurants"]},{"id":"greekRestaurants_1b0710fd0635","slug":"loyis-kafeneio-1b07","kind":"restaurant","name":"Λούης καφενείο","lat":37.98085946462118,"lng":23.71532632472864,"url":"https://maps.app.goo.gl/HykcqWbVLkwR9HqJ7","address":"Λεωνίδου 87, Αθήνα 104 35","categoryIds":["greek-restaurants"],"categories":["Greek Restaurants"]},{"id":"greekRestaurants_79d853816a19","slug":"rakor-79d8","kind":"restaurant","name":"Rakor","lat":37.98047740550758,"lng":23.717062587155947,"url":"https://maps.app.goo.gl/eVrzxTMuCzQvAE596","address":"Πλαταιών 10, Αθήνα 104 35","categoryIds":["greek-restaurants"],"categories":["Greek Restaurants"]},{"id":"greekRestaurants_6dad5c0e5b55","slug":"to-aygo-toy-kokkora-6dad","kind":"restaurant","name":"Το Αυγό Του Κόκκορα","lat":37.98270365301358,"lng":23.719206888648312,"url":"https://maps.app.goo.gl/iKbPmGsQDpnYazKs9","address":"Λεωνίδου 46, Αθήνα 104 36","categoryIds":["greek-restaurants"],"categories":["Greek Restaurants"]},{"id":"greekRestaurants_bad759859413","slug":"ta-skalakia-bad7","kind":"restaurant","name":"Τα Σκαλάκια","lat":37.98954880589726,"lng":23.709123253452237,"url":"https://maps.app.goo.gl/Dec4aP4V9Z2pEehcA","address":"Μαραθωνομάχων 57, Αθήνα 104 41","categoryIds":["greek-restaurants"],"categories":["Greek Restaurants"]}],"nearby":[{"id":"coffeeBrunchRestaurants_694f840c415f","slug":"mour-athens-694f","kind":"restaurant","name":"Mour Athens","lat":37.9833034256398,"lng":23.711600559592124,"url":"https://maps.app.goo.gl/t12h1kgPVWW5kBNk8?g_st=ipc","address":"Κορυτσάς 15, Αθήνα 104 47","categoryIds":["coffee-brunch"],"categories":["Coffee & Brunch Spots"],"distanceKm":0.023713810126701956},{"id":"vegetarianRestaurants_c67e718a73e4","slug":"calibra-votanikos-c67e","kind":"restaurant","name":"CALIBRA - Votanikos","lat":37.98303566126477,"lng":23.711367796488275,"url":"https://maps.app.goo.gl/aPvyrqA5tYdbUuhP8?g_st=ipc","address":"CALIBRA - Votanikos","categoryIds":["vegetarian"],"categories":["Vegetarian Friendly Restaurants"],"distanceKm":0.05752604386190072},{"id":"cheapEatsRestaurants_26cfead773fa","slug":"o-peinaleos-o-peinaleos-26cf","kind":"restaurant","name":"Ο ΠΕΙΝΑΛΕΟΣ -O Peinaleos","lat":37.984683017890625,"lng":23.71166951732043,"url":"https://maps.app.goo.gl/6gyRh1g3eUYCXoVV9?g_st=ipc","address":"Προφήτου Δανιήλ 35, Αθήνα 104 47","categoryIds":["cheap-eats"],"categories":["Gyros & Cheap Eats"],"distanceKm":0.14495340543123447},{"id":"greekRestaurants_9611782bc12d","slug":"o-thessalos-9611","kind":"restaurant","name":"Ο Θεσσαλός","lat":37.98471994306453,"lng":23.712346428545427,"url":"https://maps.app.goo.gl/nM83keU2k42E2kxJ6","address":"Μελενίκου 2, Αθήνα 104 47","categoryIds":["greek-restaurants"],"categories":["Greek Restaurants"],"distanceKm":0.154468453981665},{"id":"greekRestaurants_c6cbcafef8ce","slug":"to-palaio-kafeneio-c6cb","kind":"restaurant","name":"Το παλαιό καφενείο","lat":37.984456056477114,"lng":23.70991900524202,"url":"https://maps.app.goo.gl/giNLK8YBTxmzzF9PA","address":"Κορυτσάς 48, Αθήνα 104 47","categoryIds":["greek-restaurants"],"categories":["Greek Restaurants"],"distanceKm":0.2067612581178097},{"id":"coffeeBrunchRestaurants_23781ddd1e06","slug":"10am-apotheke-2378","kind":"restaurant","name":"10AM apotheke","lat":37.98117919525422,"lng":23.71209439007436,"url":"https://maps.app.goo.gl/a8MxDmC9cjFhDaGA8?g_st=ic","address":"Konstantinoupoleos Ave. 82, Athina 104 35","categoryIds":["coffee-brunch"],"categories":["Coffee & Brunch Spots"],"distanceKm":0.24645092806641736},{"id":"greekRestaurants_fe1298439f3b","slug":"pyroliki-fe12","kind":"restaurant","name":"Πυρολίκι","lat":37.98138914645396,"lng":23.713920948942256,"url":"https://maps.app.goo.gl/VoibgN4wKpaNpoSG7","address":"Μεγ. Αλεξάνδρου 117, Αθήνα 104 35","categoryIds":["greek-restaurants"],"categories":["Greek Restaurants"],"distanceKm":0.28691811210650425},{"id":"greekRestaurants_91881b4e9587","slug":"seramiko-9188","kind":"restaurant","name":"Σεράμικο","lat":37.98162530293091,"lng":23.71443381634983,"url":"https://maps.app.goo.gl/o8XfcUJ1JPyFTfao8","address":"Μεγ. Αλεξάνδρου 109-111, Αθήνα 104 35","categoryIds":["greek-restaurants"],"categories":["Greek Restaurants"],"distanceKm":0.2994758364526562}],"sameRegion":[],"mentionedGuides":[],"canonicalSlug":"rafiki-7e06","isCanonicalEntity":true},"__N_SSG":true}