{"pageProps":{"entity":{"id":"fishTavernasRestaurants_63c1df7c960e","slug":"remetzo-63c1","kind":"restaurant","name":"Ρεμέτζο","lat":38.39112282038602,"lng":23.797236892149673,"url":"https://maps.app.goo.gl/oqv397oz79KFz6w69?g_st=ipc","address":"Λεωφ. Αρχαίου Θεάτρου 42, Ερέτρια 340 08","categoryIds":["fish-tavernas"],"categories":["Fish Tavernas"]},"sameCategory":[{"id":"fishTavernasRestaurants_89f946397ea9","slug":"to-limanaki-tis-amarynthoy-89f9","kind":"restaurant","name":"Το Λιμανάκι Της Αμαρύνθου","lat":38.391630088057546,"lng":23.87976016192821,"url":"https://maps.app.goo.gl/123Yma2QRjswTuuD9?g_st=ipc","address":"Μιαούλη, Αμάρυνθος 340 06","categoryIds":["fish-tavernas"],"categories":["Fish Tavernas"]},{"id":"fishTavernasRestaurants_21394a13a305","slug":"gorgona-di-stefano-amarythos-oyzeri-psarotaverna-2139","kind":"restaurant","name":"Gorgona Di Stefano Amarythos Oυζερι Psarotaverna","lat":38.391896520308414,"lng":23.883711972578777,"url":"https://maps.app.goo.gl/Q3hYqnNSaAEfk5UH8?g_st=ipc","address":"Κων/νου Καραμανλή 2, Αμάρυνθος 340 06","categoryIds":["fish-tavernas"],"categories":["Fish Tavernas"]},{"id":"fishTavernasRestaurants_4cf95cf3a3a2","slug":"to-koytoyki-toy-perikli-4cf9","kind":"restaurant","name":"Το κουτούκι του Περικλή","lat":38.43468667088763,"lng":23.62151189556845,"url":"https://maps.app.goo.gl/nQGXrzboUPgm58NX9?g_st=ipc","address":"Νέα Λάμψακος 341 00","categoryIds":["fish-tavernas"],"categories":["Fish Tavernas"]},{"id":"fishTavernasRestaurants_3fe79490cff3","slug":"kapetanios-3fe7","kind":"restaurant","name":"Καπετάνιος","lat":38.43674651836107,"lng":23.6218638887793,"url":"https://maps.app.goo.gl/JQSmhWPQjaPxMKdR8?g_st=ipc","address":"Παραλία Λαμψάκου 341 00","categoryIds":["fish-tavernas"],"categories":["Fish Tavernas"]},{"id":"fishTavernasRestaurants_4a843009a81f","slug":"to-kyma-toy-loyka-4a84","kind":"restaurant","name":"Το κύμα του Λουκά","lat":38.43818318214878,"lng":23.621937029677294,"url":"https://maps.app.goo.gl/EE6oa72MB34puz5e8?g_st=ipc","address":"Δημοσθένη, Τόσκα, Νέα Λάμψακος 341 00","categoryIds":["fish-tavernas"],"categories":["Fish Tavernas"]},{"id":"fishTavernasRestaurants_068b7509beb9","slug":"oyzeri-akrogiali-068b","kind":"restaurant","name":"Ουζερί \"Ακρογιάλι\"","lat":38.440313479921635,"lng":23.621738281701006,"url":"https://maps.app.goo.gl/iJW3zjT5zf2LYsK16?g_st=ipc","address":"λοχία Ρωμιόπουλου 13, Χαλκίδα Νέα Λάμψακος 341 00","categoryIds":["fish-tavernas"],"categories":["Fish Tavernas"]},{"id":"fishTavernasRestaurants_ee92835c0d0d","slug":"oyzeri-apanemo-ee92","kind":"restaurant","name":"Ουζερί Απάνεμο","lat":38.473971555271454,"lng":23.603700122583223,"url":"https://maps.app.goo.gl/EU5w8nGgmktzo3Gq8?g_st=ipc","address":"Εθ. Συμφιλίωσης 78, Χαλκίδα 341 00","categoryIds":["fish-tavernas"],"categories":["Fish Tavernas"]},{"id":"fishTavernasRestaurants_4f23c2a6f3c3","slug":"to-thalami-4f23","kind":"restaurant","name":"ΤΟ ΘΑΛΑΜΙ","lat":38.47386855302924,"lng":23.60361544187376,"url":"https://maps.app.goo.gl/DTL79NVCVS4exKdr9?g_st=ipc","address":"Εθ. Συμφιλίωσης, Χαλκίδα 341 00","categoryIds":["fish-tavernas"],"categories":["Fish Tavernas"]}],"nearby":[{"id":"municipalities_6af6e7b2b379","slug":"eretria-6af6","kind":"municipality","name":"Ερέτρια","lat":38.39,"lng":23.8,"region":"Στερεά Ελλάδα","name_en":"Eretria","region_en":"Central Greece","distanceKm":0.27125717268922894},{"id":"wineriesVineyards_387acae649dd","slug":"lykos-winery-387a","kind":"restaurant","name":"Lykos Winery","lat":38.40318852137616,"lng":23.75129901619749,"url":"https://maps.app.goo.gl/N8pQEWcDemQKLK6N6?g_st=ipc","address":"ΜΑΛΑΚΩΝΤΑΣ 0, Eretria 340 08","categoryIds":["wineries-vineyards"],"categories":["Wineries & Vineyards"],"distanceKm":4.222143868580236},{"id":"fishTavernasRestaurants_89f946397ea9","slug":"to-limanaki-tis-amarynthoy-89f9","kind":"restaurant","name":"Το Λιμανάκι Της Αμαρύνθου","lat":38.391630088057546,"lng":23.87976016192821,"url":"https://maps.app.goo.gl/123Yma2QRjswTuuD9?g_st=ipc","address":"Μιαούλη, Αμάρυνθος 340 06","categoryIds":["fish-tavernas"],"categories":["Fish Tavernas"],"distanceKm":7.192382279530919},{"id":"fishTavernasRestaurants_21394a13a305","slug":"gorgona-di-stefano-amarythos-oyzeri-psarotaverna-2139","kind":"restaurant","name":"Gorgona Di Stefano Amarythos Oυζερι Psarotaverna","lat":38.391896520308414,"lng":23.883711972578777,"url":"https://maps.app.goo.gl/Q3hYqnNSaAEfk5UH8?g_st=ipc","address":"Κων/νου Καραμανλή 2, Αμάρυνθος 340 06","categoryIds":["fish-tavernas"],"categories":["Fish Tavernas"],"distanceKm":7.537050867365218},{"id":"municipalities_a230abd1223f","slug":"oropos-a230","kind":"municipality","name":"Ωρωπός","lat":38.3,"lng":23.7833,"region":"Ανατολικά Προάστια","name_en":"Oropos","region_en":"Eastern Suburbs","distanceKm":10.205031253270153},{"id":"greekRestaurants_fb8150b1b5bf","slug":"taverna-o-litsas-fb81","kind":"restaurant","name":"Ταβέρνα Ο Λίτσας","lat":38.2808566827325,"lng":23.792798463384955,"url":"https://maps.app.goo.gl/DPJMb7ZiPi9MTzov7","address":"Λεωφ. Αθηνών Ωρωπού, Μήλεσι Αττικής 190 11","categoryIds":["greek-restaurants"],"categories":["Greek Restaurants"],"distanceKm":12.267144837440139},{"id":"greekRestaurants_ec2a8b2c83d9","slug":"koytoyki-pame-stoy-nikola-ec2a","kind":"restaurant","name":"Κουτουκι Παμε στου Νικολα","lat":38.43629094885433,"lng":23.630485450987354,"url":"https://maps.app.goo.gl/MKQYaTiNZDJ9y8cf9?g_st=ipc","address":"Αγίου Αλεξάνδρου, Χαλκίδα 341 00","categoryIds":["greek-restaurants"],"categories":["Greek Restaurants"],"distanceKm":15.372055999482265},{"id":"fishTavernasRestaurants_4cf95cf3a3a2","slug":"to-koytoyki-toy-perikli-4cf9","kind":"restaurant","name":"Το κουτούκι του Περικλή","lat":38.43468667088763,"lng":23.62151189556845,"url":"https://maps.app.goo.gl/nQGXrzboUPgm58NX9?g_st=ipc","address":"Νέα Λάμψακος 341 00","categoryIds":["fish-tavernas"],"categories":["Fish Tavernas"],"distanceKm":16.058457379467338}],"sameRegion":[],"mentionedGuides":[],"canonicalSlug":"remetzo-63c1","isCanonicalEntity":true},"__N_SSG":true}