{"pageProps":{"entity":{"id":"cheapEatsRestaurants_7d5766fbf936","slug":"sesoula-street-food-7d57","kind":"restaurant","name":"SESOULA Street Food","lat":40.63477422793839,"lng":22.937577409662797,"url":"https://maps.app.goo.gl/831RBk3hM78pZN1a8?g_st=ipc","address":"Mitropoleos 6, Thessaloniki 546 25","categoryIds":["cheap-eats"],"categories":["Gyros & Cheap Eats"]},"sameCategory":[{"id":"cheapEatsRestaurants_e169e8264e7b","slug":"sesoula-street-food-e169","kind":"restaurant","name":"SESOULA Street Food","lat":40.63477525409266,"lng":22.93757742955132,"url":"https://maps.app.goo.gl/haKrAci9tVQtSodQ6?g_st=ipc","address":"Mitropoleos 6, Thessaloniki 546 25","categoryIds":["cheap-eats"],"categories":["Gyros & Cheap Eats"]},{"id":"cheapEatsRestaurants_12570c882da7","slug":"kalofagas-psitopoleio-1257","kind":"restaurant","name":"Καλοφαγάς Ψητοπωλείο","lat":40.635544989771915,"lng":22.937363400408646,"url":"https://maps.app.goo.gl/N2y5cFSV48wgtN7g7?g_st=ipc","address":"Politechniou 24, Thessaloniki 546 25","categoryIds":["cheap-eats"],"categories":["Gyros & Cheap Eats"]},{"id":"cheapEatsRestaurants_309d89ee38a5","slug":"laikon-309d","kind":"restaurant","name":"Laikon","lat":40.63567516803373,"lng":22.93753817677912,"url":"https://maps.app.goo.gl/jXzXhjGZbZTLHvnd9?g_st=ipc","address":"Politechniou 24, Thessaloniki 546 25","categoryIds":["cheap-eats"],"categories":["Gyros & Cheap Eats"]},{"id":"cheapEatsRestaurants_a3eaaa94c58d","slug":"raw-street-burger-thessaloniki-a3ea","kind":"restaurant","name":"Raw Street Burger - Thessaloniki","lat":40.63602099868007,"lng":22.937352405537926,"url":"https://maps.app.goo.gl/gUdJfgvKc5M5F6TR7?g_st=ipc","address":"Politechniou 53, Thessaloniki 546 25","categoryIds":["cheap-eats"],"categories":["Gyros & Cheap Eats"]},{"id":"cheapEatsRestaurants_d643220ae6b0","slug":"thess-bao-d643","kind":"restaurant","name":"Thess Bao","lat":40.633724315611715,"lng":22.93899137586201,"url":"https://maps.app.goo.gl/eQJvB2FMkUEghr9y7?g_st=ipc","address":"Kalapothaki 3, Thessaloniki 546 45","categoryIds":["cheap-eats"],"categories":["Gyros & Cheap Eats"]},{"id":"cheapEatsRestaurants_47ac0ee57ead","slug":"pratina-burger-project-47ac","kind":"restaurant","name":"PRATINA Burger Project","lat":40.63713687744245,"lng":22.93759768195784,"url":"https://maps.app.goo.gl/K3sutrhR1ozDJoT67?g_st=ipc","address":"Veroias 5, Thessaloniki 546 25","categoryIds":["cheap-eats"],"categories":["Gyros & Cheap Eats"]},{"id":"cheapEatsRestaurants_3308da140a86","slug":"cantina-manara-3308","kind":"restaurant","name":"Cantina Manara","lat":40.637111408911565,"lng":22.9392252159668,"url":"https://maps.app.goo.gl/D5vAgy9G1TNsAAyJ9?g_st=ipc","address":"Στοά, Ermou 1, Thessaloniki 546 25","categoryIds":["cheap-eats"],"categories":["Gyros & Cheap Eats"]},{"id":"cheapEatsRestaurants_a9f190908032","slug":"i-vromiara-the-gourmet-street-food-thessaloniki-a9f1","kind":"restaurant","name":"Η Βρωμιάρα - The Gourmet Street Food | Θεσσαλονικη","lat":40.63730784042486,"lng":22.939114096509012,"url":"https://maps.app.goo.gl/Z7BYjUBJYcnFTaEm9?g_st=ipc","address":"Siggrou 7, Thessaloniki 546 25","categoryIds":["cheap-eats"],"categories":["Gyros & Cheap Eats"]}],"nearby":[{"id":"cheapEatsRestaurants_e169e8264e7b","slug":"sesoula-street-food-e169","kind":"restaurant","name":"SESOULA Street Food","lat":40.63477525409266,"lng":22.93757742955132,"url":"https://maps.app.goo.gl/haKrAci9tVQtSodQ6?g_st=ipc","address":"Mitropoleos 6, Thessaloniki 546 25","categoryIds":["cheap-eats"],"categories":["Gyros & Cheap Eats"],"distanceKm":0.00011411549051460355},{"id":"asianRestaurants_50e903fa0513","slug":"empire-sushi-bar-50e9","kind":"restaurant","name":"Εmpire Sushi Bar","lat":40.63454338249302,"lng":22.937599876944155,"url":"https://maps.app.goo.gl/xtgjstGFH9sAG6Ya7?g_st=ipc","address":"Oplopiou 3, Thessaloniki 546 25","categoryIds":["asian"],"categories":["Asian Restaurants"],"distanceKm":0.025738760043277065},{"id":"greekRestaurants_5000cd964e1b","slug":"omikron-5000","kind":"restaurant","name":"Όμικρον","lat":40.63443899234816,"lng":22.937636685469105,"url":"https://maps.app.goo.gl/HVh64N8h1M3abkrM6?g_st=ipc","address":"Οπλοποιού 3, Θεσσαλονίκη 546 25","categoryIds":["greek-restaurants"],"categories":["Greek Restaurants"],"distanceKm":0.037610585740302876},{"id":"greekRestaurants_9e02f77b6b20","slug":"tiganies-kai-schares-9e02","kind":"restaurant","name":"Τηγανιές και Σχάρες","lat":40.634600601276,"lng":22.936919320658006,"url":"https://maps.app.goo.gl/3eYmnpopLWBzSTuj9?g_st=ipc","address":"Katouni 3, Thessaloniki 526 22","categoryIds":["greek-restaurants"],"categories":["Greek Restaurants"],"distanceKm":0.058792081459582875},{"id":"greekRestaurants_9bcc793811d6","slug":"wonderwall-fun-dining-9bcc","kind":"restaurant","name":"WonderWall Fun Dining","lat":40.63522269434939,"lng":22.937190668731127,"url":"https://maps.app.goo.gl/gWA1A2nYg5nMyK6r8?g_st=ipc","address":"Αἰγύπτου 11, Θεσσαλονίκη 546 25","categoryIds":["greek-restaurants"],"categories":["Greek Restaurants"],"distanceKm":0.059596438876630124},{"id":"greekRestaurants_33ac18ee44f0","slug":"mamaloyka-33ac","kind":"restaurant","name":"Μαμαλούκα","lat":40.634129762929895,"lng":22.937535077448267,"url":"https://maps.app.goo.gl/gGsKj9f95wpoFDj7A?g_st=ipc","address":"Ίωνος Δραγoύμη 3, Θεσσαλονίκη 546 25","categoryIds":["greek-restaurants"],"categories":["Greek Restaurants"],"distanceKm":0.07175021560148591},{"id":"greekRestaurants_af0b8e5d51b2","slug":"loupino-af0b","kind":"restaurant","name":"Loupino","lat":40.63421562776771,"lng":22.937015451825886,"url":"https://maps.app.goo.gl/iGLD7SMDZ7Y8N12R8?g_st=ipc","address":"Κατούνη 4, Θεσσαλονίκη 546 25","categoryIds":["greek-restaurants"],"categories":["Greek Restaurants"],"distanceKm":0.07814565179631355},{"id":"fishTavernasRestaurants_848f1aa03974","slug":"bakaliarakia-tou-aristou-848f","kind":"restaurant","name":"Bakaliarakia tou Aristou","lat":40.634280544207144,"lng":22.93689333971641,"url":"https://maps.app.goo.gl/Y3cfc1d6DqQAP2VX9?g_st=ipc","address":"Katouni 3, Thessaloniki 546 25","categoryIds":["fish-tavernas"],"categories":["Fish Tavernas"],"distanceKm":0.07965902110011926}],"sameRegion":[],"mentionedGuides":[],"canonicalSlug":"sesoula-street-food-7d57","isCanonicalEntity":true},"__N_SSG":true}