{"pageProps":{"entity":{"id":"asianRestaurants_50f99f81698e","slug":"shisan-sushi-bar-50f9","kind":"restaurant","name":"Shisan Sushi Bar","lat":37.975094554437,"lng":23.656036676629217,"url":"https://maps.app.goo.gl/76f6tSxZ2NXCApc48?g_st=ipc","address":"Πλ. Παγκόσμιας Ειρήνης 4, Κορυδαλλός 181 20","categoryIds":["asian"],"categories":["Asian Restaurants"]},"sameCategory":[{"id":"asianRestaurants_cb2b61b87e3c","slug":"toukta-thai-food-cb2b","kind":"restaurant","name":"Toukta Thai food","lat":37.96875566688742,"lng":23.650805513802922,"url":"https://maps.app.goo.gl/U33KjMR5URvuLe1m6?g_st=ipc","address":"Ιωνίας 3, Νίκαια 184 50","categoryIds":["asian"],"categories":["Asian Restaurants"]},{"id":"asianRestaurants_4f2a760fc2e5","slug":"rouan-thai-4f2a","kind":"restaurant","name":"Rouan Thai","lat":37.939187297472465,"lng":23.64209685014842,"url":"https://maps.app.goo.gl/s9uo8VDSoDevpowm6?g_st=ipc","address":"Νοταρά 131, Πειραιάς 185 36","categoryIds":["asian"],"categories":["Asian Restaurants"]},{"id":"asianRestaurants_ac2889417da3","slug":"noodle-bar-peiraias-ac28","kind":"restaurant","name":"Noodle Bar Πειραιάς","lat":37.937017849380595,"lng":23.658515861113596,"url":"https://maps.app.goo.gl/bPMm8AQFpLTWbzzb7?g_st=ipc","address":"Ακτή Κουμουνδούρου 60, Πειραιάς 185 34","categoryIds":["asian"],"categories":["Asian Restaurants"]},{"id":"asianRestaurants_48bbff4f4936","slug":"kitschen-48bb","kind":"restaurant","name":"Kitschen","lat":37.936566769814284,"lng":23.63928965922229,"url":"https://maps.app.goo.gl/1zPoyQ3qoTUyktA49?g_st=ipc","address":"Κανάρη 5, Πειραιάς 185 37","categoryIds":["asian"],"categories":["Asian Restaurants"]},{"id":"asianRestaurants_7724da0cbe7e","slug":"ten-modern-asian-7724","kind":"restaurant","name":"Ten Modern Asian","lat":37.93291413644206,"lng":23.647263058130683,"url":"https://maps.app.goo.gl/updMqDsRmH6egHAL7?g_st=ipc","address":"Μαρίνα Ζέας, Πειραιάς 185 36","categoryIds":["asian"],"categories":["Asian Restaurants"]},{"id":"asianRestaurants_fd79716bd06b","slug":"mayman-fd79","kind":"restaurant","name":"Mayman","lat":38.01237886315462,"lng":23.686035629770352,"url":"https://maps.app.goo.gl/u5z1UYphrgpUNHe16","address":"Dodekanisou 1, Peristeri 121 36","categoryIds":["asian"],"categories":["Asian Restaurants"]},{"id":"asianRestaurants_f1cd493b50d2","slug":"zafran-indian-kitchen-f1cd","kind":"restaurant","name":"Zafran Indian Kitchen","lat":37.977657888236905,"lng":23.712403701256626,"url":"https://maps.app.goo.gl/JyaNzBjgKky4afGL8?g_st=ipc","address":"Περσεφόνης 25, Αθήνα 118 54","categoryIds":["asian"],"categories":["Asian Restaurants"]},{"id":"asianRestaurants_530d2b0642c6","slug":"koi-sushi-bar-peristeri-530d","kind":"restaurant","name":"Koi Sushi Bar | Peristeri","lat":38.01186121788653,"lng":23.689184297983758,"url":"https://maps.app.goo.gl/88pCTr6wSS31ANgE6?g_st=ipc","address":"Πελασγίας 6, Περιστέρι 121 36","categoryIds":["asian"],"categories":["Asian Restaurants"]}],"nearby":[{"id":"cheapEatsRestaurants_91979e529e27","slug":"aganaktisi-9197","kind":"restaurant","name":"Αγανάκτηση","lat":37.978045238767244,"lng":23.651711441065746,"url":"https://maps.app.goo.gl/eNiYkaAyndviywoc9?g_st=ipc","address":"Σερρών 44 &, Ταξιαρχών, Κορυδαλλός 181 20","categoryIds":["cheap-eats"],"categories":["Gyros & Cheap Eats"],"distanceKm":0.5013730799488426},{"id":"cheapEatsRestaurants_0e387e0faffb","slug":"panagiotis-apo-to-1970-0e38","kind":"restaurant","name":"ΠΑΝΑΓΙΩΤΗΣ από το 1970","lat":37.979572870802095,"lng":23.658766060140504,"url":"https://maps.app.goo.gl/cGoUBmVXHRpFeeeR6?g_st=ipc","address":"Γρ. Λαμπράκη 104, Κορυδαλλός 181 21","categoryIds":["cheap-eats"],"categories":["Gyros & Cheap Eats"],"distanceKm":0.552450220736003},{"id":"dessertsRestaurants_3dbefba5d853","slug":"galaktopoleio-stamoy-3dbe","kind":"restaurant","name":"Γαλακτοπωλείο ΣΤΑΜΟΥ","lat":37.98009558422181,"lng":23.657555522495652,"url":"https://maps.app.goo.gl/39ZNM4A7nfLV7BTBA?g_st=ipc","address":"Γρ. Λαμπράκη 120, Κορυδαλλός 181 21","categoryIds":["desserts"],"categories":["Dessert Shops"],"distanceKm":0.5718021596729467},{"id":"cheapEatsRestaurants_1416b33a5bdb","slug":"dealers-real-street-food-1416","kind":"restaurant","name":"Dealers Real Street Food","lat":37.97630275309409,"lng":23.649623466165345,"url":"https://maps.app.goo.gl/6hPX1uNfh9QEYJND7?g_st=ipc","address":"Ταξιαρχών 18, Κορυδαλλός 181 20","categoryIds":["cheap-eats"],"categories":["Gyros & Cheap Eats"],"distanceKm":0.5779605737856377},{"id":"burgersRestaurants_c5b9db65b8f8","slug":"ala-burger-c5b9","kind":"restaurant","name":"Ala Burger","lat":37.976136624110225,"lng":23.64953319647224,"url":"https://maps.app.goo.gl/magEHZdr4AeKTeT69?g_st=ipc","address":"Ταξιαρχών 14, Κορυδαλλός 181 20","categoryIds":["burgers"],"categories":["Burger Spots"],"distanceKm":0.581700124647826},{"id":"dessertsRestaurants_fc8742eefd51","slug":"loukoumothers-korydallos-fc87","kind":"restaurant","name":"Loukoumothers Korydallos","lat":37.97603620585146,"lng":23.64943855450405,"url":"https://maps.app.goo.gl/vMqPzYGSApLyRm1NA?g_st=ipc","address":"Ταξιαρχών &, Καψάλη 12, Κορυδαλλός 181 20","categoryIds":["desserts"],"categories":["Dessert Shops"],"distanceKm":0.5877405458677348},{"id":"cheapEatsRestaurants_e6d18e573896","slug":"to-kochyli-afoi-rekka-e6d1","kind":"restaurant","name":"ΤΟ ΚΟΧΥΛΙ (Αφοί Ρέκκα)","lat":37.97958803504725,"lng":23.650262049500654,"url":"https://maps.app.goo.gl/dW3a2SovSeGnxXCRA?g_st=ipc","address":"Κορυδαλλός 181 20","categoryIds":["cheap-eats"],"categories":["Gyros & Cheap Eats"],"distanceKm":0.7112210738636705},{"id":"italianRestaurants_deede59c2ee6","slug":"la-greca-nikaia-deed","kind":"restaurant","name":"La Greca Νίκαια","lat":37.96989287630008,"lng":23.649375358414368,"url":"https://maps.app.goo.gl/TRUJmqRbfNqYTojR9?g_st=ipc","address":"Ανακρέοντος 5, Νίκαια 184 53","categoryIds":["italian"],"categories":["Italian Restaurants"],"distanceKm":0.8218811285611842}],"sameRegion":[],"mentionedGuides":[],"canonicalSlug":"shisan-sushi-bar-50f9","isCanonicalEntity":true},"__N_SSG":true}