{"pageProps":{"entity":{"id":"rooftopLoungesRestaurants_611d43a0bb40","slug":"tudor-hall-611d","kind":"restaurant","name":"Tudor Hall","lat":37.976268352095765,"lng":23.7349212835823,"url":"https://maps.app.goo.gl/m71roWoTizDjiDpo9?g_st=ipc","address":"Γεωρ. Α' 3, Αθήνα 105 64","categoryIds":["rooftop-lounges"],"categories":["Rooftop Lounges"]},"sameCategory":[{"id":"rooftopLoungesRestaurants_c34049f74a4c","slug":"gb-roof-garden-restaurant-bar-c340","kind":"restaurant","name":"GB Roof Garden Restaurant & Bar","lat":37.97622491152129,"lng":23.73551130501855,"url":"https://maps.app.goo.gl/dd7gZSbVftPp5h3y8?g_st=ipc","address":"GB Roof Garden Restaurant & Bar","categoryIds":["rooftop-lounges"],"categories":["Rooftop Lounges"]},{"id":"rooftopLoungesRestaurants_a1dcf63cc152","slug":"mappemonde-restaurant-bar-lounge-a1dc","kind":"restaurant","name":"MAPPEMONDE RESTAURANT BAR-LOUNGE","lat":37.9769632268169,"lng":23.736169719080895,"url":"https://maps.app.goo.gl/kv9XJjTv2Ssa7DxA6?g_st=ipc","address":"4 Eleftheriou Venizelou Avenue and, Κριεζώτου 2, Αθήνα 106 71","categoryIds":["rooftop-lounges"],"categories":["Rooftop Lounges"]},{"id":"rooftopLoungesRestaurants_a85e8793b95e","slug":"galaxy-bar-a85e","kind":"restaurant","name":"Galaxy Bar","lat":37.97799760915879,"lng":23.73380131955468,"url":"https://maps.app.goo.gl/onyhWrgj9TNpbXLX8?g_st=ipc","address":"Σταδίου 10, Αθήνα 105 62","categoryIds":["rooftop-lounges"],"categories":["Rooftop Lounges"]},{"id":"rooftopLoungesRestaurants_986af6d41f8f","slug":"ermou-18-beyond-the-horizon-986a","kind":"restaurant","name":"Ermou 18 Beyond the Horizon","lat":37.97612467035227,"lng":23.731892472806617,"url":"https://maps.app.goo.gl/29x8TUkS1Zi5ckeK6?g_st=ipc","address":"Ermou 18 Beyond the Horizon","categoryIds":["rooftop-lounges"],"categories":["Rooftop Lounges"]},{"id":"rooftopLoungesRestaurants_fb4de5c9639b","slug":"elysium-athens-rooftop-dining-cocktails-fb4d","kind":"restaurant","name":"Elysium Athens Rooftop | Dining & Cocktails","lat":37.97568079594514,"lng":23.731930908514958,"url":"https://maps.app.goo.gl/XadarqG8B9MPBT9e7?g_st=ipc","address":"15-17, Ερμού 105 63, Αθήνα","categoryIds":["rooftop-lounges"],"categories":["Rooftop Lounges"]},{"id":"rooftopLoungesRestaurants_f3d7923bdece","slug":"metropolis-roof-garden-f3d7","kind":"restaurant","name":"Metropolis Roof Garden","lat":37.97522089278689,"lng":23.732019228567697,"url":"https://maps.app.goo.gl/AzbgD3qbjVmSu6L77?g_st=ipc","address":"Μητροπόλεως 15, Αθήνα 105 57","categoryIds":["rooftop-lounges"],"categories":["Rooftop Lounges"]},{"id":"rooftopLoungesRestaurants_a01decd3b001","slug":"ergon-house-athens-a01d","kind":"restaurant","name":"ERGON House Athens","lat":37.975246808550054,"lng":23.73151614516128,"url":"https://maps.app.goo.gl/B5dVNDQK9SeSRhFZ9?g_st=ipc","address":"23, Μητροπόλεως Street, Αθήνα 105 57","categoryIds":["rooftop-lounges"],"categories":["Rooftop Lounges"]},{"id":"rooftopLoungesRestaurants_f22b7c0a1efd","slug":"art-lounge-rooftop-f22b","kind":"restaurant","name":"Art Lounge Rooftop","lat":37.97343228721452,"lng":23.733497513314063,"url":"https://maps.app.goo.gl/CrXGtb53B5ftpJTg6?g_st=ipc","address":"Ναυάρχου Νικοδήμου 1, Αθήνα 105 57","categoryIds":["rooftop-lounges"],"categories":["Rooftop Lounges"]}],"nearby":[{"id":"luxuryDiningRestaurants_625d4bb407a4","slug":"tudor-hall-625d","kind":"restaurant","name":"Tudor Hall","lat":37.97626476939356,"lng":23.73492119381686,"url":"https://maps.app.goo.gl/cS5CQSpmozciczpaA?g_st=ipc","address":"Γεωρ. Α' 3, Αθήνα 105 64","categoryIds":["luxury-dining"],"categories":["Luxury Dining"],"distanceKm":0.00039845599905752587},{"id":"luxuryDiningRestaurants_bd5ed00d450e","slug":"the-winter-garden-bd5e","kind":"restaurant","name":"The Winter Garden","lat":37.97623725810017,"lng":23.735438816517487,"url":"https://maps.app.goo.gl/jhibZwcpc2dwd9vw9?g_st=ipc","address":"Γεωρ. Α' 1, Αθήνα 105 64","categoryIds":["luxury-dining"],"categories":["Luxury Dining"],"distanceKm":0.04549393761656058},{"id":"rooftopLoungesRestaurants_c34049f74a4c","slug":"gb-roof-garden-restaurant-bar-c340","kind":"restaurant","name":"GB Roof Garden Restaurant & Bar","lat":37.97622491152129,"lng":23.73551130501855,"url":"https://maps.app.goo.gl/dd7gZSbVftPp5h3y8?g_st=ipc","address":"GB Roof Garden Restaurant & Bar","categoryIds":["rooftop-lounges"],"categories":["Rooftop Lounges"],"distanceKm":0.051941162838125624},{"id":"luxuryDiningRestaurants_0523e221d253","slug":"gb-roof-garden-restaurant-bar-0523","kind":"restaurant","name":"GB Roof Garden Restaurant & Bar","lat":37.97622612223311,"lng":23.735512001439584,"url":"https://maps.app.goo.gl/VcZAREtQXac8Kb7L8?g_st=ipc","address":"Γεωρ. Α' 1, Αθήνα 105 64","categoryIds":["luxury-dining"],"categories":["Luxury Dining"],"distanceKm":0.05198960802130343},{"id":"luxuryDiningRestaurants_7703e92f7675","slug":"alexander-s-cigar-lounge-hotel-grande-bretagne-7703","kind":"restaurant","name":"Alexander's Cigar Lounge - Hotel Grande Bretagne","lat":37.9765761269288,"lng":23.735530035440927,"url":"https://maps.app.goo.gl/ATToqJxfAUoZ5G9K9?g_st=ipc","address":"Ξενοδοχείο Μεγάλη Βρεταννία, Αθήνα 105 64","categoryIds":["luxury-dining"],"categories":["Luxury Dining"],"distanceKm":0.0633897182074198},{"id":"cheapEatsRestaurants_fa954f16db19","slug":"i-kantina-tis-karagiorgi-servias-o-kritikos-fa95","kind":"restaurant","name":"Η καντίνα της Καραγιώργη Σερβίας (Ο Κρητικός)","lat":37.97642356412653,"lng":23.734100321342698,"url":"https://maps.app.goo.gl/EeFjaZknqeTjfN8V6?g_st=ipc","address":"Καραγιώργη Σερβίας 2, Αθήνα 105 62","categoryIds":["cheap-eats"],"categories":["Gyros & Cheap Eats"],"distanceKm":0.073998980193018},{"id":"mustSeeAttractions_5ecb5990c6e7","slug":"syntagma-square-5ecb","kind":"restaurant","name":"Syntagma Square","lat":37.97554970639471,"lng":23.734713366778323,"url":"https://maps.app.goo.gl/W5joNY37bu7NJ8Hz8?g_st=ipc","address":"Pl. Sintagmatos, Athina 105 63","categoryIds":["attractions"],"categories":["Must-See Attractions"],"distanceKm":0.08196152668930369},{"id":"municipalities_877c3bc81df5","slug":"syntagma-877c","kind":"municipality","name":"Σύνταγμα","lat":37.9755,"lng":23.7348,"region":"Κέντρο Αθήνας","name_en":"Syntagma","region_en":"Athens Center","distanceKm":0.08609569079999148}],"sameRegion":[],"mentionedGuides":[{"slug":"luxury-rooftop-restaurants-athens-el","title":"Πολυτελή Rooftop Εστιατόρια και Μπαρ στην Αθήνα"},{"slug":"luxury-rooftop-restaurants-athens","title":"Luxury Rooftop Restaurants & Bars in Athens"}],"canonicalSlug":"tudor-hall-611d","isCanonicalEntity":true},"__N_SSG":true}