{"pageProps":{"entity":{"id":"cheapEatsRestaurants_79cf2e094e26","slug":"vaggelis-to-gnisio-1965-79cf","kind":"restaurant","name":"Βάγγελης Το Γνήσιο 1965","lat":37.93578922990488,"lng":23.72968201403695,"url":"https://maps.app.goo.gl/8q5LESzz3ctiGx4S6?g_st=ipc","address":"Λεωφ. Αγίου Δημητρίου 163, Αγ. Δημήτριος Αττικής 173 43","categoryIds":["cheap-eats"],"categories":["Gyros & Cheap Eats"]},"sameCategory":[{"id":"cheapEatsRestaurants_b9d0dc3d0a7f","slug":"mayropipero-b9d0","kind":"restaurant","name":"Μαυροπίπερο","lat":37.939871957691295,"lng":23.73599315534295,"url":"https://maps.app.goo.gl/kLQRksA1KxobJdFA6?g_st=ipc","address":"Στρατάρχου Αλεξάνδρου Παπάγου 41, Αγ. Δημήτριος Αττικής 173 43","categoryIds":["cheap-eats"],"categories":["Gyros & Cheap Eats"]},{"id":"cheapEatsRestaurants_11e58e7bd1c7","slug":"pita-pan-11e5","kind":"restaurant","name":"Pita Pan","lat":37.93966105014638,"lng":23.74003701406881,"url":"https://maps.app.goo.gl/ub6T2bWkrrx9QZt69?g_st=ipc","address":"Παρ. Λεωφ. Βουλιαγμένης 276, Αγ. Δημήτριος Αττικής 173 43","categoryIds":["cheap-eats"],"categories":["Gyros & Cheap Eats"]},{"id":"cheapEatsRestaurants_42b8119d471a","slug":"psitopoleio-o-vaggelis-to-cheiropoiito-42b8","kind":"restaurant","name":"Ψητοπωλείο «ο Βαγγέλης το χειροποίητο»","lat":37.928620979940305,"lng":23.71576237841132,"url":"https://maps.app.goo.gl/4wk6CtNQgSCn9j33A?g_st=ipc","address":"Χαλκίδος 26, Αγ. Δημήτριος Αττικής 173 41","categoryIds":["cheap-eats"],"categories":["Gyros & Cheap Eats"]},{"id":"cheapEatsRestaurants_6c0cf407b78a","slug":"psychiatreio-6c0c","kind":"restaurant","name":"Ψυχιατρείο","lat":37.941456168126024,"lng":23.74643601644418,"url":"https://maps.app.goo.gl/crPg8bmbS6pB7CL9A?g_st=ipc","address":"Αγίου Κωνσταντίνου 16, Ηλιούπολη 163 46","categoryIds":["cheap-eats"],"categories":["Gyros & Cheap Eats"]},{"id":"cheapEatsRestaurants_1640e0da72d1","slug":"smasheat-o-1640","kind":"restaurant","name":"Smasheat'o","lat":37.95001486404743,"lng":23.73773292955517,"url":"https://maps.app.goo.gl/nrXvTuy8yr3sWi7k8?g_st=ipc","address":"Meg. Alexandrou 2, Athina 172 35","categoryIds":["cheap-eats"],"categories":["Gyros & Cheap Eats"]},{"id":"cheapEatsRestaurants_99a7957def3b","slug":"corner-grill-99a7","kind":"restaurant","name":"corner grill","lat":37.92177506928485,"lng":23.73847692927626,"url":"https://maps.app.goo.gl/9DM3hLLcVtKfPYJg8?g_st=ipc","address":"Λεωφ. Ιωνίας 47, Άλιμος 174 56","categoryIds":["cheap-eats"],"categories":["Gyros & Cheap Eats"]},{"id":"cheapEatsRestaurants_7394b13b3b55","slug":"streetwok-7394","kind":"restaurant","name":"StreetWok","lat":37.946624662039575,"lng":23.715316548626998,"url":"https://maps.app.goo.gl/AdbA3EtRXtuwNQxM9?g_st=ipc","address":"Λεωφ. Ελ. Βενιζέλου 37, Νέα Σμύρνη 171 23","categoryIds":["cheap-eats"],"categories":["Gyros & Cheap Eats"]},{"id":"cheapEatsRestaurants_59f1048e980a","slug":"to-steki-toy-kosta-59f1","kind":"restaurant","name":"Το Στέκι του Κώστα","lat":37.95121107984788,"lng":23.735124045238276,"url":"https://maps.app.goo.gl/gtmBLN9nUzctuFYM8?g_st=ipc","address":"Αγίας Βαρβάρας 59, Δάφνη Αττικής 172 35","categoryIds":["cheap-eats"],"categories":["Gyros & Cheap Eats"]}],"nearby":[{"id":"dessertsRestaurants_f02a5d6ebd1d","slug":"melorama-f02a","kind":"restaurant","name":"Μελόραμα","lat":37.936036012331414,"lng":23.729840384667007,"url":"https://maps.app.goo.gl/YEvU9a6cA5Vmingw8?g_st=ipc","address":"Λεωφ. Αγίου Δημητρίου 161, Αγ. Δημήτριος Αττικής 173 43","categoryIds":["desserts"],"categories":["Dessert Shops"],"distanceKm":0.030755652418465052},{"id":"greekRestaurants_6c6d00a6a4f4","slug":"remoytsiko-taverna-6c6d","kind":"restaurant","name":"Ρεμουτσικο Ταβέρνα","lat":37.93888185097854,"lng":23.730869105234564,"url":"https://maps.app.goo.gl/zELuRQBZCjzsqwux5","address":"Λεωφ. Αγίου Δημητρίου 120, Αγ. Δημήτριος Αττικής 173 41","categoryIds":["greek-restaurants"],"categories":["Greek Restaurants"],"distanceKm":0.35929641723998545},{"id":"monasteriesChurches_532a88c17ded","slug":"ieros-naos-agioy-dimitrioy-532a","kind":"restaurant","name":"Ιερός Ναός Αγίου Δημητρίου","lat":37.939612390639354,"lng":23.731409160406493,"url":"https://maps.app.goo.gl/NQFZSQ6EDz4WiEjk6?g_st=ipc","address":"Λεωφ. Αγίου Δημητρίου 117, Αγ. Δημήτριος Αττικής 173 43","categoryIds":["monasteries-churches"],"categories":["Monasteries & Spiritual Sites"],"distanceKm":0.451293240900491},{"id":"greekRestaurants_316cf3a477d7","slug":"taverna-o-notos-316c","kind":"restaurant","name":"Ταβέρνα ο Νότος","lat":37.93527346472632,"lng":23.722390326717125,"url":"https://maps.app.goo.gl/TEReWJLojKZEkJL38","address":"Μεταμορφώσεως 2, Αγ. Δημήτριος Αττικής 173 41","categoryIds":["greek-restaurants"],"categories":["Greek Restaurants"],"distanceKm":0.6420458425486872},{"id":"cheapEatsRestaurants_b9d0dc3d0a7f","slug":"mayropipero-b9d0","kind":"restaurant","name":"Μαυροπίπερο","lat":37.939871957691295,"lng":23.73599315534295,"url":"https://maps.app.goo.gl/kLQRksA1KxobJdFA6?g_st=ipc","address":"Στρατάρχου Αλεξάνδρου Παπάγου 41, Αγ. Δημήτριος Αττικής 173 43","categoryIds":["cheap-eats"],"categories":["Gyros & Cheap Eats"],"distanceKm":0.7158378182856527},{"id":"coffeeBrunchRestaurants_5db780e34d2a","slug":"braxton-5db7","kind":"restaurant","name":"Braxton","lat":37.92816326326879,"lng":23.728060610716135,"url":"https://maps.app.goo.gl/DjcEWh3JQVQokVoj7?g_st=ipc","address":"Πόντου 20, Αγ. Δημήτριος Αττικής 173 42","categoryIds":["coffee-brunch"],"categories":["Coffee & Brunch Spots"],"distanceKm":0.8598098302997564},{"id":"italianRestaurants_22324beef805","slug":"pizza-days-agioy-dimitrioy-2232","kind":"restaurant","name":"Pizza Days - Αγίου Δημητρίου","lat":37.9436201391912,"lng":23.733022003629234,"url":"https://maps.app.goo.gl/mj45NkH8L5jqeHD58?g_st=ipc","address":"Ανδρέα Παπανδρέου 2, Αγ. Δημήτριος Αττικής 173 41","categoryIds":["italian"],"categories":["Italian Restaurants"],"distanceKm":0.9186994341180171},{"id":"dessertsRestaurants_65e04c3f641c","slug":"cinnabon-athens-metro-mall-65e0","kind":"restaurant","name":"Cinnabon (Athens Metro Mall)","lat":37.93941612015106,"lng":23.739972879470894,"url":"https://maps.app.goo.gl/71DTBLWMjXBGonps5?g_st=ipc","address":"Παρ. Λεωφ. Βουλιαγμένης 276, Αγ. Δημήτριος Αττικής 173 43","categoryIds":["desserts"],"categories":["Dessert Shops"],"distanceKm":0.9884919965399563}],"sameRegion":[],"mentionedGuides":[],"canonicalSlug":"vaggelis-to-gnisio-1965-79cf","isCanonicalEntity":true},"__N_SSG":true}