{"pageProps":{"entity":{"id":"coffeeBrunchRestaurants_da9d2fc56763","slug":"acai-verao-athens-da9d","kind":"restaurant","name":"Açaí Verão Athens","lat":37.966845247384065,"lng":23.728622894774116,"url":"https://maps.app.goo.gl/zSWkUCcCMEwv3K5Y7?g_st=ipc","address":"Φαλήρου 6, Αθήνα 117 42","categoryIds":["coffee-brunch"],"categories":["Coffee & Brunch Spots"]},"sameCategory":[{"id":"coffeeBrunchRestaurants_ce537fc177ce","slug":"fika-coffee-croissant-ce53","kind":"restaurant","name":"Fika coffee & croissant","lat":37.96693585116076,"lng":23.730676001624726,"url":"https://maps.app.goo.gl/aGhcjD61LQ7BLCn98?g_st=ipc","address":"Βούρβαχη 6, Αθήνα 117 43","categoryIds":["coffee-brunch"],"categories":["Coffee & Brunch Spots"]},{"id":"coffeeBrunchRestaurants_60b919ea4202","slug":"artopoiotis-o-takis-60b9","kind":"restaurant","name":"Αρτοποιότης Ο Τάκης","lat":37.96774042832454,"lng":23.72678404932504,"url":"https://maps.app.goo.gl/kz81zzmehsyvYBbQ6?g_st=ipc","address":"Μισαραλιώτου 14, Αθήνα 117 42","categoryIds":["coffee-brunch"],"categories":["Coffee & Brunch Spots"]},{"id":"coffeeBrunchRestaurants_3cb499b8df33","slug":"drupes-spritzeria-3cb4","kind":"restaurant","name":"Drupes Spritzeria","lat":37.96781101754338,"lng":23.726828197185508,"url":"https://maps.app.goo.gl/3UEtVFAU3pPvguxJA?g_st=ipc","address":"Ζήτρου 20, Αθήνα 117 42","categoryIds":["coffee-brunch"],"categories":["Coffee & Brunch Spots"]},{"id":"coffeeBrunchRestaurants_63e3afc9669a","slug":"little-tree-books-and-coffee-63e3","kind":"restaurant","name":"Little Tree Books and Coffee","lat":37.968164539601474,"lng":23.727051388410462,"url":"https://maps.app.goo.gl/EJkNXutNZiWJ1hrHA?g_st=ipc","address":"Καβαλλότι 2, Αθήνα 117 42","categoryIds":["coffee-brunch"],"categories":["Coffee & Brunch Spots"]},{"id":"coffeeBrunchRestaurants_b61f62d1d8af","slug":"coffee-joint-b61f","kind":"restaurant","name":"Coffee Joint","lat":37.9668407337925,"lng":23.731062695575126,"url":"https://maps.app.goo.gl/LK48eZA7q9nxiZiR6?g_st=ipc","address":"Βούρβαχη 5-9, Αθήνα 117 43","categoryIds":["coffee-brunch"],"categories":["Coffee & Brunch Spots"]},{"id":"coffeeBrunchRestaurants_01aaff71bf45","slug":"pancake-cake-acropolis-01aa","kind":"restaurant","name":"Pancake & CAKE Acropolis","lat":37.967897348905204,"lng":23.726566946010575,"url":"https://maps.app.goo.gl/QuHwWVBbtZh2gYY18?g_st=ipc","address":"Καρυάτιδων 15, Αθήνα 117 42","categoryIds":["coffee-brunch"],"categories":["Coffee & Brunch Spots"]},{"id":"coffeeBrunchRestaurants_85c9b3242244","slug":"this-is-loco-85c9","kind":"restaurant","name":"This is Loco","lat":37.96542578565319,"lng":23.726906270555997,"url":"https://maps.app.goo.gl/DKCmfLqp6KdRCVPg6?g_st=ipc","address":"Φαλήρου 47, Αθήνα 117 42","categoryIds":["coffee-brunch","vegetarian"],"categories":["Coffee & Brunch Spots","Vegetarian Friendly Restaurants"]},{"id":"coffeeBrunchRestaurants_a5c0f29b5820","slug":"tempo-social-club-a5c0","kind":"restaurant","name":"Tempo Social Club","lat":37.96527397578301,"lng":23.726786075207272,"url":"https://maps.app.goo.gl/uU1H3HFYf7VVqpjy9?g_st=ipc","address":"Φαλήρου 49, Αθήνα 117 42","categoryIds":["coffee-brunch"],"categories":["Coffee & Brunch Spots"]}],"nearby":[{"id":"italianRestaurants_d5b2689c4a11","slug":"romatella-pinsa-romana-d5b2","kind":"restaurant","name":"Romatella - Pinsa Romana","lat":37.96690380968513,"lng":23.72869589039828,"url":"https://maps.app.goo.gl/qy2UDY83bx3RhcUU9?g_st=ipc","address":"Φαλήρου 4, Αθήνα 117 42","categoryIds":["italian"],"categories":["Italian Restaurants"],"distanceKm":0.009129662780556536},{"id":"cheapEatsRestaurants_7c127d112eef","slug":"dirty-manh-7c12","kind":"restaurant","name":"Dirty Manh","lat":37.96689597541608,"lng":23.728371721835774,"url":"https://maps.app.goo.gl/LaZcss8aznDJpxm89?g_st=ipc","address":"Νικ. Δημητρακοπούλου 5, Αθήνα 117 42","categoryIds":["cheap-eats"],"categories":["Gyros & Cheap Eats"],"distanceKm":0.022729453663632267},{"id":"luxuryDiningRestaurants_08d018b1cd7a","slug":"manimani-08d0","kind":"restaurant","name":"ΜΑΝΗΜΑΝΗ","lat":37.96669521915854,"lng":23.72836820432756,"url":"https://maps.app.goo.gl/XJabCFiZNQjmGZzb7?g_st=ipc","address":"Φαλήρου 10, Αθήνα 117 42","categoryIds":["luxury-dining"],"categories":["Luxury Dining"],"distanceKm":0.027870910046862592},{"id":"luxuryDiningRestaurants_3c6581cd9485","slug":"esthio-athens-3c65","kind":"restaurant","name":"Esthio Athens","lat":37.96676654589047,"lng":23.72827244889686,"url":"https://maps.app.goo.gl/Ldu5GaEmi8GWuxbX6?g_st=ipc","address":"Δημητρακοπούλου 7, Αθήνα 117 42","categoryIds":["luxury-dining"],"categories":["Luxury Dining"],"distanceKm":0.031943072984356884},{"id":"dessertsRestaurants_2a3970a71069","slug":"django-gelato-athens-2a39","kind":"restaurant","name":"Django Gelato Athens","lat":37.96685228149483,"lng":23.72787408682893,"url":"https://maps.app.goo.gl/uXMPHW7X8YEMKDvp9?g_st=ipc","address":"Βεΐκου 15, Αθήνα 117 42","categoryIds":["desserts"],"categories":["Dessert Shops"],"distanceKm":0.06564695623498122},{"id":"greekRestaurants_104d52bd2241","slug":"mpalkoni-estiatorio-kai-mpar-104d","kind":"restaurant","name":"Μπαλκόνι Εστιατόριο και Μπαρ","lat":37.96744106512062,"lng":23.72879886025239,"url":"https://maps.app.goo.gl/7XXsfB27aRZAsikR7","address":"Βεΐκου 1, Αθήνα 117 42","categoryIds":["greek-restaurants"],"categories":["Greek Restaurants"],"distanceKm":0.0680239762945283},{"id":"cheapEatsRestaurants_ea477a96a248","slug":"ta-soyvlakia-tis-petmeza-souvlakia-petmeza-ea47","kind":"restaurant","name":"Τα ΣΟΥΒΛΑΚΙΑ της Πετμεζά souvlakia petmeza","lat":37.96653318144558,"lng":23.72792783847805,"url":"https://maps.app.goo.gl/wJbToSNnsHXBEELJ7?g_st=ipc","address":"Πετμεζά 2, Αθήνα 117 42","categoryIds":["cheap-eats"],"categories":["Gyros & Cheap Eats"],"distanceKm":0.07011859766516398},{"id":"burgersRestaurants_bebf6534ac83","slug":"tarantino-burgers-athens-bebf","kind":"restaurant","name":"Tarantino Burgers Athens","lat":37.96648556958662,"lng":23.727729975927073,"url":"https://maps.app.goo.gl/SzYTBZRaHtH1zEgv6?g_st=ipc","address":"Δημητρακοπούλου 17, Αθήνα 117 42","categoryIds":["burgers"],"categories":["Burger Spots"],"distanceKm":0.08790117782326833}],"sameRegion":[],"mentionedGuides":[{"slug":"tap-water-safe-greece-el","title":"Είναι Ασφαλές να Πίνετε Νερό Βρύσης στην Ελλάδα;"},{"slug":"tap-water-safe-greece","title":"Is Tap Water Safe to Drink in Greece?"},{"slug":"traveling-to-greece-on-a-budget-el","title":"Ταξιδι στην Ελλαδα με μικρο budget"},{"slug":"traveling-to-greece-on-a-budget","title":"Traveling to Greece on a Budget"}],"canonicalSlug":"acai-verao-athens-da9d","isCanonicalEntity":true,"enrichment":{"summary_en":"Açaí Verão Athens is a curated restaurant in Αθήνα 117 42 in the Coffee & Brunch Spots collection. It is connected to 108 nearby Googlementor picks to help travelers build a stronger local route.","summary_el":"Açaí Verão Athens είναι ένα επιλεγμένο σημείο φαγητού στην περιοχή Αθήνα 117 42 και ανήκει στη συλλογή Coffee & Brunch Spots. Συνδέεται με 108 κοντινές προτάσεις του Googlementor για πιο ολοκληρωμένη εμπειρία.","vibe_tags":["curated","daytime-favorite"],"best_for":["first-time visitors","food lovers"],"visit_moments":["early morning","late brunch"],"practical_note":"Address and direct map link are available for easy turn-by-turn access.","nearby_walkable_count":108,"nearby_count_2km":594,"confidence":0.98}},"__N_SSG":true}