{"pageProps":{"entity":{"id":"municipalities_1fbee9b0f2e3","slug":"aigina-1fbe","kind":"municipality","name":"Αίγινα","lat":37.746,"lng":23.4273,"aliases":["Αιγινα","Aegina","Egina"],"region":"Νησιά Αργοσαρωνικού","name_en":"Aegina","region_en":"Saronic Islands"},"sameCategory":[],"nearby":[{"id":"dessertsRestaurants_90e20287b05d","slug":"mourtzis-pistachio-and-traditional-sweets-90e2","kind":"restaurant","name":"Mourtzis Pistachio and Traditional Sweets","lat":37.74642667880152,"lng":23.427540300709033,"url":"https://maps.app.goo.gl/9jp6Sh2msw2SifXAA?g_st=ipc","address":"Leof. Dimokratias 6, Egina 180 10","categoryIds":["desserts"],"categories":["Dessert Shops"],"distanceKm":0.05193645124724625},{"id":"coffeeBrunchRestaurants_a0f98e1c2b12","slug":"aiakeion-a0f9","kind":"restaurant","name":"Αιάκειον","lat":37.746460271999695,"lng":23.42831871522419,"url":"https://maps.app.goo.gl/Qzj36fpjYDeGE7CdA?g_st=ipc","address":"Λεωφ. Δημοκρατίας 18, Αίγινα 180 10","categoryIds":["coffee-brunch"],"categories":["Coffee & Brunch Spots"],"distanceKm":0.10316148154728942},{"id":"dessertsRestaurants_6414020a96d4","slug":"zacharoplasteio-pagoydis-6414","kind":"restaurant","name":"Ζαχαροπλαστείο Παγούδης","lat":37.74679830434482,"lng":23.428985997650265,"url":"https://maps.app.goo.gl/guSY4WfPHNdaof7B6?g_st=ipc","address":"Σπύρου Ρόδη 47, Αίγινα 180 10","categoryIds":["desserts"],"categories":["Dessert Shops"],"distanceKm":0.17278634093937084},{"id":"fishTavernasRestaurants_a171f1b83cdb","slug":"oyzeri-o-skotadis-a171","kind":"restaurant","name":"Ουζερί ο Σκοτάδης","lat":37.745028514829414,"lng":23.42967138367635,"url":"https://maps.app.goo.gl/cumYAkYMefX2wAAH9?g_st=ipc","address":"Λεωφ. Δημοκρατίας 46, Αίγινα 180 10","categoryIds":["fish-tavernas"],"categories":["Fish Tavernas"],"distanceKm":0.2348278102241096},{"id":"coffeeBrunchRestaurants_376f978cdcbd","slug":"leof-dimokratias-51-aigina-180-10-376f","kind":"restaurant","name":"Λεωφ. Δημοκρατίας 51, Αίγινα 180 10","lat":37.74458755004641,"lng":23.429733301742875,"url":"https://maps.app.goo.gl/iAGPEbpGe5cmBZmJ9?g_st=ipc","address":"Λεωφ. Δημοκρατίας 51, Αίγινα 180 10","categoryIds":["coffee-brunch"],"categories":["Coffee & Brunch Spots"],"distanceKm":0.26540924765621676},{"id":"cheapEatsRestaurants_5b9438409713","slug":"o-gyros-tis-aiginas-5b94","kind":"restaurant","name":"Ο Γύρος της Αίγινας","lat":37.74389384596183,"lng":23.430224050202156,"url":"https://maps.app.goo.gl/xrxu9zu1wwgoXRKH8?g_st=ipc","address":"Π. Αιγινήτου 31, Αίγινα 180 10","categoryIds":["cheap-eats"],"categories":["Gyros & Cheap Eats"],"distanceKm":0.34777593877556995},{"id":"greekRestaurants_2017008c1880","slug":"paradosiaki-taverna-vatzoylias-2017","kind":"restaurant","name":"Παραδοσιακή Ταβέρνα Βατζούλιας","lat":37.74554524402309,"lng":23.44741816441979,"url":"https://maps.app.goo.gl/mXN4oehYWbVxscvt8?g_st=ipc","address":"Αφαίας 215, Αίγινα 180 10","categoryIds":["greek-restaurants"],"categories":["Greek Restaurants"],"distanceKm":1.7696261275137912},{"id":"greekRestaurants_7e47ce5f873d","slug":"o-manitas-sto-kyma-7e47","kind":"restaurant","name":"Ο Μάνιτας στο Κύμα","lat":37.72802490000876,"lng":23.436258793291216,"url":"https://maps.app.goo.gl/mdpRWqsEC1ekDdu26?g_st=ipc","address":"Άγιος Βασίλης Περιβόλα, Αίγινα 180 10","categoryIds":["greek-restaurants"],"categories":["Greek Restaurants"],"distanceKm":2.1483929341030805}],"sameRegion":[{"id":"municipalities_5b2ddd41014c","slug":"ydra-5b2d","kind":"municipality","name":"Ύδρα","lat":37.35,"lng":23.4667,"aliases":["Υδρα"],"region":"Νησιά Αργοσαρωνικού","name_en":"Hydra","region_en":"Saronic Islands"},{"id":"municipalities_8fb165d3aa1c","slug":"salamina-8fb1","kind":"municipality","name":"Σαλαμίνα","lat":37.9645,"lng":23.4965,"region":"Νησιά Αργοσαρωνικού","name_en":"Salamina","region_en":"Saronic Islands"},{"id":"municipalities_a3110e651ee8","slug":"spetses-a311","kind":"municipality","name":"Σπέτσες","lat":37.2634,"lng":23.1564,"aliases":["Σπετσες"],"region":"Νησιά Αργοσαρωνικού","name_en":"Spetses","region_en":"Saronic Islands"},{"id":"municipalities_f635a4bd67b3","slug":"agkistri-f635","kind":"municipality","name":"Αγκίστρι","lat":37.7124,"lng":23.3447,"region":"Νησιά Αργοσαρωνικού","name_en":"Agistri","region_en":"Saronic Islands"},{"id":"municipalities_fabe4f2e7a38","slug":"poros-fabe","kind":"municipality","name":"Πόρος","lat":37.4996,"lng":23.4534,"aliases":["Πορος"],"region":"Νησιά Αργοσαρωνικού","name_en":"Poros","region_en":"Saronic Islands"}],"mentionedGuides":[{"slug":"athens-day-trips-guide-el","title":"Καλύτερες Ημερήσιες Εκδρομές από την Αθήνα"},{"slug":"athens-day-trips-guide","title":"Best Day Trip Ideas from Athens"},{"slug":"traveling-to-greece-on-a-budget-el","title":"Ταξιδι στην Ελλαδα με μικρο budget"},{"slug":"traveling-to-greece-on-a-budget","title":"Traveling to Greece on a Budget"}],"canonicalSlug":"aigina-1fbe","isCanonicalEntity":true,"enrichment":{"summary_en":"Αίγινα is a curated neighborhood area in Νησιά Αργοσαρωνικού. It is connected to 6 nearby Googlementor picks to help travelers build a stronger local route.","summary_el":"Αίγινα είναι ένα επιλεγμένο σημείο ενδιαφέροντος στην περιοχή Νησιά Αργοσαρωνικού. Συνδέεται με 6 κοντινές προτάσεις του Googlementor για πιο ολοκληρωμένη εμπειρία.","vibe_tags":["local-neighborhood","base-for-exploring"],"best_for":["first-time visitors","walk-and-explore days","return visitors"],"visit_moments":["late morning walks","sunset exploration"],"practical_note":"6 curated places are within walkable distance from this area center.","nearby_walkable_count":6,"nearby_count_2km":7,"confidence":0.6}},"__N_SSG":true}