{"pageProps":{"entity":{"id":"greekRestaurants_90f9e65f33cf","slug":"alsos-mezedopoleio-90f9","kind":"restaurant","name":"Αλσος μεζεδοπωλείο","lat":37.97542863089566,"lng":23.76053636122563,"url":"https://maps.app.goo.gl/LFkoegopciPhWfk59","address":"Ούλωφ Πάλμε 1, Ζωγράφου 115 28","categoryIds":["greek-restaurants"],"categories":["Greek Restaurants"]},"sameCategory":[{"id":"greekRestaurants_eb74ce369d8c","slug":"skalakia-eb74","kind":"restaurant","name":"Σκαλάκια","lat":37.97743768834,"lng":23.756590141442583,"url":"https://maps.app.goo.gl/awU151ZstgomSVZZ8","address":"Διονυσίου Αιγινήτου 32, Αθήνα 115 28","categoryIds":["greek-restaurants"],"categories":["Greek Restaurants"]},{"id":"greekRestaurants_f2230e55c586","slug":"o-platanos-f223","kind":"restaurant","name":"Ο Πλάτανος","lat":37.98012652047389,"lng":23.757043689219586,"url":"https://maps.app.goo.gl/GVj14ysF6cMr9ZoA6","address":"Σεβαστείας 6, Αθήνα 115 28","categoryIds":["greek-restaurants"],"categories":["Greek Restaurants"]},{"id":"cheapEatsRestaurants_c3e978d4eac2","slug":"5f-c3e9","kind":"restaurant","name":"5Φ","lat":37.97277642269308,"lng":23.753966804299914,"url":"https://maps.app.goo.gl/Jtpipww8tzt83Z1fA?g_st=ipc","address":"Diocharous 31 &, Κλεισούρας, Αθήνα 161 21","categoryIds":["cheap-eats","greek-restaurants"],"categories":["Gyros & Cheap Eats","Greek Restaurants"]},{"id":"greekRestaurants_d05f0b437e54","slug":"osonoypo-d05f","kind":"restaurant","name":"Οσονούπω","lat":37.968722862920075,"lng":23.75908756393202,"url":"https://maps.app.goo.gl/HBqT7hbWLLfdjPem9","address":"Πλ. Αναγεννήσεως 2, Καισαριανή 161 21","categoryIds":["greek-restaurants"],"categories":["Greek Restaurants"]},{"id":"burgersRestaurants_bfe01035e2db","slug":"agora-select-bfe0","kind":"restaurant","name":"Agora Select","lat":37.97626574663726,"lng":23.751456733864202,"url":"https://maps.app.goo.gl/GxR6tX8MHegtVPLA7?g_st=ipc","address":"Χατζηγιάννη Μέξη 8 και, Κων/νου Βεντήρη 9, Αθήνα 115 28","categoryIds":["burgers","greek-restaurants"],"categories":["Burger Spots","Greek Restaurants"]},{"id":"greekRestaurants_f3fc125c2d89","slug":"psistaria-to-agrinio-f3fc","kind":"restaurant","name":"Ψησταριά Το Αγρίνιο","lat":37.98365341957495,"lng":23.761708124944604,"url":"https://maps.app.goo.gl/C245RwiHHTqtJUfs8","address":"Σινώπης 18, Αθήνα 115 27","categoryIds":["greek-restaurants"],"categories":["Greek Restaurants"]},{"id":"greekRestaurants_6d8ba6e8459c","slug":"o-tsompanakos-6d8b","kind":"restaurant","name":"Ο Τσομπανάκος","lat":37.96567041818392,"lng":23.763543849190544,"url":"https://maps.app.goo.gl/D1121EC8pmNBFqbK9","address":"Ανακρέοντος 2, Καισαριανή 161 22","categoryIds":["greek-restaurants"],"categories":["Greek Restaurants"]},{"id":"greekRestaurants_b1c00c9474af","slug":"agora-b1c0","kind":"restaurant","name":"AGORA","lat":37.98712790409338,"lng":23.757368207050618,"url":"https://maps.app.goo.gl/UKN5PTfDAJ43RhcT7","address":"31, Χρήστου Βουρνάζου str, Αθήνα 115 21","categoryIds":["greek-restaurants"],"categories":["Greek Restaurants"]}],"nearby":[{"id":"cheapEatsRestaurants_acd6f4163dcb","slug":"ta-psita-tis-pareas-acd6","kind":"restaurant","name":"Τα ψητά της παρέας","lat":37.97804935076976,"lng":23.76224805570561,"url":"https://maps.app.goo.gl/Kxmp13A9x2etHv317?g_st=ipc","address":"Ούλωφ Πάλμε 25, Ζωγράφου 157 71","categoryIds":["cheap-eats"],"categories":["Gyros & Cheap Eats"],"distanceKm":0.327764449873946},{"id":"greekRestaurants_eb74ce369d8c","slug":"skalakia-eb74","kind":"restaurant","name":"Σκαλάκια","lat":37.97743768834,"lng":23.756590141442583,"url":"https://maps.app.goo.gl/awU151ZstgomSVZZ8","address":"Διονυσίου Αιγινήτου 32, Αθήνα 115 28","categoryIds":["greek-restaurants"],"categories":["Greek Restaurants"],"distanceKm":0.41175969436189463},{"id":"burgersRestaurants_01b4e6c2697b","slug":"smashtag-01b4","kind":"restaurant","name":"SmashTag","lat":37.97799517923772,"lng":23.75631086140523,"url":"https://maps.app.goo.gl/Yu7VLwDA42Wp7pZo8","address":"Michalakopoulou 68, Athina 115 28","categoryIds":["burgers"],"categories":["Burger Spots"],"distanceKm":0.4675660732042334},{"id":"municipalities_61eaea5bd3d9","slug":"ilisia-61ea","kind":"municipality","name":"Ιλίσια","lat":37.9789,"lng":23.7572,"region":"Κέντρο Αθήνας","name_en":"Ilisia","region_en":"Athens Center","distanceKm":0.48426398034244444},{"id":"coffeeBrunchRestaurants_3c4532938684","slug":"tromero-paidi-3c45","kind":"restaurant","name":"Τρομερό παιδί","lat":37.979193977677895,"lng":23.756620823918542,"url":"https://maps.app.goo.gl/LhCE2aHEwVVToKhc6?g_st=ipc","address":"Παπαδιαμαντοπούλου 30, Αθήνα 115 28","categoryIds":["coffee-brunch"],"categories":["Coffee & Brunch Spots"],"distanceKm":0.541371401420517},{"id":"coffeeBrunchRestaurants_0854c47f51bb","slug":"lot-51-0854","kind":"restaurant","name":"LOT 51","lat":37.97889236924369,"lng":23.75608261699221,"url":"https://maps.app.goo.gl/XPiz8gPX1disrJLV9?g_st=ipc","address":"Παπαδιαμαντοπούλου 24Β, Αθήνα 115 28","categoryIds":["coffee-brunch"],"categories":["Coffee & Brunch Spots"],"distanceKm":0.5483887051097385},{"id":"cheapEatsRestaurants_d88ce6fa51b6","slug":"kempap-paradosiako-d88c","kind":"restaurant","name":"Κεμπάπ Παραδοσιακό","lat":37.97476714198204,"lng":23.766791010773026,"url":"https://maps.app.goo.gl/PPUd3JeoTmqcayFz5?g_st=ipc","address":"Αμμοχώστου 4, Ζωγράφου 157 71","categoryIds":["cheap-eats"],"categories":["Gyros & Cheap Eats"],"distanceKm":0.5531481431936335},{"id":"greekRestaurants_f2230e55c586","slug":"o-platanos-f223","kind":"restaurant","name":"Ο Πλάτανος","lat":37.98012652047389,"lng":23.757043689219586,"url":"https://maps.app.goo.gl/GVj14ysF6cMr9ZoA6","address":"Σεβαστείας 6, Αθήνα 115 28","categoryIds":["greek-restaurants"],"categories":["Greek Restaurants"],"distanceKm":0.6054735702465606}],"sameRegion":[],"mentionedGuides":[],"canonicalSlug":"alsos-mezedopoleio-90f9","isCanonicalEntity":true,"enrichment":{"summary_en":"Αλσος μεζεδοπωλείο is a curated restaurant in Ζωγράφου 115 28 in the Greek Restaurants collection. It is connected to 18 nearby Googlementor picks to help travelers build a stronger local route.","summary_el":"Αλσος μεζεδοπωλείο είναι ένα επιλεγμένο σημείο φαγητού στην περιοχή Ζωγράφου 115 28 και ανήκει στη συλλογή Greek Restaurants. Συνδέεται με 18 κοντινές προτάσεις του Googlementor για πιο ολοκληρωμένη εμπειρία.","vibe_tags":["curated"],"best_for":["first-time visitors","food lovers"],"visit_moments":["lunch stop","dinner stop"],"practical_note":"Address and direct map link are available for easy turn-by-turn access.","nearby_walkable_count":18,"nearby_count_2km":157,"confidence":0.98}},"__N_SSG":true}