{"pageProps":{"entity":{"id":"fishTavernasRestaurants_11936c86acd1","slug":"antamoma-delicuisine-1193","kind":"restaurant","name":"Antamoma DeliCuisine","lat":37.05815377728116,"lng":25.5110845454022,"url":"https://maps.app.goo.gl/vfCEnss3wGtRVEwf8?g_st=ipc","address":"Ai Giannis, Apirathos 843 00","categoryIds":["fish-tavernas"],"categories":["Fish Tavernas"]},"sameCategory":[{"id":"fishTavernasRestaurants_64df5c108dc4","slug":"apanemi-64df","kind":"restaurant","name":"Apanemi","lat":37.07828569738803,"lng":25.58750367173503,"url":"https://maps.app.goo.gl/oDvDW47p75wDgfpm6?g_st=ipc","address":"Moutsouna, Naxos 843 02","categoryIds":["fish-tavernas"],"categories":["Fish Tavernas"]},{"id":"fishTavernasRestaurants_78cb3f4380c2","slug":"cafe-ouzerie-barabbas-78cb","kind":"restaurant","name":"Café Ouzerie Barabbas","lat":37.10204187531306,"lng":25.37502616238965,"url":"https://maps.app.goo.gl/BH3za9tuZUwNeCz87?g_st=ipc","address":"Naxos 843 00","categoryIds":["fish-tavernas"],"categories":["Fish Tavernas"]},{"id":"fishTavernasRestaurants_d7e3e1315391","slug":"sarris-tavern-d7e3","kind":"restaurant","name":"Sarris Tavern","lat":37.10364861622317,"lng":25.37580990635783,"url":"https://maps.app.goo.gl/AXzYwLeXrYvTjRri8?g_st=ipc","address":"Sarris Tavern 8, Naxos 843 00","categoryIds":["fish-tavernas"],"categories":["Fish Tavernas"]},{"id":"fishTavernasRestaurants_e056f191e63e","slug":"nissaki-restaurant-est-1971-e056","kind":"restaurant","name":"Nissaki Restaurant est. 1971","lat":37.10031334389294,"lng":25.37366043300574,"url":"https://maps.app.goo.gl/yMHNpMahUsVq7kRRA?g_st=ipc","address":"Agiou Georgiou, Naxos 843 00","categoryIds":["fish-tavernas"],"categories":["Fish Tavernas"]},{"id":"fishTavernasRestaurants_b653485690ac","slug":"apanemi-town-b653","kind":"restaurant","name":"Apanemi Town","lat":37.10834996586582,"lng":25.376821223396767,"url":"https://maps.app.goo.gl/FCsJjFS6FdS2hgQ86?g_st=ipc","address":"Leof. Naxou Eggaron, Naxos 843 00","categoryIds":["fish-tavernas"],"categories":["Fish Tavernas"]},{"id":"fishTavernasRestaurants_e4bded96d41b","slug":"akrogiali-restaurant-studios-e4bd","kind":"restaurant","name":"Akrogiali Restaurant- Studios","lat":37.06850212174682,"lng":25.355709551048015,"url":"https://maps.app.goo.gl/f5SYBYZkLKJhZSov6?g_st=ipc","address":"Αγ. Αννα 843 00","categoryIds":["fish-tavernas"],"categories":["Fish Tavernas"]},{"id":"fishTavernasRestaurants_368ca3267414","slug":"capetan-nikolas-368c","kind":"restaurant","name":"CAPETAN NIKOLAS","lat":36.931591561962186,"lng":25.597135247422372,"url":"https://maps.app.goo.gl/5J1tsPBuPnJDQAsV7?g_st=ipc","address":"Koufonisia 843 00","categoryIds":["fish-tavernas"],"categories":["Fish Tavernas"]},{"id":"fishTavernasRestaurants_0de5c8be59df","slug":"o-katsoynas-0de5","kind":"restaurant","name":"Ο ΚΑΤΣΟΥΝΑΣ","lat":37.13969481378141,"lng":25.28757143574355,"url":"https://maps.app.goo.gl/oZW4nirAsKmE2gbg8?g_st=ipc","address":"Σάντα Μαρια 844 01","categoryIds":["fish-tavernas"],"categories":["Fish Tavernas"]}],"nearby":[{"id":"greekRestaurants_acfd3167ad8f","slug":"antamoma-naxian-cuisine-mylos-360-cafe-sunset-bar-acfd","kind":"restaurant","name":"Antamoma Naxian Cuisine- Mylos 360 Café Sunset Bar","lat":37.05816092044301,"lng":25.511084670521964,"url":"https://maps.app.goo.gl/VGafeMQpVB4NtiKo8?g_st=ipc","address":"Ai Giannis, Απείραθος 843 00","categoryIds":["greek-restaurants"],"categories":["Greek Restaurants"],"distanceKm":0.0007943609512255669},{"id":"coffeeBrunchRestaurants_c49fc6ae7fef","slug":"rotonda-cafe-bar-restaurant-in-naxos-c49f","kind":"restaurant","name":"Rotonda - Cafe Bar Restaurant in Naxos","lat":37.05872571074158,"lng":25.510854348333638,"url":"https://maps.app.goo.gl/CVfadsvfxt5JGHVb8?g_st=ipc","address":"ai giannis, Apirathos 843 00","categoryIds":["coffee-brunch"],"categories":["Coffee & Brunch Spots"],"distanceKm":0.06679607662650794},{"id":"coffeeBrunchRestaurants_adc2f257af84","slug":"platanos-cafe-restaurant-adc2","kind":"restaurant","name":"Platanos Cafe Restaurant","lat":37.0520184479865,"lng":25.4980988789785,"url":"https://maps.app.goo.gl/GftgqDRmHM6GREdg9?g_st=ipc","address":"Epar.Od. Naxou-Apiranthou, Filoti 843 02","categoryIds":["coffee-brunch"],"categories":["Coffee & Brunch Spots"],"distanceKm":1.3391496744763984},{"id":"greekRestaurants_1c5a5710b282","slug":"amvrosia-1c5a","kind":"restaurant","name":"Αμβροσία","lat":37.05198027328874,"lng":25.498122685244876,"url":"https://maps.app.goo.gl/hServvR8erYFDEW79?g_st=ipc","address":"Επαρ.Οδ. Δαμαριώνα-Δανακού, Φιλότι 843 02","categoryIds":["greek-restaurants"],"categories":["Greek Restaurants"],"distanceKm":1.3395028878025166},{"id":"coffeeBrunchRestaurants_409a1c00e009","slug":"fasolas-gastrokafeneio-409a","kind":"restaurant","name":"Fasolas Gastrokafeneio","lat":37.05047829842748,"lng":25.497802752574465,"url":"https://maps.app.goo.gl/s28qFqLPN9on9SZy8?g_st=ipc","address":"Filoti 843 02","categoryIds":["coffee-brunch","desserts"],"categories":["Coffee & Brunch Spots","Dessert Shops"],"distanceKm":1.4551980800234594},{"id":"greekRestaurants_675afe268027","slug":"stoy-koytoypa-stou-koutoupa-675a","kind":"restaurant","name":"Στου Κούτουπα (Stou Koutoupa)","lat":37.07115111503441,"lng":25.51957571120497,"url":"https://maps.app.goo.gl/cDoUJzNEfc5atgwUA?g_st=ipc","address":"Επαρ.Οδ. Νάξου-Απειράνθου 128, Απείραθος 843 02","categoryIds":["greek-restaurants"],"categories":["Greek Restaurants"],"distanceKm":1.6298279228761312},{"id":"coffeeBrunchRestaurants_a1d642828b23","slug":"halki-cafe-bistro-a1d6","kind":"restaurant","name":"Halki Cafe Bistro","lat":37.0642321945567,"lng":25.484940977880758,"url":"https://maps.app.goo.gl/EM1dP9kHW3eWkooMA?g_st=ipc","address":"Epar.Od. Naxou-Apiranthou, Chalkio 843 00","categoryIds":["coffee-brunch"],"categories":["Coffee & Brunch Spots"],"distanceKm":2.4162467083778436},{"id":"greekRestaurants_b2aaf0dfb9a4","slug":"kalliopi-b2aa","kind":"restaurant","name":"Καλλιόπη","lat":37.07778318483779,"lng":25.496090474760013,"url":"https://maps.app.goo.gl/m8AnzCybw8VgSFBX7?g_st=ipc","address":"Μονή Νάξου, Δήμος Δρυμαλίας, Λούροι 843 02","categoryIds":["greek-restaurants"],"categories":["Greek Restaurants"],"distanceKm":2.5561605975972506}],"sameRegion":[],"mentionedGuides":[],"canonicalSlug":"antamoma-delicuisine-1193","isCanonicalEntity":true,"enrichment":{"summary_en":"Antamoma DeliCuisine is a curated restaurant in Apirathos 843 00 in the Fish Tavernas collection. It is connected to 2 nearby Googlementor picks to help travelers build a stronger local route.","summary_el":"Antamoma DeliCuisine είναι ένα επιλεγμένο σημείο φαγητού στην περιοχή Apirathos 843 00 και ανήκει στη συλλογή Fish Tavernas. Συνδέεται με 2 κοντινές προτάσεις του Googlementor για πιο ολοκληρωμένη εμπειρία.","vibe_tags":["curated","seafood-local"],"best_for":["first-time visitors","food lovers"],"visit_moments":["lunch stop","dinner stop"],"practical_note":"Address and direct map link are available for easy turn-by-turn access.","nearby_walkable_count":2,"nearby_count_2km":6,"confidence":0.9}},"__N_SSG":true}