{"pageProps":{"entity":{"id":"dessertsRestaurants_2ce344200b32","slug":"artozacharoplasteia-gavriilidis-2ce3","kind":"restaurant","name":"Αρτοζαχαροπλαστεία Γαβριηλίδης","lat":37.964134303993816,"lng":23.626317751280503,"url":"https://maps.app.goo.gl/JyTzpkU2ifwrGv839?g_st=ipc","address":"Λεωφ. Σαλαμίνος 71, Κερατσίνι 187 56","categoryIds":["desserts"],"categories":["Dessert Shops"]},"sameCategory":[{"id":"dessertsRestaurants_1148b5deca52","slug":"galaktopoleio-stamoy-1148","kind":"restaurant","name":"Γαλακτοπωλείο ΣΤΑΜΟΥ","lat":37.9652037202668,"lng":23.635596413779496,"url":"https://maps.app.goo.gl/rrTmftHWRasbJb7aA?g_st=ipc","address":"Πέτρου Ράλλη 438, Νίκαια 184 51","categoryIds":["desserts"],"categories":["Dessert Shops"]},{"id":"dessertsRestaurants_bd4141abfc88","slug":"paylakis-zacharoplasteio-bd41","kind":"restaurant","name":"Παυλάκης Ζαχαροπλαστείο","lat":37.95571450585217,"lng":23.63113250439145,"url":"https://maps.app.goo.gl/uG9ew76UW6orfg278?g_st=ipc","address":"Σπάρτης 129, Πειραιάς 185 46","categoryIds":["desserts"],"categories":["Dessert Shops"]},{"id":"dessertsRestaurants_fc8742eefd51","slug":"loukoumothers-korydallos-fc87","kind":"restaurant","name":"Loukoumothers Korydallos","lat":37.97603620585146,"lng":23.64943855450405,"url":"https://maps.app.goo.gl/vMqPzYGSApLyRm1NA?g_st=ipc","address":"Ταξιαρχών &, Καψάλη 12, Κορυδαλλός 181 20","categoryIds":["desserts"],"categories":["Dessert Shops"]},{"id":"dessertsRestaurants_bfa57b4eb085","slug":"little-bear-piraeus-vegan-patisserie-bistro-bfa5","kind":"restaurant","name":"Little Bear Piraeus - Vegan Patisserie & Bistro","lat":37.946303720961154,"lng":23.647731238367324,"url":"https://maps.app.goo.gl/u2qFa1uh9dMczD9G6?g_st=ipc","address":"Ελ. Βενιζέλου 14, Πειραιάς 185 31","categoryIds":["desserts"],"categories":["Dessert Shops"]},{"id":"dessertsRestaurants_3dbefba5d853","slug":"galaktopoleio-stamoy-3dbe","kind":"restaurant","name":"Γαλακτοπωλείο ΣΤΑΜΟΥ","lat":37.98009558422181,"lng":23.657555522495652,"url":"https://maps.app.goo.gl/39ZNM4A7nfLV7BTBA?g_st=ipc","address":"Γρ. Λαμπράκη 120, Κορυδαλλός 181 21","categoryIds":["desserts"],"categories":["Dessert Shops"]},{"id":"dessertsRestaurants_7b04a6c0e5e9","slug":"loukoumother-s-peiraias-7b04","kind":"restaurant","name":"Loukoumother's Πειραιάς","lat":37.93905157733481,"lng":23.647294517023667,"url":"https://maps.app.goo.gl/n5Dp63fF47u9TZuz6?g_st=ipc","address":"Ακτή Μουτσοπούλου 12, Πειραιάς 185 35","categoryIds":["desserts"],"categories":["Dessert Shops"]},{"id":"dessertsRestaurants_485012761632","slug":"galaktopoleio-stamoy-peiraia-4850","kind":"restaurant","name":"Γαλακτοπωλείο ΣΤΑΜΟΥ, Πειραιά","lat":37.93559337890928,"lng":23.64309227138255,"url":"https://maps.app.goo.gl/msTiobs8vpLYrcz57?g_st=ipc","address":"Λεωφ. Αφεντούλη 16 &, Πραξιτέλους 243, Πειραιάς 185 36","categoryIds":["desserts"],"categories":["Dessert Shops"]},{"id":"dessertsRestaurants_2d68be5dbeef","slug":"cinnabon-river-west-2d68","kind":"restaurant","name":"Cinnabon River West","lat":37.98076958767386,"lng":23.67777033031343,"url":"https://maps.app.goo.gl/iys8A2TDdunHPN1i8?g_st=ic","address":"Par. Leoforou Kifisou 96-98, Egaleo 122 41","categoryIds":["desserts"],"categories":["Dessert Shops"]}],"nearby":[{"id":"cheapEatsRestaurants_45ca9e952a78","slug":"bella-vista-45ca","kind":"restaurant","name":"Bella Vista","lat":37.96390003095981,"lng":23.626189441266973,"url":"https://maps.app.goo.gl/C4Pcs9AmY91g2TWr8?g_st=ipc","address":"Κωνσταντινουπόλεως 65, Κερατσίνι 187 56","categoryIds":["cheap-eats"],"categories":["Gyros & Cheap Eats"],"distanceKm":0.028374768918914942},{"id":"fishTavernasRestaurants_0d1e86dc9c98","slug":"psarotaverna-o-vasilis-0d1e","kind":"restaurant","name":"ΨΑΡΟΤΑΒΕΡΝΑ \"Ο ΒΑΣΙΛΗΣ\"","lat":37.963242750995164,"lng":23.620073628540776,"url":"https://maps.app.goo.gl/aW7neYrejPJDa4ZB6?g_st=ipc","address":"Κουντουριώτου 12, Κερατσίνι 187 56","categoryIds":["fish-tavernas"],"categories":["Fish Tavernas"],"distanceKm":0.5563028680698938},{"id":"burgersRestaurants_4906276397a1","slug":"godgilla-keratsini-4906","kind":"restaurant","name":"GODGILLA ΚΕΡΑΤΣΙΝΙ","lat":37.95895954039208,"lng":23.62512429010796,"url":"https://maps.app.goo.gl/XPM5TwgWvpZmGQUh6?g_st=ipc","address":"Θεόφραστου 54, Κερατσίνι 187 56","categoryIds":["burgers","cheap-eats"],"categories":["Burger Spots","Gyros & Cheap Eats"],"distanceKm":0.5848427284150728},{"id":"municipalities_14b2964f3eeb","slug":"keratsini-14b2","kind":"municipality","name":"Κερατσίνι","lat":37.9639,"lng":23.6194,"aliases":["Κερατσινι"],"region":"Πειραιάς","name_en":"Keratsini","region_en":"Piraeus","distanceKm":0.6070093956059571},{"id":"fishTavernasRestaurants_8d6cb659e1a2","slug":"psarokokkalo-tis-annas-8d6c","kind":"restaurant","name":"ΨΑΡΟΚΟΚΚΑΛΟ ΤΗΣ ΑΝΝΑΣ","lat":37.969120176200505,"lng":23.623070103225206,"url":"https://maps.app.goo.gl/Fqinu6WnUcLK6Pe87?g_st=ipc","address":"Τσακάλωφ, Βίκτωρος Ουγκώ και, Κερατσίνι 187 57","categoryIds":["fish-tavernas"],"categories":["Fish Tavernas"],"distanceKm":0.6232303744781369},{"id":"coffeeBrunchRestaurants_80f636c96420","slug":"azimouthio-80f6","kind":"restaurant","name":"Azimouthio","lat":37.968862186258185,"lng":23.621767789991836,"url":"https://maps.app.goo.gl/5pGu2NryRiA9Qcms5?g_st=ipc","address":"Ταϋγέτου 4, Κερατσίνι 187 57","categoryIds":["coffee-brunch"],"categories":["Coffee & Brunch Spots"],"distanceKm":0.6599008066691665},{"id":"dessertsRestaurants_1148b5deca52","slug":"galaktopoleio-stamoy-1148","kind":"restaurant","name":"Γαλακτοπωλείο ΣΤΑΜΟΥ","lat":37.9652037202668,"lng":23.635596413779496,"url":"https://maps.app.goo.gl/rrTmftHWRasbJb7aA?g_st=ipc","address":"Πέτρου Ράλλη 438, Νίκαια 184 51","categoryIds":["desserts"],"categories":["Dessert Shops"],"distanceKm":0.8220600000511236},{"id":"dessertsRestaurants_bd4141abfc88","slug":"paylakis-zacharoplasteio-bd41","kind":"restaurant","name":"Παυλάκης Ζαχαροπλαστείο","lat":37.95571450585217,"lng":23.63113250439145,"url":"https://maps.app.goo.gl/uG9ew76UW6orfg278?g_st=ipc","address":"Σπάρτης 129, Πειραιάς 185 46","categoryIds":["desserts"],"categories":["Dessert Shops"],"distanceKm":1.0269966847330398}],"sameRegion":[],"mentionedGuides":[],"canonicalSlug":"artozacharoplasteia-gavriilidis-2ce3","isCanonicalEntity":true,"enrichment":{"summary_en":"Αρτοζαχαροπλαστεία Γαβριηλίδης is a curated restaurant in Κερατσίνι 187 56 in the Dessert Shops collection. It is connected to 6 nearby Googlementor picks to help travelers build a stronger local route.","summary_el":"Αρτοζαχαροπλαστεία Γαβριηλίδης είναι ένα επιλεγμένο σημείο φαγητού στην περιοχή Κερατσίνι 187 56 και ανήκει στη συλλογή Dessert Shops. Συνδέεται με 6 κοντινές προτάσεις του Googlementor για πιο ολοκληρωμένη εμπειρία.","vibe_tags":["curated","sweet-stop"],"best_for":["first-time visitors","food lovers"],"visit_moments":["afternoon break","after dinner"],"practical_note":"Address and direct map link are available for easy turn-by-turn access.","nearby_walkable_count":6,"nearby_count_2km":25,"confidence":0.98}},"__N_SSG":true}