{"pageProps":{"entity":{"id":"coffeeBrunchRestaurants_80f636c96420","slug":"azimouthio-80f6","kind":"restaurant","name":"Azimouthio","lat":37.968862186258185,"lng":23.621767789991836,"url":"https://maps.app.goo.gl/5pGu2NryRiA9Qcms5?g_st=ipc","address":"Ταϋγέτου 4, Κερατσίνι 187 57","categoryIds":["coffee-brunch"],"categories":["Coffee & Brunch Spots"]},"sameCategory":[{"id":"coffeeBrunchRestaurants_267612a1ea40","slug":"tolis-sweet-s-n-eats-2676","kind":"restaurant","name":"Τόλης sweet's n' eats","lat":37.97589864090017,"lng":23.642161221415883,"url":"https://maps.app.goo.gl/Q5js7BApZATn8jx1A?g_st=ipc","address":"Πλ. Δημοκρατίας, Νίκαια 184 51","categoryIds":["coffee-brunch"],"categories":["Coffee & Brunch Spots"]},{"id":"coffeeBrunchRestaurants_fe42c1fe0d07","slug":"la-belle-epoque-fe42","kind":"restaurant","name":"La Belle Époque","lat":37.94126457803724,"lng":23.646089165937596,"url":"https://maps.app.goo.gl/BAXbDkZ2it9TjYv19?g_st=ipc","address":"Αριστοτέλους 10, Πειραιάς 185 35","categoryIds":["coffee-brunch"],"categories":["Coffee & Brunch Spots"]},{"id":"coffeeBrunchRestaurants_dede4a68abbb","slug":"temps-perdu-dede","kind":"restaurant","name":"Temps Perdu","lat":37.94112588112371,"lng":23.646526456108827,"url":"https://maps.app.goo.gl/ABEv497Uv63A5df28?g_st=ipc","address":"Καραΐσκου 114, Πειραιάς 185 35","categoryIds":["coffee-brunch"],"categories":["Coffee & Brunch Spots"]},{"id":"coffeeBrunchRestaurants_4ee8e575619a","slug":"modish-coffee-graze-and-booze-4ee8","kind":"restaurant","name":"modish coffee, graze and booze","lat":37.936912830564985,"lng":23.639147286687205,"url":"https://maps.app.goo.gl/Fa2QfE64sQhorAFE9?g_st=ipc","address":"Ακτή Μιαούλη 81, Πειραιάς 185 38","categoryIds":["coffee-brunch"],"categories":["Coffee & Brunch Spots"]},{"id":"coffeeBrunchRestaurants_6619baa2337c","slug":"istioploikos-6619","kind":"restaurant","name":"Ιστιοπλοϊκός","lat":37.93594003787034,"lng":23.659959429233506,"url":"https://maps.app.goo.gl/SwZBGSrcnHzSh6sz8?g_st=ipc","address":"T.K, Ακτή Μικρολίμανου, Πειραιάς 185 33","categoryIds":["coffee-brunch"],"categories":["Coffee & Brunch Spots"]},{"id":"coffeeBrunchRestaurants_7dd888878942","slug":"botanical-garden-bistrot-7dd8","kind":"restaurant","name":"Botanical Garden Bistrot","lat":38.01082910356087,"lng":23.64241923148242,"url":"https://maps.app.goo.gl/K8biwYq9RLoEXdZZA?g_st=ipc","address":"Βοτανικός Κήπος, Ιερά Οδός 403, Χαϊδάρι 124 61","categoryIds":["coffee-brunch"],"categories":["Coffee & Brunch Spots"]},{"id":"coffeeBrunchRestaurants_639c2aabee9d","slug":"qahwa-chaidari-639c","kind":"restaurant","name":"Qahwa Chaidari","lat":38.00126380773835,"lng":23.663252642859884,"url":"https://maps.app.goo.gl/vAwUeBwjnVB6oM6A7?g_st=ipc","address":"Στρ. Καραϊσκάκη 12, Χαϊδάρι 124 61","categoryIds":["coffee-brunch"],"categories":["Coffee & Brunch Spots"]},{"id":"coffeeBrunchRestaurants_21280d2fc2ee","slug":"telescope-cafe-bar-restaurant-2128","kind":"restaurant","name":"Telescope Cafe Bar Restaurant","lat":38.00692418431941,"lng":23.65623593846488,"url":"https://maps.app.goo.gl/qq7xzW7bEsPcyJT1A?g_st=ipc","address":"Φιλικής Εταιρείας, Χαϊδάρι 124 61","categoryIds":["coffee-brunch","rooftop-lounges"],"categories":["Coffee & Brunch Spots","Rooftop Lounges"]}],"nearby":[{"id":"fishTavernasRestaurants_8d6cb659e1a2","slug":"psarokokkalo-tis-annas-8d6c","kind":"restaurant","name":"ΨΑΡΟΚΟΚΚΑΛΟ ΤΗΣ ΑΝΝΑΣ","lat":37.969120176200505,"lng":23.623070103225206,"url":"https://maps.app.goo.gl/Fqinu6WnUcLK6Pe87?g_st=ipc","address":"Τσακάλωφ, Βίκτωρος Ουγκώ και, Κερατσίνι 187 57","categoryIds":["fish-tavernas"],"categories":["Fish Tavernas"],"distanceKm":0.1177097622279329},{"id":"municipalities_14b2964f3eeb","slug":"keratsini-14b2","kind":"municipality","name":"Κερατσίνι","lat":37.9639,"lng":23.6194,"aliases":["Κερατσινι"],"region":"Πειραιάς","name_en":"Keratsini","region_en":"Piraeus","distanceKm":0.5895204097096022},{"id":"fishTavernasRestaurants_0d1e86dc9c98","slug":"psarotaverna-o-vasilis-0d1e","kind":"restaurant","name":"ΨΑΡΟΤΑΒΕΡΝΑ \"Ο ΒΑΣΙΛΗΣ\"","lat":37.963242750995164,"lng":23.620073628540776,"url":"https://maps.app.goo.gl/aW7neYrejPJDa4ZB6?g_st=ipc","address":"Κουντουριώτου 12, Κερατσίνι 187 56","categoryIds":["fish-tavernas"],"categories":["Fish Tavernas"],"distanceKm":0.6422599524558835},{"id":"dessertsRestaurants_2ce344200b32","slug":"artozacharoplasteia-gavriilidis-2ce3","kind":"restaurant","name":"Αρτοζαχαροπλαστεία Γαβριηλίδης","lat":37.964134303993816,"lng":23.626317751280503,"url":"https://maps.app.goo.gl/JyTzpkU2ifwrGv839?g_st=ipc","address":"Λεωφ. Σαλαμίνος 71, Κερατσίνι 187 56","categoryIds":["desserts"],"categories":["Dessert Shops"],"distanceKm":0.6599008066691665},{"id":"cheapEatsRestaurants_45ca9e952a78","slug":"bella-vista-45ca","kind":"restaurant","name":"Bella Vista","lat":37.96390003095981,"lng":23.626189441266973,"url":"https://maps.app.goo.gl/C4Pcs9AmY91g2TWr8?g_st=ipc","address":"Κωνσταντινουπόλεως 65, Κερατσίνι 187 56","categoryIds":["cheap-eats"],"categories":["Gyros & Cheap Eats"],"distanceKm":0.6743082777488856},{"id":"burgersRestaurants_4906276397a1","slug":"godgilla-keratsini-4906","kind":"restaurant","name":"GODGILLA ΚΕΡΑΤΣΙΝΙ","lat":37.95895954039208,"lng":23.62512429010796,"url":"https://maps.app.goo.gl/XPM5TwgWvpZmGQUh6?g_st=ipc","address":"Θεόφραστου 54, Κερατσίνι 187 56","categoryIds":["burgers","cheap-eats"],"categories":["Burger Spots","Gyros & Cheap Eats"],"distanceKm":1.139762009969001},{"id":"dessertsRestaurants_1148b5deca52","slug":"galaktopoleio-stamoy-1148","kind":"restaurant","name":"Γαλακτοπωλείο ΣΤΑΜΟΥ","lat":37.9652037202668,"lng":23.635596413779496,"url":"https://maps.app.goo.gl/rrTmftHWRasbJb7aA?g_st=ipc","address":"Πέτρου Ράλλη 438, Νίκαια 184 51","categoryIds":["desserts"],"categories":["Dessert Shops"],"distanceKm":1.2786836475999068},{"id":"fishTavernasRestaurants_3d632b6f2123","slug":"oinomageireio-o-vasilis-3d63","kind":"restaurant","name":"ΟΙΝΟΜΑΓΕΙΡΕΙΟ Ο ΒΑΣΙΛΗΣ","lat":37.95641057665237,"lng":23.61228914458667,"url":"https://maps.app.goo.gl/a3BE4Jby4PK3CikYA?g_st=ipc","address":"Ιχθυόσκαλα, Κερατσίνι 187 55","categoryIds":["fish-tavernas"],"categories":["Fish Tavernas"],"distanceKm":1.61477654769284}],"sameRegion":[],"mentionedGuides":[],"canonicalSlug":"azimouthio-80f6","isCanonicalEntity":true,"enrichment":{"summary_en":"Azimouthio is a curated restaurant in Κερατσίνι 187 57 in the Coffee & Brunch Spots collection. It is connected to 5 nearby Googlementor picks to help travelers build a stronger local route.","summary_el":"Azimouthio είναι ένα επιλεγμένο σημείο φαγητού στην περιοχή Κερατσίνι 187 57 και ανήκει στη συλλογή Coffee & Brunch Spots. Συνδέεται με 5 κοντινές προτάσεις του Googlementor για πιο ολοκληρωμένη εμπειρία.","vibe_tags":["curated","daytime-favorite"],"best_for":["first-time visitors","food lovers"],"visit_moments":["early morning","late brunch"],"practical_note":"Address and direct map link are available for easy turn-by-turn access.","nearby_walkable_count":5,"nearby_count_2km":15,"confidence":0.98}},"__N_SSG":true}