{"pageProps":{"entity":{"id":"luxuryDiningRestaurants_771807889c8b","slug":"beastalis-food-for-proud-meat-eaters-7718","kind":"restaurant","name":"BEASTALIS ,Food for proud meat eaters","lat":37.867214606158306,"lng":23.7473035874199,"url":"https://maps.app.goo.gl/2E1n4NVs2CjMsLQo7?g_st=ipc","address":"Κύπρου 9, Γλυφάδα 166 75","categoryIds":["luxury-dining"],"categories":["Luxury Dining"]},"sameCategory":[{"id":"luxuryDiningRestaurants_0dbacc69dd52","slug":"feedel-asador-0dba","kind":"restaurant","name":"FEEDEL ASADOR","lat":37.86621086434499,"lng":23.74871853137983,"url":"https://maps.app.goo.gl/axUbgwvJZkdNUx4n8?g_st=ipc","address":"Ν Ζερβα 24 Και, Κύπρου, Γλυφάδα 166 75","categoryIds":["luxury-dining"],"categories":["Luxury Dining"]},{"id":"luxuryDiningRestaurants_72f0c7381e5c","slug":"caretta-athens-72f0","kind":"restaurant","name":"Caretta Athens","lat":37.8628471518072,"lng":23.74485660521178,"url":"https://maps.app.goo.gl/Uw1vLRNczCvaVvgf8?g_st=ipc","address":"Διαδόχου Παύλου 46, Γλυφάδα 166 75","categoryIds":["luxury-dining"],"categories":["Luxury Dining"]},{"id":"greekRestaurants_2c46fb9be459","slug":"basegrill-2c46","kind":"restaurant","name":"Basegrill","lat":37.860629906056765,"lng":23.752227328267114,"url":"https://maps.app.goo.gl/Mg499qYpRgDUfYMg9","address":"Ζησιμοπούλου 5, Γλυφάδα 166 74","categoryIds":["greek-restaurants","luxury-dining"],"categories":["Greek Restaurants","Luxury Dining"]},{"id":"luxuryDiningRestaurants_7d36e4ca660e","slug":"ark-7d36","kind":"restaurant","name":"Ark","lat":37.85971913916164,"lng":23.74981043696894,"url":"https://maps.app.goo.gl/Dx4oajrWFGZwwetZ9?g_st=ipc","address":"Γρ. Λαμπράκη 2, Γλυφάδα 166 74","categoryIds":["luxury-dining"],"categories":["Luxury Dining"]},{"id":"coffeeBrunchRestaurants_f000d793a460","slug":"bungalow7-athens-f000","kind":"restaurant","name":"Bungalow7 Athens","lat":37.858739347203105,"lng":23.751507417801406,"url":"https://maps.app.goo.gl/46sTr1wF8Q2Bajpu7?g_st=ipc","address":"Λεωφ. Ποσειδώνος 110, Γλυφάδα 166 75","categoryIds":["coffee-brunch","luxury-dining"],"categories":["Coffee & Brunch Spots","Luxury Dining"]},{"id":"luxuryDiningRestaurants_d4685ec9fc7a","slug":"barbarossa-athens-d468","kind":"restaurant","name":"Barbarossa Athens","lat":37.85088920250088,"lng":23.748814418850717,"url":"https://maps.app.goo.gl/oUiPt5pCahzP963D8?g_st=ipc","address":"Λεωφ. Αλκυονίδων 4, Βούλα 166 73","categoryIds":["luxury-dining"],"categories":["Luxury Dining"]},{"id":"fishTavernasRestaurants_eb690c18b7db","slug":"sea-satin-athens-riviera-eb69","kind":"restaurant","name":"Sea Satin Athens Riviera","lat":37.840376863615674,"lng":23.760387360489776,"url":"https://maps.app.goo.gl/1QEDPDZdZC7GT8ne9?g_st=ipc","address":"Λεωφ. Κωνσταντίνου Καραμανλή 14, Βούλα 166 73","categoryIds":["fish-tavernas","luxury-dining"],"categories":["Fish Tavernas","Luxury Dining"]},{"id":"luxuryDiningRestaurants_9dba478c9326","slug":"faidon-s-athens-9dba","kind":"restaurant","name":"FAIDON'S Athens","lat":37.841556503840984,"lng":23.766513107501794,"url":"https://maps.app.goo.gl/keaSEXUAsA2Tk34x9?g_st=ipc","address":"Αγίου Ιωάννου 28, Βούλα 166 73","categoryIds":["luxury-dining"],"categories":["Luxury Dining"]}],"nearby":[{"id":"familyFriendly_bba3af84c3c6","slug":"bella-vespa-bba3","kind":"restaurant","name":"Bella Vespa","lat":37.86706675735918,"lng":23.747387332761612,"url":"https://maps.app.goo.gl/dpip4AngfBL8xv2M8?g_st=ipc","address":"Κύπρου 11, Γλυφάδα 166 75","categoryIds":["family-friendly","italian"],"categories":["Kid Friendly Locations","Italian Restaurants"],"distanceKm":0.018008776937224493},{"id":"coffeeBrunchRestaurants_d0cf8543ac4f","slug":"la-linda-bakery-cafe-d0cf","kind":"restaurant","name":"La Linda Bakery & Café","lat":37.86700115203996,"lng":23.7478274102709,"url":"https://maps.app.goo.gl/2uSwHrZcryhig7ebA?g_st=ipc","address":"Κύπρου 13, Γλυφάδα 166 75","categoryIds":["coffee-brunch"],"categories":["Coffee & Brunch Spots"],"distanceKm":0.05174634005878537},{"id":"luxuryDiningRestaurants_0dbacc69dd52","slug":"feedel-asador-0dba","kind":"restaurant","name":"FEEDEL ASADOR","lat":37.86621086434499,"lng":23.74871853137983,"url":"https://maps.app.goo.gl/axUbgwvJZkdNUx4n8?g_st=ipc","address":"Ν Ζερβα 24 Και, Κύπρου, Γλυφάδα 166 75","categoryIds":["luxury-dining"],"categories":["Luxury Dining"],"distanceKm":0.16698572413725424},{"id":"cheapEatsRestaurants_4792fbe09c71","slug":"zahoulis-glyfada-4792","kind":"restaurant","name":"ZAHOULIS GLYFADA","lat":37.86453214322605,"lng":23.747876477019613,"url":"https://maps.app.goo.gl/mDh3F8ASwiDrm4yK9?g_st=ipc","address":"Γεωρ. Κονδύλη 7, Γλυφάδα 166 75","categoryIds":["cheap-eats"],"categories":["Gyros & Cheap Eats"],"distanceKm":0.30248603746530095},{"id":"monasteriesChurches_7e1015acfe83","slug":"ieros-mitropolitikos-naos-agion-konstantinoy-kai-elenis-glyfados-7e10","kind":"restaurant","name":"Ιερός Μητροπολιτικός Ναός Αγίων Κωνσταντίνου και Ελένης Γλυφάδος","lat":37.86486928057967,"lng":23.745526823345948,"url":"https://maps.app.goo.gl/qTQwxJXWuuhNBZ4H6?g_st=ipc","address":"Λεωφ. Ποσειδώνος 55, Γλυφάδα 166 75","categoryIds":["monasteries-churches"],"categories":["Monasteries & Spiritual Sites"],"distanceKm":0.3038698210499797},{"id":"fishTavernasRestaurants_fd7ed352bb9f","slug":"kapetan-giorgis-o-mytilinios-fd7e","kind":"restaurant","name":"Καπετάν Γιώργης «Ο Μυτιληνιός»","lat":37.86441144968363,"lng":23.748467238824272,"url":"https://maps.app.goo.gl/SNmz2TBABsNaydEj9?g_st=ipc","address":"Κωνσταντινουπόλεως 9, Γλυφάδα 166 75","categoryIds":["fish-tavernas"],"categories":["Fish Tavernas"],"distanceKm":0.32800797954663174},{"id":"dessertsRestaurants_b3c46904a396","slug":"zacharoplasteia-kosmikon-glyfada-b3c4","kind":"restaurant","name":"ΖΑΧΑΡΟΠΛΑΣΤΕΙΑ ΚΟΣΜΙΚΟΝ ΓΛΥΦΑΔΑ","lat":37.86337786046336,"lng":23.74796656462487,"url":"https://maps.app.goo.gl/1fokhebPfhs4GEHC9?g_st=ipc","address":"ΠΛΑΤΕΙΑ Β.ΚΑΤΡΑΚΗ 6, Γλυφάδα 166 75","categoryIds":["desserts"],"categories":["Dessert Shops"],"distanceKm":0.4305779425566617},{"id":"italianRestaurants_dd5b148ca8d7","slug":"peccati-di-gola-dd5b","kind":"restaurant","name":"Peccati Di Gola","lat":37.86427445144013,"lng":23.751331713919253,"url":"https://maps.app.goo.gl/o1MzXXTU18xSPfb69?g_st=ipc","address":"Κύπρου 50, Γλυφάδα 166 75","categoryIds":["italian"],"categories":["Italian Restaurants"],"distanceKm":0.48157762865835724}],"sameRegion":[],"mentionedGuides":[],"canonicalSlug":"beastalis-food-for-proud-meat-eaters-7718","isCanonicalEntity":true,"enrichment":{"summary_en":"BEASTALIS ,Food for proud meat eaters is a curated restaurant in Γλυφάδα 166 75 in the Luxury Dining collection. It is connected to 24 nearby Googlementor picks to help travelers build a stronger local route.","summary_el":"BEASTALIS ,Food for proud meat eaters είναι ένα επιλεγμένο σημείο φαγητού στην περιοχή Γλυφάδα 166 75 και ανήκει στη συλλογή Luxury Dining. Συνδέεται με 24 κοντινές προτάσεις του Googlementor για πιο ολοκληρωμένη εμπειρία.","vibe_tags":["curated","premium-dining"],"best_for":["first-time visitors","food lovers","special occasions"],"visit_moments":["lunch stop","dinner stop"],"practical_note":"Address and direct map link are available for easy turn-by-turn access.","nearby_walkable_count":24,"nearby_count_2km":67,"confidence":0.98}},"__N_SSG":true}