{"pageProps":{"entity":{"id":"rooftopLoungesRestaurants_7028a5f2c855","slug":"bg-s-roof-garden-terrace-7028","kind":"restaurant","name":"BG's Roof Garden Terrace","lat":37.96555476887021,"lng":23.73099014305094,"url":"https://maps.app.goo.gl/DYB3podcUfK36W3e8?g_st=ipc","address":"Menaimahou 1 & Theofilopoulou, Καλλιρρόης Avenue, 18, 117 43","categoryIds":["rooftop-lounges"],"categories":["Rooftop Lounges"]},"sameCategory":[{"id":"rooftopLoungesRestaurants_208f904925e8","slug":"stork-rooftop-bar-restaurant-208f","kind":"restaurant","name":"stork rooftop bar restaurant","lat":37.967099364958976,"lng":23.7303307646006,"url":"https://maps.app.goo.gl/AF5AEBzt63j5tves7?g_st=ipc","address":"Λεωφόρος Συγγρού 21, Βούρβαχη 2, Αθήνα 117 43","categoryIds":["rooftop-lounges"],"categories":["Rooftop Lounges"]},{"id":"rooftopLoungesRestaurants_0166d74152d9","slug":"180-west-rooftop-lounge-restaurant-0166","kind":"restaurant","name":"180º West Rooftop Lounge Restaurant","lat":37.965774750504295,"lng":23.727676619784248,"url":"https://maps.app.goo.gl/B2UsgvhxQkuJx2dU7?g_st=ipc","address":"Φαλήρου 37-39, Αθήνα 117 42","categoryIds":["rooftop-lounges"],"categories":["Rooftop Lounges"]},{"id":"rooftopLoungesRestaurants_f8cacb8baac7","slug":"athens-gate-rooftop-bar-restaurant-f8ca","kind":"restaurant","name":"Athens Gate Rooftop Bar & Restaurant","lat":37.968775997362016,"lng":23.73145032913701,"url":"https://maps.app.goo.gl/q9X7pZzbyKPo8wEb6?g_st=ipc","address":"Leof. Andrea Siggrou 10, Athina 117 41","categoryIds":["rooftop-lounges"],"categories":["Rooftop Lounges"]},{"id":"luxuryDiningRestaurants_6d0eec69a8bb","slug":"sense-modern-greek-cuisine-6d0e","kind":"restaurant","name":"SENSE Modern Greek Cuisine","lat":37.96950501164825,"lng":23.730857786980206,"url":"https://maps.app.goo.gl/BrJr73pSejAaUrbq6?g_st=ipc","address":"Διονυσίου Αρεοπαγίτου 5, Αθήνα 117 42","categoryIds":["luxury-dining","rooftop-lounges"],"categories":["Luxury Dining","Rooftop Lounges"]},{"id":"luxuryDiningRestaurants_8f9976dae124","slug":"point-a-acropolis-point-8f99","kind":"restaurant","name":"POINT A (Acropolis Point)","lat":37.968415622994755,"lng":23.72706617377212,"url":"https://maps.app.goo.gl/NiwbpnxKE4g22Tzw6?g_st=ipc","address":"Ροβέρτου Γκάλι 4a, Αθήνα 117 42","categoryIds":["luxury-dining","rooftop-lounges"],"categories":["Luxury Dining","Rooftop Lounges"]},{"id":"rooftopLoungesRestaurants_9f3b51889721","slug":"neoma-9f3b","kind":"restaurant","name":"Neoma","lat":37.96667210546055,"lng":23.72293271432969,"url":"https://maps.app.goo.gl/GwTqDERwqhw3c72o8?g_st=ipc","address":"Μουσών 13, Αθήνα 117 41","categoryIds":["rooftop-lounges"],"categories":["Rooftop Lounges"]},{"id":"luxuryDiningRestaurants_ea67b94ccce5","slug":"art-lounge-rooftop-ea67","kind":"restaurant","name":"Art Lounge Rooftop","lat":37.97343240978713,"lng":23.73349750420062,"url":"https://maps.app.goo.gl/ou4XFAAMpTQ3uTaeA?g_st=ipc","address":"Ναυάρχου Νικοδήμου 1, Αθήνα 105 57","categoryIds":["luxury-dining","rooftop-lounges"],"categories":["Luxury Dining","Rooftop Lounges"]},{"id":"luxuryDiningRestaurants_d7864d62c4d5","slug":"electra-roof-garden-d786","kind":"restaurant","name":"Electra Roof Garden","lat":37.97379853875271,"lng":23.731619747681133,"url":"https://maps.app.goo.gl/DRSR8qGkR5GU1Bts9?g_st=ipc","address":"Ναυάρχου Νικοδήμου 18-20, Αθήνα 105 57","categoryIds":["luxury-dining","rooftop-lounges"],"categories":["Luxury Dining","Rooftop Lounges"]}],"nearby":[{"id":"fishTavernasRestaurants_2d289dd504e5","slug":"annie-fine-cooking-2d28","kind":"restaurant","name":"Annie - Fine Cooking","lat":37.96499642405186,"lng":23.73068347975073,"url":"https://maps.app.goo.gl/YqFQJr3r4XRFXyq17?g_st=ipc","address":"Μεναίχμου 4, Αθήνα 117 43","categoryIds":["fish-tavernas"],"categories":["Fish Tavernas"],"distanceKm":0.06765559114612371},{"id":"coffeeBrunchRestaurants_b61f62d1d8af","slug":"coffee-joint-b61f","kind":"restaurant","name":"Coffee Joint","lat":37.9668407337925,"lng":23.731062695575126,"url":"https://maps.app.goo.gl/LK48eZA7q9nxiZiR6?g_st=ipc","address":"Βούρβαχη 5-9, Αθήνα 117 43","categoryIds":["coffee-brunch"],"categories":["Coffee & Brunch Spots"],"distanceKm":0.14313415282197517},{"id":"coffeeBrunchRestaurants_95dcd35af657","slug":"artopoieio-zacharoplasteio-arto-zymia-95dc","kind":"restaurant","name":"Αρτοποιείο Ζαχαροπλαστείο \"Αρτο..ζυμιά\"","lat":37.96420038301339,"lng":23.731208987347678,"url":"https://maps.app.goo.gl/FBqvEkq9TKnNFmzu9?g_st=ipc","address":"Αγλαονίκης 22, Αθήνα 117 43","categoryIds":["coffee-brunch","desserts"],"categories":["Coffee & Brunch Spots","Dessert Shops"],"distanceKm":0.15181789530727388},{"id":"coffeeBrunchRestaurants_ce537fc177ce","slug":"fika-coffee-croissant-ce53","kind":"restaurant","name":"Fika coffee & croissant","lat":37.96693585116076,"lng":23.730676001624726,"url":"https://maps.app.goo.gl/aGhcjD61LQ7BLCn98?g_st=ipc","address":"Βούρβαχη 6, Αθήνα 117 43","categoryIds":["coffee-brunch"],"categories":["Coffee & Brunch Spots"],"distanceKm":0.15601896923010514},{"id":"rooftopLoungesRestaurants_208f904925e8","slug":"stork-rooftop-bar-restaurant-208f","kind":"restaurant","name":"stork rooftop bar restaurant","lat":37.967099364958976,"lng":23.7303307646006,"url":"https://maps.app.goo.gl/AF5AEBzt63j5tves7?g_st=ipc","address":"Λεωφόρος Συγγρού 21, Βούρβαχη 2, Αθήνα 117 43","categoryIds":["rooftop-lounges"],"categories":["Rooftop Lounges"],"distanceKm":0.1812172460196277},{"id":"vegetarianRestaurants_aff422e1c3ba","slug":"mama-tierra-acropolis-vegan-street-food-aff4","kind":"restaurant","name":"Mama Tierra Acropolis - Vegan street food","lat":37.967546083723775,"lng":23.729864462543613,"url":"https://maps.app.goo.gl/3M9tmest5ooaQwtE8?g_st=ipc","address":"Χατζηχρήστου 29, Αθήνα 117 42","categoryIds":["vegetarian"],"categories":["Vegetarian Friendly Restaurants"],"distanceKm":0.24241787776753607},{"id":"greekRestaurants_c15edd7fcde2","slug":"estiatorio-smile-c15e","kind":"restaurant","name":"Εστιατόριο Smile","lat":37.967615812266935,"lng":23.729979287152204,"url":"https://maps.app.goo.gl/dzqWtwgMFs9Vcqew6","address":"Πλ. Τσώκρη 1, Αθήνα 117 42","categoryIds":["greek-restaurants"],"categories":["Greek Restaurants"],"distanceKm":0.24571297076220938},{"id":"italianRestaurants_d5b2689c4a11","slug":"romatella-pinsa-romana-d5b2","kind":"restaurant","name":"Romatella - Pinsa Romana","lat":37.96690380968513,"lng":23.72869589039828,"url":"https://maps.app.goo.gl/qy2UDY83bx3RhcUU9?g_st=ipc","address":"Φαλήρου 4, Αθήνα 117 42","categoryIds":["italian"],"categories":["Italian Restaurants"],"distanceKm":0.2509018849070414}],"sameRegion":[],"mentionedGuides":[],"canonicalSlug":"bg-s-roof-garden-terrace-7028","isCanonicalEntity":true,"enrichment":{"summary_en":"BG's Roof Garden Terrace is a curated restaurant in 117 43 in the Rooftop Lounges collection. It is connected to 91 nearby Googlementor picks to help travelers build a stronger local route.","summary_el":"BG's Roof Garden Terrace είναι ένα επιλεγμένο σημείο φαγητού στην περιοχή 117 43 και ανήκει στη συλλογή Rooftop Lounges. Συνδέεται με 91 κοντινές προτάσεις του Googlementor για πιο ολοκληρωμένη εμπειρία.","vibe_tags":["curated","city-views"],"best_for":["first-time visitors","food lovers"],"visit_moments":["golden hour","night out"],"practical_note":"Address and direct map link are available for easy turn-by-turn access.","nearby_walkable_count":91,"nearby_count_2km":573,"confidence":0.98}},"__N_SSG":true}