{"pageProps":{"entity":{"id":"coffeeBrunchRestaurants_a6de03ead415","slug":"bourtzi-skiathos-a6de","kind":"restaurant","name":"Bourtzi Skiathos","lat":39.16082655884958,"lng":23.49110174510934,"url":"https://maps.app.goo.gl/biyFuX6UBoZ8TcJc9?g_st=ipc","address":"Port of, Skiathos 370 02","categoryIds":["coffee-brunch"],"categories":["Coffee & Brunch Spots"]},"sameCategory":[{"id":"coffeeBrunchRestaurants_f243ffc9ef50","slug":"kanela-homemade-delicacies-f243","kind":"restaurant","name":"Kanela | Homemade Delicacies","lat":39.119057575812455,"lng":23.730567589663472,"url":"https://maps.app.goo.gl/ToCtxBp1UXx9DGvx7?g_st=ipc","address":"El. Venizelou, Skopelos 370 03","categoryIds":["coffee-brunch"],"categories":["Coffee & Brunch Spots"]},{"id":"coffeeBrunchRestaurants_e16b7b061028","slug":"decimo-coffee-brunch-e16b","kind":"restaurant","name":"Decimo Coffee & Brunch","lat":39.11943395916134,"lng":23.73078206958329,"url":"https://maps.app.goo.gl/L1JDBzithBcgv3Qj7?g_st=ipc","address":"Σκόπελος 370 03","categoryIds":["coffee-brunch"],"categories":["Coffee & Brunch Spots"]},{"id":"coffeeBrunchRestaurants_e35f2fd907c7","slug":"aeriko-cafe-bar-makrinitsa-e35f","kind":"restaurant","name":"Aeriko cafe bar - Makrinitsa","lat":39.396275519682625,"lng":22.994190417214696,"url":"https://maps.app.goo.gl/uEvFEaZxa3VWrgDA7?g_st=ipc","address":"1o km PORTARIAS-MAKRINITSAS, PELION 370 11","categoryIds":["coffee-brunch"],"categories":["Coffee & Brunch Spots"]},{"id":"coffeeBrunchRestaurants_8f68ea1d28c9","slug":"isalos-beach-club-8f68","kind":"restaurant","name":"Isalos Beach Club","lat":39.35159082602954,"lng":22.9581356571748,"url":"https://maps.app.goo.gl/whtVq9izZXDLCZ8k7?g_st=ipc","address":"Plastira 17b, Volos 382 22","categoryIds":["coffee-brunch"],"categories":["Coffee & Brunch Spots"]},{"id":"coffeeBrunchRestaurants_149629d79d89","slug":"paranga-1496","kind":"restaurant","name":"Paranga","lat":39.69289300756039,"lng":22.880848477388575,"url":"https://maps.app.goo.gl/Er8efE1gu29TMxxG9?g_st=ipc","address":"Epar.Od. Agiokampou-Sklithrou, Agiokampos 400 03","categoryIds":["coffee-brunch"],"categories":["Coffee & Brunch Spots"]},{"id":"coffeeBrunchRestaurants_77abfb08a4c5","slug":"pink-banana-opa-greek-cuisine-77ab","kind":"restaurant","name":"Pink Banana & OPA Greek cuisine","lat":39.928119861265856,"lng":23.5848530921533,"url":"https://maps.app.goo.gl/4qjSp1aZXXsPHmu16?g_st=ipc","address":"Λουτρά, Ag. Paraskevi 630 85","categoryIds":["coffee-brunch"],"categories":["Coffee & Brunch Spots"]},{"id":"coffeeBrunchRestaurants_25a3d49e80e1","slug":"navagos-beach-bar-paliouri-25a3","kind":"restaurant","name":"Navagos beach bar Paliouri","lat":39.93652533814293,"lng":23.688978937103037,"url":"https://maps.app.goo.gl/k1GdJrNWZuw6bw1y7?g_st=ipc","address":"Navagos Beach-Restaurant, Paliouri 630 85","categoryIds":["coffee-brunch"],"categories":["Coffee & Brunch Spots"]},{"id":"coffeeBrunchRestaurants_c7392dd258a0","slug":"lemonis-bakery-c739","kind":"restaurant","name":"Lemonis Bakery","lat":39.94203436230197,"lng":23.66329350381582,"url":"https://maps.app.goo.gl/Q7a2SEfBJaFYitVS7?g_st=ipc","address":"Epar.Od. Paliouriou-Afitou, Paliouri 630 85","categoryIds":["coffee-brunch"],"categories":["Coffee & Brunch Spots"]}],"nearby":[{"id":"greekRestaurants_eb03c4eec71f","slug":"bourtzi-skiathos-eb03","kind":"restaurant","name":"Bourtzi Skiathos","lat":39.160842059339465,"lng":23.49110714443105,"url":"https://maps.app.goo.gl/GAukhmcUEzWCaV92A?g_st=ipc","address":"Port of, Σκιάθος 370 02","categoryIds":["greek-restaurants"],"categories":["Greek Restaurants"],"distanceKm":0.001785334959207261},{"id":"municipalities_97b9bf0a5122","slug":"skiathos-97b9","kind":"municipality","name":"Σκιάθος","lat":39.162,"lng":23.491,"region":"Θεσσαλία","name_en":"Skiathos","region_en":"Thessaly","distanceKm":0.13077524569917268},{"id":"greekRestaurants_638088e18f08","slug":"ricchi-e-poveri-6380","kind":"restaurant","name":"Ricchi E Poveri","lat":39.16154097266096,"lng":23.48811897164505,"url":"https://maps.app.goo.gl/mPaTUD9FQz1XBrkn7?g_st=ipc","address":"Σκιάθος 370 02","categoryIds":["greek-restaurants"],"categories":["Greek Restaurants"],"distanceKm":0.2691571495674487},{"id":"italianRestaurants_0856ecb11f91","slug":"la-cucina-di-maria-0856","kind":"restaurant","name":"La Cucina di Maria","lat":39.16258431460264,"lng":23.488686516582533,"url":"https://maps.app.goo.gl/MBu7u1d7kC6PuBVm8?g_st=ipc","address":"Πλατεία Τριών Ιεραρχών, Skiathos 370 02","categoryIds":["italian"],"categories":["Italian Restaurants"],"distanceKm":0.2855927596455871},{"id":"vegetarianRestaurants_4b016e396a37","slug":"basilikos-4b01","kind":"restaurant","name":"Basilikos","lat":39.16312454298035,"lng":23.487902942019232,"url":"https://maps.app.goo.gl/ds7UYPCteddf9Z6T7?g_st=ipc","address":"5F7Q+65W, Skiathos 370 02","categoryIds":["vegetarian"],"categories":["Vegetarian Friendly Restaurants"],"distanceKm":0.37596880464221255},{"id":"greekRestaurants_bba8f99baf04","slug":"vasilikos-bba8","kind":"restaurant","name":"Βασιλικός","lat":39.163149427181544,"lng":23.4879040653568,"url":"https://maps.app.goo.gl/72rYJCHEmhpQn6o56?g_st=ipc","address":"5F7Q+65W, Σκιάθος 370 02","categoryIds":["greek-restaurants"],"categories":["Greek Restaurants"],"distanceKm":0.3777841042930743},{"id":"luxuryDiningRestaurants_fb0ed7fd7dd6","slug":"the-borzoi-fb0e","kind":"restaurant","name":"The Borzoi","lat":39.16344583170151,"lng":23.487355001180887,"url":"https://maps.app.goo.gl/bVHwisskrmA58dT18?g_st=ipc","address":"Papadiamanti, Skiathos 370 02","categoryIds":["luxury-dining"],"categories":["Luxury Dining"],"distanceKm":0.4349427131469953},{"id":"greekRestaurants_50b52c2fce61","slug":"giardino-segreto-50b5","kind":"restaurant","name":"Giardino Segreto","lat":39.16422013445391,"lng":23.48827332832573,"url":"https://maps.app.goo.gl/oYFqCwTb84JgPcHYA?g_st=ipc","address":"Ευαγγελιστρίας 14, Σκιάθος 370 02","categoryIds":["greek-restaurants"],"categories":["Greek Restaurants"],"distanceKm":0.4492847083535688}],"sameRegion":[],"mentionedGuides":[],"canonicalSlug":"bourtzi-skiathos-a6de","isCanonicalEntity":true,"enrichment":{"summary_en":"Bourtzi Skiathos is a curated restaurant in Skiathos 370 02 in the Coffee & Brunch Spots collection. It is connected to 15 nearby Googlementor picks to help travelers build a stronger local route.","summary_el":"Bourtzi Skiathos είναι ένα επιλεγμένο σημείο φαγητού στην περιοχή Skiathos 370 02 και ανήκει στη συλλογή Coffee & Brunch Spots. Συνδέεται με 15 κοντινές προτάσεις του Googlementor για πιο ολοκληρωμένη εμπειρία.","vibe_tags":["curated","daytime-favorite"],"best_for":["first-time visitors","food lovers"],"visit_moments":["early morning","late brunch"],"practical_note":"Address and direct map link are available for easy turn-by-turn access.","nearby_walkable_count":15,"nearby_count_2km":16,"confidence":0.98}},"__N_SSG":true}