{"pageProps":{"entity":{"id":"burgersRestaurants_1d96aca1c01c","slug":"bulldogs-the-beast-1d96","kind":"restaurant","name":"Bulldogs & the Beast","lat":40.632462059908974,"lng":22.947729021811423,"url":"https://maps.app.goo.gl/wEhesXG82XpaGLNY6?g_st=ipc","address":"Al. Svolou 1, Thessaloniki 546 23","categoryIds":["burgers"],"categories":["Burger Spots"]},"sameCategory":[{"id":"burgersRestaurants_0c007445e9cc","slug":"balboa-thessaloniki-0c00","kind":"restaurant","name":"Balboa Thessaloniki","lat":40.631911246314864,"lng":22.947511059222414,"url":"https://maps.app.goo.gl/Lys3ApFbCS6C7HCt8","address":"P. Mela 42, Thessaloniki 546 22","categoryIds":["burgers","cheap-eats"],"categories":["Burger Spots","Gyros & Cheap Eats"]},{"id":"burgersRestaurants_9cd59af7183c","slug":"mpiftekadiko-kyr-giorgis-9cd5","kind":"restaurant","name":"Μπιφτεκάδικο Κυρ Γιώργης","lat":40.63182341170209,"lng":22.946558572416308,"url":"https://maps.app.goo.gl/us6tkdjDeYvzDx2u6?g_st=ipc","address":"Zefxidos 4, Thessaloniki 546 22","categoryIds":["burgers"],"categories":["Burger Spots"]},{"id":"burgersRestaurants_6f8117fa6f13","slug":"brothers-in-law-6f81","kind":"restaurant","name":"Brothers in Law","lat":40.630770113023615,"lng":22.947666977943033,"url":"https://maps.app.goo.gl/oEwzze7SyKh5AJ3t9?g_st=ipc","address":"P. Mela 30, Thessaloniki 546 22","categoryIds":["burgers"],"categories":["Burger Spots"]},{"id":"burgersRestaurants_f1633ab51896","slug":"pommes-f163","kind":"restaurant","name":"Pommes","lat":40.629725176106746,"lng":22.948477539796873,"url":"https://maps.app.goo.gl/yAwLNa5CdKfv7HBD9?g_st=ipc","address":"Isavron 5, Thessaloniki 546 22","categoryIds":["burgers"],"categories":["Burger Spots"]},{"id":"burgersRestaurants_c3d0c3efec16","slug":"ohmami-street-food-thessaloniki-c3d0","kind":"restaurant","name":"Ohmami - Street Food / Thessaloniki","lat":40.63556199320903,"lng":22.947562092920837,"url":"https://maps.app.goo.gl/NzN9wf8WYr2rjWbd7","address":"Patriarchoi Dionisii E 1, Thessaloniki 546 31","categoryIds":["burgers","cheap-eats"],"categories":["Burger Spots","Gyros & Cheap Eats"]},{"id":"burgersRestaurants_d933f81e3617","slug":"pass-the-smashed-d933","kind":"restaurant","name":"Pass The Smashed","lat":40.63217264797822,"lng":22.953233528916606,"url":"https://maps.app.goo.gl/gnzc1t32pqqQF6sQ7?g_st=ic","address":"Episkopou Kitrous Nikolaou 2, Thessaloniki 546 35","categoryIds":["burgers"],"categories":["Burger Spots"]},{"id":"burgersRestaurants_e1c3b2a2acd7","slug":"tarantino-modiano-e1c3","kind":"restaurant","name":"Tarantino Modiano","lat":40.63523520193276,"lng":22.941893523743314,"url":"https://maps.app.goo.gl/bUgobpjQbL4yxA2J7?g_st=ipc","address":"Vasileos Irakleiou 33, Thessaloniki 546 24","categoryIds":["burgers"],"categories":["Burger Spots"]},{"id":"burgersRestaurants_83b3a5ac6b77","slug":"parco-83b3","kind":"restaurant","name":"Parco","lat":40.62746957872299,"lng":22.95260526619064,"url":"https://maps.app.goo.gl/XvoKi6u2LSYH1F6o7?g_st=ipc","address":"D' Esperey 1, Thessaloniki 546 21","categoryIds":["burgers","coffee-brunch"],"categories":["Burger Spots","Coffee & Brunch Spots"]}],"nearby":[{"id":"coffeeBrunchRestaurants_b5c74e889058","slug":"bunny-tail-b5c7","kind":"restaurant","name":"Bunny Tail","lat":40.63263326905148,"lng":22.947686149858708,"url":"https://maps.app.goo.gl/5s2tkstCJrJZyR4TA?g_st=ipc","address":"Αλεξάνδρου Σβώλου 1, Patriarchou Ioakim 2, Thessaloniki 546 22","categoryIds":["coffee-brunch"],"categories":["Coffee & Brunch Spots"],"distanceKm":0.019378291484042617},{"id":"cheapEatsRestaurants_89af7e3d3903","slug":"dakee-spot-89af","kind":"restaurant","name":"Dakee spot","lat":40.6322179094533,"lng":22.947351485022043,"url":"https://maps.app.goo.gl/rccueDiq6UHSWjB86?g_st=ipc","address":"P. Mela 48, Thessaloniki 546 22","categoryIds":["cheap-eats"],"categories":["Gyros & Cheap Eats"],"distanceKm":0.04185714253773375},{"id":"coffeeBrunchRestaurants_8c2176607636","slug":"donkey-garden-8c21","kind":"restaurant","name":"Donkey Garden","lat":40.63233978923016,"lng":22.94821185116991,"url":"https://maps.app.goo.gl/Kev7Tos1LbMdirKcA?g_st=ipc","address":"Skra 3, Thessaloniki 546 22","categoryIds":["coffee-brunch"],"categories":["Coffee & Brunch Spots"],"distanceKm":0.04295266885391973},{"id":"dessertsRestaurants_07f7d8449744","slug":"tzeneral-zacharoplasteio-07f7","kind":"restaurant","name":"Tzeneral Ζαχαροπλαστείο","lat":40.631986554661324,"lng":22.94743879678818,"url":"https://maps.app.goo.gl/tBpAuNdF8KmF9aXe6?g_st=ipc","address":"P. Mela 44, Thessaloniki 546 22","categoryIds":["desserts"],"categories":["Dessert Shops"],"distanceKm":0.05827046451370959},{"id":"burgersRestaurants_0c007445e9cc","slug":"balboa-thessaloniki-0c00","kind":"restaurant","name":"Balboa Thessaloniki","lat":40.631911246314864,"lng":22.947511059222414,"url":"https://maps.app.goo.gl/Lys3ApFbCS6C7HCt8","address":"P. Mela 42, Thessaloniki 546 22","categoryIds":["burgers","cheap-eats"],"categories":["Burger Spots","Gyros & Cheap Eats"],"distanceKm":0.06394985312626301},{"id":"dessertsRestaurants_9d2a4d7ae9ae","slug":"hatzifotiou-9d2a","kind":"restaurant","name":"Hatzifotiou","lat":40.632118329149435,"lng":22.94703754885986,"url":"https://maps.app.goo.gl/65SPRQQN5mowAwhw8?g_st=ipc","address":"P. Mela 37, Thessaloniki 546 22","categoryIds":["desserts"],"categories":["Dessert Shops"],"distanceKm":0.06975440164621076},{"id":"coffeeBrunchRestaurants_ad573219eedf","slug":"ergon-agora-ad57","kind":"restaurant","name":"ERGON Agora","lat":40.63187081672803,"lng":22.94735121723834,"url":"https://maps.app.goo.gl/ozYptsUfXEMA3PdNA?g_st=ipc","address":"P. Mela 42, Thessaloniki 546 22","categoryIds":["coffee-brunch"],"categories":["Coffee & Brunch Spots"],"distanceKm":0.0730657933081385},{"id":"asianRestaurants_5ace71fa56ea","slug":"ramen-tales-5ace","kind":"restaurant","name":"Ramen Tales","lat":40.63194421660545,"lng":22.948458874656616,"url":"https://maps.app.goo.gl/3FZQEKYHJjXKCNKcA?g_st=ipc","address":"Al. Svolou 16, Thessaloniki 546 22","categoryIds":["asian"],"categories":["Asian Restaurants"],"distanceKm":0.08431442995588145}],"sameRegion":[],"mentionedGuides":[],"canonicalSlug":"bulldogs-the-beast-1d96","isCanonicalEntity":true,"enrichment":{"summary_en":"Bulldogs & the Beast is a curated restaurant in Thessaloniki 546 23 in the Burger Spots collection. It is connected to 185 nearby Googlementor picks to help travelers build a stronger local route.","summary_el":"Bulldogs & the Beast είναι ένα επιλεγμένο σημείο φαγητού στην περιοχή Thessaloniki 546 23 και ανήκει στη συλλογή Burger Spots. Συνδέεται με 185 κοντινές προτάσεις του Googlementor για πιο ολοκληρωμένη εμπειρία.","vibe_tags":["curated"],"best_for":["first-time visitors","food lovers"],"visit_moments":["lunch stop","dinner stop"],"practical_note":"Address and direct map link are available for easy turn-by-turn access.","nearby_walkable_count":185,"nearby_count_2km":265,"confidence":0.98}},"__N_SSG":true}