{"pageProps":{"entity":{"id":"italianRestaurants_9e93d0527186","slug":"casareccio-trattoria-pizzeria-9e93","kind":"restaurant","name":"Casareccio trattoria pizzeria","lat":37.995258640416544,"lng":23.796024502616564,"url":"https://maps.app.goo.gl/f357srheHFN2PfBk6?g_st=ipc","address":"Ξανθίππου 84, Χολαργός 155 61","categoryIds":["italian"],"categories":["Italian Restaurants"]},"sameCategory":[{"id":"italianRestaurants_db8c50049699","slug":"pizzaiolo-db8c","kind":"restaurant","name":"pizzaiolo","lat":38.00035069734868,"lng":23.79281060180485,"url":"https://maps.app.goo.gl/KW1onnVwQCy1jQXk7?g_st=ipc","address":"Ασπασίας 63, Χολαργός 155 61","categoryIds":["italian"],"categories":["Italian Restaurants"]},{"id":"italianRestaurants_cc723f5b71ae","slug":"aperio-cucina-vino-cc72","kind":"restaurant","name":"Aperio cucina & vino","lat":38.00607265187326,"lng":23.797703238142986,"url":"https://maps.app.goo.gl/GkHg15eafgAV4fou5?g_st=ipc","address":"Μεσογείων 258, Χολαργός 155 61","categoryIds":["italian"],"categories":["Italian Restaurants"]},{"id":"italianRestaurants_ec803e4a09b8","slug":"etien-pizza-bar-ec80","kind":"restaurant","name":"Etien Pizza Bar","lat":38.00546047638011,"lng":23.78575711022555,"url":"https://maps.app.goo.gl/fXUuPjTevur2Va5m8?g_st=ipc","address":"25ης Μαρτίου 28, Νέο Ψυχικό 154 51","categoryIds":["italian"],"categories":["Italian Restaurants"]},{"id":"italianRestaurants_11b5c7ddc2cb","slug":"lolita-s-athens-11b5","kind":"restaurant","name":"Lolita's Athens","lat":38.00900399306317,"lng":23.779848762939032,"url":"https://maps.app.goo.gl/yBBC5XtbjE87q2fEA?g_st=ipc","address":"Λεωφ. Κηφισίας 340, Νέο Ψυχικό 154 51","categoryIds":["italian","luxury-dining"],"categories":["Italian Restaurants","Luxury Dining"]},{"id":"italianRestaurants_fbd799de8573","slug":"parlo-restaurant-fbd7","kind":"restaurant","name":"Parlo Restaurant","lat":37.99920315769846,"lng":23.772042235397578,"url":"https://maps.app.goo.gl/x9LunWYHnZkLF3B68?g_st=ipc","address":"Αδριανείου 25Α, Αθήνα 115 25","categoryIds":["italian"],"categories":["Italian Restaurants"]},{"id":"italianRestaurants_239ca6b05a02","slug":"tale-koyale-239c","kind":"restaurant","name":"ΤΑΛΕ ΚΟΥΑΛΕ","lat":37.998832186045824,"lng":23.771946797243086,"url":"https://maps.app.goo.gl/yxs9qh1QSGqVTa1R6?g_st=ipc","address":"Αδριανείου 20, Αθήνα 115 25","categoryIds":["italian"],"categories":["Italian Restaurants"]},{"id":"italianRestaurants_6c7a694e9681","slug":"kentrina-6c7a","kind":"restaurant","name":"Kentrina","lat":38.013966629254554,"lng":23.786077267676728,"url":"https://maps.app.goo.gl/3jtSyfSCsogG92777?g_st=ipc","address":"Likourgou, Chalandri 152 31","categoryIds":["italian"],"categories":["Italian Restaurants"]},{"id":"italianRestaurants_9ab88b8b6007","slug":"innamorata-9ab8","kind":"restaurant","name":"Innamorata","lat":38.01461502802222,"lng":23.785308731358,"url":"https://maps.app.goo.gl/6pHzTzWoidEixrLw8?g_st=ipc","address":"Likourgou 5Α, Chalandri 152 31","categoryIds":["italian","luxury-dining"],"categories":["Italian Restaurants","Luxury Dining"]}],"nearby":[{"id":"cheapEatsRestaurants_b8837f726b0e","slug":"avraam-cholargos-b883","kind":"restaurant","name":"Αβραάμ Χολαργός","lat":37.99365661341766,"lng":23.796975079778093,"url":"https://maps.app.goo.gl/njaacvURe6u87qaX6?g_st=ipc","address":"Αναστάσεως 111, Χολαργός 155 61","categoryIds":["cheap-eats"],"categories":["Gyros & Cheap Eats"],"distanceKm":0.19665078917533899},{"id":"familyFriendly_7679184c0c6a","slug":"alsos-papagoy-7679","kind":"restaurant","name":"Άλσος Παπάγου","lat":37.99340202683861,"lng":23.794076076253262,"url":"https://maps.app.goo.gl/rJbRGPSSoVw8phSo6?g_st=ipc","address":"Κορυτσάς 31, Παπάγου 156 69","categoryIds":["family-friendly"],"categories":["Kid Friendly Locations"],"distanceKm":0.26790301157551977},{"id":"coffeeBrunchRestaurants_273a7e7d2a9d","slug":"piu-verde-273a","kind":"restaurant","name":"Piu Verde","lat":37.993592134048,"lng":23.792630644928746,"url":"https://maps.app.goo.gl/uttCEc9rHvmfUF3c7?g_st=ipc","address":"Στρατ, Αλ. Παπάγου, Παπάγου 156 69","categoryIds":["coffee-brunch","family-friendly"],"categories":["Coffee & Brunch Spots","Kid Friendly Locations"],"distanceKm":0.35040918987303427},{"id":"cheapEatsRestaurants_33f4e7b2d02a","slug":"dix-sept-33f4","kind":"restaurant","name":"Dix Sept","lat":37.99369686292994,"lng":23.79952330912713,"url":"https://maps.app.goo.gl/LQP8izqcwdktGcwX6?g_st=ipc","address":"25ης Μαρτίου 17, Χολαργός 155 61","categoryIds":["cheap-eats"],"categories":["Gyros & Cheap Eats"],"distanceKm":0.35236474722623207},{"id":"dessertsRestaurants_a4d470fd6efd","slug":"dix-sept-a4d4","kind":"restaurant","name":"Dix Sept","lat":37.99369642530963,"lng":23.799524104459625,"url":"https://maps.app.goo.gl/UywSucCQ3HFw2LJ1A?g_st=ipc","address":"25is Martiou 17, Cholargos 155 61","categoryIds":["desserts"],"categories":["Dessert Shops"],"distanceKm":0.35244937291778156},{"id":"cheapEatsRestaurants_69bbfb44507d","slug":"papigko-69bb","kind":"restaurant","name":"Πάπιγκο","lat":37.9930301423727,"lng":23.798961270934143,"url":"https://maps.app.goo.gl/7eU14tbuLV6n9imX7?g_st=ipc","address":"25ης Μαρτίου 9, Χολαργός 155 61","categoryIds":["cheap-eats"],"categories":["Gyros & Cheap Eats"],"distanceKm":0.35725605480322553},{"id":"familyFriendly_c4b368df83c1","slug":"oikogeneiako-parko-perivallontikis-eyaisthitopoiisis-c4b3","kind":"restaurant","name":"Οικογενειακό Πάρκο Περιβαλλοντικής Ευαισθητοποίησης","lat":37.99329104933058,"lng":23.791786076511723,"url":"https://maps.app.goo.gl/ah7MLHXrkbxTWacS8?g_st=ipc","address":"Λεωφ. Παπάγου, Παπάγου 156 69","categoryIds":["family-friendly"],"categories":["Kid Friendly Locations"],"distanceKm":0.4310615530763693},{"id":"cheapEatsRestaurants_9a8ccf003ba5","slug":"spitiki-koyzina-cholargos-9a8c","kind":"restaurant","name":"Σπιτική Κουζίνα - Χολαργός","lat":37.99895841021995,"lng":23.798536677313294,"url":"https://maps.app.goo.gl/KtAC7AzUgjd3Jmuk8?g_st=ipc","address":"Λεωφ. Περικλέους 50, Χολαργός 155 61","categoryIds":["cheap-eats"],"categories":["Gyros & Cheap Eats"],"distanceKm":0.46658832333912315}],"sameRegion":[],"mentionedGuides":[],"canonicalSlug":"casareccio-trattoria-pizzeria-9e93","isCanonicalEntity":true,"enrichment":{"summary_en":"Casareccio trattoria pizzeria is a curated restaurant in Χολαργός 155 61 in the Italian Restaurants collection. It is connected to 17 nearby Googlementor picks to help travelers build a stronger local route.","summary_el":"Casareccio trattoria pizzeria είναι ένα επιλεγμένο σημείο φαγητού στην περιοχή Χολαργός 155 61 και ανήκει στη συλλογή Italian Restaurants. Συνδέεται με 17 κοντινές προτάσεις του Googlementor για πιο ολοκληρωμένη εμπειρία.","vibe_tags":["curated"],"best_for":["first-time visitors","food lovers"],"visit_moments":["lunch stop","dinner stop"],"practical_note":"Address and direct map link are available for easy turn-by-turn access.","nearby_walkable_count":17,"nearby_count_2km":44,"confidence":0.98}},"__N_SSG":true}