{"pageProps":{"entity":{"id":"coffeeBrunchRestaurants_baef4762247d","slug":"chelsea-hotel-baef","kind":"restaurant","name":"Chelsea Hotel","lat":37.96781479364914,"lng":23.743723733421092,"url":"https://maps.app.goo.gl/biMezA2mUN6mNc886?g_st=ipc","address":"Αρχιμήδους, Πρόκλου και, Αθήνα 116 35","categoryIds":["coffee-brunch"],"categories":["Coffee & Brunch Spots"]},"sameCategory":[{"id":"coffeeBrunchRestaurants_f1796bb2ea7c","slug":"plegma-coffee-living-f179","kind":"restaurant","name":"Plegma Coffee & Living","lat":37.96746994485961,"lng":23.74467734312101,"url":"https://maps.app.goo.gl/CJbmBuxNwPN6MCH98?g_st=ipc","address":"Plegma Coffee & Living","categoryIds":["coffee-brunch"],"categories":["Coffee & Brunch Spots"]},{"id":"coffeeBrunchRestaurants_512abfbcd215","slug":"monokeros-bakery-512a","kind":"restaurant","name":"Monokeros Bakery","lat":37.96998792256903,"lng":23.745206716967704,"url":"https://maps.app.goo.gl/vPfqSycBZPnB31CG6?g_st=ipc","address":"Φαίδρου 4, Αθήνα 116 35","categoryIds":["coffee-brunch"],"categories":["Coffee & Brunch Spots"]},{"id":"coffeeBrunchRestaurants_1e75db395902","slug":"to-loyvro-1e75","kind":"restaurant","name":"Το Λούβρο","lat":37.970011751193255,"lng":23.742186500606625,"url":"https://maps.app.goo.gl/YkKoXGLhpNyAx3V76?g_st=ipc","address":"Ερατοσθένους 6, Αθήνα 116 35","categoryIds":["coffee-brunch"],"categories":["Coffee & Brunch Spots"]},{"id":"coffeeBrunchRestaurants_d264f60c48b5","slug":"kekkos-traditional-cafe-pastry-d264","kind":"restaurant","name":"Κekkos Traditional Cafe & Pastry","lat":37.97039127677511,"lng":23.74203472592943,"url":"https://maps.app.goo.gl/2kmhegcNKQWPm1QD6?g_st=ipc","address":"Ερατοσθένους 7, Αθήνα 116 35","categoryIds":["coffee-brunch"],"categories":["Coffee & Brunch Spots"]},{"id":"coffeeBrunchRestaurants_b00f4e81c5ad","slug":"4m-rule-of-4m-b00f","kind":"restaurant","name":"4m (Rule of 4m)","lat":37.9710035656136,"lng":23.742348180047202,"url":"https://maps.app.goo.gl/iznGffRGqEfUmUVL9?g_st=ipc","address":"Αγίου Σπυρίδωνος 5, Αθήνα 116 35","categoryIds":["coffee-brunch"],"categories":["Coffee & Brunch Spots"]},{"id":"coffeeBrunchRestaurants_c55d3c25167d","slug":"batard-c55d","kind":"restaurant","name":"Batard","lat":37.963759332679615,"lng":23.742734753718384,"url":"https://maps.app.goo.gl/jWyFQMPwKd4tru356?g_st=ic","address":"Pirronos 23, Athina 116 36","categoryIds":["coffee-brunch"],"categories":["Coffee & Brunch Spots"]},{"id":"coffeeBrunchRestaurants_6e5370c63d00","slug":"moden-6e53","kind":"restaurant","name":"Moden","lat":37.971223973274974,"lng":23.748242971172175,"url":"https://maps.app.goo.gl/LCSd8nHPjaUEMAGx8?g_st=ipc","address":"Αμασείας 6 &, Πρατίνου 53, Αθήνα 116 34","categoryIds":["coffee-brunch"],"categories":["Coffee & Brunch Spots"]},{"id":"coffeeBrunchRestaurants_818fcc5b16a1","slug":"zappa-athens-at-aigli-818f","kind":"restaurant","name":"Zappa Athens at Aigli","lat":37.97088612834781,"lng":23.737468844228125,"url":"https://maps.app.goo.gl/mA58YYFj25woNwrd6?g_st=ic","address":"Zappeion Garden, Athina 105 57","categoryIds":["coffee-brunch"],"categories":["Coffee & Brunch Spots"]}],"nearby":[{"id":"cheapEatsRestaurants_56207a3913eb","slug":"elvis-soyvlakia-5620","kind":"restaurant","name":"Ελβις Σουβλακια","lat":37.96785045064934,"lng":23.7436306831368,"url":"https://maps.app.goo.gl/umPfqHULRVG9njbt5?g_st=ipc","address":"Αρχιμήδους 1-5, Αθήνα 116 35","categoryIds":["cheap-eats"],"categories":["Gyros & Cheap Eats"],"distanceKm":0.009069470362291223},{"id":"italianRestaurants_858265b3f822","slug":"cosa-nostra-fresca-pasta-pagrati-8582","kind":"restaurant","name":"Cosa Nostra Fresca Pasta Pagrati","lat":37.96783594678004,"lng":23.743332676630974,"url":"https://maps.app.goo.gl/CdMX5E6yxNBbvoYs8?g_st=ipc","address":"Αρχιμήδους 8, Αθήνα 116 35","categoryIds":["italian","vegetarian"],"categories":["Italian Restaurants","Vegetarian Friendly Restaurants"],"distanceKm":0.03436111748607695},{"id":"burgersRestaurants_15242c3b8b89","slug":"mpear-1524","kind":"restaurant","name":"MPEAR","lat":37.96750105563297,"lng":23.744555646756957,"url":"https://maps.app.goo.gl/yKgLKc4LFJhxaawY6","address":"Ευφράνορος 8, Athina 116 35","categoryIds":["burgers"],"categories":["Burger Spots"],"distanceKm":0.08084147045131457},{"id":"italianRestaurants_2ca02a129667","slug":"luma-2ca0","kind":"restaurant","name":"Luma","lat":37.967195735298965,"lng":23.74306872996665,"url":"https://maps.app.goo.gl/csSJRksdwNoDcqqE7?g_st=ipc","address":"Φερεκύδου 2, Αθήνα 116 35","categoryIds":["italian"],"categories":["Italian Restaurants"],"distanceKm":0.08963993203940115},{"id":"greekRestaurants_1ce7ef86a93e","slug":"vyrinis-1ce7","kind":"restaurant","name":"ΒΥΡΙΝΗΣ","lat":37.96743484356373,"lng":23.742810422529566,"url":"https://maps.app.goo.gl/1Xuvp6z7zeGEESxk7","address":"Αρχιμήδους 11, Αθήνα 116 35","categoryIds":["greek-restaurants"],"categories":["Greek Restaurants"],"distanceKm":0.09052562634069368},{"id":"coffeeBrunchRestaurants_f1796bb2ea7c","slug":"plegma-coffee-living-f179","kind":"restaurant","name":"Plegma Coffee & Living","lat":37.96746994485961,"lng":23.74467734312101,"url":"https://maps.app.goo.gl/CJbmBuxNwPN6MCH98?g_st=ipc","address":"Plegma Coffee & Living","categoryIds":["coffee-brunch"],"categories":["Coffee & Brunch Spots"],"distanceKm":0.0919699073491372},{"id":"luxuryDiningRestaurants_b24cda2a3b29","slug":"soil-restaurant-b24c","kind":"restaurant","name":"Soil Restaurant","lat":37.96695852322669,"lng":23.743066634939197,"url":"https://maps.app.goo.gl/6F5c77DnjsqmPiiS8?g_st=ipc","address":"Φερεκύδου 5, Αθήνα 116 35","categoryIds":["luxury-dining"],"categories":["Luxury Dining"],"distanceKm":0.11128134758340616},{"id":"asianRestaurants_29ff4585bb4b","slug":"koi-sushi-bar-pangrati-29ff","kind":"restaurant","name":"Koi Sushi Bar | Pangrati","lat":37.96792632318897,"lng":23.745129343308996,"url":"https://maps.app.goo.gl/jArTQMm2HTtNhyqu6?g_st=ipc","address":"Ευτυχίδου 10, Αθήνα 116 35","categoryIds":["asian"],"categories":["Asian Restaurants"],"distanceKm":0.1238399299955672}],"sameRegion":[],"mentionedGuides":[],"canonicalSlug":"chelsea-hotel-baef","isCanonicalEntity":true,"enrichment":{"summary_en":"Chelsea Hotel is a curated restaurant in Αθήνα 116 35 in the Coffee & Brunch Spots collection. It is connected to 64 nearby Googlementor picks to help travelers build a stronger local route.","summary_el":"Chelsea Hotel είναι ένα επιλεγμένο σημείο φαγητού στην περιοχή Αθήνα 116 35 και ανήκει στη συλλογή Coffee & Brunch Spots. Συνδέεται με 64 κοντινές προτάσεις του Googlementor για πιο ολοκληρωμένη εμπειρία.","vibe_tags":["curated","daytime-favorite"],"best_for":["first-time visitors","food lovers"],"visit_moments":["early morning","late brunch"],"practical_note":"Address and direct map link are available for easy turn-by-turn access.","nearby_walkable_count":64,"nearby_count_2km":487,"confidence":0.98}},"__N_SSG":true}