{"pageProps":{"entity":{"id":"coffeeBrunchRestaurants_da407c688cb3","slug":"cocona-da40","kind":"restaurant","name":"Cocona","lat":37.977556380518415,"lng":23.739553637845837,"url":"https://maps.app.goo.gl/eL1Nh7NXC2UfRJX69?g_st=ipc","address":"Μηλιώνη 10, Αθήνα 106 73","categoryIds":["coffee-brunch"],"categories":["Coffee & Brunch Spots"]},"sameCategory":[{"id":"coffeeBrunchRestaurants_32f3744210f1","slug":"ruins-athens-urban-area-32f3","kind":"restaurant","name":"Ruins Athens Urban Area","lat":37.97772096182225,"lng":23.740886798075717,"url":"https://maps.app.goo.gl/m4eWX6HzHjiKpfSEA?g_st=ipc","address":"Τσακάλωφ 4, Αθήνα 106 73","categoryIds":["coffee-brunch"],"categories":["Coffee & Brunch Spots"]},{"id":"coffeeBrunchRestaurants_394da04a2026","slug":"it-restaurant-kolonaki-394d","kind":"restaurant","name":"IT restaurant Kolonaki","lat":37.9781134250021,"lng":23.737763201387953,"url":"https://maps.app.goo.gl/5dn3SzH3a8fsGfeW7?g_st=ipc","address":"106 71 Voukourestiou 30 &, Αλ. Σούτσου, Αθήνα 106 71","categoryIds":["coffee-brunch"],"categories":["Coffee & Brunch Spots"]},{"id":"coffeeBrunchRestaurants_89f23e6089a9","slug":"philos-athens-89f2","kind":"restaurant","name":"Philos Athens","lat":37.97913933627947,"lng":23.73788834865789,"url":"https://maps.app.goo.gl/jExQQH2yipA8bApt9?g_st=ipc","address":"Σόλωνος 32, Αθήνα 106 73","categoryIds":["coffee-brunch"],"categories":["Coffee & Brunch Spots"]},{"id":"coffeeBrunchRestaurants_d047b317da2a","slug":"to-tsai-d047","kind":"restaurant","name":"To Tsai","lat":37.97897316301174,"lng":23.737126960431553,"url":"https://maps.app.goo.gl/xwzLF5n6xn8fr2tf8?g_st=ipc","address":"Αλ. Σούτσου 19, Αθήνα 106 71","categoryIds":["coffee-brunch","vegetarian"],"categories":["Coffee & Brunch Spots","Vegetarian Friendly Restaurants"]},{"id":"coffeeBrunchRestaurants_ad607df7652f","slug":"samba-coffee-roasters-the-shop-ad60","kind":"restaurant","name":"Samba Coffee Roasters | The Shop","lat":37.9794317267494,"lng":23.73762622482217,"url":"https://maps.app.goo.gl/34yfEmMHeLiaz3iD9?g_st=ipc","address":"Σόλωνος 36, Αθήνα 106 73","categoryIds":["coffee-brunch"],"categories":["Coffee & Brunch Spots"]},{"id":"coffeeBrunchRestaurants_f6e68f133ff0","slug":"chez-michel-f6e6","kind":"restaurant","name":"Chez Michel","lat":37.976675534882084,"lng":23.742456621704683,"url":"https://maps.app.goo.gl/XTb8dAWevvMWgsTW9?g_st=ic","address":"Irodotou 15, Athina 106 74","categoryIds":["coffee-brunch"],"categories":["Coffee & Brunch Spots"]},{"id":"coffeeBrunchRestaurants_0ab06e0868e5","slug":"me-kolonaki-0ab0","kind":"restaurant","name":"me kolonaki","lat":37.9765612906505,"lng":23.742423758521817,"url":"https://maps.app.goo.gl/LxVhS9ugcHWgEPFa7?g_st=ipc","address":"Καψάλη 10, Αθήνα 106 74","categoryIds":["coffee-brunch"],"categories":["Coffee & Brunch Spots"]},{"id":"coffeeBrunchRestaurants_b9df566768c1","slug":"kora-b9df","kind":"restaurant","name":"KORA","lat":37.98011321585773,"lng":23.739705197719534,"url":"https://maps.app.goo.gl/bGLYXaCD894A2zsQ8?g_st=ipc","address":"Παναγιώτου Αναγνωστοπούλου 44, Αθήνα 106 73","categoryIds":["coffee-brunch","desserts"],"categories":["Coffee & Brunch Spots","Dessert Shops"]}],"nearby":[{"id":"coffeeBrunchRestaurants_32f3744210f1","slug":"ruins-athens-urban-area-32f3","kind":"restaurant","name":"Ruins Athens Urban Area","lat":37.97772096182225,"lng":23.740886798075717,"url":"https://maps.app.goo.gl/m4eWX6HzHjiKpfSEA?g_st=ipc","address":"Τσακάλωφ 4, Αθήνα 106 73","categoryIds":["coffee-brunch"],"categories":["Coffee & Brunch Spots"],"distanceKm":0.11827523380873657},{"id":"luxuryDiningRestaurants_10b90e1a8f52","slug":"zano-athens-10b9","kind":"restaurant","name":"Zanó - Athens","lat":37.97774961244962,"lng":23.741221128338456,"url":"https://maps.app.goo.gl/ybfkAt98uRcmLcZLA?g_st=ipc","address":"Παναγιώτου Αναγνωστοπούλου 3, Αθήνα 106 73","categoryIds":["luxury-dining"],"categories":["Luxury Dining"],"distanceKm":0.14772562608196113},{"id":"luxuryDiningRestaurants_18db80acc872","slug":"drakoulis-dry-raw-kolonaki-18db","kind":"restaurant","name":"Drakoulis Dry & Raw Kolonaki","lat":37.97718005520891,"lng":23.741289591081852,"url":"https://maps.app.goo.gl/LMGwAzhv7RzR34wj6?g_st=ipc","address":"Πλ. Φιλικής Εταιρείας 14, Αθήνα 106 74","categoryIds":["luxury-dining"],"categories":["Luxury Dining"],"distanceKm":0.15780524151066672},{"id":"coffeeBrunchRestaurants_394da04a2026","slug":"it-restaurant-kolonaki-394d","kind":"restaurant","name":"IT restaurant Kolonaki","lat":37.9781134250021,"lng":23.737763201387953,"url":"https://maps.app.goo.gl/5dn3SzH3a8fsGfeW7?g_st=ipc","address":"106 71 Voukourestiou 30 &, Αλ. Σούτσου, Αθήνα 106 71","categoryIds":["coffee-brunch"],"categories":["Coffee & Brunch Spots"],"distanceKm":0.1687121704154018},{"id":"luxuryDiningRestaurants_2ecaca7a8cdf","slug":"brutus-tavern-2eca","kind":"restaurant","name":"Brutus Tavern","lat":37.9778313193549,"lng":23.741690006593426,"url":"https://maps.app.goo.gl/9gWFrAvvmqBKsy2bA?g_st=ipc","address":"Λεβέντη 3, Αθήνα 106 73","categoryIds":["luxury-dining"],"categories":["Luxury Dining"],"distanceKm":0.18973078600202908},{"id":"mustSeeAttractions_4a961e3001a5","slug":"moyseio-mpenaki-ellinikoy-politismoy-benaki-museum-of-greek-culture-4a96","kind":"restaurant","name":"Μουσείο Μπενάκη Ελληνικού Πολιτισμού | Benaki Museum of Greek Culture","lat":37.97595332142378,"lng":23.740446335275582,"url":"https://maps.app.goo.gl/tPkYqHsHmRpbKSaX9?g_st=ipc","address":"Koumpari 1, Athina 106 74","categoryIds":["attractions"],"categories":["Must-See Attractions"],"distanceKm":0.1946693019136603},{"id":"luxuryDiningRestaurants_e28089becd81","slug":"nido-athens-e280","kind":"restaurant","name":"NiDo Athens","lat":37.977919345579465,"lng":23.741770246682712,"url":"https://maps.app.goo.gl/okbeASGTeSTwszzP7?g_st=ipc","address":"Λεβέντη 5, Αθήνα 106 73","categoryIds":["luxury-dining"],"categories":["Luxury Dining"],"distanceKm":0.19843223748835082},{"id":"dessertsRestaurants_212bd4b3371e","slug":"desire-zacharoplasteio-212b","kind":"restaurant","name":"DESIRE Ζαχαροπλαστείο","lat":37.97875008220235,"lng":23.737643413526353,"url":"https://maps.app.goo.gl/622nuTbk44qURXdA9?g_st=ipc","address":"Δημοκρίτου 6, Αθήνα 106 71","categoryIds":["desserts"],"categories":["Dessert Shops"],"distanceKm":0.21366021561547038}],"sameRegion":[],"mentionedGuides":[],"canonicalSlug":"cocona-da40","isCanonicalEntity":true,"enrichment":{"summary_en":"Cocona is a curated restaurant in Αθήνα 106 73 in the Coffee & Brunch Spots collection. It is connected to 163 nearby Googlementor picks to help travelers build a stronger local route.","summary_el":"Cocona είναι ένα επιλεγμένο σημείο φαγητού στην περιοχή Αθήνα 106 73 και ανήκει στη συλλογή Coffee & Brunch Spots. Συνδέεται με 163 κοντινές προτάσεις του Googlementor για πιο ολοκληρωμένη εμπειρία.","vibe_tags":["curated","daytime-favorite"],"best_for":["first-time visitors","food lovers"],"visit_moments":["early morning","late brunch"],"practical_note":"Address and direct map link are available for easy turn-by-turn access.","nearby_walkable_count":163,"nearby_count_2km":621,"confidence":0.98}},"__N_SSG":true}