{"pageProps":{"entity":{"id":"burgersRestaurants_95cc953a5a70","slug":"con-voi-brunch-burgers-cocktails-95cc","kind":"restaurant","name":"Con Voi Brunch - Burgers & Cocktails","lat":38.12062536277459,"lng":23.858921152377892,"url":"https://maps.app.goo.gl/Nzdtzrh2vbG4T4VM8?g_st=ipc","address":"Λεωφ. Δροσιάς Σταματάς 2, Δροσιά 145 72","categoryIds":["burgers"],"categories":["Burger Spots"]},"sameCategory":[{"id":"burgersRestaurants_07b3e771beba","slug":"layers-07b3","kind":"restaurant","name":"LAYERS","lat":38.089833221029615,"lng":23.818428541225927,"url":"https://maps.app.goo.gl/mDaB4XdfNqu4hp5i8?g_st=ipc","address":"Αναξαγόρα 7, Νέα Ερυθραία 146 71","categoryIds":["burgers"],"categories":["Burger Spots"]},{"id":"burgersRestaurants_4176fe5b3851","slug":"guilty-adam-4176","kind":"restaurant","name":"Guilty Adam","lat":38.08882457129293,"lng":23.81690449930271,"url":"https://maps.app.goo.gl/cYunjwXkadMCnitz6?g_st=ipc","address":"Χαριλάου Τρικούπη, Στροφυλίου 146, Νέα Ερυθραία 146 71","categoryIds":["burgers"],"categories":["Burger Spots"]},{"id":"burgersRestaurants_a0d6a061aa9e","slug":"mvp-restaurant-a0d6","kind":"restaurant","name":"MVP RESTAURANT","lat":38.08823770971798,"lng":23.816227663317804,"url":"https://maps.app.goo.gl/JjXo3mQwSBz49WBp9?g_st=ipc","address":"Χαρ. Τρικούπη 127, Νέα Ερυθραία 146 71","categoryIds":["burgers","mexican"],"categories":["Burger Spots","Mexican Restaurants"]},{"id":"burgersRestaurants_b5cd5e9d8f33","slug":"comet-street-gourmet-athens-b5cd","kind":"restaurant","name":"Comet Street Gourmet Athens","lat":38.05458806834009,"lng":23.84252767987863,"url":"https://maps.app.goo.gl/7yT5TAqAFBttQ8yZ7?g_st=ipc","address":"Σωκράτους 3, Μελίσσια 151 27","categoryIds":["burgers"],"categories":["Burger Spots"]},{"id":"burgersRestaurants_ceb67d2517dd","slug":"godgilla-umami-street-food-ceb6","kind":"restaurant","name":"Godgilla umami street food","lat":38.056565975998105,"lng":23.814008768575892,"url":"https://maps.app.goo.gl/WyovvCKHo17WtrPb8?g_st=ipc","address":"Γεωρ. Κοτζιά 2, Μαρούσι 151 26","categoryIds":["burgers","cheap-eats"],"categories":["Burger Spots","Gyros & Cheap Eats"]},{"id":"burgersRestaurants_3d23e4017c79","slug":"f-smashing-marousi-delivery-take-away-only-3d23","kind":"restaurant","name":"F* Smashing Marousi (Delivery & Take away Only!)","lat":38.05659414043942,"lng":23.807978426457023,"url":"https://maps.app.goo.gl/YDf78cc6DThEFAdSA?g_st=ipc","address":"Π. Κυριακού 18, Μαρούσι 151 24","categoryIds":["burgers"],"categories":["Burger Spots"]},{"id":"burgersRestaurants_264306258d6e","slug":"busty-s-burger-2643","kind":"restaurant","name":"Busty's Burger","lat":38.05283037769694,"lng":23.815776704443905,"url":"https://maps.app.goo.gl/ZPYfcdYHMWXyKwF16?g_st=ipc","address":"Οδός Πεντέλης, Μαρούσι 151 26","categoryIds":["burgers"],"categories":["Burger Spots"]},{"id":"burgersRestaurants_6d610eb79dbd","slug":"taz-smash-burger-6d61","kind":"restaurant","name":"Taz Smash Burger","lat":38.05644521597169,"lng":23.804667787562405,"url":"https://maps.app.goo.gl/tj3ojXGmrnTvMA9c7?g_st=ipc","address":"Περικλέους 2, Μαρούσι 151 22","categoryIds":["burgers"],"categories":["Burger Spots"]}],"nearby":[{"id":"cheapEatsRestaurants_0da1d84ce28f","slug":"mitsos-0da1","kind":"restaurant","name":"Μητσος","lat":38.120677354658696,"lng":23.859244908556484,"url":"https://maps.app.goo.gl/5G7Zm7z9NT4rMbC6A?g_st=ipc","address":"Λεωφ. Δροσιάς Σταματάς 4, Δροσιά 145 75","categoryIds":["cheap-eats"],"categories":["Gyros & Cheap Eats"],"distanceKm":0.02890572001098885},{"id":"asianRestaurants_d8c154eb91c4","slug":"cho-cho-san-drosia-d8c1","kind":"restaurant","name":"Cho Cho San Drosiá","lat":38.12004731625109,"lng":23.859184242640065,"url":"https://maps.app.goo.gl/uWRDz7jVt5VDWMv8A?g_st=ipc","address":"Πεύκων 17, Δροσιά 145 72","categoryIds":["asian"],"categories":["Asian Restaurants"],"distanceKm":0.06827199979930604},{"id":"italianRestaurants_7494ebc89891","slug":"amici-miei-cucina-italiana-7494","kind":"restaurant","name":"Amici Miei Cucina Italiana","lat":38.1201358654641,"lng":23.85982839112877,"url":"https://maps.app.goo.gl/TKR7jw9ozmdL38DBA?g_st=ipc","address":"στρατηγού πετρίτη 7, Δροσιά 145 72","categoryIds":["italian"],"categories":["Italian Restaurants"],"distanceKm":0.09623538083788688},{"id":"greekRestaurants_a8f96784536e","slug":"peinirli-eleytheriadis-a8f9","kind":"restaurant","name":"Πεϊνιρλί Ελευθεριάδης","lat":38.11739320879304,"lng":23.862199451872925,"url":"https://maps.app.goo.gl/hWqtsGrqa7nCZyh16","address":"Σολωμού 26, Δροσιά 145 72","categoryIds":["greek-restaurants"],"categories":["Greek Restaurants"],"distanceKm":0.45979833851271606},{"id":"italianRestaurants_b94ef05a5cdb","slug":"nebbiolo-b94e","kind":"restaurant","name":"Nebbiolo","lat":38.114438017917074,"lng":23.849732672241302,"url":"https://maps.app.goo.gl/wzivni6cAptzeBTTA","address":"Leof. Thiseos 111, Ekali 145 78","categoryIds":["italian"],"categories":["Italian Restaurants"],"distanceKm":1.0580575673588357},{"id":"fishTavernasRestaurants_eaec6bd11d2a","slug":"tsipoyradiko-anoixi-para-tetarto-eaec","kind":"restaurant","name":"Τσιπουράδικο \"Άνοιξη παρά Τέταρτο\"","lat":38.13115537085702,"lng":23.860540472523713,"url":"https://maps.app.goo.gl/sSz3YRigMVCbLBcq6?g_st=ipc","address":"Αθηνών Χαλκίδος 17, Άνοιξη 145 69","categoryIds":["fish-tavernas"],"categories":["Fish Tavernas"],"distanceKm":1.1794200046570846},{"id":"municipalities_9db4da788e71","slug":"rodopoli-9db4","kind":"municipality","name":"Ροδόπολη","lat":38.1307,"lng":23.8504,"region":"Βόρεια Προάστια","name_en":"Rodopoli","region_en":"North Suburbs","distanceKm":1.3455583572771146},{"id":"greekRestaurants_8bd7eaffbbd0","slug":"ayli-8bd7","kind":"restaurant","name":"Αυλή","lat":38.1169884488727,"lng":23.873697271500465,"url":"https://maps.app.goo.gl/j3KcRnM1M4kAsQz36","address":"25ης Μαρτίου 24, Ροδόπολη 145 74","categoryIds":["greek-restaurants"],"categories":["Greek Restaurants"],"distanceKm":1.3544086751339337}],"sameRegion":[],"mentionedGuides":[],"canonicalSlug":"con-voi-brunch-burgers-cocktails-95cc","isCanonicalEntity":true,"enrichment":{"summary_en":"Con Voi Brunch - Burgers & Cocktails is a curated restaurant in Δροσιά 145 72 in the Burger Spots collection. It is connected to 4 nearby Googlementor picks to help travelers build a stronger local route.","summary_el":"Con Voi Brunch - Burgers & Cocktails είναι ένα επιλεγμένο σημείο φαγητού στην περιοχή Δροσιά 145 72 και ανήκει στη συλλογή Burger Spots. Συνδέεται με 4 κοντινές προτάσεις του Googlementor για πιο ολοκληρωμένη εμπειρία.","vibe_tags":["curated"],"best_for":["first-time visitors","food lovers"],"visit_moments":["lunch stop","dinner stop"],"practical_note":"Address and direct map link are available for easy turn-by-turn access.","nearby_walkable_count":4,"nearby_count_2km":16,"confidence":0.98}},"__N_SSG":true}