{"pageProps":{"entity":{"id":"cheapEatsRestaurants_4ad6c8183391","slug":"crats-mexican-4ad6","kind":"restaurant","name":"Crats Mexican","lat":40.646440943227944,"lng":22.920915607467233,"url":"https://maps.app.goo.gl/L84rScHZkgehJUri7?g_st=ipc","address":"Giannitson 61, Thessaloniki 546 27","categoryIds":["cheap-eats","mexican"],"categories":["Gyros & Cheap Eats","Mexican Restaurants"]},"sameCategory":[{"id":"cheapEatsRestaurants_abf9ebdbbc06","slug":"taco-mazama-californian-style-mexican-street-food-abf9","kind":"restaurant","name":"Taco Mazama (Californian Style Mexican Street Food)","lat":40.63149354851285,"lng":22.94839774432504,"url":"https://maps.app.goo.gl/zE2aLejbpEyQpDvq8?g_st=ipc","address":"Paleon Patron Germanou 28, Thessaloniki 546 22","categoryIds":["cheap-eats","mexican"],"categories":["Gyros & Cheap Eats","Mexican Restaurants"]},{"id":"cheapEatsRestaurants_158ee5dd1d4f","slug":"cocorico-158e","kind":"restaurant","name":"Cocorico","lat":38.03523380190847,"lng":23.705868008544936,"url":"https://maps.app.goo.gl/4u4xPrqXGjRF9V9cA?g_st=ipc","address":"Ιφιγένειας 31, Ίλιον 131 22","categoryIds":["cheap-eats","mexican"],"categories":["Gyros & Cheap Eats","Mexican Restaurants"]},{"id":"cheapEatsRestaurants_d094097525b6","slug":"senor-picante-d094","kind":"restaurant","name":"Señor Picante","lat":37.965308606012925,"lng":23.726477821309263,"url":"https://maps.app.goo.gl/bZNApSKDTgmvuiXB7?g_st=ipc","address":"Φαλήρου 40, Αθήνα 117 42","categoryIds":["cheap-eats","mexican"],"categories":["Gyros & Cheap Eats","Mexican Restaurants"]},{"id":"cheapEatsRestaurants_6688c0081a92","slug":"ta-babatsika-giro-6688","kind":"restaurant","name":"Ta Babatsika Giro","lat":40.647745410832044,"lng":22.928067747195957,"url":"https://maps.app.goo.gl/gB9jG1sW8aaCssEs7?g_st=ipc","address":"Αγίων Πάντων 28, Thessaloniki 561 23","categoryIds":["cheap-eats"],"categories":["Gyros & Cheap Eats"]},{"id":"cheapEatsRestaurants_65901adf52a7","slug":"mama-tereza-6590","kind":"restaurant","name":"Μαμά Τερέζα","lat":40.64077907495011,"lng":22.91819947384191,"url":"https://maps.app.goo.gl/huQUwoVx5eZ9dY357?g_st=ipc","address":"26is Oktovriou 15, Thessaloniki 546 27","categoryIds":["cheap-eats"],"categories":["Gyros & Cheap Eats"]},{"id":"cheapEatsRestaurants_2966a9f7f7df","slug":"karbouniariko-2966","kind":"restaurant","name":"Karbouniáriko","lat":40.65687885553669,"lng":22.9247874320993,"url":"https://maps.app.goo.gl/HehrRz31yKnDYNa49?g_st=ipc","address":"Nik. Plastira 11, Ampelokipi 561 23","categoryIds":["cheap-eats"],"categories":["Gyros & Cheap Eats"]},{"id":"cheapEatsRestaurants_41498834b457","slug":"crats-fried-chicken-egnatia-4149","kind":"restaurant","name":"Crats Fried Chicken Egnatia","lat":40.63898844732417,"lng":22.938638631354078,"url":"https://maps.app.goo.gl/ck9L5Pz4C9MGKVbV7?g_st=ipc","address":"Egnatia 27, Thessaloniki 546 30","categoryIds":["cheap-eats"],"categories":["Gyros & Cheap Eats"]},{"id":"burgersRestaurants_90d16bd5f050","slug":"pratina-burger-project-90d1","kind":"restaurant","name":"PRATINA Burger Project","lat":40.63713764523389,"lng":22.937597600102066,"url":"https://maps.app.goo.gl/rE8kgxhDvdzbh9hw7","address":"Veroias 5, Thessaloniki 546 25","categoryIds":["burgers","cheap-eats"],"categories":["Burger Spots","Gyros & Cheap Eats"]}],"nearby":[{"id":"dessertsRestaurants_19a8d37c0b4c","slug":"cinnabon-19a8","kind":"restaurant","name":"Cinnabon","lat":40.646492769432,"lng":22.920799139987686,"url":"https://maps.app.goo.gl/Ndu5vJgYbtj4ou9s5?g_st=ipc","address":"Giannitson 61, Thessaloniki 546 27","categoryIds":["desserts"],"categories":["Dessert Shops"],"distanceKm":0.011391387581900843},{"id":"coffeeBrunchRestaurants_9b9341bfba14","slug":"join-juice-bars-9b93","kind":"restaurant","name":"JOIN juice bars","lat":40.646571727400875,"lng":22.92141339579847,"url":"https://maps.app.goo.gl/pSgB53k7vyQwHX78A?g_st=ipc","address":"Giannitson 61, Thessaloniki 546 27","categoryIds":["coffee-brunch","vegetarian"],"categories":["Coffee & Brunch Spots","Vegetarian Friendly Restaurants"],"distanceKm":0.04444414755458249},{"id":"luxuryDiningRestaurants_f884c9044ca6","slug":"iberico-f884","kind":"restaurant","name":"Iberico","lat":40.644771791421974,"lng":22.920737302788805,"url":"https://maps.app.goo.gl/zswCQ5dz9hpLhfwE6?g_st=ipc","address":"Νικ. Μάντζαρου 18 &, Kotta Roulia, Thessaloniki 546 27","categoryIds":["luxury-dining"],"categories":["Luxury Dining"],"distanceKm":0.18620987156169577},{"id":"cheapEatsRestaurants_6688c0081a92","slug":"ta-babatsika-giro-6688","kind":"restaurant","name":"Ta Babatsika Giro","lat":40.647745410832044,"lng":22.928067747195957,"url":"https://maps.app.goo.gl/gB9jG1sW8aaCssEs7?g_st=ipc","address":"Αγίων Πάντων 28, Thessaloniki 561 23","categoryIds":["cheap-eats"],"categories":["Gyros & Cheap Eats"],"distanceKm":0.6205980271127605},{"id":"dessertsRestaurants_31d6f488c2f0","slug":"terkenlis-ose-31d6","kind":"restaurant","name":"Terkenlis OSE","lat":40.64470252527838,"lng":22.92850176756682,"url":"https://maps.app.goo.gl/6mo1DJtrfFXMber56?g_st=ipc","address":"Monastiriou, Thessaloniki 546 27","categoryIds":["desserts"],"categories":["Dessert Shops"],"distanceKm":0.6685943266842753},{"id":"cheapEatsRestaurants_65901adf52a7","slug":"mama-tereza-6590","kind":"restaurant","name":"Μαμά Τερέζα","lat":40.64077907495011,"lng":22.91819947384191,"url":"https://maps.app.goo.gl/huQUwoVx5eZ9dY357?g_st=ipc","address":"26is Oktovriou 15, Thessaloniki 546 27","categoryIds":["cheap-eats"],"categories":["Gyros & Cheap Eats"],"distanceKm":0.6699825233449141},{"id":"fishTavernasRestaurants_a0a70eb01c99","slug":"ouzeri-kosmas-a0a7","kind":"restaurant","name":"Ouzeri \"Kosmas\"","lat":40.64801268123014,"lng":22.93043130003418,"url":"https://maps.app.goo.gl/vEURBm27mFZ4pGJfA?g_st=ipc","address":"Vasilikis Papathanasiou 74, Thessaloniki 546 29","categoryIds":["fish-tavernas"],"categories":["Fish Tavernas"],"distanceKm":0.8216177103333261},{"id":"cheapEatsRestaurants_2966a9f7f7df","slug":"karbouniariko-2966","kind":"restaurant","name":"Karbouniáriko","lat":40.65687885553669,"lng":22.9247874320993,"url":"https://maps.app.goo.gl/HehrRz31yKnDYNa49?g_st=ipc","address":"Nik. Plastira 11, Ampelokipi 561 23","categoryIds":["cheap-eats"],"categories":["Gyros & Cheap Eats"],"distanceKm":1.205728764672543}],"sameRegion":[],"mentionedGuides":[],"canonicalSlug":"crats-mexican-4ad6","isCanonicalEntity":true,"enrichment":{"summary_en":"Crats Mexican is a curated restaurant in Thessaloniki 546 27 in the Gyros & Cheap Eats collection. It is connected to 6 nearby Googlementor picks to help travelers build a stronger local route.","summary_el":"Crats Mexican είναι ένα επιλεγμένο σημείο φαγητού στην περιοχή Thessaloniki 546 27 και ανήκει στη συλλογή Gyros & Cheap Eats. Συνδέεται με 6 κοντινές προτάσεις του Googlementor για πιο ολοκληρωμένη εμπειρία.","vibe_tags":["curated","budget-friendly"],"best_for":["first-time visitors","food lovers","budget travelers"],"visit_moments":["lunch stop","dinner stop"],"practical_note":"Address and direct map link are available for easy turn-by-turn access.","nearby_walkable_count":6,"nearby_count_2km":67,"confidence":0.98}},"__N_SSG":true}