{"pageProps":{"entity":{"id":"dessertsRestaurants_80d05b4a9112","slug":"dafni-s-sweets-80d0","kind":"restaurant","name":"Dafni's Sweets","lat":39.16451312827066,"lng":23.484321078437517,"url":"https://maps.app.goo.gl/qZaYAac8rhBH69sC8?g_st=ipc","address":"Τέρμα Παπαδιαμάντη, Skiathos 370 02","categoryIds":["desserts"],"categories":["Dessert Shops"]},"sameCategory":[{"id":"dessertsRestaurants_fab74267c12c","slug":"anna-na-ena-milo-fab7","kind":"restaurant","name":"Άννα να ένα μήλο","lat":39.32818241324449,"lng":23.15069435375763,"url":"https://maps.app.goo.gl/pFdSDfbmt9PYS4wT9?g_st=ic","address":"Epar.Od. Agrias-Mileon 107, Milies 370 10","categoryIds":["desserts"],"categories":["Dessert Shops"]},{"id":"dessertsRestaurants_18c800bb34dd","slug":"apalou-bistro-18c8","kind":"restaurant","name":"Apalou bistro","lat":39.38733910168991,"lng":23.17288978772186,"url":"https://maps.app.goo.gl/8B5hS4CF5VjiJNweA?g_st=ic","address":"EO Neochoriou Tsagkaradas 26, Tsagkarada 370 12","categoryIds":["desserts"],"categories":["Dessert Shops"]},{"id":"dessertsRestaurants_ddfd2ed8f8da","slug":"glyko-styllas-ddfd","kind":"restaurant","name":"Glyko Styllas","lat":39.358756123978736,"lng":22.949172631183142,"url":"https://maps.app.goo.gl/C2qoG9g6ogZM9U2H6?g_st=ipc","address":"Iasonos 135, Volos 382 21","categoryIds":["desserts"],"categories":["Dessert Shops"]},{"id":"dessertsRestaurants_c5d32b51622f","slug":"minerva-c5d3","kind":"restaurant","name":"Minerva","lat":39.35839004627972,"lng":22.94810636993991,"url":"https://maps.app.goo.gl/LYYj8A3erRuK1dFDA?g_st=ipc","address":"Argonafton 53, Volos 383 33","categoryIds":["desserts"],"categories":["Dessert Shops"]},{"id":"dessertsRestaurants_1535883517fb","slug":"chalvadopoiia-papagiannopoylospapagiannopoylos-ioannis-1535","kind":"restaurant","name":"Χαλβαδοποιία ΠαπαγιαννόπουλοςΠαπαγιαννόπουλος Ιωάννης","lat":39.36370657984136,"lng":22.937869092104165,"url":"https://maps.app.goo.gl/N1XMSFR7tEBpbki29?g_st=ipc","address":"4, Vassani 2, Volos 383 33","categoryIds":["desserts"],"categories":["Dessert Shops"]},{"id":"dessertsRestaurants_ee7a9d284945","slug":"in-out-patisserie-ee7a","kind":"restaurant","name":"In Out Patisserie","lat":38.62013328510681,"lng":23.231732554049056,"url":"https://maps.app.goo.gl/pezBgDeH43iQLTiq9?g_st=ipc","address":"Νέα Μαστού 1, Μαλεσίνα 350 01","categoryIds":["desserts"],"categories":["Dessert Shops"]},{"id":"dessertsRestaurants_9b6412fb3073","slug":"kafeglykopoleio-1743-9b64","kind":"restaurant","name":"Καφεγλυκοπωλείο 1743","lat":38.58175023664722,"lng":23.838148482202772,"url":"https://maps.app.goo.gl/xqUssHq6UkJo44nU9?g_st=ipc","address":"Στενή Ευβοίας, Stení 340 14","categoryIds":["desserts"],"categories":["Dessert Shops"]},{"id":"dessertsRestaurants_73e2ff50a505","slug":"mpiskotoglyko-73e2","kind":"restaurant","name":"Μπισκοτόγλυκο","lat":38.46497241983079,"lng":23.593940230340603,"url":"https://maps.app.goo.gl/f4tbuwUVqXzkbZJv7?g_st=ipc","address":"Καραμουρτζούνη 32, Χαλκίδα 341 00","categoryIds":["desserts"],"categories":["Dessert Shops"]}],"nearby":[{"id":"greekRestaurants_e46cac5a2bec","slug":"taverna-to-kalo-pigadi-e46c","kind":"restaurant","name":"Taverna To Kalo Pigadi","lat":39.16487848589254,"lng":23.486317545591145,"url":"https://maps.app.goo.gl/Q3s16ZJgMJx6HdbA8?g_st=ipc","address":"Καραϊσκάκη, Σκιάθος 370 02","categoryIds":["greek-restaurants"],"categories":["Greek Restaurants"],"distanceKm":0.1768512787919973},{"id":"greekRestaurants_60ce3bb5b5ca","slug":"asprolithos-60ce","kind":"restaurant","name":"Ασπρολιθος","lat":39.16504324740699,"lng":23.486717425412987,"url":"https://maps.app.goo.gl/k2pRsteYSiF9tWJy9?g_st=ipc","address":"Σκιάθος 370 02","categoryIds":["greek-restaurants"],"categories":["Greek Restaurants"],"distanceKm":0.21484132135085812},{"id":"luxuryDiningRestaurants_fb0ed7fd7dd6","slug":"the-borzoi-fb0e","kind":"restaurant","name":"The Borzoi","lat":39.16344583170151,"lng":23.487355001180887,"url":"https://maps.app.goo.gl/bVHwisskrmA58dT18?g_st=ipc","address":"Papadiamanti, Skiathos 370 02","categoryIds":["luxury-dining"],"categories":["Luxury Dining"],"distanceKm":0.2872310047900981},{"id":"greekRestaurants_50b52c2fce61","slug":"giardino-segreto-50b5","kind":"restaurant","name":"Giardino Segreto","lat":39.16422013445391,"lng":23.48827332832573,"url":"https://maps.app.goo.gl/oYFqCwTb84JgPcHYA?g_st=ipc","address":"Ευαγγελιστρίας 14, Σκιάθος 370 02","categoryIds":["greek-restaurants"],"categories":["Greek Restaurants"],"distanceKm":0.3422916249883373},{"id":"greekRestaurants_bba8f99baf04","slug":"vasilikos-bba8","kind":"restaurant","name":"Βασιλικός","lat":39.163149427181544,"lng":23.4879040653568,"url":"https://maps.app.goo.gl/72rYJCHEmhpQn6o56?g_st=ipc","address":"5F7Q+65W, Σκιάθος 370 02","categoryIds":["greek-restaurants"],"categories":["Greek Restaurants"],"distanceKm":0.34411577069818533},{"id":"vegetarianRestaurants_4b016e396a37","slug":"basilikos-4b01","kind":"restaurant","name":"Basilikos","lat":39.16312454298035,"lng":23.487902942019232,"url":"https://maps.app.goo.gl/ds7UYPCteddf9Z6T7?g_st=ipc","address":"5F7Q+65W, Skiathos 370 02","categoryIds":["vegetarian"],"categories":["Vegetarian Friendly Restaurants"],"distanceKm":0.345257419757202},{"id":"greekRestaurants_c392fb301228","slug":"marmita-c392","kind":"restaurant","name":"Marmita","lat":39.16450960419779,"lng":23.488358363186613,"url":"https://maps.app.goo.gl/jYUxHbE5ospf2bg48?g_st=ipc","address":"Ευαγγελιστρίας 30, Σκιάθος 370 02","categoryIds":["greek-restaurants"],"categories":["Greek Restaurants"],"distanceKm":0.3480683021146889},{"id":"italianRestaurants_0856ecb11f91","slug":"la-cucina-di-maria-0856","kind":"restaurant","name":"La Cucina di Maria","lat":39.16258431460264,"lng":23.488686516582533,"url":"https://maps.app.goo.gl/MBu7u1d7kC6PuBVm8?g_st=ipc","address":"Πλατεία Τριών Ιεραρχών, Skiathos 370 02","categoryIds":["italian"],"categories":["Italian Restaurants"],"distanceKm":0.4331852097519727}],"sameRegion":[],"mentionedGuides":[],"canonicalSlug":"dafni-s-sweets-80d0","isCanonicalEntity":true,"enrichment":{"summary_en":"Dafni's Sweets is a curated restaurant in Skiathos 370 02 in the Dessert Shops collection. It is connected to 15 nearby Googlementor picks to help travelers build a stronger local route.","summary_el":"Dafni's Sweets είναι ένα επιλεγμένο σημείο φαγητού στην περιοχή Skiathos 370 02 και ανήκει στη συλλογή Dessert Shops. Συνδέεται με 15 κοντινές προτάσεις του Googlementor για πιο ολοκληρωμένη εμπειρία.","vibe_tags":["curated","sweet-stop"],"best_for":["first-time visitors","food lovers"],"visit_moments":["afternoon break","after dinner"],"practical_note":"Address and direct map link are available for easy turn-by-turn access.","nearby_walkable_count":15,"nearby_count_2km":16,"confidence":0.98}},"__N_SSG":true}