{"pageProps":{"entity":{"id":"italianRestaurants_f8696119f84a","slug":"dr-8-f869","kind":"restaurant","name":"DR.8","lat":37.97961742890019,"lng":23.730308681463843,"url":"https://maps.app.goo.gl/e4S1yWk4AQ9uuCD96?g_st=ipc","address":"Δραγατσανίου 8, Αθήνα 105 59","categoryIds":["italian"],"categories":["Italian Restaurants"]},"sameCategory":[{"id":"coffeeBrunchRestaurants_03891d56076e","slug":"odori-0389","kind":"restaurant","name":"Odori","lat":37.97922436265169,"lng":23.729754698272135,"url":"https://maps.app.goo.gl/Wa5G5txL7dyLZjDX9?g_st=ipc","address":"Σκουλενίου 2, Αθήνα 105 61","categoryIds":["coffee-brunch","italian"],"categories":["Coffee & Brunch Spots","Italian Restaurants"]},{"id":"italianRestaurants_9735f36161b6","slug":"pracsitele-9735","kind":"restaurant","name":"Pracsitele","lat":37.978075255049035,"lng":23.730655699973674,"url":"https://maps.app.goo.gl/uY33YuN8n7TKUXd86?g_st=ipc","address":"Πραξιτέλους 7, Αθήνα 105 62","categoryIds":["italian"],"categories":["Italian Restaurants"]},{"id":"italianRestaurants_15f54ac83ec4","slug":"gloria-gati-15f5","kind":"restaurant","name":"Gloria Gati","lat":37.97802514944533,"lng":23.731662994218254,"url":"https://maps.app.goo.gl/VyAef5tB1eVm8LECA?g_st=ipc","address":"Πλ. Αγίου Γεωργίου Καρύτση 6, Αθήνα 105 61","categoryIds":["italian"],"categories":["Italian Restaurants"]},{"id":"italianRestaurants_e7c94ca15e1b","slug":"granello-pizza-italiana-e7c9","kind":"restaurant","name":"Granello - Pizza Italiana","lat":37.97667761548528,"lng":23.73173801660532,"url":"https://maps.app.goo.gl/nkhWXfUCf8UqXp5W9?g_st=ipc","address":"Περικλέους 18, Αθήνα 105 62","categoryIds":["italian"],"categories":["Italian Restaurants"]},{"id":"italianRestaurants_41ab3f71a154","slug":"aliola-s-ermou-41ab","kind":"restaurant","name":"Aliola’s Ermou","lat":37.97633249966058,"lng":23.7318293724108,"url":"https://maps.app.goo.gl/4FHfDnNt7PhJxhxK6?g_st=ipc","address":"Ερμού 18 &, Διομείας 2, Αθήνα 105 63","categoryIds":["italian"],"categories":["Italian Restaurants"]},{"id":"italianRestaurants_b4580bbde39a","slug":"piadina-lumbro-b458","kind":"restaurant","name":"Piadina Lumbro","lat":37.97943796124596,"lng":23.735657958882037,"url":"https://maps.app.goo.gl/uGAbtwYha4Eeb7c56?g_st=ipc","address":"Ομήρου 15, Αθήνα 106 72","categoryIds":["italian"],"categories":["Italian Restaurants"]},{"id":"italianRestaurants_ecac45aa4447","slug":"2h-restaurant-ecac","kind":"restaurant","name":"\"+2H Restaurant\"","lat":37.97531452405919,"lng":23.73121660311007,"url":"https://maps.app.goo.gl/gjaqkvxWUZYGRAXB9?g_st=ipc","address":"Rooftop of ERGON Bakehouse, Μητροπόλεως 27, Αθήνα 105 57","categoryIds":["italian"],"categories":["Italian Restaurants"]},{"id":"italianRestaurants_c9470358a12d","slug":"la-pasteria-c947","kind":"restaurant","name":"La Pasteria","lat":37.97832911911956,"lng":23.73614187652223,"url":"https://maps.app.goo.gl/4tmrg1wVrWp5rgjx6?g_st=ipc","address":"Βαλαωρίτου 15, Αθήνα 106 71","categoryIds":["italian"],"categories":["Italian Restaurants"]}],"nearby":[{"id":"burgersRestaurants_7e2f237c9f2e","slug":"juicygrill-athens-downtown-7e2f","kind":"restaurant","name":"juicygrill_Athens (downtown)","lat":37.97921135341064,"lng":23.730357458956963,"url":"https://maps.app.goo.gl/Nb6on5D2zYtdFLqw7?g_st=ipc","address":"Παλαιών Πατρών Γερμανού 7, Αθήνα 105 61","categoryIds":["burgers"],"categories":["Burger Spots"],"distanceKm":0.04535547555055096},{"id":"coffeeBrunchRestaurants_ab1d021ea45b","slug":"muse-bistro-ab1d","kind":"restaurant","name":"Muse Bistro","lat":37.97978388430184,"lng":23.72982150044081,"url":"https://maps.app.goo.gl/S3SNQHHwiWFuHc2N6?g_st=ipc","address":"Aristidou 3, Athina 105 59","categoryIds":["coffee-brunch"],"categories":["Coffee & Brunch Spots"],"distanceKm":0.04653891969358083},{"id":"asianRestaurants_464e7e4c810b","slug":"tanpopo-464e","kind":"restaurant","name":"Tanpopo","lat":37.9795596589589,"lng":23.72974278108181,"url":"https://maps.app.goo.gl/H2M3yGFhApNA288V8?g_st=ipc","address":"Αριστείδου 1, Ευριπίδου 2, Αθήνα 105 59","categoryIds":["asian"],"categories":["Asian Restaurants"],"distanceKm":0.05001381678831236},{"id":"greekRestaurants_4e928b322f7b","slug":"dopios-athens-4e92","kind":"restaurant","name":"Dopios Athens","lat":37.9792133312479,"lng":23.729886930144186,"url":"https://maps.app.goo.gl/nEVnGCyfc79ueYWh7","address":"Σκουλενίου 1, Αθήνα 105 61","categoryIds":["greek-restaurants"],"categories":["Greek Restaurants"],"distanceKm":0.058184792605214905},{"id":"coffeeBrunchRestaurants_03891d56076e","slug":"odori-0389","kind":"restaurant","name":"Odori","lat":37.97922436265169,"lng":23.729754698272135,"url":"https://maps.app.goo.gl/Wa5G5txL7dyLZjDX9?g_st=ipc","address":"Σκουλενίου 2, Αθήνα 105 61","categoryIds":["coffee-brunch","italian"],"categories":["Coffee & Brunch Spots","Italian Restaurants"],"distanceKm":0.06532920134649686},{"id":"greekRestaurants_0010dafcf3e9","slug":"manari-taverna-0010","kind":"restaurant","name":"Manári Taverna","lat":37.97931896525327,"lng":23.72965489387422,"url":"https://maps.app.goo.gl/o8x2B33WaG8QRBXq8","address":"Πλ. Αγίων Θεοδώρων 3, Αθήνα 105 61","categoryIds":["greek-restaurants"],"categories":["Greek Restaurants"],"distanceKm":0.0662195051391818},{"id":"rooftopLoungesRestaurants_e13e9020f860","slug":"horostasio-e13e","kind":"restaurant","name":"Horostasio","lat":37.979148709346994,"lng":23.729708422545425,"url":"https://maps.app.goo.gl/z4BDM28nzQm5DRAz5?g_st=ipc","address":"Σκουλενίου 2B, Αθήνα 105 61","categoryIds":["rooftop-lounges"],"categories":["Rooftop Lounges"],"distanceKm":0.07405638259108559},{"id":"cheapEatsRestaurants_c89c11621856","slug":"kapsa-c89c","kind":"restaurant","name":"Κάψα","lat":37.9791128198558,"lng":23.729644254058044,"url":"https://maps.app.goo.gl/GnCnbQadKKWk2pSs5?g_st=ipc","address":"Σκουλενίου 4, Αθήνα 105 61","categoryIds":["cheap-eats"],"categories":["Gyros & Cheap Eats"],"distanceKm":0.08086832573475052}],"sameRegion":[],"mentionedGuides":[],"canonicalSlug":"dr-8-f869","isCanonicalEntity":true,"enrichment":{"summary_en":"DR.8 is a curated restaurant in Αθήνα 105 59 in the Italian Restaurants collection. It is connected to 330 nearby Googlementor picks to help travelers build a stronger local route.","summary_el":"DR.8 είναι ένα επιλεγμένο σημείο φαγητού στην περιοχή Αθήνα 105 59 και ανήκει στη συλλογή Italian Restaurants. Συνδέεται με 330 κοντινές προτάσεις του Googlementor για πιο ολοκληρωμένη εμπειρία.","vibe_tags":["curated"],"best_for":["first-time visitors","food lovers"],"visit_moments":["lunch stop","dinner stop"],"practical_note":"Address and direct map link are available for easy turn-by-turn access.","nearby_walkable_count":330,"nearby_count_2km":633,"confidence":0.98}},"__N_SSG":true}