{"pageProps":{"entity":{"id":"luxuryDiningRestaurants_cc0b0cabfb61","slug":"drakoulis-dry-raw-mykonos-cc0b","kind":"restaurant","name":"Drakoulis Dry & Raw Mykonos","lat":37.447121066093636,"lng":25.329034852890235,"url":"https://maps.app.goo.gl/K5Lrunurc26by6vJ6?g_st=ipc","address":"Mykonos 846 00","categoryIds":["luxury-dining"],"categories":["Luxury Dining"]},"sameCategory":[{"id":"luxuryDiningRestaurants_dad780fcff6d","slug":"interni-restaurant-dad7","kind":"restaurant","name":"Interni Restaurant","lat":37.44559204956145,"lng":25.328710304133274,"url":"https://maps.app.goo.gl/x3D3HYwjgPTE7gGp6?g_st=ipc","address":"Matogianni, Mikonos 846 00","categoryIds":["luxury-dining"],"categories":["Luxury Dining"]},{"id":"luxuryDiningRestaurants_acb4788667d5","slug":"noema-acb4","kind":"restaurant","name":"Noema","lat":37.44557471142449,"lng":25.32948165492457,"url":"https://maps.app.goo.gl/Zjd8gVv5zkQ4UZxa9?g_st=ipc","address":"Panachra, Mikonos 846 00","categoryIds":["luxury-dining"],"categories":["Luxury Dining"]},{"id":"luxuryDiningRestaurants_864249c0b1ea","slug":"lio-mykonos-8642","kind":"restaurant","name":"Lío Mykonos","lat":37.44500603308255,"lng":25.32823624391178,"url":"https://maps.app.goo.gl/hS1c8JjDNAyUufSc6?g_st=ipc","address":"Enoplon Dinameon 6, Mikonos 846 00","categoryIds":["luxury-dining"],"categories":["Luxury Dining"]},{"id":"luxuryDiningRestaurants_ed9cd1741842","slug":"matsuhisa-mykonos-ed9c","kind":"restaurant","name":"Matsuhisa Mykonos","lat":37.44329085125445,"lng":25.330097754352987,"url":"https://maps.app.goo.gl/WTcgX6M9Jp2R7YGdA?g_st=ipc","address":"Belvedere Hotel School of Fine Arts District, Agiou Ioannou 1, Mikonos 846 00","categoryIds":["luxury-dining"],"categories":["Luxury Dining"]},{"id":"luxuryDiningRestaurants_137cd7d1e18b","slug":"yevo-by-bill-coo-mykonos-137c","kind":"restaurant","name":"YĒVO By Bill&Coo Mykonos","lat":37.43758072227673,"lng":25.32795511521471,"url":"https://maps.app.goo.gl/dgiE2BaNVt8Jhb1F6?g_st=ipc","address":"Μεγάλη Άμμος, Mikonos 846 00","categoryIds":["luxury-dining"],"categories":["Luxury Dining"]},{"id":"luxuryDiningRestaurants_0e975a4fcafc","slug":"baos-greek-restaurant-0e97","kind":"restaurant","name":"BAOS Greek Restaurant","lat":37.43694847921598,"lng":25.32914124723638,"url":"https://maps.app.goo.gl/BQon51NoPRn4CLnY6?g_st=ipc","address":"Myconian Korali Mykonos Town, Mikonos 846 00","categoryIds":["luxury-dining"],"categories":["Luxury Dining"]},{"id":"asianRestaurants_5d69fac12c7f","slug":"tokyo-joe-mykonos-5d69","kind":"restaurant","name":"Tokyo Joe Mykonos","lat":37.43430209897853,"lng":25.33164889840815,"url":"https://maps.app.goo.gl/SbcxFuCJ6NAhCk248?g_st=ipc","address":"Ano Vrisi, My Mall, Mikonos 846 00","categoryIds":["asian","luxury-dining"],"categories":["Asian Restaurants","Luxury Dining"]},{"id":"luxuryDiningRestaurants_1ddd2e5b1131","slug":"botrini-s-restaurant-mykonos-1ddd","kind":"restaurant","name":"Botrini's Restaurant Mykonos","lat":37.42357245673207,"lng":25.30823643743267,"url":"https://maps.app.goo.gl/ZQF2Z95MsiUa9YY38?g_st=ipc","address":"Agios Ioannis Mykonos, Cyclades, 846 00","categoryIds":["luxury-dining"],"categories":["Luxury Dining"]}],"nearby":[{"id":"greekRestaurants_e3103759958a","slug":"amades-mykonos-e310","kind":"restaurant","name":"Αμάδες Μύκονος","lat":37.44719522572323,"lng":25.32858432213716,"url":"https://maps.app.goo.gl/cASBbZQCjQukNFg88?g_st=ipc","address":"Καμπάνη 2, Μύκονος 846 00","categoryIds":["greek-restaurants"],"categories":["Greek Restaurants"],"distanceKm":0.04061837999051894},{"id":"municipalities_094e7414e11a","slug":"mykonos-094e","kind":"municipality","name":"Μύκονος","lat":37.4467,"lng":25.3289,"aliases":["Mikonos","Μύκονα","Μυκονος","Mykonos","Myconos"],"region":"Κυκλάδες","name_en":"Mykonos","region_en":"Cyclades","distanceKm":0.04831018777302011},{"id":"greekRestaurants_aef3c7ab6fff","slug":"raya-restaurant-aef3","kind":"restaurant","name":"Raya Restaurant","lat":37.447203705932054,"lng":25.32781079619138,"url":"https://maps.app.goo.gl/o2CmGDpmsR1Y7FaG8?g_st=ipc","address":"Akti Kampani, Mykonos,Kyklades, Greece, Mikonos","categoryIds":["greek-restaurants"],"categories":["Greek Restaurants"],"distanceKm":0.10844882105949984},{"id":"fishTavernasRestaurants_08df03bfa4f6","slug":"to-maereio-08df","kind":"restaurant","name":"To Maereio","lat":37.44594592016657,"lng":25.32865488584039,"url":"https://maps.app.goo.gl/FeCit9aZLtZzL7DP8?g_st=ipc","address":"Ν, Kalogera 16, Mikonos 846 00","categoryIds":["fish-tavernas"],"categories":["Fish Tavernas"],"distanceKm":0.13490694523646435},{"id":"fishTavernasRestaurants_27b9fb6e85c7","slug":"captain-s-food-for-sharing-27b9","kind":"restaurant","name":"Captain's - Food for Sharing","lat":37.44729761897664,"lng":25.32716222892849,"url":"https://maps.app.goo.gl/cVYzE7woRBCoPvRG9?g_st=ipc","address":"Mykonos Waterfront, Mikonos 846 00","categoryIds":["fish-tavernas"],"categories":["Fish Tavernas"],"distanceKm":0.1664753432786519},{"id":"fishTavernasRestaurants_f9baec1ee464","slug":"kounelas-fish-tavern-f9ba","kind":"restaurant","name":"Kounelas Fish Tavern","lat":37.447078731895196,"lng":25.327109291093613,"url":"https://maps.app.goo.gl/zGu4QC3RAJ8qwFzE6?g_st=ipc","address":"ODOS SVORONOU, Mikonos 846 00","categoryIds":["fish-tavernas"],"categories":["Fish Tavernas"],"distanceKm":0.17005246548225778},{"id":"luxuryDiningRestaurants_dad780fcff6d","slug":"interni-restaurant-dad7","kind":"restaurant","name":"Interni Restaurant","lat":37.44559204956145,"lng":25.328710304133274,"url":"https://maps.app.goo.gl/x3D3HYwjgPTE7gGp6?g_st=ipc","address":"Matogianni, Mikonos 846 00","categoryIds":["luxury-dining"],"categories":["Luxury Dining"],"distanceKm":0.17241610409029948},{"id":"luxuryDiningRestaurants_acb4788667d5","slug":"noema-acb4","kind":"restaurant","name":"Noema","lat":37.44557471142449,"lng":25.32948165492457,"url":"https://maps.app.goo.gl/Zjd8gVv5zkQ4UZxa9?g_st=ipc","address":"Panachra, Mikonos 846 00","categoryIds":["luxury-dining"],"categories":["Luxury Dining"],"distanceKm":0.1764129011528913}],"sameRegion":[],"mentionedGuides":[{"slug":"choose-perfect-greek-island-el","title":"Πώς να Επιλέξετε το Ιδανικό Ελληνικό Νησί"},{"slug":"choose-perfect-greek-island","title":"How to Choose the Perfect Greek Island for Your Trip"},{"slug":"greece-weather-swimming-ferry-guide-el","title":"Πότε να Επισκεφτείτε την Ελλάδα: Καιρός & Κολύμπι"},{"slug":"greece-weather-swimming-ferry-guide","title":"When to Visit Greece: Weather, Swimming & Ferries"},{"slug":"greek-bakeries-brunch-coffee-guide-el","title":"Ελληνική Αρτοποιία, Brunch & Κουλτούρα Καφέ"},{"slug":"greek-bakeries-brunch-coffee-guide","title":"Greek Bakeries, Brunch & Coffee Culture"},{"slug":"tap-water-safe-greece-el","title":"Είναι Ασφαλές να Πίνετε Νερό Βρύσης στην Ελλάδα;"},{"slug":"tap-water-safe-greece","title":"Is Tap Water Safe to Drink in Greece?"}],"canonicalSlug":"drakoulis-dry-raw-mykonos-cc0b","isCanonicalEntity":true,"enrichment":{"summary_en":"Drakoulis Dry & Raw Mykonos is a curated restaurant in Greece in the Luxury Dining collection. It is connected to 18 nearby Googlementor picks to help travelers build a stronger local route.","summary_el":"Drakoulis Dry & Raw Mykonos είναι ένα επιλεγμένο σημείο φαγητού στην περιοχή Greece και ανήκει στη συλλογή Luxury Dining. Συνδέεται με 18 κοντινές προτάσεις του Googlementor για πιο ολοκληρωμένη εμπειρία.","vibe_tags":["curated","premium-dining"],"best_for":["first-time visitors","food lovers","special occasions"],"visit_moments":["lunch stop","dinner stop"],"practical_note":"Address and direct map link are available for easy turn-by-turn access.","nearby_walkable_count":18,"nearby_count_2km":33,"confidence":0.98}},"__N_SSG":true}