{"pageProps":{"entity":{"id":"italianRestaurants_ec803e4a09b8","slug":"etien-pizza-bar-ec80","kind":"restaurant","name":"Etien Pizza Bar","lat":38.00546047638011,"lng":23.78575711022555,"url":"https://maps.app.goo.gl/fXUuPjTevur2Va5m8?g_st=ipc","address":"25ης Μαρτίου 28, Νέο Ψυχικό 154 51","categoryIds":["italian"],"categories":["Italian Restaurants"]},"sameCategory":[{"id":"italianRestaurants_11b5c7ddc2cb","slug":"lolita-s-athens-11b5","kind":"restaurant","name":"Lolita's Athens","lat":38.00900399306317,"lng":23.779848762939032,"url":"https://maps.app.goo.gl/yBBC5XtbjE87q2fEA?g_st=ipc","address":"Λεωφ. Κηφισίας 340, Νέο Ψυχικό 154 51","categoryIds":["italian","luxury-dining"],"categories":["Italian Restaurants","Luxury Dining"]},{"id":"italianRestaurants_db8c50049699","slug":"pizzaiolo-db8c","kind":"restaurant","name":"pizzaiolo","lat":38.00035069734868,"lng":23.79281060180485,"url":"https://maps.app.goo.gl/KW1onnVwQCy1jQXk7?g_st=ipc","address":"Ασπασίας 63, Χολαργός 155 61","categoryIds":["italian"],"categories":["Italian Restaurants"]},{"id":"italianRestaurants_6c7a694e9681","slug":"kentrina-6c7a","kind":"restaurant","name":"Kentrina","lat":38.013966629254554,"lng":23.786077267676728,"url":"https://maps.app.goo.gl/3jtSyfSCsogG92777?g_st=ipc","address":"Likourgou, Chalandri 152 31","categoryIds":["italian"],"categories":["Italian Restaurants"]},{"id":"italianRestaurants_9ab88b8b6007","slug":"innamorata-9ab8","kind":"restaurant","name":"Innamorata","lat":38.01461502802222,"lng":23.785308731358,"url":"https://maps.app.goo.gl/6pHzTzWoidEixrLw8?g_st=ipc","address":"Likourgou 5Α, Chalandri 152 31","categoryIds":["italian","luxury-dining"],"categories":["Italian Restaurants","Luxury Dining"]},{"id":"italianRestaurants_cc723f5b71ae","slug":"aperio-cucina-vino-cc72","kind":"restaurant","name":"Aperio cucina & vino","lat":38.00607265187326,"lng":23.797703238142986,"url":"https://maps.app.goo.gl/GkHg15eafgAV4fou5?g_st=ipc","address":"Μεσογείων 258, Χολαργός 155 61","categoryIds":["italian"],"categories":["Italian Restaurants"]},{"id":"italianRestaurants_fbd799de8573","slug":"parlo-restaurant-fbd7","kind":"restaurant","name":"Parlo Restaurant","lat":37.99920315769846,"lng":23.772042235397578,"url":"https://maps.app.goo.gl/x9LunWYHnZkLF3B68?g_st=ipc","address":"Αδριανείου 25Α, Αθήνα 115 25","categoryIds":["italian"],"categories":["Italian Restaurants"]},{"id":"italianRestaurants_239ca6b05a02","slug":"tale-koyale-239c","kind":"restaurant","name":"ΤΑΛΕ ΚΟΥΑΛΕ","lat":37.998832186045824,"lng":23.771946797243086,"url":"https://maps.app.goo.gl/yxs9qh1QSGqVTa1R6?g_st=ipc","address":"Αδριανείου 20, Αθήνα 115 25","categoryIds":["italian"],"categories":["Italian Restaurants"]},{"id":"italianRestaurants_9e93d0527186","slug":"casareccio-trattoria-pizzeria-9e93","kind":"restaurant","name":"Casareccio trattoria pizzeria","lat":37.995258640416544,"lng":23.796024502616564,"url":"https://maps.app.goo.gl/f357srheHFN2PfBk6?g_st=ipc","address":"Ξανθίππου 84, Χολαργός 155 61","categoryIds":["italian"],"categories":["Italian Restaurants"]}],"nearby":[{"id":"cheapEatsRestaurants_6fffd649c703","slug":"ta-soyvlakia-tis-lilas-6fff","kind":"restaurant","name":"Τα Σουβλάκια της Λίλας","lat":38.005272385766645,"lng":23.785280918308118,"url":"https://maps.app.goo.gl/47M2HP8TwbyX2Zp37?g_st=ipc","address":"25ης Μαρτίου 41, Νέο Ψυχικό 154 51","categoryIds":["cheap-eats"],"categories":["Gyros & Cheap Eats"],"distanceKm":0.04667085590936069},{"id":"fishTavernasRestaurants_bdb6fa732eec","slug":"foititis-bdb6","kind":"restaurant","name":"Φοιτητής","lat":38.00738588877098,"lng":23.783442614729104,"url":"https://maps.app.goo.gl/abzrUsQsRH3gKTL2A?g_st=ipc","address":"Θεμιστοκλέους 72-74, Νέο Ψυχικό 154 51","categoryIds":["fish-tavernas"],"categories":["Fish Tavernas"],"distanceKm":0.29488779827652156},{"id":"greekRestaurants_f0ef65b37af1","slug":"klimataria-f0ef","kind":"restaurant","name":"Κληματαριά","lat":38.00778653011235,"lng":23.78331764900774,"url":"https://maps.app.goo.gl/KjvZHvC6ghfyBWSu9?g_st=ipc","address":"Κωστή Παλαμά 29, Νέο Ψυχικό 154 51","categoryIds":["greek-restaurants"],"categories":["Greek Restaurants"],"distanceKm":0.33552834745434823},{"id":"vegetarianRestaurants_1656162d68e6","slug":"the-sweet-lab-1656","kind":"restaurant","name":"Τhe Sweet Lab","lat":38.002062661373884,"lng":23.785233324910163,"url":"https://maps.app.goo.gl/Zb8o7YTUmMMx7EVx8?g_st=ipc","address":"Λεωφ. Δημοκρατίας 81, Kapodistriou 1, Athina 154 51","categoryIds":["vegetarian"],"categories":["Vegetarian Friendly Restaurants"],"distanceKm":0.38059687074712967},{"id":"greekRestaurants_01e264743001","slug":"fysarmonika-mezedopoteion-01e2","kind":"restaurant","name":"Φυσαρμόνικα Μεζεδοποτείον","lat":38.00112458767409,"lng":23.7879961644195,"url":"https://maps.app.goo.gl/v3uZu1tCQdfHr7kAA?g_st=ipc","address":"Λεωφ. Μεσογείων 180, Χολαργός 155 61","categoryIds":["greek-restaurants"],"categories":["Greek Restaurants"],"distanceKm":0.5205152502336322},{"id":"asianRestaurants_0a06ecfadcd2","slug":"shisan-sushi-bar-0a06","kind":"restaurant","name":"Shisan Sushi Bar","lat":38.001841672610425,"lng":23.790637059082073,"url":"https://maps.app.goo.gl/EPmJ2jqs6hWddn566?g_st=ipc","address":"Μεσογείων 204, Χολαργός 155 61","categoryIds":["asian"],"categories":["Asian Restaurants"],"distanceKm":0.5871447044537709},{"id":"burgersRestaurants_97ab28e57798","slug":"f-smashing-cholargos-97ab","kind":"restaurant","name":"F* Smashing Cholargos","lat":38.00204211707431,"lng":23.791067777673266,"url":"https://maps.app.goo.gl/VHtz6unCWyzdNiiZ8?g_st=ipc","address":"Λεωφ. Μεσογείων 206, Χολαργός 155 61","categoryIds":["burgers"],"categories":["Burger Spots"],"distanceKm":0.600827948829264},{"id":"dessertsRestaurants_bdb87120c3b8","slug":"athina-kon-bdb8","kind":"restaurant","name":"ΑΘΗΝΑΪΚΟΝ","lat":38.00959872140439,"lng":23.78101021168435,"url":"https://maps.app.goo.gl/ACrYfvjmkufL8q3g9?g_st=ipc","address":"Νικολάου Μάντζαρου 1 &, Εθ. Αντιστάσεως, Νέο Ψυχικό 154 51","categoryIds":["desserts"],"categories":["Dessert Shops"],"distanceKm":0.6202478521423892}],"sameRegion":[],"mentionedGuides":[],"canonicalSlug":"etien-pizza-bar-ec80","isCanonicalEntity":true,"enrichment":{"summary_en":"Etien Pizza Bar is a curated restaurant in Νέο Ψυχικό 154 51 in the Italian Restaurants collection. It is connected to 15 nearby Googlementor picks to help travelers build a stronger local route.","summary_el":"Etien Pizza Bar είναι ένα επιλεγμένο σημείο φαγητού στην περιοχή Νέο Ψυχικό 154 51 και ανήκει στη συλλογή Italian Restaurants. Συνδέεται με 15 κοντινές προτάσεις του Googlementor για πιο ολοκληρωμένη εμπειρία.","vibe_tags":["curated"],"best_for":["first-time visitors","food lovers"],"visit_moments":["lunch stop","dinner stop"],"practical_note":"Address and direct map link are available for easy turn-by-turn access.","nearby_walkable_count":15,"nearby_count_2km":79,"confidence":0.98}},"__N_SSG":true}