{"pageProps":{"entity":{"id":"vegetarianRestaurants_40634af2ec79","slug":"falafel-taste-middle-east-4063","kind":"restaurant","name":"Falafel Taste Middle East","lat":40.62785484140031,"lng":22.949330420414434,"url":"https://maps.app.goo.gl/bHy6BTfdp9RBhdBt6?g_st=ipc","address":"Mitropoleos 106 &, Romanou, Thessaloniki 546 21","categoryIds":["vegetarian"],"categories":["Vegetarian Friendly Restaurants"]},"sameCategory":[{"id":"vegetarianRestaurants_b82222e81ca2","slug":"merry-berry-health-bar-b822","kind":"restaurant","name":"Merry Berry Health Bar","lat":40.62787788837935,"lng":22.947534537868144,"url":"https://maps.app.goo.gl/9NhW77pMY2C6xJxq8?g_st=ipc","address":"Dim. Gounari 5, Thessaloniki 546 22","categoryIds":["vegetarian"],"categories":["Vegetarian Friendly Restaurants"]},{"id":"coffeeBrunchRestaurants_459993a6b6f4","slug":"join-juice-bars-4599","kind":"restaurant","name":"JOIN juice bars","lat":40.62769069211422,"lng":22.947117280367095,"url":"https://maps.app.goo.gl/7fKny43wd3q96T1s5?g_st=ipc","address":"Leof. Nikis 73, Thessaloniki 546 22","categoryIds":["coffee-brunch","vegetarian"],"categories":["Coffee & Brunch Spots","Vegetarian Friendly Restaurants"]},{"id":"vegetarianRestaurants_06643fab1947","slug":"the-heavy-melon-to-vari-peponi-0664","kind":"restaurant","name":"The Heavy Melon - To vari peponi","lat":40.6309548038653,"lng":22.94951618640559,"url":"https://maps.app.goo.gl/6ZPuKUN8mPNN6b4C9?g_st=ipc","address":"Apellou 4, Thessaloniki 546 22","categoryIds":["vegetarian"],"categories":["Vegetarian Friendly Restaurants"]},{"id":"coffeeBrunchRestaurants_1b425a72f2b5","slug":"join-juice-bars-1b42","kind":"restaurant","name":"JOIN Juice bars","lat":40.63111893989398,"lng":22.94663938125253,"url":"https://maps.app.goo.gl/N6nKzENHvyunx5Mi6?g_st=ipc","address":"Paleon Patron Germanou 10, Thessaloniki 546 22","categoryIds":["coffee-brunch","vegetarian"],"categories":["Coffee & Brunch Spots","Vegetarian Friendly Restaurants"]},{"id":"vegetarianRestaurants_ae93f5705c93","slug":"mushroom-skg-ae93","kind":"restaurant","name":"mushroom skg","lat":40.63168703304935,"lng":22.946978697189547,"url":"https://maps.app.goo.gl/F7WJFJ3rEhib4fX86?g_st=ipc","address":"Zefxidos 10, Thessaloniki 546 22","categoryIds":["vegetarian"],"categories":["Vegetarian Friendly Restaurants"]},{"id":"vegetarianRestaurants_43af59721fc8","slug":"omg-in-skg-43af","kind":"restaurant","name":"OMG in SKG","lat":40.63186182844344,"lng":22.953097770969947,"url":"https://maps.app.goo.gl/b6twRtPbJbTuXUe26?g_st=ipc","address":"Episkopou Kitrous Nikolaou 1, Thessaloniki 546 35","categoryIds":["vegetarian"],"categories":["Vegetarian Friendly Restaurants"]},{"id":"dessertsRestaurants_a6a41ba19f78","slug":"exereton-a6a4","kind":"restaurant","name":"Exereton","lat":40.63128878529408,"lng":22.94431478557479,"url":"https://maps.app.goo.gl/gScJKVggjQfTPnLP8?g_st=ipc","address":"Mitropoleos 69, Thessaloniki 546 23","categoryIds":["desserts","vegetarian"],"categories":["Dessert Shops","Vegetarian Friendly Restaurants"]},{"id":"vegetarianRestaurants_1e9851e5feae","slug":"handwich-1e98","kind":"restaurant","name":"HANDWICH","lat":40.63375897578191,"lng":22.947935333630785,"url":"https://maps.app.goo.gl/JccdCGeGNfXKNSwQ7?g_st=ipc","address":"Egnatia 112, Thessaloniki 546 22","categoryIds":["vegetarian"],"categories":["Vegetarian Friendly Restaurants"]}],"nearby":[{"id":"cheapEatsRestaurants_f03e4dc68c8d","slug":"feyrouz-skg-f03e","kind":"restaurant","name":"Feyrouz SKG","lat":40.62813032194449,"lng":22.94911089919006,"url":"https://maps.app.goo.gl/pedu5yTx6WHSFd5MA?g_st=ipc","address":"Mitropoleos 125, Nikiforou Foka 8, Thessaloniki 546 21","categoryIds":["cheap-eats"],"categories":["Gyros & Cheap Eats"],"distanceKm":0.035798412966348434},{"id":"dessertsRestaurants_d6293efcb0d5","slug":"sugarela-d629","kind":"restaurant","name":"Sugarela","lat":40.628286349246984,"lng":22.94919276720608,"url":"https://maps.app.goo.gl/BWRmuMRqDoq6N7MH8?g_st=ipc","address":"Nikiforou Foka 12, Thessaloniki 546 21","categoryIds":["desserts"],"categories":["Dessert Shops"],"distanceKm":0.049367726001336106},{"id":"dessertsRestaurants_509c5344d793","slug":"armenonville-509c","kind":"restaurant","name":"Armenonville","lat":40.62813210913547,"lng":22.94876500137915,"url":"https://maps.app.goo.gl/3MMykvcTvkcMNqrA6?g_st=ipc","address":"Mitropoleos 102, Thessaloniki 546 21","categoryIds":["desserts"],"categories":["Dessert Shops"],"distanceKm":0.056810385179028776},{"id":"cheapEatsRestaurants_4326011ed54c","slug":"to-etsi-4326","kind":"restaurant","name":"Το Έτση","lat":40.627697688934035,"lng":22.94868143840882,"url":"https://maps.app.goo.gl/82yxHEuuzhZ7bD1T9?g_st=ipc","address":"Nikiforou Foka 2, Thessaloniki 546 21","categoryIds":["cheap-eats"],"categories":["Gyros & Cheap Eats"],"distanceKm":0.05748907111010852},{"id":"coffeeBrunchRestaurants_553ce2fa7675","slug":"plateia-theatroy-kafe-mpar-estiatorio-553c","kind":"restaurant","name":"Πλατεία Θεάτρου, Καφέ / Μπαρ/Εστιατόριο","lat":40.62692292313497,"lng":22.94981349501023,"url":"https://maps.app.goo.gl/bFpP1KB6naw1VbYr7?g_st=ipc","address":"Eth. Aminis 4, Thessaloniki 546 21","categoryIds":["coffee-brunch"],"categories":["Coffee & Brunch Spots"],"distanceKm":0.11135562102097396},{"id":"greekRestaurants_028889ec4c7c","slug":"kafeneion-giasemi-0288","kind":"restaurant","name":"Καφενείον Γιασεμί","lat":40.62700271205112,"lng":22.950250188903894,"url":"https://maps.app.goo.gl/igCkYjicpsFhyKi79?g_st=ipc","address":"Τσόπελα 4, Θεσσαλονίκη 546 21","categoryIds":["greek-restaurants"],"categories":["Greek Restaurants"],"distanceKm":0.12248726803231219},{"id":"dessertsRestaurants_28a0c1dca6b8","slug":"trigona-elenidi-28a0","kind":"restaurant","name":"Trigona Elenidi","lat":40.62886737433407,"lng":22.948457330769024,"url":"https://maps.app.goo.gl/CrarZvo5GUHnGW4C7?g_st=ipc","address":"Dim. Gounari 13, Thessaloniki 546 22","categoryIds":["desserts"],"categories":["Dessert Shops"],"distanceKm":0.13455515336310736},{"id":"coffeeBrunchRestaurants_9305c93ce682","slug":"canteen-all-day-bar-restaurant-9305","kind":"restaurant","name":"Canteen All day Bar Restaurant","lat":40.62803673619556,"lng":22.94769963358214,"url":"https://maps.app.goo.gl/M7potW66EBLTEfRx7?g_st=ipc","address":"Dim. Gounari 7, Thessaloniki 546 22","categoryIds":["coffee-brunch"],"categories":["Coffee & Brunch Spots"],"distanceKm":0.13910333699388625}],"sameRegion":[],"mentionedGuides":[],"canonicalSlug":"falafel-taste-middle-east-4063","isCanonicalEntity":true,"enrichment":{"summary_en":"Falafel Taste Middle East is a curated restaurant in Thessaloniki 546 21 in the Vegetarian Friendly Restaurants collection. It is connected to 116 nearby Googlementor picks to help travelers build a stronger local route.","summary_el":"Falafel Taste Middle East είναι ένα επιλεγμένο σημείο φαγητού στην περιοχή Thessaloniki 546 21 και ανήκει στη συλλογή Vegetarian Friendly Restaurants. Συνδέεται με 116 κοντινές προτάσεις του Googlementor για πιο ολοκληρωμένη εμπειρία.","vibe_tags":["curated"],"best_for":["first-time visitors","food lovers"],"visit_moments":["lunch stop","dinner stop"],"practical_note":"Address and direct map link are available for easy turn-by-turn access.","nearby_walkable_count":116,"nearby_count_2km":268,"confidence":0.98}},"__N_SSG":true}