{"pageProps":{"entity":{"id":"cheapEatsRestaurants_70af29f6373f","slug":"holy-pasta-chalandri-70af","kind":"restaurant","name":"Holy Pasta Chalandri","lat":38.02090646389776,"lng":23.799055964157045,"url":"https://maps.app.goo.gl/dD7x8SrXxBd8mmDX7?g_st=ipc","address":"Ηρακλείου 3, Χαλάνδρι 152 32","categoryIds":["cheap-eats"],"categories":["Gyros & Cheap Eats"]},"sameCategory":[{"id":"cheapEatsRestaurants_6071194d9f9f","slug":"curry-express-indian-chef-6071","kind":"restaurant","name":"Curry Express & Indian Chef","lat":38.02245552538877,"lng":23.798012966612305,"url":"https://maps.app.goo.gl/z58YmxhSwvtKJai57?g_st=ipc","address":"Γρ. Γυφτοπούλου 7, Χαλάνδρι 152 33","categoryIds":["cheap-eats"],"categories":["Gyros & Cheap Eats"]},{"id":"cheapEatsRestaurants_4176abbd859b","slug":"to-soyvlaki-toy-chalandrioy-express-4176","kind":"restaurant","name":"Το Σουβλάκι του Χαλανδρίου «Express»","lat":38.02210047029897,"lng":23.79733270387276,"url":"https://maps.app.goo.gl/jvDmvkwHFZFAd18e6?g_st=ipc","address":"Κολοκοτρώνη 26, Χαλάνδρι 152 33","categoryIds":["cheap-eats"],"categories":["Gyros & Cheap Eats"]},{"id":"cheapEatsRestaurants_8385a72feb82","slug":"taco-bell-8385","kind":"restaurant","name":"Taco Bell","lat":38.0228052820458,"lng":23.79853818143159,"url":"https://maps.app.goo.gl/f47SevFfDgNbNtWk7?g_st=ipc","address":"Κολοκοτρώνη 13, Χαλάνδρι 152 33","categoryIds":["cheap-eats"],"categories":["Gyros & Cheap Eats"]},{"id":"cheapEatsRestaurants_d9e484914294","slug":"mparmpalias-d9e4","kind":"restaurant","name":"Μπαρμπαλιάς","lat":38.022224299572,"lng":23.79656538042495,"url":"https://maps.app.goo.gl/LeEZCDs2GRC6YKuT7?g_st=ipc","address":"Λεωφ. Βασιλέως Γεωργίου B 6, Χαλάνδρι 152 33","categoryIds":["cheap-eats","greek-restaurants"],"categories":["Gyros & Cheap Eats","Greek Restaurants"]},{"id":"cheapEatsRestaurants_19bf55f57647","slug":"soyvlakochorio-19bf","kind":"restaurant","name":"Σουβλακοχωριό","lat":38.019021009797974,"lng":23.79620669265203,"url":"https://maps.app.goo.gl/Qngg6pY64nb2i3sX9?g_st=ipc","address":"25ης Μαρτίου 33, Χαλάνδρι 152 32","categoryIds":["cheap-eats"],"categories":["Gyros & Cheap Eats"]},{"id":"cheapEatsRestaurants_ec9b2c37ec79","slug":"o-ellinaras-ec9b","kind":"restaurant","name":"Ο ΕΛΛΗΝΑΡΑΣ","lat":38.017568546798636,"lng":23.799181700850475,"url":"https://maps.app.goo.gl/3g2yxFrBJ6V2KPZm7?g_st=ipc","address":"Παλαιολόγου 63, Χαλάνδρι 152 32","categoryIds":["cheap-eats"],"categories":["Gyros & Cheap Eats"]},{"id":"cheapEatsRestaurants_3872707b22c4","slug":"gianniotiko-soyvlaki-3872","kind":"restaurant","name":"ΓΙΑΝΝΙΩΤΙΚΟ ΣΟΥΒΛΑΚΙ","lat":38.018885728218706,"lng":23.80780825876153,"url":"https://maps.app.goo.gl/VSmxeGeUsq75QADx9?g_st=ic","address":"Agias Paraskevis 95, Chalandri 152 34","categoryIds":["cheap-eats"],"categories":["Gyros & Cheap Eats"]},{"id":"cheapEatsRestaurants_778124c76b47","slug":"kayteros-7781","kind":"restaurant","name":"Καυτερός","lat":38.01875295817606,"lng":23.790041802148505,"url":"https://maps.app.goo.gl/pxJjypQCU2pCdj2c9?g_st=ipc","address":"Αγρινίου 5, Χαλάνδρι 152 32","categoryIds":["cheap-eats"],"categories":["Gyros & Cheap Eats"]}],"nearby":[{"id":"greekRestaurants_69231f24503b","slug":"mpakalotaverna-6923","kind":"restaurant","name":"Μπακαλοταβέρνα","lat":38.02091962634735,"lng":23.79935272546419,"url":"https://maps.app.goo.gl/D6gW3fsdkz7sh9bg8?g_st=ipc","address":"Θουκυδίδου 6, Χαλάνδρι 152 32","categoryIds":["greek-restaurants"],"categories":["Greek Restaurants"],"distanceKm":0.026036807906657435},{"id":"dessertsRestaurants_c2edf21ae9fe","slug":"choureal-choux-profiterole-c2ed","kind":"restaurant","name":"CHOUREAL - Choux & Profiterole","lat":38.02110578860944,"lng":23.7987271310142,"url":"https://maps.app.goo.gl/y6r478JecsCWC6aR6?g_st=ipc","address":"Ιφικράτους 2, Χαλάνδρι 152 32","categoryIds":["desserts"],"categories":["Dessert Shops"],"distanceKm":0.0363451203336746},{"id":"burgersRestaurants_020aef5345e3","slug":"raw-street-burger-chalandri-020a","kind":"restaurant","name":"Raw Street Burger - Chalandri","lat":38.02124916375188,"lng":23.799011494235714,"url":"https://maps.app.goo.gl/BoNocomx2EgJt83f6?g_st=ipc","address":"Αγίας Παρασκευής 2, Χαλάνδρι 152 32","categoryIds":["burgers"],"categories":["Burger Spots"],"distanceKm":0.038305075491597056},{"id":"burgersRestaurants_e22a52b46127","slug":"raw-street-burger-chalandri-e22a","kind":"restaurant","name":"Raw Street Burger - Chalandri","lat":38.0212493909348,"lng":23.79901287705001,"url":"https://maps.app.goo.gl/hgvkfPtXihqrFqAA8?g_st=ic","address":"Agias Paraskevis 2, Chalandri 152 32","categoryIds":["burgers"],"categories":["Burger Spots"],"distanceKm":0.0383180852412602},{"id":"coffeeBrunchRestaurants_c494cdae0eac","slug":"penny-lane-comfort-food-c494","kind":"restaurant","name":"Penny Lane Comfort Food","lat":38.02034857308637,"lng":23.798833782982413,"url":"https://maps.app.goo.gl/pHD9NuQvxt5E3ECz5?g_st=ipc","address":"Θουκυδίδου 12, Χαλάνδρι 152 32","categoryIds":["coffee-brunch"],"categories":["Coffee & Brunch Spots"],"distanceKm":0.06501607606149598},{"id":"burgersRestaurants_9c281ee4457d","slug":"butcher-s-burger-halandri-steak-house-9c28","kind":"restaurant","name":"Butcher's Burger Halandri & Steak House","lat":38.02102226567013,"lng":23.79979731523688,"url":"https://maps.app.goo.gl/NnWhxpUGcKRnuxNb6?g_st=ipc","address":"Αγίας Παρασκευής 17, Χαλάνδρι 152 34","categoryIds":["burgers"],"categories":["Burger Spots"],"distanceKm":0.0662049709008694},{"id":"vegetarianRestaurants_a667646c43d0","slug":"pink-elephant-a667","kind":"restaurant","name":"Pink Elephant","lat":38.02048886312005,"lng":23.79851470032454,"url":"https://maps.app.goo.gl/JBEM9qi3Gh27zDWa9?g_st=ipc","address":"Sokratous 4Α, Chalandri 152 32","categoryIds":["vegetarian"],"categories":["Vegetarian Friendly Restaurants"],"distanceKm":0.06636469548135943},{"id":"coffeeBrunchRestaurants_9494334a3889","slug":"theory-bar-9494","kind":"restaurant","name":"Theory Bar","lat":38.02145412084465,"lng":23.799757422872677,"url":"https://maps.app.goo.gl/zwkhVzdkQughii3i7?g_st=ipc","address":"Πλάτωνος 14, Χαλάνδρι 152 34","categoryIds":["coffee-brunch"],"categories":["Coffee & Brunch Spots"],"distanceKm":0.08651022030493184}],"sameRegion":[],"mentionedGuides":[{"slug":"american-college-of-greece-agia-paraskevi-guide-el","title":"American College of Greece: Οδηγός Αγίας Παρασκευής"},{"slug":"american-college-of-greece-agia-paraskevi-guide","title":"American College of Greece: Welcome to Agia Paraskevi"}],"canonicalSlug":"holy-pasta-chalandri-70af","isCanonicalEntity":true,"enrichment":{"summary_en":"Holy Pasta Chalandri is a curated restaurant in Χαλάνδρι 152 32 in the Gyros & Cheap Eats collection. It is connected to 66 nearby Googlementor picks to help travelers build a stronger local route.","summary_el":"Holy Pasta Chalandri είναι ένα επιλεγμένο σημείο φαγητού στην περιοχή Χαλάνδρι 152 32 και ανήκει στη συλλογή Gyros & Cheap Eats. Συνδέεται με 66 κοντινές προτάσεις του Googlementor για πιο ολοκληρωμένη εμπειρία.","vibe_tags":["curated","budget-friendly"],"best_for":["first-time visitors","food lovers","budget travelers"],"visit_moments":["lunch stop","dinner stop"],"practical_note":"Address and direct map link are available for easy turn-by-turn access.","nearby_walkable_count":66,"nearby_count_2km":116,"confidence":0.98}},"__N_SSG":true}