{"pageProps":{"entity":{"id":"monasteriesChurches_3b14e4e4fde2","slug":"ieros-naos-agias-sofias-akropoleos-3b14","kind":"restaurant","name":"Ιερός Ναός Αγίας Σοφίας Ακροπόλεως","lat":37.96969305070506,"lng":23.72539590621987,"url":"https://maps.app.goo.gl/GdJWue7opw56LmEv9?g_st=ipc","address":"Διονυσίου Αρεοπαγίτου 45, Αθήνα 117 42","categoryIds":["monasteries-churches"],"categories":["Monasteries & Spiritual Sites"]},"sameCategory":[{"id":"monasteriesChurches_8533fc9b9b94","slug":"ieros-naos-agion-anargyron-kolokynthi-metochion-panagioy-tafoy-8533","kind":"restaurant","name":"Ιερός Ναός Αγίων Αναργύρων Κολοκύνθη - Μετόχιον Παναγίου Τάφου","lat":37.97293435768165,"lng":23.728208879310362,"url":"https://maps.app.goo.gl/nKcEJuoZ25jXrQqeA?g_st=ipc","address":"Ερεχθέως 18, Αθήνα 105 56","categoryIds":["monasteries-churches"],"categories":["Monasteries & Spiritual Sites"]},{"id":"monasteriesChurches_10f29f7ed669","slug":"ieros-naos-agioy-nikolaoy-ragkava-10f2","kind":"restaurant","name":"Ιερός Ναός Αγίου Νικολάου Ραγκαβά","lat":37.972457611954724,"lng":23.729131060991204,"url":"https://maps.app.goo.gl/HnQHckK1xrE13jmu5?g_st=ipc","address":"Πρυτανείου 1, Αθήνα 105 58","categoryIds":["monasteries-churches"],"categories":["Monasteries & Spiritual Sites"]},{"id":"monasteriesChurches_ff4d16b5f0b9","slug":"agios-dimitrios-loympardiaris-ff4d","kind":"restaurant","name":"Άγιος Δημήτριος Λουμπαρδιάρης","lat":37.97006358405725,"lng":23.72028596273088,"url":"https://maps.app.goo.gl/Fzr51bKUwjAtydxA7?g_st=ipc","address":"Αθήνα 117 41","categoryIds":["monasteries-churches"],"categories":["Monasteries & Spiritual Sites"]},{"id":"monasteriesChurches_526ec40757ea","slug":"ieros-naos-agias-marinas-thiseioy-526e","kind":"restaurant","name":"Ιερός Ναός Αγίας Μαρίνας Θησείου","lat":37.97369230338061,"lng":23.718995271203244,"url":"https://maps.app.goo.gl/RzkAj7rMQNDfRMKN8?g_st=ipc","address":"Αγίας Μαρίνας 1, Αθήνα 118 51","categoryIds":["monasteries-churches"],"categories":["Monasteries & Spiritual Sites"]},{"id":"monasteriesChurches_37c0d5b10bef","slug":"ieros-mitropolitikos-naos-eyaggelismoy-tis-theotokoy-37c0","kind":"restaurant","name":"Ιερός Μητροπολιτικός Ναός Ευαγγελισμού της Θεοτόκου","lat":37.975376487881356,"lng":23.72984816695813,"url":"https://maps.app.goo.gl/MUAqskRD72AoRTQJA?g_st=ipc","address":"E056 105, Αθήνα 118 54","categoryIds":["monasteries-churches"],"categories":["Monasteries & Spiritual Sites"]},{"id":"monasteriesChurches_33b82b7e9f7b","slug":"ieros-panepistimiakos-naos-eisodion-tis-theotokoy-kapnikarea-33b8","kind":"restaurant","name":"Ιερός Πανεπιστημιακός Ναός Εισοδίων της Θεοτόκου (Καπνικαρέα)","lat":37.97637980025147,"lng":23.72861650689245,"url":"https://maps.app.goo.gl/7LkLpxAa7L7V3fr8A?g_st=ipc","address":"Πλ. Καπνικαρέας 3, Αθήνα 105 63","categoryIds":["monasteries-churches"],"categories":["Monasteries & Spiritual Sites"]},{"id":"monasteriesChurches_70c088ccf077","slug":"ieros-naos-agias-foteinis-ilisoy-70c0","kind":"restaurant","name":"Ιερός Ναός Αγίας Φωτεινής Ιλισού","lat":37.96759253152895,"lng":23.734352593011444,"url":"https://maps.app.goo.gl/jdAdCNX9K2HoSujs9?g_st=ipc","address":"Αρδηττού 3, Αθήνα 105 57","categoryIds":["monasteries-churches"],"categories":["Monasteries & Spiritual Sites"]},{"id":"monasteriesChurches_d3d098c448a4","slug":"ieros-naos-agias-eirinis-d3d0","kind":"restaurant","name":"Ιερός Ναός Αγίας Ειρήνης","lat":37.977134855411386,"lng":23.727779375021544,"url":"https://maps.app.goo.gl/JehgGspdoWfwue8w5?g_st=ipc","address":"Αιόλου 36, Αθήνα 105 60","categoryIds":["monasteries-churches"],"categories":["Monasteries & Spiritual Sites"]}],"nearby":[{"id":"italianRestaurants_c197477778a8","slug":"fratti-bistro-c197","kind":"restaurant","name":"Fratti Bistro","lat":37.96852406982216,"lng":23.725725056108836,"url":"https://maps.app.goo.gl/v5TXqxqHKdw7mrCr5?g_st=ipc","address":"Φράττι 1, Αθήνα 117 42","categoryIds":["italian"],"categories":["Italian Restaurants"],"distanceKm":0.13314856169445674},{"id":"mustSeeAttractions_e73ed47cb5a3","slug":"odeio-irodoy-toy-attikoy-e73e","kind":"restaurant","name":"Ωδείο Ηρώδου του Αττικού","lat":37.97079439393834,"lng":23.724582622108812,"url":"https://maps.app.goo.gl/rjXRZrpDRp5VnNP2A?g_st=ipc","address":"Διονυσίου Αρεοπαγίτου, Αθήνα 105 55","categoryIds":["attractions"],"categories":["Must-See Attractions"],"distanceKm":0.14170322271902616},{"id":"coffeeBrunchRestaurants_bdf81375a84e","slug":"ere-athens-bdf8","kind":"restaurant","name":"ERE Athens","lat":37.96787420182931,"lng":23.725296301158785,"url":"https://maps.app.goo.gl/rRZaQcETgQQjdrzg7?g_st=ipc","address":"Ερεχθείου 30, Αθήνα 117 42","categoryIds":["coffee-brunch"],"categories":["Coffee & Brunch Spots"],"distanceKm":0.2024351551117161},{"id":"municipalities_4149fa79e27b","slug":"akropoli-4149","kind":"municipality","name":"Ακρόπολη","lat":37.9715,"lng":23.7257,"region":"Κέντρο Αθήνας","name_en":"Acropolis","region_en":"Athens Center","distanceKm":0.20268410205416493},{"id":"luxuryDiningRestaurants_8f9976dae124","slug":"point-a-acropolis-point-8f99","kind":"restaurant","name":"POINT A (Acropolis Point)","lat":37.968415622994755,"lng":23.72706617377212,"url":"https://maps.app.goo.gl/NiwbpnxKE4g22Tzw6?g_st=ipc","address":"Ροβέρτου Γκάλι 4a, Αθήνα 117 42","categoryIds":["luxury-dining","rooftop-lounges"],"categories":["Luxury Dining","Rooftop Lounges"],"distanceKm":0.20399455020329393},{"id":"mustSeeAttractions_9bfc186193fa","slug":"akropoli-athinon-9bfc","kind":"restaurant","name":"Ακρόπολη Αθηνών","lat":37.97153381829169,"lng":23.7257493192379,"url":"https://maps.app.goo.gl/p7J1mcB5DGfqSALg6?g_st=ipc","address":"Αθήνα 105 58","categoryIds":["attractions"],"categories":["Must-See Attractions"],"distanceKm":0.20701515057587572},{"id":"coffeeBrunchRestaurants_63e3afc9669a","slug":"little-tree-books-and-coffee-63e3","kind":"restaurant","name":"Little Tree Books and Coffee","lat":37.968164539601474,"lng":23.727051388410462,"url":"https://maps.app.goo.gl/EJkNXutNZiWJ1hrHA?g_st=ipc","address":"Καβαλλότι 2, Αθήνα 117 42","categoryIds":["coffee-brunch"],"categories":["Coffee & Brunch Spots"],"distanceKm":0.2234881618242402},{"id":"coffeeBrunchRestaurants_01aaff71bf45","slug":"pancake-cake-acropolis-01aa","kind":"restaurant","name":"Pancake & CAKE Acropolis","lat":37.967897348905204,"lng":23.726566946010575,"url":"https://maps.app.goo.gl/QuHwWVBbtZh2gYY18?g_st=ipc","address":"Καρυάτιδων 15, Αθήνα 117 42","categoryIds":["coffee-brunch"],"categories":["Coffee & Brunch Spots"],"distanceKm":0.22451504503177436}],"sameRegion":[],"mentionedGuides":[],"canonicalSlug":"ieros-naos-agias-sofias-akropoleos-3b14","isCanonicalEntity":true,"enrichment":{"summary_en":"Ιερός Ναός Αγίας Σοφίας Ακροπόλεως is a curated restaurant in Αθήνα 117 42 in the Monasteries & Spiritual Sites collection. It is connected to 153 nearby Googlementor picks to help travelers build a stronger local route.","summary_el":"Ιερός Ναός Αγίας Σοφίας Ακροπόλεως είναι ένα επιλεγμένο σημείο φαγητού στην περιοχή Αθήνα 117 42 και ανήκει στη συλλογή Monasteries & Spiritual Sites. Συνδέεται με 153 κοντινές προτάσεις του Googlementor για πιο ολοκληρωμένη εμπειρία.","vibe_tags":["curated"],"best_for":["first-time visitors","food lovers"],"visit_moments":["lunch stop","dinner stop"],"practical_note":"Address and direct map link are available for easy turn-by-turn access.","nearby_walkable_count":153,"nearby_count_2km":627,"confidence":0.98}},"__N_SSG":true}