{"pageProps":{"entity":{"id":"asianRestaurants_50c893ba0bac","slug":"ikura-sushi-korean-food-50c8","kind":"restaurant","name":"IKURA Sushi - Korean food","lat":37.97430159758245,"lng":23.73415791767136,"url":"https://maps.app.goo.gl/rG3Ram1UiVYEUuFt9?g_st=ipc","address":"Φιλελλήνων 7, Αθήνα 105 57","categoryIds":["asian"],"categories":["Asian Restaurants"]},"sameCategory":[{"id":"asianRestaurants_43504a2d050f","slug":"shiraki-athens-4350","kind":"restaurant","name":"Shiraki Athens","lat":37.97450335727445,"lng":23.733167658895514,"url":"https://maps.app.goo.gl/WStEy7p33ZAzDLCY7?g_st=ipc","address":"Νίκης 17, Αθήνα 105 57","categoryIds":["asian"],"categories":["Asian Restaurants"]},{"id":"asianRestaurants_8d5a854c9f57","slug":"koi-sushi-bar-8d5a","kind":"restaurant","name":"Koi Sushi Bar","lat":37.9746059285853,"lng":23.73317074110448,"url":"https://maps.app.goo.gl/cap6URyugQKPXeA47?g_st=ipc","address":"Νίκης 15, Αθήνα 105 57","categoryIds":["asian"],"categories":["Asian Restaurants"]},{"id":"asianRestaurants_d1a59d966352","slug":"east-pearl-chinese-restaurant-d1a5","kind":"restaurant","name":"East Pearl Chinese restaurant","lat":37.97475497132636,"lng":23.732999717791024,"url":"https://maps.app.goo.gl/X4tWaVESeHdhnYpi6?g_st=ipc","address":"Απόλλωνος 2, Αθήνα 105 57","categoryIds":["asian"],"categories":["Asian Restaurants"]},{"id":"asianRestaurants_47edca6d922f","slug":"gaku-47ed","kind":"restaurant","name":"GAKU","lat":37.974764541523264,"lng":23.73278280614978,"url":"https://maps.app.goo.gl/d2jzonLKf2Au2UP28?g_st=ipc","address":"Απόλλωνος 2, Αθήνα 105 57","categoryIds":["asian"],"categories":["Asian Restaurants"]},{"id":"asianRestaurants_d2dfba8aa86e","slug":"ikigai-japanese-market-d2df","kind":"restaurant","name":"Ikigai Japanese Market","lat":37.9738141066951,"lng":23.732787828654633,"url":"https://maps.app.goo.gl/qkTpkDkptgwCVeF68?g_st=ipc","address":"Σκούφου 15, Αθήνα 105 57","categoryIds":["asian"],"categories":["Asian Restaurants"]},{"id":"asianRestaurants_ddcb57380116","slug":"ekiben-kitchen-ddcb","kind":"restaurant","name":"EKIBEN KITCHEN","lat":37.97373780649657,"lng":23.73268249015655,"url":"https://maps.app.goo.gl/phQR869HE6dZNJGS9?g_st=ipc","address":"Σκούφου 15, Αθήνα 105 57","categoryIds":["asian","burgers"],"categories":["Asian Restaurants","Burger Spots"]},{"id":"asianRestaurants_0d95e4345c8a","slug":"sushimou-0d95","kind":"restaurant","name":"Sushimou","lat":37.97442757213257,"lng":23.73246192997683,"url":"https://maps.app.goo.gl/1y3Cs2ks6GF4C85F6?g_st=ipc","address":"Σκούφου 6, Αθήνα 105 57","categoryIds":["asian","luxury-dining"],"categories":["Asian Restaurants","Luxury Dining"]},{"id":"asianRestaurants_7b8b9814562d","slug":"pink-flamingo-dim-sum-7b8b","kind":"restaurant","name":"Pink Flamingo Dim Sum","lat":37.97460809363569,"lng":23.732494338257986,"url":"https://maps.app.goo.gl/fYsHDCdPt7Ag7nwx7?g_st=ipc","address":"Σκούφου 2-4, Αθήνα 105 57","categoryIds":["asian"],"categories":["Asian Restaurants"]}],"nearby":[{"id":"italianRestaurants_a85b9e4df417","slug":"brigante-syntagma-a85b","kind":"restaurant","name":"Brigante (Σύνταγμα)","lat":37.97426577787846,"lng":23.734179177201504,"url":"https://maps.app.goo.gl/RmErpGj8TndJSV9v7?g_st=ipc","address":"Ξενοφώντος 6, Αθήνα 105 57","categoryIds":["italian"],"categories":["Italian Restaurants"],"distanceKm":0.00439733724888485},{"id":"cheapEatsRestaurants_a8812958586b","slug":"soyvlaki-o-kostas-1950-syntagma-a881","kind":"restaurant","name":"Σουβλάκι Ο Κώστας 1950 συνταγμα","lat":37.97431166724141,"lng":23.734074792444165,"url":"https://maps.app.goo.gl/FGrKA3NWxxuCNCKSA?g_st=ipc","address":"Φιλελλήνων 7, Αθήνα 105 57","categoryIds":["cheap-eats"],"categories":["Gyros & Cheap Eats"],"distanceKm":0.007371747570595062},{"id":"asianRestaurants_43504a2d050f","slug":"shiraki-athens-4350","kind":"restaurant","name":"Shiraki Athens","lat":37.97450335727445,"lng":23.733167658895514,"url":"https://maps.app.goo.gl/WStEy7p33ZAzDLCY7?g_st=ipc","address":"Νίκης 17, Αθήνα 105 57","categoryIds":["asian"],"categories":["Asian Restaurants"],"distanceKm":0.08965194269939028},{"id":"asianRestaurants_8d5a854c9f57","slug":"koi-sushi-bar-8d5a","kind":"restaurant","name":"Koi Sushi Bar","lat":37.9746059285853,"lng":23.73317074110448,"url":"https://maps.app.goo.gl/cap6URyugQKPXeA47?g_st=ipc","address":"Νίκης 15, Αθήνα 105 57","categoryIds":["asian"],"categories":["Asian Restaurants"],"distanceKm":0.09291108108259627},{"id":"coffeeBrunchRestaurants_f0eff25de691","slug":"amandine-s-bagels-f0ef","kind":"restaurant","name":"Amandine's Bagels","lat":37.97477039083452,"lng":23.73321799541619,"url":"https://maps.app.goo.gl/spidgemnNTyMgFML7?g_st=ipc","address":"Νίκης 13, Αθήνα 105 57","categoryIds":["coffee-brunch"],"categories":["Coffee & Brunch Spots"],"distanceKm":0.09749318411093166},{"id":"coffeeBrunchRestaurants_72ee5296056d","slug":"holy-llama-72ee","kind":"restaurant","name":"Holy Llama","lat":37.97397500358649,"lng":23.73312528899751,"url":"https://maps.app.goo.gl/5KzgeBBfEf77x8sL7?g_st=ipc","address":"Nikis, Syntagma 23, Αθήνα 105 57","categoryIds":["coffee-brunch","vegetarian"],"categories":["Coffee & Brunch Spots","Vegetarian Friendly Restaurants"],"distanceKm":0.09752719972596288},{"id":"luxuryDiningRestaurants_ea67b94ccce5","slug":"art-lounge-rooftop-ea67","kind":"restaurant","name":"Art Lounge Rooftop","lat":37.97343240978713,"lng":23.73349750420062,"url":"https://maps.app.goo.gl/ou4XFAAMpTQ3uTaeA?g_st=ipc","address":"Ναυάρχου Νικοδήμου 1, Αθήνα 105 57","categoryIds":["luxury-dining","rooftop-lounges"],"categories":["Luxury Dining","Rooftop Lounges"],"distanceKm":0.11265917597497757},{"id":"asianRestaurants_d1a59d966352","slug":"east-pearl-chinese-restaurant-d1a5","kind":"restaurant","name":"East Pearl Chinese restaurant","lat":37.97475497132636,"lng":23.732999717791024,"url":"https://maps.app.goo.gl/X4tWaVESeHdhnYpi6?g_st=ipc","address":"Απόλλωνος 2, Αθήνα 105 57","categoryIds":["asian"],"categories":["Asian Restaurants"],"distanceKm":0.11334794806217548}],"sameRegion":[],"mentionedGuides":[],"canonicalSlug":"ikura-sushi-korean-food-50c8","isCanonicalEntity":true,"enrichment":{"summary_en":"IKURA Sushi - Korean food is a curated restaurant in Αθήνα 105 57 in the Asian Restaurants collection. It is connected to 252 nearby Googlementor picks to help travelers build a stronger local route.","summary_el":"IKURA Sushi - Korean food είναι ένα επιλεγμένο σημείο φαγητού στην περιοχή Αθήνα 105 57 και ανήκει στη συλλογή Asian Restaurants. Συνδέεται με 252 κοντινές προτάσεις του Googlementor για πιο ολοκληρωμένη εμπειρία.","vibe_tags":["curated"],"best_for":["first-time visitors","food lovers"],"visit_moments":["lunch stop","dinner stop"],"practical_note":"Address and direct map link are available for easy turn-by-turn access.","nearby_walkable_count":252,"nearby_count_2km":652,"confidence":0.98}},"__N_SSG":true}