{"pageProps":{"entity":{"id":"burgersRestaurants_dcffa319373f","slug":"just-burgers-dcff","kind":"restaurant","name":"Just Burgers","lat":37.86233017342334,"lng":23.756048198703365,"url":"https://maps.app.goo.gl/JHVusoRbYHy3Y7vt5?g_st=ipc","address":"Βασ. Γεωργίου Β 10, Γλυφάδα 166 74","categoryIds":["burgers"],"categories":["Burger Spots"]},"sameCategory":[{"id":"burgersRestaurants_01217d39d9c7","slug":"queen-burger-0121","kind":"restaurant","name":"Queen Burger","lat":37.8629143636926,"lng":23.754961929770175,"url":"https://maps.app.goo.gl/cTKmuer8pw34Mj4m6","address":"Giannitsopoulou 3, Glifada 166 74","categoryIds":["burgers"],"categories":["Burger Spots"]},{"id":"asianRestaurants_6985f147fd97","slug":"ekiben-kitchen-glyfada-6985","kind":"restaurant","name":"Ekiben Kitchen Glyfada","lat":37.861176848381916,"lng":23.75639518380584,"url":"https://maps.app.goo.gl/bR7jaQSkxn33eLgq7","address":"Laodikis 41, Glifada 166 74","categoryIds":["asian","burgers"],"categories":["Asian Restaurants","Burger Spots"]},{"id":"burgersRestaurants_aaf9b8df7638","slug":"the-burger-joint-aaf9","kind":"restaurant","name":"the burger joint","lat":37.85975416543059,"lng":23.75632935360373,"url":"https://maps.app.goo.gl/4ebsLmRmHgQAtXCy5?g_st=ipc","address":"Πλ. Νυμφών 1, Γλυφάδα 166 74","categoryIds":["burgers"],"categories":["Burger Spots"]},{"id":"burgersRestaurants_d078b3ea9f88","slug":"burgerilla-voulas-d078","kind":"restaurant","name":"BURGERILLA.VOULAS","lat":37.84784984477906,"lng":23.754080911973716,"url":"https://maps.app.goo.gl/eGL3Mk2KpVNgRAzn6?g_st=ipc","address":"Λεωφ. Βασιλέως Παύλου 0, Βούλα 166 73","categoryIds":["burgers"],"categories":["Burger Spots"]},{"id":"asianRestaurants_84fbfd57e68e","slug":"ryotei-118-84fb","kind":"restaurant","name":"Ryōtei 118","lat":37.879367097165485,"lng":23.763308738653866,"url":"https://maps.app.goo.gl/XC6EcCoyBojTFzQp9?g_st=ipc","address":"Δημ. Γούναρη 118, Γλυφάδα 166 74","categoryIds":["asian","burgers"],"categories":["Asian Restaurants","Burger Spots"]},{"id":"burgersRestaurants_ba4a0b5f3045","slug":"ryotei118-ba4a","kind":"restaurant","name":"Ryōtei118","lat":37.87936856839685,"lng":23.763367179515893,"url":"https://maps.app.goo.gl/jQiZ1pYw63j3q8zG9","address":"Dim. Gounari 118, Glifada 166 74","categoryIds":["burgers"],"categories":["Burger Spots"]},{"id":"burgersRestaurants_9c2f22b0606b","slug":"hashtag-burger-9c2f","kind":"restaurant","name":"Hashtag#Burger","lat":37.89371001882756,"lng":23.763217485797266,"url":"https://maps.app.goo.gl/BsuHdbYYc8dsSTwn8?g_st=ipc","address":"Γεωρ. Γεννηματά 26, Γλυφάδα 165 62","categoryIds":["burgers","cheap-eats"],"categories":["Burger Spots","Gyros & Cheap Eats"]},{"id":"burgersRestaurants_797126963f1f","slug":"amam-estiatorio-glyfada-7971","kind":"restaurant","name":"ΑΜΑΜ - ΕΣΤΙΑΤΟΡΙΟ - ΓΛΥΦΑΔΑ","lat":37.895880681449796,"lng":23.761095559330744,"url":"https://maps.app.goo.gl/fAsTx4mwCTHC78t86?g_st=ipc","address":"Γεωρ. Γεννηματά 11, Γλυφάδα 165 62","categoryIds":["burgers","cheap-eats"],"categories":["Burger Spots","Gyros & Cheap Eats"]}],"nearby":[{"id":"greekRestaurants_b6c15b677224","slug":"to-drami-b6c1","kind":"restaurant","name":"To Drami","lat":37.86297028796149,"lng":23.75634712220573,"url":"https://maps.app.goo.gl/HFhEeo24Fzrwgfb98?g_st=ipc","address":"Laodikis 22, Glifada 166 74","categoryIds":["greek-restaurants"],"categories":["Greek Restaurants"],"distanceKm":0.07586073413111921},{"id":"coffeeBrunchRestaurants_375d22b1c4b8","slug":"oven-manufactory-375d","kind":"restaurant","name":"Oven Manufactory","lat":37.861722119771066,"lng":23.756544787345767,"url":"https://maps.app.goo.gl/Hnd2mHRaJKRkA5F46?g_st=ipc","address":"Αρτέμιδος 9, Γλυφάδα 166 74","categoryIds":["coffee-brunch"],"categories":["Coffee & Brunch Spots"],"distanceKm":0.08044814523734198},{"id":"dessertsRestaurants_2849c272c636","slug":"bufala-gelato-glyfada-2849","kind":"restaurant","name":"Bufala Gelato (Γλυφάδα)","lat":37.86176317702974,"lng":23.755337811216418,"url":"https://maps.app.goo.gl/51dbhckNQVJ8yNh37?g_st=ipc","address":"Αρτέμιδος 1, Γλυφάδα 166 74","categoryIds":["desserts"],"categories":["Dessert Shops"],"distanceKm":0.0886797039184515},{"id":"dessertsRestaurants_ba7be89e8ea8","slug":"iceroll-ba7b","kind":"restaurant","name":"IceRoll","lat":37.86208515594954,"lng":23.755076469134906,"url":"https://maps.app.goo.gl/w1pmpophQeL2Fp7M9?g_st=ipc","address":"Γιαννιτσοπούλου 2, Γλυφάδα 166 74","categoryIds":["desserts"],"categories":["Dessert Shops"],"distanceKm":0.08955046092304823},{"id":"dessertsRestaurants_cd41f487bdde","slug":"l-arte-del-gelato-cd41","kind":"restaurant","name":"L'arte del Gelato","lat":37.86184048032113,"lng":23.755183232681343,"url":"https://maps.app.goo.gl/JTFmtLwXRBHhcLCs8?g_st=ipc","address":"Αρτέμιδος 1, Γλυφάδα 166 74","categoryIds":["desserts"],"categories":["Dessert Shops"],"distanceKm":0.09343865727800586},{"id":"mexicanRestaurants_4df313ff7b2b","slug":"ancho-mexican-grill-4df3","kind":"restaurant","name":"Ancho Mexican Grill","lat":37.862745862193556,"lng":23.754877099753806,"url":"https://maps.app.goo.gl/LepDURte7YPh6NZL8?g_st=ipc","address":"Γιαννιτσοπούλου 3, Γλυφάδα 166 74","categoryIds":["mexican"],"categories":["Mexican Restaurants"],"distanceKm":0.11272000886470034},{"id":"burgersRestaurants_01217d39d9c7","slug":"queen-burger-0121","kind":"restaurant","name":"Queen Burger","lat":37.8629143636926,"lng":23.754961929770175,"url":"https://maps.app.goo.gl/cTKmuer8pw34Mj4m6","address":"Giannitsopoulou 3, Glifada 166 74","categoryIds":["burgers"],"categories":["Burger Spots"],"distanceKm":0.11538280376968867},{"id":"asianRestaurants_6985f147fd97","slug":"ekiben-kitchen-glyfada-6985","kind":"restaurant","name":"Ekiben Kitchen Glyfada","lat":37.861176848381916,"lng":23.75639518380584,"url":"https://maps.app.goo.gl/bR7jaQSkxn33eLgq7","address":"Laodikis 41, Glifada 166 74","categoryIds":["asian","burgers"],"categories":["Asian Restaurants","Burger Spots"],"distanceKm":0.13181187603840314}],"sameRegion":[],"mentionedGuides":[],"canonicalSlug":"just-burgers-dcff","isCanonicalEntity":true,"enrichment":{"summary_en":"Just Burgers is a curated restaurant in Γλυφάδα 166 74 in the Burger Spots collection. It is connected to 41 nearby Googlementor picks to help travelers build a stronger local route.","summary_el":"Just Burgers είναι ένα επιλεγμένο σημείο φαγητού στην περιοχή Γλυφάδα 166 74 και ανήκει στη συλλογή Burger Spots. Συνδέεται με 41 κοντινές προτάσεις του Googlementor για πιο ολοκληρωμένη εμπειρία.","vibe_tags":["curated"],"best_for":["first-time visitors","food lovers"],"visit_moments":["lunch stop","dinner stop"],"practical_note":"Address and direct map link are available for easy turn-by-turn access.","nearby_walkable_count":41,"nearby_count_2km":64,"confidence":0.98}},"__N_SSG":true}