{"pageProps":{"entity":{"id":"coffeeBrunchRestaurants_caa1d894f98a","slug":"kafepoleion-caa1","kind":"restaurant","name":"Kafepoleion","lat":38.14255916452544,"lng":20.54310186456745,"url":"https://maps.app.goo.gl/YKFX8hPovFNGt9pDA?g_st=ipc","address":"Κοκύλια, Kefalonia 281 00","categoryIds":["coffee-brunch"],"categories":["Coffee & Brunch Spots"]},"sameCategory":[{"id":"coffeeBrunchRestaurants_febf410e8642","slug":"costa-costa-beach-bar-febf","kind":"restaurant","name":"Costa Costa Beach Bar","lat":38.15380761963389,"lng":20.4824739703724,"url":"https://maps.app.goo.gl/TgFrHfc8nxYVBh9z7?g_st=ipc","address":"Lassi, Argostoli 281 00","categoryIds":["coffee-brunch"],"categories":["Coffee & Brunch Spots"]},{"id":"coffeeBrunchRestaurants_9057c09060eb","slug":"espresso-house-9057","kind":"restaurant","name":"Espresso house","lat":38.17163745193254,"lng":20.492476064422643,"url":"https://maps.app.goo.gl/yzerSoB1WzcjYnKq5?g_st=ipc","address":"Devosetou 15, Argostoli 281 00","categoryIds":["coffee-brunch"],"categories":["Coffee & Brunch Spots"]},{"id":"coffeeBrunchRestaurants_b203c212827d","slug":"remetzo-kafe-b203","kind":"restaurant","name":"Ρεμετζο καφέ","lat":38.14775445639953,"lng":20.7788036615171,"url":"https://maps.app.goo.gl/DJjkbdzn9Sg4yrHY7?g_st=ipc","address":"Metaxa, Kefalonia 280 82","categoryIds":["coffee-brunch"],"categories":["Coffee & Brunch Spots"]},{"id":"coffeeBrunchRestaurants_7849cd86ff9a","slug":"myrtillo-7849","kind":"restaurant","name":"myrtillo","lat":38.33016504186232,"lng":20.54543331787743,"url":"https://maps.app.goo.gl/jceQN1dFVGYrVSaFA?g_st=ipc","address":"Divarata 280 81","categoryIds":["coffee-brunch"],"categories":["Coffee & Brunch Spots"]},{"id":"coffeeBrunchRestaurants_f69353dde3df","slug":"ammos-beach-bar-restaurant-kefalonia-f693","kind":"restaurant","name":"Ammos Beach Bar & Restaurant | Kefalonia","lat":38.08122535953636,"lng":20.800056619766497,"url":"https://maps.app.goo.gl/SxeeHeaBpXq8VgZe8?g_st=ipc","address":"Κεφαλληνίας, Skala 281 00","categoryIds":["coffee-brunch"],"categories":["Coffee & Brunch Spots"]},{"id":"coffeeBrunchRestaurants_ebff8d600624","slug":"jenkins-lounge-eatery-ebff","kind":"restaurant","name":"Jenkins Lounge Eatery","lat":37.786543893628924,"lng":20.898568985854595,"url":"https://maps.app.goo.gl/1TG8uMAi1MTZQgiY8?g_st=ipc","address":"Psaron 3, Zakinthos 291 00","categoryIds":["coffee-brunch"],"categories":["Coffee & Brunch Spots"]},{"id":"coffeeBrunchRestaurants_4e218b55f113","slug":"madisons-kitchen-bar-4e21","kind":"restaurant","name":"Madisons Kitchen Bar","lat":37.78371523709895,"lng":20.898097278049377,"url":"https://maps.app.goo.gl/Anc3Yu4uRzD8XagR9?g_st=ipc","address":"Lomvardou 36, Zakinthos 291 00","categoryIds":["coffee-brunch"],"categories":["Coffee & Brunch Spots"]},{"id":"coffeeBrunchRestaurants_b487e1e8e4bb","slug":"la-mer-b487","kind":"restaurant","name":"La Mer","lat":38.15655535964722,"lng":21.36777415023951,"url":"https://maps.app.goo.gl/ijDMxEmSaLdDH7FR8?g_st=ipc","address":"Larisos 270 52","categoryIds":["coffee-brunch"],"categories":["Coffee & Brunch Spots"]}],"nearby":[{"id":"greekRestaurants_70a7d97aa28c","slug":"il-borgo-restaurant-70a7","kind":"restaurant","name":"Il Borgo Restaurant","lat":38.138324170776656,"lng":20.555664585879075,"url":"https://maps.app.goo.gl/QVAWEX3QcThcLdsE7?g_st=ipc","address":"Κάστρο Αγίου Γεωργίου, Τραυλιάτα 281 00","categoryIds":["greek-restaurants"],"categories":["Greek Restaurants"],"distanceKm":1.1953370033410564},{"id":"greekRestaurants_b66963231ac9","slug":"olive-lounge-restaurant-bar-b669","kind":"restaurant","name":"Olive Lounge Restaurant & Bar","lat":38.13804007743401,"lng":20.556990158259417,"url":"https://maps.app.goo.gl/M3Twb4o792PcM5jR7?g_st=ipc","address":"Unnamed Road, Κάστρο 281 00","categoryIds":["greek-restaurants"],"categories":["Greek Restaurants"],"distanceKm":1.3144418632998782},{"id":"greekRestaurants_543e8b3ae4ad","slug":"chersonas-543e","kind":"restaurant","name":"Χερσώνας","lat":38.157317085301656,"lng":20.558923068182263,"url":"https://maps.app.goo.gl/D6QaW5icgiUCH7qn7?g_st=ipc","address":"Τρωιανάτα 281 00","categoryIds":["greek-restaurants"],"categories":["Greek Restaurants"],"distanceKm":2.146359532589585},{"id":"greekRestaurants_fef489007c02","slug":"anna-s-tavern-xasteria-fef4","kind":"restaurant","name":"Anna's Tavern (Xasteria)","lat":38.11938430612937,"lng":20.562853128007966,"url":"https://maps.app.goo.gl/k6iUiCZV7gkf1jreA?g_st=ipc","address":"Κεραμειές 281 00","categoryIds":["greek-restaurants"],"categories":["Greek Restaurants"],"distanceKm":3.102423875375639},{"id":"greekRestaurants_e335ec23f4b7","slug":"esperides-restaurant-e335","kind":"restaurant","name":"Esperides Restaurant","lat":38.11149781925104,"lng":20.52872285695272,"url":"https://maps.app.goo.gl/1uN9PKhytg7Xeum9A?g_st=ipc","address":"Σβορωνάτα 281 00","categoryIds":["greek-restaurants"],"categories":["Greek Restaurants"],"distanceKm":3.6757441288823425},{"id":"municipalities_b8a2e587a20e","slug":"kefalonia-b8a2","kind":"municipality","name":"Κεφαλονιά","lat":38.175,"lng":20.569,"region":"Ιόνιο","name_en":"Kefalonia","region_en":"Ionian Islands","distanceKm":4.259055844073314},{"id":"greekRestaurants_a4e07eddd13d","slug":"avithos-preview-taverna-a4e0","kind":"restaurant","name":"Avithos Preview Taverna","lat":38.10278400760593,"lng":20.538006715167594,"url":"https://maps.app.goo.gl/frNsRJR8RcKVup5j6?g_st=ipc","address":"Avithos Beach, Kalligata 281 00","categoryIds":["greek-restaurants"],"categories":["Greek Restaurants"],"distanceKm":4.445196613412894},{"id":"wineriesVineyards_76d903b57c64","slug":"orealios-gaea-vine-growers-of-robola-76d9","kind":"restaurant","name":"Orealios Gaea - Vine Growers of Robola","lat":38.16303564266763,"lng":20.590291534978753,"url":"https://maps.app.goo.gl/nZzm6EuiZsKmkSxr7?g_st=ipc","address":"Valsamata 281 00","categoryIds":["wineries-vineyards"],"categories":["Wineries & Vineyards"],"distanceKm":4.712771361412431}],"sameRegion":[],"mentionedGuides":[],"canonicalSlug":"kafepoleion-caa1","isCanonicalEntity":true,"enrichment":{"summary_en":"Kafepoleion is a curated restaurant in Kefalonia 281 00 in the Coffee & Brunch Spots collection. It is connected to 0 nearby Googlementor picks to help travelers build a stronger local route.","summary_el":"Kafepoleion είναι ένα επιλεγμένο σημείο φαγητού στην περιοχή Kefalonia 281 00 και ανήκει στη συλλογή Coffee & Brunch Spots. Συνδέεται με 0 κοντινές προτάσεις του Googlementor για πιο ολοκληρωμένη εμπειρία.","vibe_tags":["curated","daytime-favorite"],"best_for":["first-time visitors","food lovers"],"visit_moments":["early morning","late brunch"],"practical_note":"Address and direct map link are available for easy turn-by-turn access.","nearby_walkable_count":0,"nearby_count_2km":2,"confidence":0.9}},"__N_SSG":true}