{"pageProps":{"entity":{"id":"greekRestaurants_e2f8a1a4ded7","slug":"katsarola-e2f8","kind":"restaurant","name":"Κατσαρόλα","lat":37.98993156504118,"lng":23.741864128657266,"url":"https://maps.app.goo.gl/R5o9th6YAJUun6xp6","address":"Λεωφ. Αλεξάνδρας 74, Αθήνα 114 73","categoryIds":["greek-restaurants"],"categories":["Greek Restaurants"]},"sameCategory":[{"id":"greekRestaurants_0cec67514103","slug":"ama-lachei-0cec","kind":"restaurant","name":"Άμα Λάχει","lat":37.9881200037971,"lng":23.737007621122938,"url":"https://maps.app.goo.gl/94C3hp4xbRp1fKYt7","address":"Καλλιδρομίου 69, Αθήνα 106 83","categoryIds":["greek-restaurants"],"categories":["Greek Restaurants"]},{"id":"greekRestaurants_3eb28aec894c","slug":"ayli-geysi-poleion-3eb2","kind":"restaurant","name":"Αυλη Γευση-πωλείον","lat":37.98655857103421,"lng":23.737630934967044,"url":"https://maps.app.goo.gl/BGHehjaYVZctQ5Mv6","address":"Μεθώνης 43, Αθήνα 106 81","categoryIds":["greek-restaurants"],"categories":["Greek Restaurants"]},{"id":"greekRestaurants_6dfb86c3c849","slug":"lontza-tis-geitonias-6dfb","kind":"restaurant","name":"Λόντζα της Γειτονιάς","lat":37.98528728518512,"lng":23.737900936097155,"url":"https://maps.app.goo.gl/KuXHrJwbKRvdajxz5","address":"Χαρ. Τρικούπη 76, Αθήνα 106 80","categoryIds":["greek-restaurants"],"categories":["Greek Restaurants"]},{"id":"greekRestaurants_82fedd8f5eb8","slug":"aylak-politiki-kouzina-82fe","kind":"restaurant","name":"Aylak Politiki Kouzina","lat":37.986296240543886,"lng":23.73577500465613,"url":"https://maps.app.goo.gl/8H5UM5CTNGhY6tCz8","address":"Εμμανουήλ Μπενάκη 73, Αθήνα 106 81","categoryIds":["greek-restaurants"],"categories":["Greek Restaurants"]},{"id":"greekRestaurants_399d4f103d60","slug":"pakoymel-399d","kind":"restaurant","name":"Pακουμελ","lat":37.98611213872367,"lng":23.7356153825947,"url":"https://maps.app.goo.gl/ES9bhy4RguonMm8G8","address":"Εμμανουήλ Μπενάκη 71, Αθήνα 106 81","categoryIds":["greek-restaurants"],"categories":["Greek Restaurants"]},{"id":"greekRestaurants_be06a546e935","slug":"giantes-be06","kind":"restaurant","name":"Γιάντες","lat":37.98561482975353,"lng":23.735926375159003,"url":"https://maps.app.goo.gl/LuGL5j7KgtCFWxmA8","address":"Βαλτετσίου 44, Αθήνα 106 81","categoryIds":["greek-restaurants","luxury-dining"],"categories":["Greek Restaurants","Luxury Dining"]},{"id":"greekRestaurants_013c7ee68bf7","slug":"to-rini-013c","kind":"restaurant","name":"Το Ρίνι","lat":37.99027878775376,"lng":23.732870988899485,"url":"https://maps.app.goo.gl/RRByVB3HqZfDcnkK7","address":"Ρεθύμνου 8, Αθήνα 106 82","categoryIds":["greek-restaurants"],"categories":["Greek Restaurants"]},{"id":"greekRestaurants_47b0ee0c8d13","slug":"mi-la-re-47b0","kind":"restaurant","name":"Μι λα ρε","lat":37.99704423560871,"lng":23.74315138793718,"url":"https://maps.app.goo.gl/mURYyiemhV3PvXjDA","address":"Ευελπίδων 87, Αθήνα 113 62","categoryIds":["greek-restaurants"],"categories":["Greek Restaurants"]}],"nearby":[{"id":"vegetarianRestaurants_3ea2a766339f","slug":"mimi-s-cafe-vegan-3ea2","kind":"restaurant","name":"Mimi's Cafe Vegan","lat":37.98928428831877,"lng":23.74327396218684,"url":"https://maps.app.goo.gl/iJpPrYiwEWZ6Zhk59?g_st=ipc","address":"Πλ. Αργεντινής Δημοκρατίας 4, Αθήνα 114 72","categoryIds":["vegetarian"],"categories":["Vegetarian Friendly Restaurants"],"distanceKm":0.14298638192351357},{"id":"dessertsRestaurants_98b6e615d276","slug":"chunky-cookie-bar-98b6","kind":"restaurant","name":"Chunky Cookie Bar","lat":37.990432042632165,"lng":23.743378760155576,"url":"https://maps.app.goo.gl/RyoKAVU7gY9FtBng6?g_st=ipc","address":"Πέτρου Καλλιγά 6, Αθήνα 114 74","categoryIds":["desserts"],"categories":["Dessert Shops"],"distanceKm":0.14392812381893136},{"id":"cheapEatsRestaurants_9b9687edb09a","slug":"cantina-alexandras-9b96","kind":"restaurant","name":"Cantina Alexandras","lat":37.990601219280784,"lng":23.740100216268857,"url":"https://maps.app.goo.gl/sC6f9QqoMvhYZn9L6?g_st=ipc","address":"Λεωφ. Αλεξάνδρας 31, Αθήνα 114 73","categoryIds":["cheap-eats"],"categories":["Gyros & Cheap Eats"],"distanceKm":0.1715791916065138},{"id":"coffeeBrunchRestaurants_a3230d252f22","slug":"bayard-cafe-bar-a323","kind":"restaurant","name":"Bayard Cafe Bar","lat":37.98818653598511,"lng":23.742397891424794,"url":"https://maps.app.goo.gl/uimsu3ktFK4Xu2bBA?g_st=ipc","address":"Ζωοδόχου Πηγής 134, Αθήνα 114 72","categoryIds":["coffee-brunch"],"categories":["Coffee & Brunch Spots"],"distanceKm":0.199596988283639},{"id":"municipalities_75ddb64a42fd","slug":"gyzi-75dd","kind":"municipality","name":"Γύζη","lat":37.9933,"lng":23.7439,"aliases":["Γυζη","Gizi"],"region":"Κέντρο Αθήνας","name_en":"Gyzi","region_en":"Athens Center","distanceKm":0.41487308703213016},{"id":"coffeeBrunchRestaurants_a95b26c47b64","slug":"hygge-athens-a95b","kind":"restaurant","name":"Hygge Athens","lat":37.988231189980574,"lng":23.746766075427747,"url":"https://maps.app.goo.gl/gFbRCwSSyvTd57Ti8?g_st=ipc","address":"Ιπποκράτους 192, Αθήνα 114 71","categoryIds":["coffee-brunch"],"categories":["Coffee & Brunch Spots"],"distanceKm":0.4693537702744269},{"id":"greekRestaurants_0cec67514103","slug":"ama-lachei-0cec","kind":"restaurant","name":"Άμα Λάχει","lat":37.9881200037971,"lng":23.737007621122938,"url":"https://maps.app.goo.gl/94C3hp4xbRp1fKYt7","address":"Καλλιδρομίου 69, Αθήνα 106 83","categoryIds":["greek-restaurants"],"categories":["Greek Restaurants"],"distanceKm":0.47086705053858635},{"id":"greekRestaurants_3eb28aec894c","slug":"ayli-geysi-poleion-3eb2","kind":"restaurant","name":"Αυλη Γευση-πωλείον","lat":37.98655857103421,"lng":23.737630934967044,"url":"https://maps.app.goo.gl/BGHehjaYVZctQ5Mv6","address":"Μεθώνης 43, Αθήνα 106 81","categoryIds":["greek-restaurants"],"categories":["Greek Restaurants"],"distanceKm":0.5275403227796397}],"sameRegion":[],"mentionedGuides":[],"canonicalSlug":"katsarola-e2f8","isCanonicalEntity":true,"enrichment":{"summary_en":"Κατσαρόλα is a curated restaurant in Αθήνα 114 73 in the Greek Restaurants collection. It is connected to 34 nearby Googlementor picks to help travelers build a stronger local route.","summary_el":"Κατσαρόλα είναι ένα επιλεγμένο σημείο φαγητού στην περιοχή Αθήνα 114 73 και ανήκει στη συλλογή Greek Restaurants. Συνδέεται με 34 κοντινές προτάσεις του Googlementor για πιο ολοκληρωμένη εμπειρία.","vibe_tags":["curated"],"best_for":["first-time visitors","food lovers"],"visit_moments":["lunch stop","dinner stop"],"practical_note":"Address and direct map link are available for easy turn-by-turn access.","nearby_walkable_count":34,"nearby_count_2km":406,"confidence":0.98}},"__N_SSG":true}