{"pageProps":{"entity":{"id":"familyFriendly_3a0b8382227c","slug":"kidtopia-3a0b","kind":"restaurant","name":"KIDTOPIA","lat":38.01289484430431,"lng":23.811355038875934,"url":"https://maps.app.goo.gl/hbL95STxeVAMj8X58?g_st=ic","address":"Erifilis 31, Chalandri 152 32","categoryIds":["family-friendly"],"categories":["Kid Friendly Locations"]},"sameCategory":[{"id":"familyFriendly_006b710ec86a","slug":"ktima-aristi-006b","kind":"restaurant","name":"ΚΤΗΜΑ ΑΡΙΣΤΗ","lat":38.01987728596246,"lng":23.81566062458868,"url":"https://maps.app.goo.gl/82avq8dPqN3VZq7W7?g_st=ipc","address":"Πλουτάρχου 10, Χαλάνδρι 152 34","categoryIds":["family-friendly"],"categories":["Kid Friendly Locations"]},{"id":"familyFriendly_8c5536516bb1","slug":"theatraki-8c55","kind":"restaurant","name":"Theatraki","lat":38.02225032968998,"lng":23.814351171164784,"url":"https://maps.app.goo.gl/jauuVyHDGdr1MR746?g_st=ic","address":"Iraklidon 31, Chalandri 152 34","categoryIds":["family-friendly"],"categories":["Kid Friendly Locations"]},{"id":"familyFriendly_81e1faa2d7f2","slug":"kafe-nuestro-sueno-81e1","kind":"restaurant","name":"καφέ Nuestro sueno","lat":37.996802341238464,"lng":23.81194934538021,"url":"https://maps.app.goo.gl/VTAxttodcrh81J5E9?g_st=ipc","address":"Καραολή και Δημητρίου, Χολαργός 153 41","categoryIds":["family-friendly"],"categories":["Kid Friendly Locations"]},{"id":"coffeeBrunchRestaurants_f3a3be0d750a","slug":"alsos-cholargou-alsos-cholargoy-f3a3","kind":"restaurant","name":"Alsos Cholargou / Άλσος Χολαργού","lat":37.99731205193856,"lng":23.801346586633024,"url":"https://maps.app.goo.gl/9NgrgwXAtnAhzyQM7?g_st=ipc","address":"Ευριπίδου 1, Χολαργός 155 62","categoryIds":["coffee-brunch","family-friendly"],"categories":["Coffee & Brunch Spots","Kid Friendly Locations"]},{"id":"familyFriendly_7679184c0c6a","slug":"alsos-papagoy-7679","kind":"restaurant","name":"Άλσος Παπάγου","lat":37.99340202683861,"lng":23.794076076253262,"url":"https://maps.app.goo.gl/rJbRGPSSoVw8phSo6?g_st=ipc","address":"Κορυτσάς 31, Παπάγου 156 69","categoryIds":["family-friendly"],"categories":["Kid Friendly Locations"]},{"id":"coffeeBrunchRestaurants_273a7e7d2a9d","slug":"piu-verde-273a","kind":"restaurant","name":"Piu Verde","lat":37.993592134048,"lng":23.792630644928746,"url":"https://maps.app.goo.gl/uttCEc9rHvmfUF3c7?g_st=ipc","address":"Στρατ, Αλ. Παπάγου, Παπάγου 156 69","categoryIds":["coffee-brunch","family-friendly"],"categories":["Coffee & Brunch Spots","Kid Friendly Locations"]},{"id":"familyFriendly_c4b368df83c1","slug":"oikogeneiako-parko-perivallontikis-eyaisthitopoiisis-c4b3","kind":"restaurant","name":"Οικογενειακό Πάρκο Περιβαλλοντικής Ευαισθητοποίησης","lat":37.99329104933058,"lng":23.791786076511723,"url":"https://maps.app.goo.gl/ah7MLHXrkbxTWacS8?g_st=ipc","address":"Λεωφ. Παπάγου, Παπάγου 156 69","categoryIds":["family-friendly"],"categories":["Kid Friendly Locations"]},{"id":"familyFriendly_bdbc58481ced","slug":"enydreio-xplore-oceans-bdbc","kind":"restaurant","name":"Ενυδρείο XPLORE Oceans","lat":38.03457407087024,"lng":23.791982125171685,"url":"https://maps.app.goo.gl/qibAD4W4gNvVSf698?g_st=ipc","address":"Αγησιλάου, Μαρούσι 151 23","categoryIds":["family-friendly"],"categories":["Kid Friendly Locations"]}],"nearby":[{"id":"greekRestaurants_8c8e269305b0","slug":"nison-gi-8c8e","kind":"restaurant","name":"Νήσων Γη","lat":38.011331255497275,"lng":23.81122856443911,"url":"https://maps.app.goo.gl/wmEbsZ59WvGe41oB6?g_st=ipc","address":"Λεωφ. Μεσογείων 356, Αγ. Παρασκευή 153 41","categoryIds":["greek-restaurants"],"categories":["Greek Restaurants"],"distanceKm":0.17421585323059083},{"id":"greekRestaurants_8e94a0e9697c","slug":"to-steki-tis-tompra-8e94","kind":"restaurant","name":"Το στέκι της Τόμπρα","lat":38.01114194965107,"lng":23.812150664429954,"url":"https://maps.app.goo.gl/nzMoaK1cxHPd4BAQA?g_st=ipc","address":"Ηπείρου 5-7, Αγ. Παρασκευή 153 41","categoryIds":["greek-restaurants"],"categories":["Greek Restaurants"],"distanceKm":0.20700157965470808},{"id":"greekRestaurants_c4e480192004","slug":"ta-romanakia-c4e4","kind":"restaurant","name":"Τα Ρωμανάκια","lat":38.01166841393731,"lng":23.8131702489518,"url":"https://maps.app.goo.gl/huAdXz8UP2bA8sPj6?g_st=ipc","address":"Λεωφ. Μεσογείων 366, Αγ. Παρασκευή 153 41","categoryIds":["greek-restaurants"],"categories":["Greek Restaurants"],"distanceKm":0.20949267973820054},{"id":"dessertsRestaurants_7da559b75445","slug":"zacharoplasteia-konstantinidis-7da5","kind":"restaurant","name":"Ζαχαροπλαστεία Κωνσταντινίδης","lat":38.01171233220572,"lng":23.81400562383525,"url":"https://maps.app.goo.gl/qEsfTTzyhzLukvSx9?g_st=ipc","address":"Λεωφ. Μεσογείων 368, Αγ. Παρασκευή 153 41","categoryIds":["desserts"],"categories":["Dessert Shops"],"distanceKm":0.26685611481003985},{"id":"asianRestaurants_4641bf909241","slug":"wasabe-asian-fusion-4641","kind":"restaurant","name":"Wasabe Asian Fusion","lat":38.01234432312043,"lng":23.815000066422606,"url":"https://maps.app.goo.gl/E1rgPWQWHHSpVx7UA?g_st=ipc","address":"Λεωφ. Μεσογείων 401, Αγ. Παρασκευή 153 43","categoryIds":["asian"],"categories":["Asian Restaurants"],"distanceKm":0.3251469972239585},{"id":"dessertsRestaurants_0abf80a62983","slug":"zacharoplasteia-kosmikon-ag-paraskeyi-0abf","kind":"restaurant","name":"ΖΑΧΑΡΟΠΛΑΣΤΕΙΑ ΚΟΣΜΙΚΟΝ ΑΓ.ΠΑΡΑΣΚΕΥΗ","lat":38.015552019857395,"lng":23.816005253846708,"url":"https://maps.app.goo.gl/KMvANWbGzpUHc27L8?g_st=ipc","address":"Χαλανδρίου 34, Αγ. Παρασκευή 153 43","categoryIds":["desserts"],"categories":["Dessert Shops"],"distanceKm":0.5032518560311376},{"id":"mexicanRestaurants_2fa8f90ada8c","slug":"el-taco-bueno-2fa8","kind":"restaurant","name":"El Taco Bueno","lat":38.01767477225013,"lng":23.8094742149459,"url":"https://maps.app.goo.gl/nxvZPKw9Xm14kD6q7?g_st=ipc","address":"Αγίας Παρασκευής 110, Χαλάνδρι 152 32","categoryIds":["mexican"],"categories":["Mexican Restaurants"],"distanceKm":0.5564574982592049},{"id":"italianRestaurants_f7f3095a84cf","slug":"marika-f7f3","kind":"restaurant","name":"Μαρίκα","lat":38.01804412743968,"lng":23.809906247881305,"url":"https://maps.app.goo.gl/osUqCcuWwvgZPCpT6?g_st=ipc","address":"Αγίας Παρασκευής 109, Χαλάνδρι 152 34","categoryIds":["italian"],"categories":["Italian Restaurants"],"distanceKm":0.5864724557186781}],"sameRegion":[],"mentionedGuides":[],"canonicalSlug":"kidtopia-3a0b","isCanonicalEntity":true,"enrichment":{"summary_en":"KIDTOPIA is a curated restaurant in Chalandri 152 32 in the Kid Friendly Locations collection. It is connected to 14 nearby Googlementor picks to help travelers build a stronger local route.","summary_el":"KIDTOPIA είναι ένα επιλεγμένο σημείο φαγητού στην περιοχή Chalandri 152 32 και ανήκει στη συλλογή Kid Friendly Locations. Συνδέεται με 14 κοντινές προτάσεις του Googlementor για πιο ολοκληρωμένη εμπειρία.","vibe_tags":["curated","family-ready"],"best_for":["first-time visitors","food lovers","families"],"visit_moments":["lunch stop","dinner stop"],"practical_note":"Address and direct map link are available for easy turn-by-turn access.","nearby_walkable_count":14,"nearby_count_2km":117,"confidence":0.98}},"__N_SSG":true}