{"pageProps":{"entity":{"id":"coffeeBrunchRestaurants_431b964731b7","slug":"kitchen-bar-431b","kind":"restaurant","name":"Kitchen Bar","lat":40.632030588138356,"lng":22.935513540083463,"url":"https://maps.app.goo.gl/knBD4VWoUZYBGGow7?g_st=ipc","address":"Αποθήκη Β2 Α' Προβλήτα Λιμένα, Thessaloniki 541 10","categoryIds":["coffee-brunch"],"categories":["Coffee & Brunch Spots"]},"sameCategory":[{"id":"coffeeBrunchRestaurants_92ee7041cad1","slug":"hush-coffee-brunch-92ee","kind":"restaurant","name":"Hush - Coffee & Brunch","lat":40.63288453550874,"lng":22.935483076967117,"url":"https://maps.app.goo.gl/BHbV75bnMGdxWnv68?g_st=ipc","address":"First pier, Thessaloniki 546 25","categoryIds":["coffee-brunch"],"categories":["Coffee & Brunch Spots"]},{"id":"coffeeBrunchRestaurants_7800a97fe907","slug":"limani-maritime-museum-and-restaurant-7800","kind":"restaurant","name":"Limani Maritime Museum and Restaurant","lat":40.63343048206997,"lng":22.936992932592755,"url":"https://maps.app.goo.gl/GT8Fja523tketn1A7?g_st=ipc","address":"Leof. Nikis, Thessaloniki 546 25","categoryIds":["coffee-brunch"],"categories":["Coffee & Brunch Spots"]},{"id":"coffeeBrunchRestaurants_eb01fc18d144","slug":"mangiare-gastro-pizza-pasta-bar-eb01","kind":"restaurant","name":"Mangiare Gastro Pizza Pasta Bar","lat":40.63353783457787,"lng":22.939678053388604,"url":"https://maps.app.goo.gl/aWDb6qE5HF6MmFreA?g_st=ipc","address":"Mitropoleos 20, Thessaloniki 546 24","categoryIds":["coffee-brunch"],"categories":["Coffee & Brunch Spots"]},{"id":"coffeeBrunchRestaurants_225892e0cbdd","slug":"the-garden-bar-2258","kind":"restaurant","name":"The Garden Bar","lat":40.63514609058183,"lng":22.939331222845976,"url":"https://maps.app.goo.gl/KEZ45GJ89m9DDXvb6?g_st=ipc","address":"Ag. Mina 16, Thessaloniki 546 24","categoryIds":["coffee-brunch"],"categories":["Coffee & Brunch Spots"]},{"id":"coffeeBrunchRestaurants_fd2a487a0b78","slug":"ypsilon-fd2a","kind":"restaurant","name":"Υpsilon","lat":40.636365825174295,"lng":22.93811663555069,"url":"https://maps.app.goo.gl/7LvTZEdhDkTAMmp78?g_st=ipc","address":"Edessis 5, Thessaloniki 546 25","categoryIds":["coffee-brunch"],"categories":["Coffee & Brunch Spots"]},{"id":"coffeeBrunchRestaurants_3daa295f084c","slug":"olympion-cafe-bar-1951-3daa","kind":"restaurant","name":"Olympion Cafe Bar 1951","lat":40.632694674088896,"lng":22.941732044946015,"url":"https://maps.app.goo.gl/jjCCeEkXCKm7ow7v6?g_st=ipc","address":"Aristotelous Sq 10, Thessaloniki 546 23","categoryIds":["coffee-brunch"],"categories":["Coffee & Brunch Spots"]},{"id":"coffeeBrunchRestaurants_c5fcdd8f5d50","slug":"slow-kaffe-and-wine-c5fc","kind":"restaurant","name":"Slow Kaffe and Wine","lat":40.63667930749031,"lng":22.937326259309707,"url":"https://maps.app.goo.gl/sudFiDSGGdZvwXaq8?g_st=ipc","address":"Ernestou Emprar 10, Thessaloniki 546 25","categoryIds":["coffee-brunch"],"categories":["Coffee & Brunch Spots"]},{"id":"coffeeBrunchRestaurants_c75ff3cb9f5e","slug":"rafiki-outdoors-c75f","kind":"restaurant","name":"Rafiki Outdoors","lat":40.63384593288072,"lng":22.94144670060357,"url":"https://maps.app.goo.gl/EDFEAtyxnASt6ymy5?g_st=ipc","address":"Tsimiski 33, Thessaloniki 546 34","categoryIds":["coffee-brunch"],"categories":["Coffee & Brunch Spots"]}],"nearby":[{"id":"coffeeBrunchRestaurants_92ee7041cad1","slug":"hush-coffee-brunch-92ee","kind":"restaurant","name":"Hush - Coffee & Brunch","lat":40.63288453550874,"lng":22.935483076967117,"url":"https://maps.app.goo.gl/BHbV75bnMGdxWnv68?g_st=ipc","address":"First pier, Thessaloniki 546 25","categoryIds":["coffee-brunch"],"categories":["Coffee & Brunch Spots"],"distanceKm":0.09498940605254695},{"id":"coffeeBrunchRestaurants_7800a97fe907","slug":"limani-maritime-museum-and-restaurant-7800","kind":"restaurant","name":"Limani Maritime Museum and Restaurant","lat":40.63343048206997,"lng":22.936992932592755,"url":"https://maps.app.goo.gl/GT8Fja523tketn1A7?g_st=ipc","address":"Leof. Nikis, Thessaloniki 546 25","categoryIds":["coffee-brunch"],"categories":["Coffee & Brunch Spots"],"distanceKm":0.1995377713407723},{"id":"greekRestaurants_af0b8e5d51b2","slug":"loupino-af0b","kind":"restaurant","name":"Loupino","lat":40.63421562776771,"lng":22.937015451825886,"url":"https://maps.app.goo.gl/iGLD7SMDZ7Y8N12R8?g_st=ipc","address":"Κατούνη 4, Θεσσαλονίκη 546 25","categoryIds":["greek-restaurants"],"categories":["Greek Restaurants"],"distanceKm":0.2740346312888508},{"id":"fishTavernasRestaurants_848f1aa03974","slug":"bakaliarakia-tou-aristou-848f","kind":"restaurant","name":"Bakaliarakia tou Aristou","lat":40.634280544207144,"lng":22.93689333971641,"url":"https://maps.app.goo.gl/Y3cfc1d6DqQAP2VX9?g_st=ipc","address":"Katouni 3, Thessaloniki 546 25","categoryIds":["fish-tavernas"],"categories":["Fish Tavernas"],"distanceKm":0.27595094653559077},{"id":"mexicanRestaurants_d80043a5b99e","slug":"la-sirena-d800","kind":"restaurant","name":"La Sirena","lat":40.63444270479013,"lng":22.93646283547866,"url":"https://maps.app.goo.gl/vjssVZ1V39bo4zex6","address":"Fasianou 1, Thessaloniki 546 25","categoryIds":["mexican"],"categories":["Mexican Restaurants"],"distanceKm":0.279922123803835},{"id":"greekRestaurants_33ac18ee44f0","slug":"mamaloyka-33ac","kind":"restaurant","name":"Μαμαλούκα","lat":40.634129762929895,"lng":22.937535077448267,"url":"https://maps.app.goo.gl/gGsKj9f95wpoFDj7A?g_st=ipc","address":"Ίωνος Δραγoύμη 3, Θεσσαλονίκη 546 25","categoryIds":["greek-restaurants"],"categories":["Greek Restaurants"],"distanceKm":0.2891090880959036},{"id":"luxuryDiningRestaurants_098393014e42","slug":"olympos-naoussa-0983","kind":"restaurant","name":"Olympos Naoussa","lat":40.63309915839342,"lng":22.938647906596046,"url":"https://maps.app.goo.gl/dnRtTeQACnMMpm9n9?g_st=ipc","address":"Leof. Nikis 5, Thessaloniki 546 24","categoryIds":["luxury-dining"],"categories":["Luxury Dining"],"distanceKm":0.28995953753490217},{"id":"fishTavernasRestaurants_a41c35691ce2","slug":"kritikos-restaurant-port-a41c","kind":"restaurant","name":"Kritikos Restaurant Port","lat":40.63312219901904,"lng":22.938682406464917,"url":"https://maps.app.goo.gl/4a7sWdZdLkA9MqcNA?g_st=ipc","address":"Leof. Nikis 03, Thessaloniki 546 21","categoryIds":["fish-tavernas","luxury-dining"],"categories":["Fish Tavernas","Luxury Dining"],"distanceKm":0.29366722743211665}],"sameRegion":[],"mentionedGuides":[],"canonicalSlug":"kitchen-bar-431b","isCanonicalEntity":true,"enrichment":{"summary_en":"Kitchen Bar is a curated restaurant in Thessaloniki 541 10 in the Coffee & Brunch Spots collection. It is connected to 92 nearby Googlementor picks to help travelers build a stronger local route.","summary_el":"Kitchen Bar είναι ένα επιλεγμένο σημείο φαγητού στην περιοχή Thessaloniki 541 10 και ανήκει στη συλλογή Coffee & Brunch Spots. Συνδέεται με 92 κοντινές προτάσεις του Googlementor για πιο ολοκληρωμένη εμπειρία.","vibe_tags":["curated","daytime-favorite"],"best_for":["first-time visitors","food lovers"],"visit_moments":["early morning","late brunch"],"practical_note":"Address and direct map link are available for easy turn-by-turn access.","nearby_walkable_count":92,"nearby_count_2km":250,"confidence":0.98}},"__N_SSG":true}