{"pageProps":{"entity":{"id":"municipalities_23af7cf13cb7","slug":"kos-23af","kind":"municipality","name":"Κως","lat":36.892,"lng":27.287,"aliases":["Kos","Κώς","Κω","Κος"],"region":"Δωδεκάνησα","name_en":"Kos","region_en":"Dodecanese"},"sameCategory":[],"nearby":[{"id":"greekRestaurants_657796817a74","slug":"mom-s-kitchen-6577","kind":"restaurant","name":"MOM'S KITCHEN","lat":36.89405035289658,"lng":27.290210141099532,"url":"https://maps.app.goo.gl/ytaQukqzhdm73UXj7?g_st=ipc","address":"Ναυκλήρου 13, Κως 853 00","categoryIds":["greek-restaurants"],"categories":["Greek Restaurants"],"distanceKm":0.3653418764270495},{"id":"dessertsRestaurants_89c58fd42061","slug":"hans-gretel-kos-89c5","kind":"restaurant","name":"Hans & Gretel | Kos","lat":36.89661462547778,"lng":27.285723193546904,"url":"https://maps.app.goo.gl/rQDc5X2QHbgntYvk8?g_st=ipc","address":"Kanari 4, Kos 853 00","categoryIds":["desserts"],"categories":["Dessert Shops"],"distanceKm":0.5255351705926012},{"id":"greekRestaurants_a93aa32752f0","slug":"lampros-steakhouse-a93a","kind":"restaurant","name":"Lampros Steakhouse","lat":36.896322136693854,"lng":27.283402198970883,"url":"https://maps.app.goo.gl/Sh3PpX1qM4Rdx2rU8?g_st=ipc","address":"Ψαρών, Κως 853 00","categoryIds":["greek-restaurants"],"categories":["Greek Restaurants"],"distanceKm":0.577356278257735},{"id":"greekRestaurants_ac3620c081a5","slug":"paradosiako-mezedopoleio-patriko-patriko-ac36","kind":"restaurant","name":"Παραδοσιακό Μεζεδοπωλείο Πατρικό, Patriko","lat":36.89739810614618,"lng":27.284779736766605,"url":"https://maps.app.goo.gl/UDQufYxBg1Qoohua9?g_st=ipc","address":"Αλικαρνασσού 35, Κως 853 00","categoryIds":["greek-restaurants"],"categories":["Greek Restaurants"],"distanceKm":0.631881010808833},{"id":"dessertsRestaurants_970ac0b21043","slug":"gelateria-nonno-enzo-970a","kind":"restaurant","name":"Gelateria Nonno Enzo","lat":36.89292607123432,"lng":27.29412898356443,"url":"https://maps.app.goo.gl/h4veUyYdxhyumq1b7?g_st=ipc","address":"Vasileos Georgiou V' 7, Kos 853 00","categoryIds":["desserts"],"categories":["Dessert Shops"],"distanceKm":0.642286486295557},{"id":"fishTavernasRestaurants_86ac9cfdbba1","slug":"barbouni-86ac","kind":"restaurant","name":"Barbouni","lat":36.89866949363194,"lng":27.286449875003193,"url":"https://maps.app.goo.gl/h4RrYHzL4aEiHani7?g_st=ipc","address":"26 G, Geor. Averof st, Kos 853 00","categoryIds":["fish-tavernas"],"categories":["Fish Tavernas"],"distanceKm":0.7432256279517047},{"id":"fishTavernasRestaurants_e81adc52e910","slug":"agkyra-fish-restaurant-in-kos-town-e81a","kind":"restaurant","name":"Agkyra Fish Restaurant in Kos Town","lat":36.90011061296023,"lng":27.285534090346363,"url":"https://maps.app.goo.gl/KGXyYVAfE8JET5vr6?g_st=ipc","address":"Dimokritou, Kos 853 00","categoryIds":["fish-tavernas"],"categories":["Fish Tavernas"],"distanceKm":0.9112313379711799},{"id":"italianRestaurants_3c7247930b69","slug":"pizzeria-mamarosa-3c72","kind":"restaurant","name":"Pizzeria MamaRosa","lat":36.89985042997736,"lng":27.283591451459408,"url":"https://maps.app.goo.gl/obmeLmF2dusw8e6LA?g_st=ipc","address":"Κανάρη 48, Κως 853 00","categoryIds":["italian"],"categories":["Italian Restaurants"],"distanceKm":0.9240548187402339}],"sameRegion":[{"id":"municipalities_0334126572d2","slug":"rodos-0334","kind":"municipality","name":"Ρόδος","lat":36.434,"lng":28.217,"aliases":["Rodos","Rhodos","Ρόδη","Ροδος"],"region":"Δωδεκάνησα","name_en":"Rhodes","region_en":"Dodecanese"},{"id":"municipalities_1e15a9b9c22f","slug":"tilos-1e15","kind":"municipality","name":"Τήλος","lat":36.4167,"lng":27.3833,"aliases":["Τηλος"],"region":"Δωδεκάνησα","name_en":"Tilos","region_en":"Dodecanese"},{"id":"municipalities_1ff64765be31","slug":"chalki-1ff6","kind":"municipality","name":"Χάλκη","lat":36.2167,"lng":27.6167,"aliases":["Χαλκη"],"region":"Δωδεκάνησα","name_en":"Halki","region_en":"Dodecanese"},{"id":"municipalities_426a1844230a","slug":"leros-426a","kind":"municipality","name":"Λέρος","lat":37.133,"lng":26.85,"aliases":["Λερος"],"region":"Δωδεκάνησα","name_en":"Leros","region_en":"Dodecanese"},{"id":"municipalities_6a80701acb8f","slug":"symi-6a80","kind":"municipality","name":"Σύμη","lat":36.6167,"lng":27.8333,"aliases":["Συμη","Συμι"],"region":"Δωδεκάνησα","name_en":"Symi","region_en":"Dodecanese"},{"id":"municipalities_8f7e81543417","slug":"patmos-8f7e","kind":"municipality","name":"Πάτμος","lat":37.308,"lng":26.547,"aliases":["Πατμος"],"region":"Δωδεκάνησα","name_en":"Patmos","region_en":"Dodecanese"},{"id":"municipalities_99d9186f1f31","slug":"agathonisi-99d9","kind":"municipality","name":"Αγαθονήσι","lat":37.456,"lng":26.963,"region":"Δωδεκάνησα","name_en":"Agathonisi","region_en":"Dodecanese"},{"id":"municipalities_a1a685a55092","slug":"arkoi-a1a6","kind":"municipality","name":"Αρκοί","lat":37.372,"lng":26.736,"region":"Δωδεκάνησα","name_en":"Arki","region_en":"Dodecanese"}],"mentionedGuides":[],"canonicalSlug":"kos-23af","isCanonicalEntity":true,"enrichment":{"summary_en":"Κως is a curated neighborhood area in Δωδεκάνησα. It is connected to 6 nearby Googlementor picks to help travelers build a stronger local route.","summary_el":"Κως είναι ένα επιλεγμένο σημείο ενδιαφέροντος στην περιοχή Δωδεκάνησα. Συνδέεται με 6 κοντινές προτάσεις του Googlementor για πιο ολοκληρωμένη εμπειρία.","vibe_tags":["local-neighborhood","base-for-exploring"],"best_for":["first-time visitors","walk-and-explore days","return visitors"],"visit_moments":["late morning walks","sunset exploration"],"practical_note":"6 curated places are within walkable distance from this area center.","nearby_walkable_count":6,"nearby_count_2km":9,"confidence":0.6}},"__N_SSG":true}