{"pageProps":{"entity":{"id":"greekRestaurants_b0d37034cad9","slug":"liotrivi-estiatorio-kafe-mpar-b0d3","kind":"restaurant","name":"Λιοτρίβι εστιατόριο καφέ μπαρ","lat":36.83150696646691,"lng":25.89638993777969,"url":"https://maps.app.goo.gl/CYARdJ4AMpe1LegF8?g_st=ipc","address":"ΑΜΟΡΓΟΣ ΧΩΡΑ ΧΩΡΑ, ΑΜΟΡΓΟΥ 840 08","categoryIds":["greek-restaurants"],"categories":["Greek Restaurants"]},"sameCategory":[{"id":"greekRestaurants_3fefb3b2b9b2","slug":"mpyr-zolaki-3fef","kind":"restaurant","name":"Μπυρ...ζολάκι","lat":36.83162335048387,"lng":25.897767804584305,"url":"https://maps.app.goo.gl/qnA3672RAyo5iyaZ9?g_st=ipc","address":"Amorgos island, Χώρα 840 08","categoryIds":["greek-restaurants"],"categories":["Greek Restaurants"]},{"id":"greekRestaurants_988a85889bca","slug":"tranzistoraki-988a","kind":"restaurant","name":"ΤρανζισΤοΡάκι","lat":36.83158272407629,"lng":25.897896255980164,"url":"https://maps.app.goo.gl/sp5wVpBx6d45B63S8?g_st=ipc","address":"Χώρα 840 08","categoryIds":["greek-restaurants"],"categories":["Greek Restaurants"]},{"id":"greekRestaurants_47770432a20a","slug":"kastanis-estiatorio-4777","kind":"restaurant","name":"Καστάνης Εστιατόριο","lat":36.83158752520646,"lng":25.898124106946245,"url":"https://maps.app.goo.gl/HGPYt5HhJh8iT4G56?g_st=ipc","address":"Χώρα 840 08","categoryIds":["greek-restaurants"],"categories":["Greek Restaurants"]},{"id":"greekRestaurants_4c848985d221","slug":"magiasi-4c84","kind":"restaurant","name":"Μαγιάσι","lat":36.831832905496256,"lng":25.899580231122016,"url":"https://maps.app.goo.gl/9Hs7jmTaUVVySR3V6?g_st=ipc","address":"Ano plateaki 840 08","categoryIds":["greek-restaurants"],"categories":["Greek Restaurants"]},{"id":"greekRestaurants_d5207c2cea1d","slug":"armparoriza-d520","kind":"restaurant","name":"Aρμπαρόριζα","lat":36.83126528874217,"lng":25.899780664474996,"url":"https://maps.app.goo.gl/t6VhmiWHapwM9cy88?g_st=ipc","address":"ΧΩΡΑ ΑΜΟΡΓΟΣ ΚΥΚΛΑΔΕΣ, ΑΜΟΡΓΟΣ ΧΩΡΑ 840 08","categoryIds":["greek-restaurants"],"categories":["Greek Restaurants"]},{"id":"greekRestaurants_b17830ed7512","slug":"fata-morgana-amorgos-est-2022-b178","kind":"restaurant","name":"Fata Morgana - Amorgos (est. 2022)","lat":36.831448706178094,"lng":25.864214040888726,"url":"https://maps.app.goo.gl/z4Un87D7stMZaFHp7?g_st=ipc","address":"Ξυλοκερατίδι 840 08","categoryIds":["greek-restaurants"],"categories":["Greek Restaurants"]},{"id":"greekRestaurants_4a408ca96f0f","slug":"giorgalinis-4a40","kind":"restaurant","name":"Γιωργαλίνης","lat":36.79866266620689,"lng":25.81985305918722,"url":"https://maps.app.goo.gl/BHKAVy4JM8FKJLZr9?g_st=ipc","address":"Βρούτσης 840 08","categoryIds":["greek-restaurants"],"categories":["Greek Restaurants"]},{"id":"greekRestaurants_b4a6065341fd","slug":"ston-pyrgo-b4a6","kind":"restaurant","name":"Στον Πύργο","lat":36.791965407259056,"lng":25.80106728547156,"url":"https://maps.app.goo.gl/cG8Rb5Kgv2XaSHPM7?g_st=ipc","address":"ΑΓΙΑ ΤΡΙΑΔΑ, Αρκεσίνη 840 08","categoryIds":["greek-restaurants"],"categories":["Greek Restaurants"]}],"nearby":[{"id":"dessertsRestaurants_4247bc679f6e","slug":"kallisto-4247","kind":"restaurant","name":"Kallisto","lat":36.83193327608509,"lng":25.897182643444378,"url":"https://maps.app.goo.gl/zxMDWyaDa8oTgjvt6?g_st=ipc","address":"Χώρα 840 08","categoryIds":["desserts"],"categories":["Dessert Shops"],"distanceKm":0.08499733379589411},{"id":"greekRestaurants_3fefb3b2b9b2","slug":"mpyr-zolaki-3fef","kind":"restaurant","name":"Μπυρ...ζολάκι","lat":36.83162335048387,"lng":25.897767804584305,"url":"https://maps.app.goo.gl/qnA3672RAyo5iyaZ9?g_st=ipc","address":"Amorgos island, Χώρα 840 08","categoryIds":["greek-restaurants"],"categories":["Greek Restaurants"],"distanceKm":0.12331187444626493},{"id":"greekRestaurants_988a85889bca","slug":"tranzistoraki-988a","kind":"restaurant","name":"ΤρανζισΤοΡάκι","lat":36.83158272407629,"lng":25.897896255980164,"url":"https://maps.app.goo.gl/sp5wVpBx6d45B63S8?g_st=ipc","address":"Χώρα 840 08","categoryIds":["greek-restaurants"],"categories":["Greek Restaurants"],"distanceKm":0.1343275903347075},{"id":"greekRestaurants_47770432a20a","slug":"kastanis-estiatorio-4777","kind":"restaurant","name":"Καστάνης Εστιατόριο","lat":36.83158752520646,"lng":25.898124106946245,"url":"https://maps.app.goo.gl/HGPYt5HhJh8iT4G56?g_st=ipc","address":"Χώρα 840 08","categoryIds":["greek-restaurants"],"categories":["Greek Restaurants"],"distanceKm":0.15460178393920065},{"id":"coffeeBrunchRestaurants_15f758934efb","slug":"jazzmin-15f7","kind":"restaurant","name":"Jazzmin","lat":36.83137874729602,"lng":25.898307325862916,"url":"https://maps.app.goo.gl/YcQVqpGJyQtWEuk59?g_st=ipc","address":"Χώρα 840 08","categoryIds":["coffee-brunch"],"categories":["Coffee & Brunch Spots"],"distanceKm":0.17124342753901795},{"id":"dessertsRestaurants_2726c61e3f6e","slug":"mikraki-gelato-2726","kind":"restaurant","name":"Μικράκι gelato","lat":36.83144131849213,"lng":25.898487086486654,"url":"https://maps.app.goo.gl/QD97vczb4ZtE7gzR9?g_st=ipc","address":"Χώρα 840 08","categoryIds":["desserts"],"categories":["Dessert Shops"],"distanceKm":0.18679031513637556},{"id":"italianRestaurants_f73393157432","slug":"pizza-petrino-f733","kind":"restaurant","name":"Pizza Petrino","lat":36.83162048389455,"lng":25.898532535817935,"url":"https://maps.app.goo.gl/BxpBdgAak6UKLRYL7?g_st=ipc","address":"Χώρα 840 08","categoryIds":["italian"],"categories":["Italian Restaurants"],"distanceKm":0.19110973018234606},{"id":"luxuryDiningRestaurants_da6f148eb7d8","slug":"apospero-da6f","kind":"restaurant","name":"Apospero","lat":36.83183844559143,"lng":25.899499966261363,"url":"https://maps.app.goo.gl/j3TAqCiUnajPnQUUA?g_st=ipc","address":"Χώρα 840 08","categoryIds":["luxury-dining"],"categories":["Luxury Dining"],"distanceKm":0.27923721400590057}],"sameRegion":[],"mentionedGuides":[],"canonicalSlug":"liotrivi-estiatorio-kafe-mpar-b0d3","isCanonicalEntity":true,"enrichment":{"summary_en":"Λιοτρίβι εστιατόριο καφέ μπαρ is a curated restaurant in ΑΜΟΡΓΟΥ 840 08 in the Greek Restaurants collection. It is connected to 11 nearby Googlementor picks to help travelers build a stronger local route.","summary_el":"Λιοτρίβι εστιατόριο καφέ μπαρ είναι ένα επιλεγμένο σημείο φαγητού στην περιοχή ΑΜΟΡΓΟΥ 840 08 και ανήκει στη συλλογή Greek Restaurants. Συνδέεται με 11 κοντινές προτάσεις του Googlementor για πιο ολοκληρωμένη εμπειρία.","vibe_tags":["curated"],"best_for":["first-time visitors","food lovers"],"visit_moments":["lunch stop","dinner stop"],"practical_note":"Address and direct map link are available for easy turn-by-turn access.","nearby_walkable_count":11,"nearby_count_2km":12,"confidence":0.98}},"__N_SSG":true}