{"pageProps":{"entity":{"id":"coffeeBrunchRestaurants_63e3afc9669a","slug":"little-tree-books-and-coffee-63e3","kind":"restaurant","name":"Little Tree Books and Coffee","lat":37.968164539601474,"lng":23.727051388410462,"url":"https://maps.app.goo.gl/EJkNXutNZiWJ1hrHA?g_st=ipc","address":"Καβαλλότι 2, Αθήνα 117 42","categoryIds":["coffee-brunch"],"categories":["Coffee & Brunch Spots"]},"sameCategory":[{"id":"coffeeBrunchRestaurants_3cb499b8df33","slug":"drupes-spritzeria-3cb4","kind":"restaurant","name":"Drupes Spritzeria","lat":37.96781101754338,"lng":23.726828197185508,"url":"https://maps.app.goo.gl/3UEtVFAU3pPvguxJA?g_st=ipc","address":"Ζήτρου 20, Αθήνα 117 42","categoryIds":["coffee-brunch"],"categories":["Coffee & Brunch Spots"]},{"id":"coffeeBrunchRestaurants_01aaff71bf45","slug":"pancake-cake-acropolis-01aa","kind":"restaurant","name":"Pancake & CAKE Acropolis","lat":37.967897348905204,"lng":23.726566946010575,"url":"https://maps.app.goo.gl/QuHwWVBbtZh2gYY18?g_st=ipc","address":"Καρυάτιδων 15, Αθήνα 117 42","categoryIds":["coffee-brunch"],"categories":["Coffee & Brunch Spots"]},{"id":"coffeeBrunchRestaurants_60b919ea4202","slug":"artopoiotis-o-takis-60b9","kind":"restaurant","name":"Αρτοποιότης Ο Τάκης","lat":37.96774042832454,"lng":23.72678404932504,"url":"https://maps.app.goo.gl/kz81zzmehsyvYBbQ6?g_st=ipc","address":"Μισαραλιώτου 14, Αθήνα 117 42","categoryIds":["coffee-brunch"],"categories":["Coffee & Brunch Spots"]},{"id":"coffeeBrunchRestaurants_bdf81375a84e","slug":"ere-athens-bdf8","kind":"restaurant","name":"ERE Athens","lat":37.96787420182931,"lng":23.725296301158785,"url":"https://maps.app.goo.gl/rRZaQcETgQQjdrzg7?g_st=ipc","address":"Ερεχθείου 30, Αθήνα 117 42","categoryIds":["coffee-brunch"],"categories":["Coffee & Brunch Spots"]},{"id":"coffeeBrunchRestaurants_da9d2fc56763","slug":"acai-verao-athens-da9d","kind":"restaurant","name":"Açaí Verão Athens","lat":37.966845247384065,"lng":23.728622894774116,"url":"https://maps.app.goo.gl/zSWkUCcCMEwv3K5Y7?g_st=ipc","address":"Φαλήρου 6, Αθήνα 117 42","categoryIds":["coffee-brunch"],"categories":["Coffee & Brunch Spots"]},{"id":"coffeeBrunchRestaurants_85c9b3242244","slug":"this-is-loco-85c9","kind":"restaurant","name":"This is Loco","lat":37.96542578565319,"lng":23.726906270555997,"url":"https://maps.app.goo.gl/DKCmfLqp6KdRCVPg6?g_st=ipc","address":"Φαλήρου 47, Αθήνα 117 42","categoryIds":["coffee-brunch","vegetarian"],"categories":["Coffee & Brunch Spots","Vegetarian Friendly Restaurants"]},{"id":"coffeeBrunchRestaurants_a5c0f29b5820","slug":"tempo-social-club-a5c0","kind":"restaurant","name":"Tempo Social Club","lat":37.96527397578301,"lng":23.726786075207272,"url":"https://maps.app.goo.gl/uU1H3HFYf7VVqpjy9?g_st=ipc","address":"Φαλήρου 49, Αθήνα 117 42","categoryIds":["coffee-brunch"],"categories":["Coffee & Brunch Spots"]},{"id":"coffeeBrunchRestaurants_ce537fc177ce","slug":"fika-coffee-croissant-ce53","kind":"restaurant","name":"Fika coffee & croissant","lat":37.96693585116076,"lng":23.730676001624726,"url":"https://maps.app.goo.gl/aGhcjD61LQ7BLCn98?g_st=ipc","address":"Βούρβαχη 6, Αθήνα 117 43","categoryIds":["coffee-brunch"],"categories":["Coffee & Brunch Spots"]}],"nearby":[{"id":"luxuryDiningRestaurants_8f9976dae124","slug":"point-a-acropolis-point-8f99","kind":"restaurant","name":"POINT A (Acropolis Point)","lat":37.968415622994755,"lng":23.72706617377212,"url":"https://maps.app.goo.gl/NiwbpnxKE4g22Tzw6?g_st=ipc","address":"Ροβέρτου Γκάλι 4a, Αθήνα 117 42","categoryIds":["luxury-dining","rooftop-lounges"],"categories":["Luxury Dining","Rooftop Lounges"],"distanceKm":0.027949267649856717},{"id":"coffeeBrunchRestaurants_3cb499b8df33","slug":"drupes-spritzeria-3cb4","kind":"restaurant","name":"Drupes Spritzeria","lat":37.96781101754338,"lng":23.726828197185508,"url":"https://maps.app.goo.gl/3UEtVFAU3pPvguxJA?g_st=ipc","address":"Ζήτρου 20, Αθήνα 117 42","categoryIds":["coffee-brunch"],"categories":["Coffee & Brunch Spots"],"distanceKm":0.043909691976892394},{"id":"coffeeBrunchRestaurants_01aaff71bf45","slug":"pancake-cake-acropolis-01aa","kind":"restaurant","name":"Pancake & CAKE Acropolis","lat":37.967897348905204,"lng":23.726566946010575,"url":"https://maps.app.goo.gl/QuHwWVBbtZh2gYY18?g_st=ipc","address":"Καρυάτιδων 15, Αθήνα 117 42","categoryIds":["coffee-brunch"],"categories":["Coffee & Brunch Spots"],"distanceKm":0.05182778451407889},{"id":"coffeeBrunchRestaurants_60b919ea4202","slug":"artopoiotis-o-takis-60b9","kind":"restaurant","name":"Αρτοποιότης Ο Τάκης","lat":37.96774042832454,"lng":23.72678404932504,"url":"https://maps.app.goo.gl/kz81zzmehsyvYBbQ6?g_st=ipc","address":"Μισαραλιώτου 14, Αθήνα 117 42","categoryIds":["coffee-brunch"],"categories":["Coffee & Brunch Spots"],"distanceKm":0.052661024230542475},{"id":"dessertsRestaurants_44e6918dfa7f","slug":"alchimistis-cafe-patisserie-44e6","kind":"restaurant","name":"Αλχημιστής Cafe Patisserie","lat":37.96784501160447,"lng":23.7283241033881,"url":"https://maps.app.goo.gl/n2exdkXc6qfVR4fM9?g_st=ipc","address":"Χατζηχρήστου 8, Αθήνα 117 42","categoryIds":["desserts"],"categories":["Dessert Shops"],"distanceKm":0.11708832888881102},{"id":"italianRestaurants_c197477778a8","slug":"fratti-bistro-c197","kind":"restaurant","name":"Fratti Bistro","lat":37.96852406982216,"lng":23.725725056108836,"url":"https://maps.app.goo.gl/v5TXqxqHKdw7mrCr5?g_st=ipc","address":"Φράττι 1, Αθήνα 117 42","categoryIds":["italian"],"categories":["Italian Restaurants"],"distanceKm":0.12294825287509718},{"id":"mustSeeAttractions_8c69e6a7063e","slug":"moyseio-akropolis-8c69","kind":"restaurant","name":"Μουσείο Ακρόπολης","lat":37.96845037815513,"lng":23.728523216398074,"url":"https://maps.app.goo.gl/ZqiBPBtN3PxoeXmY8?g_st=ipc","address":"Διονυσίου Αρεοπαγίτου 15, Αθήνα 117 42","categoryIds":["attractions"],"categories":["Must-See Attractions"],"distanceKm":0.132878634528016},{"id":"coffeeBrunchRestaurants_bdf81375a84e","slug":"ere-athens-bdf8","kind":"restaurant","name":"ERE Athens","lat":37.96787420182931,"lng":23.725296301158785,"url":"https://maps.app.goo.gl/rRZaQcETgQQjdrzg7?g_st=ipc","address":"Ερεχθείου 30, Αθήνα 117 42","categoryIds":["coffee-brunch"],"categories":["Coffee & Brunch Spots"],"distanceKm":0.15720341688957606}],"sameRegion":[],"mentionedGuides":[],"canonicalSlug":"little-tree-books-and-coffee-63e3","isCanonicalEntity":true,"enrichment":{"summary_en":"Little Tree Books and Coffee is a curated restaurant in Αθήνα 117 42 in the Coffee & Brunch Spots collection. It is connected to 124 nearby Googlementor picks to help travelers build a stronger local route.","summary_el":"Little Tree Books and Coffee είναι ένα επιλεγμένο σημείο φαγητού στην περιοχή Αθήνα 117 42 και ανήκει στη συλλογή Coffee & Brunch Spots. Συνδέεται με 124 κοντινές προτάσεις του Googlementor για πιο ολοκληρωμένη εμπειρία.","vibe_tags":["curated","daytime-favorite"],"best_for":["first-time visitors","food lovers"],"visit_moments":["early morning","late brunch"],"practical_note":"Address and direct map link are available for easy turn-by-turn access.","nearby_walkable_count":124,"nearby_count_2km":614,"confidence":0.98}},"__N_SSG":true}