{"pageProps":{"entity":{"id":"familyFriendly_49ab59220094","slug":"love-sports-club-49ab","kind":"restaurant","name":"Love Sports Club","lat":40.576783631024576,"lng":22.994808120184832,"url":"https://maps.app.goo.gl/BJcVtK4p1mr7qG5B7?g_st=ipc","address":"Unnamed Road, Pilea Chortiatis 555 35","categoryIds":["family-friendly"],"categories":["Kid Friendly Locations"]},"sameCategory":[{"id":"familyFriendly_5fc832b90305","slug":"partyland-pylaia-playground-restaurant-events-5fc8","kind":"restaurant","name":"PARTYLAND ΠΥΛΑΙΑ | PLAYGROUND | RESTAURANT | EVENTS","lat":40.57242727995374,"lng":22.992912588988382,"url":"https://maps.app.goo.gl/hq2iSCHB7jfquAbeA?g_st=ic","address":"St.Kazantzidi 49, Pilea 555 36","categoryIds":["family-friendly"],"categories":["Kid Friendly Locations"]},{"id":"familyFriendly_507eebfc1228","slug":"happy-play-507e","kind":"restaurant","name":"Happy Play","lat":40.58463538696909,"lng":22.98516339267734,"url":"https://maps.app.goo.gl/KdBGSDP4JgtkbeQQ7?g_st=ipc","address":"Ioanninon Rd 9-11, Pilea 555 35","categoryIds":["family-friendly"],"categories":["Kid Friendly Locations"]},{"id":"familyFriendly_b51fd1ec3681","slug":"noesis-science-center-technology-museum-b51f","kind":"restaurant","name":"NOESIS Science Center & Technology Museum","lat":40.562055011158115,"lng":22.995596178260882,"url":"https://maps.app.goo.gl/r83VD4fLTaPtYU7R6?g_st=ipc","address":"Θεσσαλονίκης 6 χλμ, Thermi 570 01","categoryIds":["family-friendly"],"categories":["Kid Friendly Locations"]},{"id":"familyFriendly_27bf58d1aae3","slug":"mediterranean-cosmos-27bf","kind":"restaurant","name":"Mediterranean Cosmos","lat":40.555729354394046,"lng":22.993377329551482,"url":"https://maps.app.goo.gl/hyNCGfBFcBtGJn7q9?g_st=ipc","address":"11ο χλμ εθνικής οδού, A/D Thessalonikis Neon Moudanion, Thessaloniki 570 01","categoryIds":["family-friendly"],"categories":["Kid Friendly Locations"]},{"id":"coffeeBrunchRestaurants_3849ba172973","slug":"ergon-agora-east-3849","kind":"restaurant","name":"ERGON Agora (East)","lat":40.55876847950934,"lng":22.976949760424034,"url":"https://maps.app.goo.gl/um7bZpan68i3iqsx7?g_st=ipc","address":"Leof. Georgikis Scholis 50, Pilea Chortiatis 555 35","categoryIds":["coffee-brunch","family-friendly"],"categories":["Coffee & Brunch Spots","Kid Friendly Locations"]},{"id":"familyFriendly_15181c21c13f","slug":"magic-park-1518","kind":"restaurant","name":"Magic Park","lat":40.554442078448254,"lng":22.989769059470625,"url":"https://maps.app.goo.gl/b73PDCUhFyJQjo748?g_st=ipc","address":"Agias Anastasias 15, Thessaloniki 555 35","categoryIds":["family-friendly"],"categories":["Kid Friendly Locations"]},{"id":"familyFriendly_5db5a10042ec","slug":"les-raquettes-tennis-club-5db5","kind":"restaurant","name":"Les Raquettes Tennis Club","lat":40.55611851243244,"lng":23.00759531084474,"url":"https://maps.app.goo.gl/Uz7ZprsZow6RFsYs7?g_st=ipc","address":"Σοφοκλέους, Thermi 570 01","categoryIds":["family-friendly"],"categories":["Kid Friendly Locations"]},{"id":"familyFriendly_e11e3c30b5f9","slug":"trees-trees-e11e","kind":"restaurant","name":"Trees Trees","lat":40.60274841786202,"lng":23.00941473830645,"url":"https://maps.app.goo.gl/NStAQS6bJYjXPSMi8?g_st=ipc","address":"Ανατολής, Elaionon και, Pilea 555 35","categoryIds":["family-friendly"],"categories":["Kid Friendly Locations"]}],"nearby":[{"id":"burgersRestaurants_54aa085a6ef8","slug":"sinners-smash-burgers-54aa","kind":"restaurant","name":"Sinners Smash Burgers","lat":40.57608642412674,"lng":22.98935981589618,"url":"https://maps.app.goo.gl/Y2NDJtMWMoJrutpZ6?g_st=ipc","address":"Στέλιου Καζαντζίδη 31, Pilea 555 35","categoryIds":["burgers","cheap-eats"],"categories":["Burger Spots","Gyros & Cheap Eats"],"distanceKm":0.46663184727618773},{"id":"familyFriendly_5fc832b90305","slug":"partyland-pylaia-playground-restaurant-events-5fc8","kind":"restaurant","name":"PARTYLAND ΠΥΛΑΙΑ | PLAYGROUND | RESTAURANT | EVENTS","lat":40.57242727995374,"lng":22.992912588988382,"url":"https://maps.app.goo.gl/hq2iSCHB7jfquAbeA?g_st=ic","address":"St.Kazantzidi 49, Pilea 555 36","categoryIds":["family-friendly"],"categories":["Kid Friendly Locations"],"distanceKm":0.5101742662767225},{"id":"familyFriendly_507eebfc1228","slug":"happy-play-507e","kind":"restaurant","name":"Happy Play","lat":40.58463538696909,"lng":22.98516339267734,"url":"https://maps.app.goo.gl/KdBGSDP4JgtkbeQQ7?g_st=ipc","address":"Ioanninon Rd 9-11, Pilea 555 35","categoryIds":["family-friendly"],"categories":["Kid Friendly Locations"],"distanceKm":1.1940224595709366},{"id":"burgersRestaurants_c2797cbf1cc8","slug":"jacaranda-c279","kind":"restaurant","name":"Jacaranda","lat":40.583007556132294,"lng":22.982557958626895,"url":"https://maps.app.goo.gl/1GxBYUFXBeTUU8iq6?g_st=ipc","address":"Στέλιου Καζαντζίδη 24, Pilea 555 35","categoryIds":["burgers","cheap-eats"],"categories":["Burger Spots","Gyros & Cheap Eats"],"distanceKm":1.2446956033385252},{"id":"municipalities_4a13189642f7","slug":"aggelochori-4a13","kind":"municipality","name":"Αγγελοχώρι","lat":40.5886,"lng":22.9875,"aliases":["Αγγελοχωρι"],"region":"Θεσσαλονίκη","name_en":"Angelochori","region_en":"Thessaloniki","distanceKm":1.4516462974467144},{"id":"familyFriendly_b51fd1ec3681","slug":"noesis-science-center-technology-museum-b51f","kind":"restaurant","name":"NOESIS Science Center & Technology Museum","lat":40.562055011158115,"lng":22.995596178260882,"url":"https://maps.app.goo.gl/r83VD4fLTaPtYU7R6?g_st=ipc","address":"Θεσσαλονίκης 6 χλμ, Thermi 570 01","categoryIds":["family-friendly"],"categories":["Kid Friendly Locations"],"distanceKm":1.6390999442966412},{"id":"italianRestaurants_2c8b66244f29","slug":"tonino-esperienza-italiana-2c8b","kind":"restaurant","name":"Tonino Esperienza Italiana","lat":40.56132998598623,"lng":23.004796368106923,"url":"https://maps.app.goo.gl/bZQiMSEwbhVFBxUd8?g_st=ipc","address":"Χαρ. Θέρμης, Thermi 570 01","categoryIds":["italian"],"categories":["Italian Restaurants"],"distanceKm":1.9143047296527012},{"id":"luxuryDiningRestaurants_bbb8974858e3","slug":"duck-bbb8","kind":"restaurant","name":"Duck","lat":40.56052899575869,"lng":22.986792720078764,"url":"https://maps.app.goo.gl/5gpSyYcYprQvjjq88?g_st=ipc","address":"Chalkis 3, Pilea Chortiatis 570 01","categoryIds":["luxury-dining"],"categories":["Luxury Dining"],"distanceKm":1.9300749794437655}],"sameRegion":[],"mentionedGuides":[],"canonicalSlug":"love-sports-club-49ab","isCanonicalEntity":true,"enrichment":{"summary_en":"Love Sports Club is a curated restaurant in Pilea Chortiatis 555 35 in the Kid Friendly Locations collection. It is connected to 2 nearby Googlementor picks to help travelers build a stronger local route.","summary_el":"Love Sports Club είναι ένα επιλεγμένο σημείο φαγητού στην περιοχή Pilea Chortiatis 555 35 και ανήκει στη συλλογή Kid Friendly Locations. Συνδέεται με 2 κοντινές προτάσεις του Googlementor για πιο ολοκληρωμένη εμπειρία.","vibe_tags":["curated","family-ready"],"best_for":["first-time visitors","food lovers","families"],"visit_moments":["lunch stop","dinner stop"],"practical_note":"Address and direct map link are available for easy turn-by-turn access.","nearby_walkable_count":2,"nearby_count_2km":10,"confidence":0.9}},"__N_SSG":true}