{"pageProps":{"entity":{"id":"italianRestaurants_2ca02a129667","slug":"luma-2ca0","kind":"restaurant","name":"Luma","lat":37.967195735298965,"lng":23.74306872996665,"url":"https://maps.app.goo.gl/csSJRksdwNoDcqqE7?g_st=ipc","address":"Φερεκύδου 2, Αθήνα 116 35","categoryIds":["italian"],"categories":["Italian Restaurants"]},"sameCategory":[{"id":"italianRestaurants_858265b3f822","slug":"cosa-nostra-fresca-pasta-pagrati-8582","kind":"restaurant","name":"Cosa Nostra Fresca Pasta Pagrati","lat":37.96783594678004,"lng":23.743332676630974,"url":"https://maps.app.goo.gl/CdMX5E6yxNBbvoYs8?g_st=ipc","address":"Αρχιμήδους 8, Αθήνα 116 35","categoryIds":["italian","vegetarian"],"categories":["Italian Restaurants","Vegetarian Friendly Restaurants"]},{"id":"italianRestaurants_eb6dad79ff00","slug":"colibri-eb6d","kind":"restaurant","name":"Colibri","lat":37.96629536354424,"lng":23.742907448127177,"url":"https://maps.app.goo.gl/p6S1BxZ6W3VgwiR46?g_st=ipc","address":"Εμπεδοκλέους 15, Αθήνα 116 35","categoryIds":["italian"],"categories":["Italian Restaurants"]},{"id":"italianRestaurants_2b0b4658687c","slug":"agave-athens-2b0b","kind":"restaurant","name":"agave athens","lat":37.9657831829776,"lng":23.746184137622457,"url":"https://maps.app.goo.gl/uUSmZ457DPu3bX9J6?g_st=ipc","address":"Ευφράνορος 40, Αθήνα 116 35","categoryIds":["italian"],"categories":["Italian Restaurants"]},{"id":"dessertsRestaurants_e497a22f982a","slug":"mario-luigi-e497","kind":"restaurant","name":"Mario & Luigi","lat":37.96604463058155,"lng":23.746371855606792,"url":"https://maps.app.goo.gl/rjbBWs56GxATknGu9?g_st=ipc","address":"Ευφράνορος 35, Αθήνα 116 35","categoryIds":["desserts","italian"],"categories":["Dessert Shops","Italian Restaurants"]},{"id":"italianRestaurants_67b7b653e959","slug":"cupola-67b7","kind":"restaurant","name":"Cupola","lat":37.97044661658537,"lng":23.742232273257617,"url":"https://maps.app.goo.gl/mFVjH2gTLzicYaVJA?g_st=ipc","address":"Ευφοριωνος 13, Αθήνα 116 35","categoryIds":["italian"],"categories":["Italian Restaurants"]},{"id":"italianRestaurants_13c0dc268b15","slug":"lost-athens-13c0","kind":"restaurant","name":"Lost Athens","lat":37.970670759829304,"lng":23.746680147108094,"url":"https://maps.app.goo.gl/Y9CFJNjG4R2hx4hB6?g_st=ipc","address":"Αρχελάου 7, Αθήνα 116 35","categoryIds":["italian"],"categories":["Italian Restaurants"]},{"id":"italianRestaurants_05ab7052947d","slug":"tre-sorelle-pizza-05ab","kind":"restaurant","name":"Tre Sorelle Pizza","lat":37.971668400347134,"lng":23.745923794431828,"url":"https://maps.app.goo.gl/dt7Xajoo364aPHjy7?g_st=ipc","address":"Αρχελάου 19, Αθήνα 116 35","categoryIds":["italian"],"categories":["Italian Restaurants"]},{"id":"italianRestaurants_f25cb6c501bb","slug":"la-nonna-f25c","kind":"restaurant","name":"la nonna","lat":37.966397023107625,"lng":23.734629464112153,"url":"https://maps.app.goo.gl/JWJwotwbGCaC9dvV6?g_st=ipc","address":"Αναπαύσεως 11, Αθήνα 116 36","categoryIds":["italian"],"categories":["Italian Restaurants"]}],"nearby":[{"id":"luxuryDiningRestaurants_b24cda2a3b29","slug":"soil-restaurant-b24c","kind":"restaurant","name":"Soil Restaurant","lat":37.96695852322669,"lng":23.743066634939197,"url":"https://maps.app.goo.gl/6F5c77DnjsqmPiiS8?g_st=ipc","address":"Φερεκύδου 5, Αθήνα 116 35","categoryIds":["luxury-dining"],"categories":["Luxury Dining"],"distanceKm":0.026377418337505586},{"id":"greekRestaurants_1ce7ef86a93e","slug":"vyrinis-1ce7","kind":"restaurant","name":"ΒΥΡΙΝΗΣ","lat":37.96743484356373,"lng":23.742810422529566,"url":"https://maps.app.goo.gl/1Xuvp6z7zeGEESxk7","address":"Αρχιμήδους 11, Αθήνα 116 35","categoryIds":["greek-restaurants"],"categories":["Greek Restaurants"],"distanceKm":0.03492333311438586},{"id":"italianRestaurants_858265b3f822","slug":"cosa-nostra-fresca-pasta-pagrati-8582","kind":"restaurant","name":"Cosa Nostra Fresca Pasta Pagrati","lat":37.96783594678004,"lng":23.743332676630974,"url":"https://maps.app.goo.gl/CdMX5E6yxNBbvoYs8?g_st=ipc","address":"Αρχιμήδους 8, Αθήνα 116 35","categoryIds":["italian","vegetarian"],"categories":["Italian Restaurants","Vegetarian Friendly Restaurants"],"distanceKm":0.07485409805362457},{"id":"cheapEatsRestaurants_56207a3913eb","slug":"elvis-soyvlakia-5620","kind":"restaurant","name":"Ελβις Σουβλακια","lat":37.96785045064934,"lng":23.7436306831368,"url":"https://maps.app.goo.gl/umPfqHULRVG9njbt5?g_st=ipc","address":"Αρχιμήδους 1-5, Αθήνα 116 35","categoryIds":["cheap-eats"],"categories":["Gyros & Cheap Eats"],"distanceKm":0.08790167860532942},{"id":"coffeeBrunchRestaurants_baef4762247d","slug":"chelsea-hotel-baef","kind":"restaurant","name":"Chelsea Hotel","lat":37.96781479364914,"lng":23.743723733421092,"url":"https://maps.app.goo.gl/biMezA2mUN6mNc886?g_st=ipc","address":"Αρχιμήδους, Πρόκλου και, Αθήνα 116 35","categoryIds":["coffee-brunch"],"categories":["Coffee & Brunch Spots"],"distanceKm":0.08963993203940115},{"id":"italianRestaurants_eb6dad79ff00","slug":"colibri-eb6d","kind":"restaurant","name":"Colibri","lat":37.96629536354424,"lng":23.742907448127177,"url":"https://maps.app.goo.gl/p6S1BxZ6W3VgwiR46?g_st=ipc","address":"Εμπεδοκλέους 15, Αθήνα 116 35","categoryIds":["italian"],"categories":["Italian Restaurants"],"distanceKm":0.10111014508674418},{"id":"burgersRestaurants_15242c3b8b89","slug":"mpear-1524","kind":"restaurant","name":"MPEAR","lat":37.96750105563297,"lng":23.744555646756957,"url":"https://maps.app.goo.gl/yKgLKc4LFJhxaawY6","address":"Ευφράνορος 8, Athina 116 35","categoryIds":["burgers"],"categories":["Burger Spots"],"distanceKm":0.13469459632935438},{"id":"coffeeBrunchRestaurants_f1796bb2ea7c","slug":"plegma-coffee-living-f179","kind":"restaurant","name":"Plegma Coffee & Living","lat":37.96746994485961,"lng":23.74467734312101,"url":"https://maps.app.goo.gl/CJbmBuxNwPN6MCH98?g_st=ipc","address":"Plegma Coffee & Living","categoryIds":["coffee-brunch"],"categories":["Coffee & Brunch Spots"],"distanceKm":0.14427271871517452}],"sameRegion":[],"mentionedGuides":[],"canonicalSlug":"luma-2ca0","isCanonicalEntity":true,"enrichment":{"summary_en":"Luma is a curated restaurant in Αθήνα 116 35 in the Italian Restaurants collection. It is connected to 67 nearby Googlementor picks to help travelers build a stronger local route.","summary_el":"Luma είναι ένα επιλεγμένο σημείο φαγητού στην περιοχή Αθήνα 116 35 και ανήκει στη συλλογή Italian Restaurants. Συνδέεται με 67 κοντινές προτάσεις του Googlementor για πιο ολοκληρωμένη εμπειρία.","vibe_tags":["curated"],"best_for":["first-time visitors","food lovers"],"visit_moments":["lunch stop","dinner stop"],"practical_note":"Address and direct map link are available for easy turn-by-turn access.","nearby_walkable_count":67,"nearby_count_2km":492,"confidence":0.98}},"__N_SSG":true}