{"pageProps":{"entity":{"id":"greekRestaurants_77983275c7e1","slug":"mama-lena-7798","kind":"restaurant","name":"Mama Lena","lat":36.433282969378894,"lng":25.42330569423746,"url":"https://maps.app.goo.gl/ouhG9hPgQz5MamWj7?g_st=ipc","address":"Imerovigli 847 00","categoryIds":["greek-restaurants"],"categories":["Greek Restaurants"]},"sameCategory":[{"id":"greekRestaurants_19a1aff10d3b","slug":"lefkes-santorini-19a1","kind":"restaurant","name":"Lefkes ΣΑΝΤΟΡΙΝΗ","lat":36.46311561251902,"lng":25.393685023435904,"url":"https://maps.app.goo.gl/6kjSiC5Bk9fdfy1b8?g_st=ipc","address":"Φοινικιά 847 02","categoryIds":["greek-restaurants"],"categories":["Greek Restaurants"]},{"id":"greekRestaurants_d26a24d58941","slug":"taverva-skaramagas-d26a","kind":"restaurant","name":"Taverva Skaramagas","lat":36.412079815836925,"lng":25.481638821541313,"url":"https://maps.app.goo.gl/zYEpZfjMiTY39WHB8?g_st=ipc","address":"Μονόλιθος 847 00","categoryIds":["greek-restaurants"],"categories":["Greek Restaurants"]},{"id":"greekRestaurants_75e240e1e1c8","slug":"metaxy-mas-75e2","kind":"restaurant","name":"Μεταξύ Μας","lat":36.388052739264,"lng":25.45733589994344,"url":"https://maps.app.goo.gl/ncT3pVMegecbmYeZ8?g_st=ipc","address":"Έξω Γωνιά 847 00","categoryIds":["greek-restaurants"],"categories":["Greek Restaurants"]},{"id":"greekRestaurants_7df46f2d33f8","slug":"taverna-vilaeti-7df4","kind":"restaurant","name":"Ταβέρνα Βιλαέτι","lat":36.74797589012075,"lng":25.29254143751964,"url":"https://maps.app.goo.gl/YzqRc8pVvtFzcna37?g_st=ipc","address":"Επάνω Κάμπος 840 01","categoryIds":["greek-restaurants"],"categories":["Greek Restaurants"]},{"id":"greekRestaurants_9a173dd91bb8","slug":"kira-pothiti-9a17","kind":"restaurant","name":"Kira Pothiti","lat":36.869449747116555,"lng":25.519666821787904,"url":"https://maps.app.goo.gl/483iYa8hPsWmV2He8?g_st=ipc","address":"Chora, Schinoussa, Χώρα, Σχοινούσα, Chora, Σχοινούσσα 843 00","categoryIds":["greek-restaurants"],"categories":["Greek Restaurants"]},{"id":"greekRestaurants_d2b708170d7f","slug":"deli-restaurant-and-cafe-bar-d2b7","kind":"restaurant","name":"Deli Restaurant and cafe bar","lat":36.869590262270314,"lng":25.518770921181957,"url":"https://maps.app.goo.gl/ZNHHURiAn33ARUcg7?g_st=ipc","address":"Σχοινούσσα 843 00","categoryIds":["greek-restaurants"],"categories":["Greek Restaurants"]},{"id":"greekRestaurants_aaff692063fa","slug":"bizeli-greek-restaurant-aaff","kind":"restaurant","name":"Bizeli Greek Restaurant","lat":36.86948697879524,"lng":25.51980769097378,"url":"https://maps.app.goo.gl/QUY5UC2bDWXfny3i7?g_st=ipc","address":"Χωρα, Σχοινούσσα 843 00","categoryIds":["greek-restaurants"],"categories":["Greek Restaurants"]},{"id":"greekRestaurants_7686c3c0f262","slug":"o-kritikos-grill-house-7686","kind":"restaurant","name":"O kritikos grill House","lat":36.627890366358834,"lng":24.919693098594816,"url":"https://maps.app.goo.gl/iQF1nr3qBtvUYK6aA?g_st=ipc","address":"Χώρας, Φολέγανδρος 840 11","categoryIds":["greek-restaurants"],"categories":["Greek Restaurants"]}],"nearby":[{"id":"luxuryDiningRestaurants_20e2fea855d8","slug":"varoulko-santorini-within-grace-hotel-20e2","kind":"restaurant","name":"Varoulko Santorini (within Grace Hotel)","lat":36.432959672130295,"lng":25.420955482423597,"url":"https://maps.app.goo.gl/8GTiiHfZwjCgosfT6?g_st=ipc","address":"Imerovigli Thira, Santorini 847 00","categoryIds":["luxury-dining"],"categories":["Luxury Dining"],"distanceKm":0.21330564247429581},{"id":"municipalities_a8cf7f89f0ad","slug":"imerovigli-a8cf","kind":"municipality","name":"Ημεροβίγλι","lat":36.4352,"lng":25.4235,"region":"Σαντορίνη","name_en":"Imerovigli","region_en":"Santorini","distanceKm":0.21387165237556127},{"id":"luxuryDiningRestaurants_60ed304175f8","slug":"koukoumavlos-restaurant-60ed","kind":"restaurant","name":"Koukoumavlos Restaurant","lat":36.43146159101605,"lng":25.424418520966256,"url":"https://maps.app.goo.gl/uc1kbLbBqgnUhLot7?g_st=ipc","address":"Imerovigli 847 00","categoryIds":["luxury-dining"],"categories":["Luxury Dining"],"distanceKm":0.22567481541924148},{"id":"fishTavernasRestaurants_088f1a113b0b","slug":"afropsaro-santorini-088f","kind":"restaurant","name":"Afropsaro Santorini","lat":36.44373697181477,"lng":25.4260466585142,"url":"https://maps.app.goo.gl/ocoYehgdG9tZzoCd6?g_st=ipc","address":"Imerovigli 847 00","categoryIds":["fish-tavernas","luxury-dining"],"categories":["Fish Tavernas","Luxury Dining"],"distanceKm":1.188010441921618},{"id":"fishTavernasRestaurants_f0432a23e1ec","slug":"roza-s-f043","kind":"restaurant","name":"Roza's","lat":36.43483486218363,"lng":25.4369605787624,"url":"https://maps.app.goo.gl/E5GA7Cu7XS5a5jut9?g_st=ipc","address":"Vourvoulos Santorini Island, 847 00","categoryIds":["fish-tavernas"],"categories":["Fish Tavernas"],"distanceKm":1.2337058735933146},{"id":"luxuryDiningRestaurants_a54c6ec9f1fa","slug":"selene-restaurant-a54c","kind":"restaurant","name":"Selene Restaurant","lat":36.4214954695669,"lng":25.43077555199888,"url":"https://maps.app.goo.gl/WMAKe6khJLqtbDgo7?g_st=ipc","address":"Old catholic monastery, Thira 847 00","categoryIds":["luxury-dining"],"categories":["Luxury Dining"],"distanceKm":1.4712611151385695},{"id":"wineriesVineyards_21a74b37ed66","slug":"vassaltis-vineyards-21a7","kind":"restaurant","name":"Vassaltis Vineyards","lat":36.44254790219748,"lng":25.43767809168264,"url":"https://maps.app.goo.gl/2AtdngotJUgMkr7o8?g_st=ipc","address":"Περιφερειακή οδός, Βουρβούλος 847 00","categoryIds":["wineries-vineyards"],"categories":["Wineries & Vineyards"],"distanceKm":1.6475353492426912},{"id":"fishTavernasRestaurants_2d350f785ac9","slug":"triana-tavern-2d35","kind":"restaurant","name":"Triana Tavern","lat":36.42013344956067,"lng":25.432032180485958,"url":"https://maps.app.goo.gl/FwBmnh2RPeVaK64U6?g_st=ipc","address":"25is Martiou 405, Thira 847 00","categoryIds":["fish-tavernas"],"categories":["Fish Tavernas"],"distanceKm":1.6575544366726096}],"sameRegion":[],"mentionedGuides":[],"canonicalSlug":"mama-lena-7798","isCanonicalEntity":true,"enrichment":{"summary_en":"Mama Lena is a curated restaurant in Greece in the Greek Restaurants collection. It is connected to 3 nearby Googlementor picks to help travelers build a stronger local route.","summary_el":"Mama Lena είναι ένα επιλεγμένο σημείο φαγητού στην περιοχή Greece και ανήκει στη συλλογή Greek Restaurants. Συνδέεται με 3 κοντινές προτάσεις του Googlementor για πιο ολοκληρωμένη εμπειρία.","vibe_tags":["curated"],"best_for":["first-time visitors","food lovers"],"visit_moments":["lunch stop","dinner stop"],"practical_note":"Address and direct map link are available for easy turn-by-turn access.","nearby_walkable_count":3,"nearby_count_2km":9,"confidence":0.9}},"__N_SSG":true}