{"pageProps":{"entity":{"id":"dessertsRestaurants_2726c61e3f6e","slug":"mikraki-gelato-2726","kind":"restaurant","name":"Μικράκι gelato","lat":36.83144131849213,"lng":25.898487086486654,"url":"https://maps.app.goo.gl/QD97vczb4ZtE7gzR9?g_st=ipc","address":"Χώρα 840 08","categoryIds":["desserts"],"categories":["Dessert Shops"]},"sameCategory":[{"id":"dessertsRestaurants_4247bc679f6e","slug":"kallisto-4247","kind":"restaurant","name":"Kallisto","lat":36.83193327608509,"lng":25.897182643444378,"url":"https://maps.app.goo.gl/zxMDWyaDa8oTgjvt6?g_st=ipc","address":"Χώρα 840 08","categoryIds":["desserts"],"categories":["Dessert Shops"]},{"id":"dessertsRestaurants_3d1262fd2666","slug":"fystiki-gelato-3d12","kind":"restaurant","name":"Fystiki Gelato","lat":36.93198529080786,"lng":25.599118541452043,"url":"https://maps.app.goo.gl/SRnK7VZPNJJSVHfq6?g_st=ipc","address":"Κουφονησίων, Koufonisi 843 00","categoryIds":["desserts"],"categories":["Dessert Shops"]},{"id":"coffeeBrunchRestaurants_409a1c00e009","slug":"fasolas-gastrokafeneio-409a","kind":"restaurant","name":"Fasolas Gastrokafeneio","lat":37.05047829842748,"lng":25.497802752574465,"url":"https://maps.app.goo.gl/s28qFqLPN9on9SZy8?g_st=ipc","address":"Filoti 843 02","categoryIds":["coffee-brunch","desserts"],"categories":["Coffee & Brunch Spots","Dessert Shops"]},{"id":"coffeeBrunchRestaurants_4d900c72bc80","slug":"caffe-greco-4d90","kind":"restaurant","name":"Caffe Greco","lat":37.06283829210554,"lng":25.482179694372245,"url":"https://maps.app.goo.gl/bvxkDLgLP2gCrEDeA?g_st=ipc","address":"Χαλκείο 843 02","categoryIds":["coffee-brunch","desserts"],"categories":["Coffee & Brunch Spots","Dessert Shops"]},{"id":"coffeeBrunchRestaurants_a3547d8efbea","slug":"kolokytha-a354","kind":"restaurant","name":"Kolokytha","lat":36.54726990012019,"lng":26.353646413648903,"url":"https://maps.app.goo.gl/6FaxgMCjdWj9EPA48?g_st=ipc","address":"Unnamed Rd, Astipalea 859 00","categoryIds":["coffee-brunch","desserts"],"categories":["Coffee & Brunch Spots","Dessert Shops"]},{"id":"coffeeBrunchRestaurants_64018e74309c","slug":"meltemi-6401","kind":"restaurant","name":"Meltemi","lat":36.545359250189506,"lng":26.352356416685993,"url":"https://maps.app.goo.gl/nFrvN47758pZXWzT8?g_st=ipc","address":"Astypalaia 859 00","categoryIds":["coffee-brunch","desserts"],"categories":["Coffee & Brunch Spots","Dessert Shops"]},{"id":"dessertsRestaurants_eb323a6e2ce5","slug":"aktaion-eb32","kind":"restaurant","name":"Aktaíon","lat":37.10978039540428,"lng":25.383810454464182,"url":"https://maps.app.goo.gl/2DJ9CavskAENKDWQ6?g_st=ipc","address":"Naxou, Krinides 843 00","categoryIds":["desserts"],"categories":["Dessert Shops"]},{"id":"dessertsRestaurants_fb9eb4b1bad8","slug":"chou-chouro-fb9e","kind":"restaurant","name":"Chou-Chouro","lat":37.10481340685538,"lng":25.376412266991043,"url":"https://maps.app.goo.gl/Phd5ZDeXAdM1ZXne8?g_st=ipc","address":"Castle Area, Naxos 843 00","categoryIds":["desserts"],"categories":["Dessert Shops"]}],"nearby":[{"id":"coffeeBrunchRestaurants_15f758934efb","slug":"jazzmin-15f7","kind":"restaurant","name":"Jazzmin","lat":36.83137874729602,"lng":25.898307325862916,"url":"https://maps.app.goo.gl/YcQVqpGJyQtWEuk59?g_st=ipc","address":"Χώρα 840 08","categoryIds":["coffee-brunch"],"categories":["Coffee & Brunch Spots"],"distanceKm":0.017446222834259673},{"id":"italianRestaurants_f73393157432","slug":"pizza-petrino-f733","kind":"restaurant","name":"Pizza Petrino","lat":36.83162048389455,"lng":25.898532535817935,"url":"https://maps.app.goo.gl/BxpBdgAak6UKLRYL7?g_st=ipc","address":"Χώρα 840 08","categoryIds":["italian"],"categories":["Italian Restaurants"],"distanceKm":0.020328786446884448},{"id":"greekRestaurants_47770432a20a","slug":"kastanis-estiatorio-4777","kind":"restaurant","name":"Καστάνης Εστιατόριο","lat":36.83158752520646,"lng":25.898124106946245,"url":"https://maps.app.goo.gl/HGPYt5HhJh8iT4G56?g_st=ipc","address":"Χώρα 840 08","categoryIds":["greek-restaurants"],"categories":["Greek Restaurants"],"distanceKm":0.03616550228804032},{"id":"greekRestaurants_988a85889bca","slug":"tranzistoraki-988a","kind":"restaurant","name":"ΤρανζισΤοΡάκι","lat":36.83158272407629,"lng":25.897896255980164,"url":"https://maps.app.goo.gl/sp5wVpBx6d45B63S8?g_st=ipc","address":"Χώρα 840 08","categoryIds":["greek-restaurants"],"categories":["Greek Restaurants"],"distanceKm":0.05488476702436264},{"id":"greekRestaurants_3fefb3b2b9b2","slug":"mpyr-zolaki-3fef","kind":"restaurant","name":"Μπυρ...ζολάκι","lat":36.83162335048387,"lng":25.897767804584305,"url":"https://maps.app.goo.gl/qnA3672RAyo5iyaZ9?g_st=ipc","address":"Amorgos island, Χώρα 840 08","categoryIds":["greek-restaurants"],"categories":["Greek Restaurants"],"distanceKm":0.06714025581685383},{"id":"luxuryDiningRestaurants_da6f148eb7d8","slug":"apospero-da6f","kind":"restaurant","name":"Apospero","lat":36.83183844559143,"lng":25.899499966261363,"url":"https://maps.app.goo.gl/j3TAqCiUnajPnQUUA?g_st=ipc","address":"Χώρα 840 08","categoryIds":["luxury-dining"],"categories":["Luxury Dining"],"distanceKm":0.10038135281683506},{"id":"greekRestaurants_4c848985d221","slug":"magiasi-4c84","kind":"restaurant","name":"Μαγιάσι","lat":36.831832905496256,"lng":25.899580231122016,"url":"https://maps.app.goo.gl/9Hs7jmTaUVVySR3V6?g_st=ipc","address":"Ano plateaki 840 08","categoryIds":["greek-restaurants"],"categories":["Greek Restaurants"],"distanceKm":0.10658971917161711},{"id":"greekRestaurants_d5207c2cea1d","slug":"armparoriza-d520","kind":"restaurant","name":"Aρμπαρόριζα","lat":36.83126528874217,"lng":25.899780664474996,"url":"https://maps.app.goo.gl/t6VhmiWHapwM9cy88?g_st=ipc","address":"ΧΩΡΑ ΑΜΟΡΓΟΣ ΚΥΚΛΑΔΕΣ, ΑΜΟΡΓΟΣ ΧΩΡΑ 840 08","categoryIds":["greek-restaurants"],"categories":["Greek Restaurants"],"distanceKm":0.11678152089899295}],"sameRegion":[],"mentionedGuides":[],"canonicalSlug":"mikraki-gelato-2726","isCanonicalEntity":true,"enrichment":{"summary_en":"Μικράκι gelato is a curated restaurant in Greece in the Dessert Shops collection. It is connected to 11 nearby Googlementor picks to help travelers build a stronger local route.","summary_el":"Μικράκι gelato είναι ένα επιλεγμένο σημείο φαγητού στην περιοχή Greece και ανήκει στη συλλογή Dessert Shops. Συνδέεται με 11 κοντινές προτάσεις του Googlementor για πιο ολοκληρωμένη εμπειρία.","vibe_tags":["curated","sweet-stop"],"best_for":["first-time visitors","food lovers"],"visit_moments":["afternoon break","after dinner"],"practical_note":"Address and direct map link are available for easy turn-by-turn access.","nearby_walkable_count":11,"nearby_count_2km":12,"confidence":0.98}},"__N_SSG":true}