{"pageProps":{"entity":{"id":"vegetarianRestaurants_de96d9cdb0ed","slug":"nudie-foodie-psiri-only-gluten-free-de96","kind":"restaurant","name":"Nudie Foodie Psiri only gluten free","lat":37.97969129802119,"lng":23.72517165012706,"url":"https://maps.app.goo.gl/jiBKwgUUBwo3VEnp7?g_st=ipc","address":"Eschilou 42, Athina 105 54","categoryIds":["vegetarian"],"categories":["Vegetarian Friendly Restaurants"]},"sameCategory":[{"id":"vegetarianRestaurants_d9013916b890","slug":"dosa-house-d901","kind":"restaurant","name":"DOSA HOUSE","lat":37.98064310554285,"lng":23.725600541419325,"url":"https://maps.app.goo.gl/tYKvBnpT4mY8nvB58?g_st=ipc","address":"Θεάτρου 3, Αθήνα 105 52","categoryIds":["vegetarian"],"categories":["Vegetarian Friendly Restaurants"]},{"id":"vegetarianRestaurants_6e1c781427b5","slug":"ntao-vietnameziki-koyzina-6e1c","kind":"restaurant","name":"Ντάο Βιετναμέζικη Κουζίνα","lat":37.97853266592714,"lng":23.722814547226115,"url":"https://maps.app.goo.gl/MyM1aFjtySe38NKA9?g_st=ipc","address":"Λεπενιώτου 14, Αθήνα 105 54","categoryIds":["vegetarian"],"categories":["Vegetarian Friendly Restaurants"]},{"id":"cheapEatsRestaurants_0f0b8dd68736","slug":"the-doc-s-burger-bar-0f0b","kind":"restaurant","name":"The Doc's Burger Bar","lat":37.97742334199844,"lng":23.725636669246807,"url":"https://maps.app.goo.gl/U7fwr2D5HgEHTzhH6?g_st=ipc","address":"Ανδρέα Μιαούλη 10, Αθήνα 105 54","categoryIds":["cheap-eats","vegetarian"],"categories":["Gyros & Cheap Eats","Vegetarian Friendly Restaurants"]},{"id":"coffeeBrunchRestaurants_26528fa68af9","slug":"the-brunchers-2652","kind":"restaurant","name":"The Brunchers","lat":37.97723167635048,"lng":23.724930062728706,"url":"https://maps.app.goo.gl/28Tan1nmqMaPBFMr7?g_st=ipc","address":"Αγ. Θέκλας 5, Αθήνα 105 54","categoryIds":["coffee-brunch","vegetarian"],"categories":["Coffee & Brunch Spots","Vegetarian Friendly Restaurants"]},{"id":"cheapEatsRestaurants_0155944d18e6","slug":"feyrouz-athens-0155","kind":"restaurant","name":"Feyrouz_Athens","lat":37.97815189918129,"lng":23.727647148068286,"url":"https://maps.app.goo.gl/vF2fcE6pnayp7atp8?g_st=ipc","address":"Καρόρη 23 και, Αγάθωνος 1, Αθήνα 105 51","categoryIds":["cheap-eats","vegetarian"],"categories":["Gyros & Cheap Eats","Vegetarian Friendly Restaurants"]},{"id":"dessertsRestaurants_ae317ae9a63f","slug":"plan-e-t-ice-cream-ae31","kind":"restaurant","name":"Plan(e)t Ice Cream","lat":37.9768796209685,"lng":23.725383311814642,"url":"https://maps.app.goo.gl/zzypW34gBH83e5G99?g_st=ipc","address":"Ερμού 86, Αθήνα 105 54","categoryIds":["desserts","vegetarian"],"categories":["Dessert Shops","Vegetarian Friendly Restaurants"]},{"id":"vegetarianRestaurants_e12f835ae279","slug":"fairytale-athens-cafe-suites-e12f","kind":"restaurant","name":"Fairytale Athens Café & Suites","lat":37.97804693538564,"lng":23.721754929553363,"url":"https://maps.app.goo.gl/JXiyguWxrWe1Wgrf9?g_st=ipc","address":"Leokoriou 16, Athina 105 54","categoryIds":["vegetarian"],"categories":["Vegetarian Friendly Restaurants"]},{"id":"vegetarianRestaurants_6103b84128cb","slug":"vegan-tour-athens-6103","kind":"restaurant","name":"Vegan tour Athens","lat":37.97635862482565,"lng":23.725860112285382,"url":"https://maps.app.goo.gl/HNSYbNbjWA38vytK7?g_st=ipc","address":"Πλ. Μοναστηρακίου, Αθήνα 105 55","categoryIds":["vegetarian"],"categories":["Vegetarian Friendly Restaurants"]}],"nearby":[{"id":"greekRestaurants_0880507319bf","slug":"estiatorio-ayli-0880","kind":"restaurant","name":"Εστιατόριο Αυλή","lat":37.97971984965389,"lng":23.72579553971612,"url":"https://maps.app.goo.gl/91VrWaADuuDQ9qeWA","address":"Αγ. Δημητρίου 12, Αθήνα 105 54","categoryIds":["greek-restaurants"],"categories":["Greek Restaurants"],"distanceKm":0.054774161741503624},{"id":"greekRestaurants_f27a17153226","slug":"ta-karamanlidika-toy-fani-f27a","kind":"restaurant","name":"Τα Καραμανλίδικα του Φάνη","lat":37.98022746553766,"lng":23.7256348821809,"url":"https://maps.app.goo.gl/3bDZ8oASnXexFDgS7","address":"Ευριπίδου 52, Αθήνα 105 52","categoryIds":["greek-restaurants"],"categories":["Greek Restaurants"],"distanceKm":0.07213086160078624},{"id":"fishTavernasRestaurants_4ce059d48e50","slug":"lsandsia-4ce0","kind":"restaurant","name":"lsandsia","lat":37.97936959687578,"lng":23.725957904871184,"url":"https://maps.app.goo.gl/VGsVN7MnXG9J2joA7?g_st=ipc","address":"Μελανθίου 2, Αθήνα 105 54","categoryIds":["fish-tavernas"],"categories":["Fish Tavernas"],"distanceKm":0.07764414597988915},{"id":"fishTavernasRestaurants_258b48244975","slug":"linoy-soympasis-kai-sia-258b","kind":"restaurant","name":"ΛΙΝΟΥ ΣΟΥΜΠΑΣΗΣ ΚΑΙ ΣΙΑ","lat":37.97931845245544,"lng":23.725978511536088,"url":"https://maps.app.goo.gl/K7omqvkBiNsvXTkW8?g_st=ipc","address":"Μελανθίου 2, Αθήνα 105 54 &, Καλαμίδα 9, Αθήνα 105 54","categoryIds":["fish-tavernas"],"categories":["Fish Tavernas"],"distanceKm":0.08197570711874766},{"id":"dessertsRestaurants_195d87455c89","slug":"ta-serbetia-stou-psyrri-195d","kind":"restaurant","name":"Ta Serbetia stou Psyrri","lat":37.97876489928662,"lng":23.725063077362762,"url":"https://maps.app.goo.gl/t2M6Ma6B3LXC2PSo6?g_st=ipc","address":"105 54, Eschilou 3, Athina 105 54","categoryIds":["desserts"],"categories":["Dessert Shops"],"distanceKm":0.10344945628505085},{"id":"vegetarianRestaurants_d9013916b890","slug":"dosa-house-d901","kind":"restaurant","name":"DOSA HOUSE","lat":37.98064310554285,"lng":23.725600541419325,"url":"https://maps.app.goo.gl/tYKvBnpT4mY8nvB58?g_st=ipc","address":"Θεάτρου 3, Αθήνα 105 52","categoryIds":["vegetarian"],"categories":["Vegetarian Friendly Restaurants"],"distanceKm":0.11231368490783862},{"id":"greekRestaurants_584137dc4866","slug":"taverna-klimataria-5841","kind":"restaurant","name":"Ταβέρνα Κληματαριά","lat":37.980637024107224,"lng":23.724630625441396,"url":"https://maps.app.goo.gl/2CMQFJheG9EgM5p99","address":"Πλ. Θεάτρου 2, Αθήνα 105 52","categoryIds":["greek-restaurants"],"categories":["Greek Restaurants"],"distanceKm":0.11535669546935182},{"id":"greekRestaurants_321ca0fca170","slug":"tis-theatroy-to-steki-321c","kind":"restaurant","name":"Της Θεάτρου το στέκι","lat":37.98069925682147,"lng":23.725498847688122,"url":"https://maps.app.goo.gl/7FMPKRwpazujA2C27","address":"Θεάτρου 7, Αθήνα 105 52","categoryIds":["greek-restaurants"],"categories":["Greek Restaurants"],"distanceKm":0.11569060432383255}],"sameRegion":[],"mentionedGuides":[],"canonicalSlug":"nudie-foodie-psiri-only-gluten-free-de96","isCanonicalEntity":true,"enrichment":{"summary_en":"Nudie Foodie Psiri only gluten free is a curated restaurant in Athina 105 54 in the Vegetarian Friendly Restaurants collection. It is connected to 263 nearby Googlementor picks to help travelers build a stronger local route.","summary_el":"Nudie Foodie Psiri only gluten free είναι ένα επιλεγμένο σημείο φαγητού στην περιοχή Athina 105 54 και ανήκει στη συλλογή Vegetarian Friendly Restaurants. Συνδέεται με 263 κοντινές προτάσεις του Googlementor για πιο ολοκληρωμένη εμπειρία.","vibe_tags":["curated"],"best_for":["first-time visitors","food lovers"],"visit_moments":["lunch stop","dinner stop"],"practical_note":"Address and direct map link are available for easy turn-by-turn access.","nearby_walkable_count":263,"nearby_count_2km":611,"confidence":0.98}},"__N_SSG":true}