{"pageProps":{"entity":{"id":"cheapEatsRestaurants_777a89009202","slug":"o-gyros-tis-nikitis-777a","kind":"restaurant","name":"Ο Γύρος της Νικήτης","lat":40.21635208465205,"lng":23.666421853120887,"url":"https://maps.app.goo.gl/tK8o5vXTSUBvD7U3A?g_st=ipc","address":"Egialou, Nikiti 630 88","categoryIds":["cheap-eats"],"categories":["Gyros & Cheap Eats"]},"sameCategory":[{"id":"cheapEatsRestaurants_c1994e1056ff","slug":"andoni-s-gyros-feed-c199","kind":"restaurant","name":"Andoni's Gyros Feed","lat":40.07464288630586,"lng":23.448992983256165,"url":"https://maps.app.goo.gl/L8R286xrXF2isCzv6?g_st=ipc","address":"Καλλιθέα 630 77","categoryIds":["cheap-eats"],"categories":["Gyros & Cheap Eats"]},{"id":"cheapEatsRestaurants_e78668bce22c","slug":"garry-s-e786","kind":"restaurant","name":"Garry's","lat":40.000628811076744,"lng":23.573772244228277,"url":"https://maps.app.goo.gl/AswmP29i78TmQa9F9?g_st=ipc","address":"plateia, Chaniotis 630 85","categoryIds":["cheap-eats"],"categories":["Gyros & Cheap Eats"]},{"id":"burgersRestaurants_4060fc5be247","slug":"maestro-cantina-4060","kind":"restaurant","name":"Maestro Cantina","lat":40.539870288194706,"lng":23.0207573353921,"url":"https://maps.app.goo.gl/WJTaYcJdPxACzwkXA?g_st=ipc","address":"EO Thessalonikis Poligirou 32, Thermi 570 01","categoryIds":["burgers","cheap-eats"],"categories":["Burger Spots","Gyros & Cheap Eats"]},{"id":"cheapEatsRestaurants_530bf90a8d2b","slug":"lordon-530b","kind":"restaurant","name":"Lordon","lat":40.546997157219394,"lng":23.020384247436283,"url":"https://maps.app.goo.gl/3FBZX7roU6fjgkTS6?g_st=ipc","address":"Πλατεία Παραμάνα 18, Thermi 570 01","categoryIds":["cheap-eats"],"categories":["Gyros & Cheap Eats"]},{"id":"cheapEatsRestaurants_0353751e2b08","slug":"grn-thermi-0353","kind":"restaurant","name":"ΓΡΝ Θέρμη","lat":40.54741782851475,"lng":23.01948092443365,"url":"https://maps.app.goo.gl/uCq2bBxGLbG7MnvB6?g_st=ipc","address":"Agiou Nikolaou 30, Thermi 570 01","categoryIds":["cheap-eats"],"categories":["Gyros & Cheap Eats"]},{"id":"cheapEatsRestaurants_5fc75ada9dd1","slug":"hot-pot-pasteria-5fc7","kind":"restaurant","name":"Hot Pot Pasteria","lat":40.555245602641975,"lng":22.992913714606928,"url":"https://maps.app.goo.gl/ZucBkKNWduhhUbyv9?g_st=ipc","address":"Mediterranean Cosmos, Thessaloniki","categoryIds":["cheap-eats"],"categories":["Gyros & Cheap Eats"]},{"id":"burgersRestaurants_54aa085a6ef8","slug":"sinners-smash-burgers-54aa","kind":"restaurant","name":"Sinners Smash Burgers","lat":40.57608642412674,"lng":22.98935981589618,"url":"https://maps.app.goo.gl/Y2NDJtMWMoJrutpZ6?g_st=ipc","address":"Στέλιου Καζαντζίδη 31, Pilea 555 35","categoryIds":["burgers","cheap-eats"],"categories":["Burger Spots","Gyros & Cheap Eats"]},{"id":"cheapEatsRestaurants_ce1b9aa17757","slug":"gyrovolies-ce1b","kind":"restaurant","name":"GYROVOLIES","lat":40.50927064423355,"lng":22.925792825198258,"url":"https://maps.app.goo.gl/tcGBs6FexGiv7Ju47?g_st=ipc","address":"Eleytherias 1, Perea 570 19","categoryIds":["cheap-eats"],"categories":["Gyros & Cheap Eats"]}],"nearby":[{"id":"fishTavernasRestaurants_5ddf9e953038","slug":"thymari-taverna-5ddf","kind":"restaurant","name":"Thymari taverna","lat":40.21611233902217,"lng":23.666893873150787,"url":"https://maps.app.goo.gl/PcZJeEER8XQLBzFZ8?g_st=ipc","address":"παραλία Νικήτης, Nikiti 630 88","categoryIds":["fish-tavernas"],"categories":["Fish Tavernas"],"distanceKm":0.048135391396183114},{"id":"dessertsRestaurants_98dd00cbac34","slug":"gelateria-ksilaki-98dd","kind":"restaurant","name":"Gelateria Ksilaki","lat":40.21685753813557,"lng":23.667097053863888,"url":"https://maps.app.goo.gl/YNZtpmoKz7NF28Uy9?g_st=ipc","address":"Unnamed Road, Nikiti 630 88","categoryIds":["desserts"],"categories":["Dessert Shops"],"distanceKm":0.08028516825870267},{"id":"fishTavernasRestaurants_eaca4ed31815","slug":"akrogiali-2-eaca","kind":"restaurant","name":"Akrogiali 2","lat":40.21686489057887,"lng":23.665587945674364,"url":"https://maps.app.goo.gl/oid3twRv2Aw1mCyb9?g_st=ipc","address":"Neakitou 1, Nikiti 630 88","categoryIds":["fish-tavernas"],"categories":["Fish Tavernas"],"distanceKm":0.09091214496049752},{"id":"dessertsRestaurants_2e19f32f107c","slug":"revani-me-pagoto-patisserie-anatoli-2e19","kind":"restaurant","name":"Revani me Pagoto - Patisserie Anatoli","lat":40.21741442419358,"lng":23.666604738726736,"url":"https://maps.app.goo.gl/h2Tc6Wrf9W1Td7877?g_st=ipc","address":"Nikiti 630 88","categoryIds":["desserts"],"categories":["Dessert Shops"],"distanceKm":0.11914307433286805},{"id":"greekRestaurants_f396e19049a3","slug":"alexandros-cafe-restaurant-bar-f396","kind":"restaurant","name":"Alexandros Cafe Restaurant Bar","lat":40.215334673838484,"lng":23.6678969632437,"url":"https://maps.app.goo.gl/Ro9BpyMU87qLU8Uc8?g_st=ipc","address":"Αιγιαλού 30, Νικήτη 630 88","categoryIds":["greek-restaurants"],"categories":["Greek Restaurants"],"distanceKm":0.16878007650563678},{"id":"coffeeBrunchRestaurants_546a0710ab1d","slug":"alexandros-cafe-restaurant-bar-546a","kind":"restaurant","name":"Alexandros Cafe Restaurant Bar","lat":40.21526877453814,"lng":23.66789134136706,"url":"https://maps.app.goo.gl/3iczx4sTEWWz3ZCY9?g_st=ipc","address":"Egialou 30, Nikiti 630 88","categoryIds":["coffee-brunch","italian"],"categories":["Coffee & Brunch Spots","Italian Restaurants"],"distanceKm":0.17343311066869246},{"id":"fishTavernasRestaurants_e355b9bd1307","slug":"arsanas-restaurant-e355","kind":"restaurant","name":"Arsanas Restaurant","lat":40.2141250129841,"lng":23.668831311582355,"url":"https://maps.app.goo.gl/RAaNDUnjFSAhBEiK6?g_st=ipc","address":"Epar.Od. Nikitis-Sartis, Sithonia 630 88","categoryIds":["fish-tavernas","luxury-dining"],"categories":["Fish Tavernas","Luxury Dining"],"distanceKm":0.3212197592312799},{"id":"italianRestaurants_733e26d4376e","slug":"capri-nuovo-733e","kind":"restaurant","name":"Capri Nuovo","lat":40.21248872613691,"lng":23.671364142442222,"url":"https://maps.app.goo.gl/rZCcxBdEfxEpaj619?g_st=ipc","address":"Egialou, Nikiti 630 88","categoryIds":["italian"],"categories":["Italian Restaurants"],"distanceKm":0.6005489072188371}],"sameRegion":[],"mentionedGuides":[],"canonicalSlug":"o-gyros-tis-nikitis-777a","isCanonicalEntity":true,"enrichment":{"summary_en":"Ο Γύρος της Νικήτης is a curated restaurant in Nikiti 630 88 in the Gyros & Cheap Eats collection. It is connected to 10 nearby Googlementor picks to help travelers build a stronger local route.","summary_el":"Ο Γύρος της Νικήτης είναι ένα επιλεγμένο σημείο φαγητού στην περιοχή Nikiti 630 88 και ανήκει στη συλλογή Gyros & Cheap Eats. Συνδέεται με 10 κοντινές προτάσεις του Googlementor για πιο ολοκληρωμένη εμπειρία.","vibe_tags":["curated","budget-friendly"],"best_for":["first-time visitors","food lovers","budget travelers"],"visit_moments":["lunch stop","dinner stop"],"practical_note":"Address and direct map link are available for easy turn-by-turn access.","nearby_walkable_count":10,"nearby_count_2km":14,"confidence":0.98}},"__N_SSG":true}