{"pageProps":{"entity":{"id":"greekRestaurants_3bbd0e393c04","slug":"o-leloydas-ap-to-1928-3bbd","kind":"restaurant","name":"Ο Λελουδας (απ'το 1928)","lat":37.97689297145777,"lng":23.693959991915325,"url":"https://maps.app.goo.gl/8PbKYvUzfiWbeWRg7","address":"Σαλαμινίας 8-10, Αθήνα 118 55","categoryIds":["greek-restaurants"],"categories":["Greek Restaurants"]},"sameCategory":[{"id":"greekRestaurants_c6cbcafef8ce","slug":"to-palaio-kafeneio-c6cb","kind":"restaurant","name":"Το παλαιό καφενείο","lat":37.984456056477114,"lng":23.70991900524202,"url":"https://maps.app.goo.gl/giNLK8YBTxmzzF9PA","address":"Κορυτσάς 48, Αθήνα 104 47","categoryIds":["greek-restaurants"],"categories":["Greek Restaurants"]},{"id":"greekRestaurants_e0b933397cc1","slug":"santorinios-e0b9","kind":"restaurant","name":"Σαντορινιός","lat":37.968255056831595,"lng":23.70991359071036,"url":"https://maps.app.goo.gl/HqX9azMMvY9pEhnN6","address":"118 52, Δωριέων 8, Αθήνα 118 52","categoryIds":["greek-restaurants"],"categories":["Greek Restaurants"]},{"id":"greekRestaurants_7e068071958f","slug":"rafiki-7e06","kind":"restaurant","name":"Ραφίκι","lat":37.98338715429696,"lng":23.71184940799049,"url":"https://maps.app.goo.gl/awtPeTxoWYGakCkX9","address":"Πέλλης 22, Αθήνα 104 47","categoryIds":["greek-restaurants"],"categories":["Greek Restaurants"]},{"id":"greekRestaurants_fe1298439f3b","slug":"pyroliki-fe12","kind":"restaurant","name":"Πυρολίκι","lat":37.98138914645396,"lng":23.713920948942256,"url":"https://maps.app.goo.gl/VoibgN4wKpaNpoSG7","address":"Μεγ. Αλεξάνδρου 117, Αθήνα 104 35","categoryIds":["greek-restaurants"],"categories":["Greek Restaurants"]},{"id":"greekRestaurants_9611782bc12d","slug":"o-thessalos-9611","kind":"restaurant","name":"Ο Θεσσαλός","lat":37.98471994306453,"lng":23.712346428545427,"url":"https://maps.app.goo.gl/nM83keU2k42E2kxJ6","address":"Μελενίκου 2, Αθήνα 104 47","categoryIds":["greek-restaurants"],"categories":["Greek Restaurants"]},{"id":"greekRestaurants_3d9881c33aea","slug":"oikonomoy-estiatorio-ap-to-1930-3d98","kind":"restaurant","name":"Οικονόμου Εστιατόριο (απ'το 1930)","lat":37.9698630124268,"lng":23.71322106212657,"url":"https://maps.app.goo.gl/w5wA7gPwxSUbGq4m6","address":"Κυδαντίδων 32, Αθήνα 118 51","categoryIds":["greek-restaurants"],"categories":["Greek Restaurants"]},{"id":"greekRestaurants_91881b4e9587","slug":"seramiko-9188","kind":"restaurant","name":"Σεράμικο","lat":37.98162530293091,"lng":23.71443381634983,"url":"https://maps.app.goo.gl/o8XfcUJ1JPyFTfao8","address":"Μεγ. Αλεξάνδρου 109-111, Αθήνα 104 35","categoryIds":["greek-restaurants"],"categories":["Greek Restaurants"]},{"id":"greekRestaurants_0a00e5cfcbb9","slug":"motosako-0a00","kind":"restaurant","name":"ΜΟΤΟΣΑΚΟ","lat":37.961601438829575,"lng":23.703084593129155,"url":"https://maps.app.goo.gl/EvRoWXo4KNzPYiSL9","address":"Π. Τσαλδάρη 157, Καλλιθέα 176 76","categoryIds":["greek-restaurants"],"categories":["Greek Restaurants"]}],"nearby":[{"id":"municipalities_2ffafd41aa54","slug":"votanikos-2ffa","kind":"municipality","name":"Βοτανικός","lat":37.9813,"lng":23.6984,"region":"Κέντρο Αθήνας","name_en":"Votanikos","region_en":"Athens Center","distanceKm":0.6257646896614478},{"id":"fishTavernasRestaurants_18abd934868c","slug":"to-palio-podilato-18ab","kind":"restaurant","name":"Το Παλιό Ποδήλατο","lat":37.97490750365618,"lng":23.706970638600303,"url":"https://maps.app.goo.gl/gCMLdURmK8mriaGKA?g_st=ipc","address":"Ανδρονίκου 11, Αθήνα 118 54","categoryIds":["fish-tavernas"],"categories":["Fish Tavernas"],"distanceKm":1.1615773647890566},{"id":"municipalities_2dbf77b73060","slug":"royf-2dbf","kind":"municipality","name":"Ρουφ","lat":37.9767,"lng":23.7074,"region":"Κέντρο Αθήνας","name_en":"Rouf","region_en":"Athens Center","distanceKm":1.1782190329951332},{"id":"fishTavernasRestaurants_605ac89c0351","slug":"lagoydera-entos-pon-605a","kind":"restaurant","name":"Λαγουδέρα εντός ΠΟΝ","lat":37.98593668485229,"lng":23.70145910830469,"url":"https://maps.app.goo.gl/sT6Yu3rAWgUrsdMe6?g_st=ipc","address":"Εντός ΠΟΝ 102Α, Ιερά Οδός, Αθήνα 104 47","categoryIds":["fish-tavernas"],"categories":["Fish Tavernas"],"distanceKm":1.2013544005946843},{"id":"familyFriendly_98c2e7261cb9","slug":"river-west-98c2","kind":"restaurant","name":"RΙVER WEST","lat":37.98032396745312,"lng":23.679187542082428,"url":"https://maps.app.goo.gl/f3b5sDipJZCcLSLC7?g_st=ipc","address":"Par. Leoforou Kifisou 98, Egaleo 122 41","categoryIds":["family-friendly"],"categories":["Kid Friendly Locations"],"distanceKm":1.3498173479973141},{"id":"cheapEatsRestaurants_2631e9cf6c33","slug":"andreas-2631","kind":"restaurant","name":"Ανδρέας","lat":37.96513210122869,"lng":23.697946357808643,"url":"https://maps.app.goo.gl/FLdq6c6WUqhHtMqK9?g_st=ipc","address":"Χρυσοστόμου Σμύρνης 52, Ταύρος Αττικής 177 78","categoryIds":["cheap-eats"],"categories":["Gyros & Cheap Eats"],"distanceKm":1.3536292781124604},{"id":"coffeeBrunchRestaurants_d2dd2ec9a7b0","slug":"pangaia-the-food-project-d2dd","kind":"restaurant","name":"Pangaia - The Food Project","lat":37.979003020963276,"lng":23.70956014016223,"url":"https://maps.app.goo.gl/dttggVUcZNJqG52r9?g_st=ipc","address":"Λ. Κωνσταντινουπόλεως 67, Αθήνα 118 55","categoryIds":["coffee-brunch"],"categories":["Coffee & Brunch Spots"],"distanceKm":1.387323768959294},{"id":"cheapEatsRestaurants_ed7bd1fc7e39","slug":"mirlo-kebabs-ed7b","kind":"restaurant","name":"mirlo kebabs","lat":37.976362795934286,"lng":23.71060804281136,"url":"https://maps.app.goo.gl/rT5pzNjpc9bM7HzT9?g_st=ipc","address":"Ελασιδών 5A, Αθήνα 118 54","categoryIds":["cheap-eats"],"categories":["Gyros & Cheap Eats"],"distanceKm":1.4604039568201856}],"sameRegion":[],"mentionedGuides":[],"canonicalSlug":"o-leloydas-ap-to-1928-3bbd","isCanonicalEntity":true,"enrichment":{"summary_en":"Ο Λελουδας (απ'το 1928) is a curated restaurant in Αθήνα 118 55 in the Greek Restaurants collection. It is connected to 1 nearby Googlementor picks to help travelers build a stronger local route.","summary_el":"Ο Λελουδας (απ'το 1928) είναι ένα επιλεγμένο σημείο φαγητού στην περιοχή Αθήνα 118 55 και ανήκει στη συλλογή Greek Restaurants. Συνδέεται με 1 κοντινές προτάσεις του Googlementor για πιο ολοκληρωμένη εμπειρία.","vibe_tags":["curated"],"best_for":["first-time visitors","food lovers"],"visit_moments":["lunch stop","dinner stop"],"practical_note":"Address and direct map link are available for easy turn-by-turn access.","nearby_walkable_count":1,"nearby_count_2km":47,"confidence":0.9}},"__N_SSG":true}