{"pageProps":{"entity":{"id":"greekRestaurants_b8183ad911da","slug":"o-mitsos-b818","kind":"restaurant","name":"Ο Μήτσος","lat":37.44635077351931,"lng":24.926756993265617,"url":"https://maps.app.goo.gl/rymG3hKT6zM9Hv1X8?g_st=ipc","address":"Αληθινή 841 00","categoryIds":["greek-restaurants"],"categories":["Greek Restaurants"]},"sameCategory":[{"id":"greekRestaurants_b66f81151a01","slug":"empati-b66f","kind":"restaurant","name":"Εμπατή","lat":37.4495588259796,"lng":24.927676203171245,"url":"https://maps.app.goo.gl/6AwpTQ9uTLgEUaBJ8?g_st=ipc","address":"Αληθινή 841 00","categoryIds":["greek-restaurants"],"categories":["Greek Restaurants"]},{"id":"greekRestaurants_bd91fcd5ea24","slug":"laoytari-bd91","kind":"restaurant","name":"Λαουτάρι","lat":37.440095347477,"lng":24.93954086077632,"url":"https://maps.app.goo.gl/hg1f12ccy5BRDtoR9?g_st=ipc","address":"Θερμοπυλών 18, Ερμούπολη 841 00","categoryIds":["greek-restaurants"],"categories":["Greek Restaurants"]},{"id":"greekRestaurants_ca82ecc0469e","slug":"to-tsipoyradiko-tis-myrsinis-ca82","kind":"restaurant","name":"Το Τσιπουράδικο της Μυρσίνης","lat":37.4418414585908,"lng":24.9417843089367,"url":"https://maps.app.goo.gl/iYVQf35areJL729h8?g_st=ipc","address":"Ακτή Παπάγου 6, Ερμούπολη 841 00","categoryIds":["greek-restaurants"],"categories":["Greek Restaurants"]},{"id":"greekRestaurants_146807342037","slug":"ithaki-toy-ai-1468","kind":"restaurant","name":"Ιθάκη του Αή","lat":37.44420854822272,"lng":24.943948745039016,"url":"https://maps.app.goo.gl/KDXT6jt1hACmxQyQ9?g_st=ipc","address":"Κλώνος &, Κυπαρίσσου 1Α, Ερμούπολη 841 00","categoryIds":["greek-restaurants"],"categories":["Greek Restaurants"]},{"id":"greekRestaurants_1696c19253da","slug":"seminario-restaurant-1696","kind":"restaurant","name":"SEMINARIO RESTAURANT","lat":37.44429164128135,"lng":24.944085469492308,"url":"https://maps.app.goo.gl/nJKupgtgjMPeqH9s9?g_st=ipc","address":"Κυπαρίσσου 7, Ερμούπολη 841 00","categoryIds":["greek-restaurants"],"categories":["Greek Restaurants"]},{"id":"greekRestaurants_7b08b4e7ecfa","slug":"plakostroto-7b08","kind":"restaurant","name":"Πλακόστρωτο","lat":37.48884885717979,"lng":24.92039552541297,"url":"https://maps.app.goo.gl/XfD9nNTB3trh5Euw6?g_st=ipc","address":"Κυκλάδων, Αη Μιχάλης 841 00","categoryIds":["greek-restaurants"],"categories":["Greek Restaurants"]},{"id":"greekRestaurants_96450f00f0b5","slug":"iliovasilema-9645","kind":"restaurant","name":"Ηλιοβασίλεμα","lat":37.42092278718389,"lng":24.87878430217567,"url":"https://maps.app.goo.gl/NKaN6gyqZ6cUdDoo9?g_st=ipc","address":"Παραλια, Γαλησσάς 841 00","categoryIds":["greek-restaurants"],"categories":["Greek Restaurants"]},{"id":"fishTavernasRestaurants_721ec670613c","slug":"ora-baresto-721e","kind":"restaurant","name":"ORA baresto","lat":37.398407848807196,"lng":24.87840275006321,"url":"https://maps.app.goo.gl/gop1o8sLeZBAttGy7?g_st=ipc","address":"Επαρχιακή Οδός Ερμούπολης-Φοίνικων,Φοίνικας 841 00 ΣΥΡΟΣ, 841 00","categoryIds":["fish-tavernas","greek-restaurants"],"categories":["Fish Tavernas","Greek Restaurants"]}],"nearby":[{"id":"greekRestaurants_b66f81151a01","slug":"empati-b66f","kind":"restaurant","name":"Εμπατή","lat":37.4495588259796,"lng":24.927676203171245,"url":"https://maps.app.goo.gl/6AwpTQ9uTLgEUaBJ8?g_st=ipc","address":"Αληθινή 841 00","categoryIds":["greek-restaurants"],"categories":["Greek Restaurants"],"distanceKm":0.365832311848253},{"id":"luxuryDiningRestaurants_9c6d307705cb","slug":"hygge-ano-syros-9c6d","kind":"restaurant","name":"Hygge Ano Syros","lat":37.45063025961707,"lng":24.93672789045308,"url":"https://maps.app.goo.gl/bq8XEdkjQTKveFWo7?g_st=ipc","address":"Ano Syros 841 00","categoryIds":["luxury-dining"],"categories":["Luxury Dining"],"distanceKm":1.000602651489346},{"id":"greekRestaurants_bd91fcd5ea24","slug":"laoytari-bd91","kind":"restaurant","name":"Λαουτάρι","lat":37.440095347477,"lng":24.93954086077632,"url":"https://maps.app.goo.gl/hg1f12ccy5BRDtoR9?g_st=ipc","address":"Θερμοπυλών 18, Ερμούπολη 841 00","categoryIds":["greek-restaurants"],"categories":["Greek Restaurants"],"distanceKm":1.3257374370227255},{"id":"coffeeBrunchRestaurants_ec0f2731baff","slug":"epta-syros-island-ec0f","kind":"restaurant","name":"Epta - Syros Island","lat":37.443982055478656,"lng":24.941782056394448,"url":"https://maps.app.goo.gl/67zZLni25BkifsZy6?g_st=ipc","address":"Peloponnisou 7, Ermoupoli 841 00","categoryIds":["coffee-brunch"],"categories":["Coffee & Brunch Spots"],"distanceKm":1.3523344288462198},{"id":"coffeeBrunchRestaurants_9e14262d126e","slug":"artisti-prozymi-9e14","kind":"restaurant","name":"Artisti Προζύμι","lat":37.44450469447684,"lng":24.94200878171083,"url":"https://maps.app.goo.gl/zBtgvSEn5xc7LXJYA?g_st=ipc","address":"Ermoupoli 841 00","categoryIds":["coffee-brunch"],"categories":["Coffee & Brunch Spots"],"distanceKm":1.3620055452323705},{"id":"italianRestaurants_c3995e275001","slug":"amvix-c399","kind":"restaurant","name":"Amvix","lat":37.44099934175907,"lng":24.940807847227685,"url":"https://maps.app.goo.gl/pvyKHGGD2fbgASCE8?g_st=ipc","address":"Akti Papagoi 26, Ermoupoli 841 00","categoryIds":["italian"],"categories":["Italian Restaurants"],"distanceKm":1.3757978790645635},{"id":"dessertsRestaurants_4f049383a360","slug":"athymaritis-4f04","kind":"restaurant","name":"Αθυμαρίτης","lat":37.44304285674758,"lng":24.942058155197838,"url":"https://maps.app.goo.gl/QqZKei5CzCtJaWFv7?g_st=ipc","address":"ΚΕΑΣ, Επτανήσου 2, ΚΑΙ 841 00","categoryIds":["desserts"],"categories":["Dessert Shops"],"distanceKm":1.400002832254061},{"id":"greekRestaurants_ca82ecc0469e","slug":"to-tsipoyradiko-tis-myrsinis-ca82","kind":"restaurant","name":"Το Τσιπουράδικο της Μυρσίνης","lat":37.4418414585908,"lng":24.9417843089367,"url":"https://maps.app.goo.gl/iYVQf35areJL729h8?g_st=ipc","address":"Ακτή Παπάγου 6, Ερμούπολη 841 00","categoryIds":["greek-restaurants"],"categories":["Greek Restaurants"],"distanceKm":1.4182479657044633}],"sameRegion":[],"mentionedGuides":[],"canonicalSlug":"o-mitsos-b818","isCanonicalEntity":true,"enrichment":{"summary_en":"Ο Μήτσος is a curated restaurant in Greece in the Greek Restaurants collection. It is connected to 1 nearby Googlementor picks to help travelers build a stronger local route.","summary_el":"Ο Μήτσος είναι ένα επιλεγμένο σημείο φαγητού στην περιοχή Greece και ανήκει στη συλλογή Greek Restaurants. Συνδέεται με 1 κοντινές προτάσεις του Googlementor για πιο ολοκληρωμένη εμπειρία.","vibe_tags":["curated"],"best_for":["first-time visitors","food lovers"],"visit_moments":["lunch stop","dinner stop"],"practical_note":"Address and direct map link are available for easy turn-by-turn access.","nearby_walkable_count":1,"nearby_count_2km":17,"confidence":0.9}},"__N_SSG":true}