{"pageProps":{"entity":{"id":"greekRestaurants_b44e1eb1d480","slug":"oinomageireio-to-trifylli-b44e","kind":"restaurant","name":"Οινομαγειρείο «Το Τριφύλλι»","lat":37.98741582684548,"lng":23.752997875166535,"url":"https://maps.app.goo.gl/ZaG4vxaqPUZoyUEH7","address":"Παναθηναϊκού 7, Αθήνα 115 21","categoryIds":["greek-restaurants"],"categories":["Greek Restaurants"]},"sameCategory":[{"id":"greekRestaurants_b1c00c9474af","slug":"agora-b1c0","kind":"restaurant","name":"AGORA","lat":37.98712790409338,"lng":23.757368207050618,"url":"https://maps.app.goo.gl/UKN5PTfDAJ43RhcT7","address":"31, Χρήστου Βουρνάζου str, Αθήνα 115 21","categoryIds":["greek-restaurants"],"categories":["Greek Restaurants"]},{"id":"greekRestaurants_f3fc125c2d89","slug":"psistaria-to-agrinio-f3fc","kind":"restaurant","name":"Ψησταριά Το Αγρίνιο","lat":37.98365341957495,"lng":23.761708124944604,"url":"https://maps.app.goo.gl/C245RwiHHTqtJUfs8","address":"Σινώπης 18, Αθήνα 115 27","categoryIds":["greek-restaurants"],"categories":["Greek Restaurants"]},{"id":"greekRestaurants_f2230e55c586","slug":"o-platanos-f223","kind":"restaurant","name":"Ο Πλάτανος","lat":37.98012652047389,"lng":23.757043689219586,"url":"https://maps.app.goo.gl/GVj14ysF6cMr9ZoA6","address":"Σεβαστείας 6, Αθήνα 115 28","categoryIds":["greek-restaurants"],"categories":["Greek Restaurants"]},{"id":"greekRestaurants_442477ae20ac","slug":"axotis-4424","kind":"restaurant","name":"Αξώτης","lat":37.995836587823845,"lng":23.754896105548557,"url":"https://maps.app.goo.gl/ins2h5odAAUqFqf2A","address":"Παπαρσένη 15, Αθήνα 114 76","categoryIds":["greek-restaurants"],"categories":["Greek Restaurants"]},{"id":"greekRestaurants_e2f8a1a4ded7","slug":"katsarola-e2f8","kind":"restaurant","name":"Κατσαρόλα","lat":37.98993156504118,"lng":23.741864128657266,"url":"https://maps.app.goo.gl/R5o9th6YAJUun6xp6","address":"Λεωφ. Αλεξάνδρας 74, Αθήνα 114 73","categoryIds":["greek-restaurants"],"categories":["Greek Restaurants"]},{"id":"greekRestaurants_62053e521d7b","slug":"michalis-stoy-koytroyli-6205","kind":"restaurant","name":"Μιχάλης - Στου Κουτρούλη","lat":37.995178959519315,"lng":23.761505445987336,"url":"https://maps.app.goo.gl/7La7jhMdfnzvnDUN6","address":"Βαρίκα 8, Αθήνα 115 24","categoryIds":["greek-restaurants"],"categories":["Greek Restaurants"]},{"id":"greekRestaurants_eb74ce369d8c","slug":"skalakia-eb74","kind":"restaurant","name":"Σκαλάκια","lat":37.97743768834,"lng":23.756590141442583,"url":"https://maps.app.goo.gl/awU151ZstgomSVZZ8","address":"Διονυσίου Αιγινήτου 32, Αθήνα 115 28","categoryIds":["greek-restaurants"],"categories":["Greek Restaurants"]},{"id":"greekRestaurants_1f74ff05ff24","slug":"estiatorio-filippoy-1f74","kind":"restaurant","name":"Εστιατόριο Φιλίππου","lat":37.979221094535326,"lng":23.744501065071557,"url":"https://maps.app.goo.gl/Zq4cnAxJ4Dx6qQUq8","address":"Ξενοκράτους 19, Αθήνα 106 75","categoryIds":["greek-restaurants"],"categories":["Greek Restaurants"]}],"nearby":[{"id":"greekRestaurants_b1c00c9474af","slug":"agora-b1c0","kind":"restaurant","name":"AGORA","lat":37.98712790409338,"lng":23.757368207050618,"url":"https://maps.app.goo.gl/UKN5PTfDAJ43RhcT7","address":"31, Χρήστου Βουρνάζου str, Αθήνα 115 21","categoryIds":["greek-restaurants"],"categories":["Greek Restaurants"],"distanceKm":0.38434292148266225},{"id":"cheapEatsRestaurants_f3cf5026ad57","slug":"peinirli-ionias-f3cf","kind":"restaurant","name":"Πεϊνιρλί Ιωνίας","lat":37.98758471065417,"lng":23.75770179070527,"url":"https://maps.app.goo.gl/SXittnYdkLPeQRb17?g_st=ipc","address":"Πανόρμου 3, Αθήνα 115 22","categoryIds":["cheap-eats"],"categories":["Gyros & Cheap Eats"],"distanceKm":0.4126679879041621},{"id":"burgersRestaurants_2cfc1007d530","slug":"criminal-taste-smash-burger-2cfc","kind":"restaurant","name":"Criminal Taste - Smash Burger","lat":37.98830387219437,"lng":23.758246415299563,"url":"https://maps.app.goo.gl/bjsnq9fK7qPHgAum7?g_st=ipc","address":"Πανόρμου 10, Αθήνα 115 23","categoryIds":["burgers"],"categories":["Burger Spots"],"distanceKm":0.4704479379826292},{"id":"dessertsRestaurants_d3301ebc9d06","slug":"portatif-ippokratous-d330","kind":"restaurant","name":"Portatif - ippokratous","lat":37.98880796872772,"lng":23.747928642094816,"url":"https://maps.app.goo.gl/Hjds2t3JrKoqCot39?g_st=ipc","address":"Ιπποκράτους 206, Αθήνα 114 72","categoryIds":["desserts"],"categories":["Dessert Shops"],"distanceKm":0.4704497241113791},{"id":"asianRestaurants_01d2fd8409bc","slug":"siam-thai-food-01d2","kind":"restaurant","name":"Siam Thai Food","lat":37.98765776292927,"lng":23.75850606152562,"url":"https://maps.app.goo.gl/V19mHCb8LHh8jNgz6?g_st=ipc","address":"Βατοπεδίου 6, Αθήνα 115 23","categoryIds":["asian"],"categories":["Asian Restaurants"],"distanceKm":0.4834737530098662},{"id":"coffeeBrunchRestaurants_a95b26c47b64","slug":"hygge-athens-a95b","kind":"restaurant","name":"Hygge Athens","lat":37.988231189980574,"lng":23.746766075427747,"url":"https://maps.app.goo.gl/gFbRCwSSyvTd57Ti8?g_st=ipc","address":"Ιπποκράτους 192, Αθήνα 114 71","categoryIds":["coffee-brunch"],"categories":["Coffee & Brunch Spots"],"distanceKm":0.5536128045634734},{"id":"luxuryDiningRestaurants_27502c55cce5","slug":"fuga-restaurant-bar-2750","kind":"restaurant","name":"Fuga restaurant & Bar","lat":37.98215631508218,"lng":23.753698661211164,"url":"https://maps.app.goo.gl/3rzbE1xBxdLWH9Fm7?g_st=ipc","address":"Πέτρου Κόκκαλη 1, Αθήνα 115 21","categoryIds":["luxury-dining"],"categories":["Luxury Dining"],"distanceKm":0.5880471455948983},{"id":"cheapEatsRestaurants_2d35d62e4881","slug":"kantina-mavili-2d35","kind":"restaurant","name":"Καντίνα Μαβίλη","lat":37.98253879036559,"lng":23.7560791108495,"url":"https://maps.app.goo.gl/tXjW7wXH83v15nHX8?g_st=ipc","address":"Δημ. Σούτσου 3, Αθήνα 115 21","categoryIds":["cheap-eats"],"categories":["Gyros & Cheap Eats"],"distanceKm":0.6058165698178761}],"sameRegion":[],"mentionedGuides":[],"canonicalSlug":"oinomageireio-to-trifylli-b44e","isCanonicalEntity":true,"enrichment":{"summary_en":"Οινομαγειρείο «Το Τριφύλλι» is a curated restaurant in Αθήνα 115 21 in the Greek Restaurants collection. It is connected to 13 nearby Googlementor picks to help travelers build a stronger local route.","summary_el":"Οινομαγειρείο «Το Τριφύλλι» είναι ένα επιλεγμένο σημείο φαγητού στην περιοχή Αθήνα 115 21 και ανήκει στη συλλογή Greek Restaurants. Συνδέεται με 13 κοντινές προτάσεις του Googlementor για πιο ολοκληρωμένη εμπειρία.","vibe_tags":["curated"],"best_for":["first-time visitors","food lovers"],"visit_moments":["lunch stop","dinner stop"],"practical_note":"Address and direct map link are available for easy turn-by-turn access.","nearby_walkable_count":13,"nearby_count_2km":234,"confidence":0.98}},"__N_SSG":true}