{"pageProps":{"entity":{"id":"coffeeBrunchRestaurants_3daa295f084c","slug":"olympion-cafe-bar-1951-3daa","kind":"restaurant","name":"Olympion Cafe Bar 1951","lat":40.632694674088896,"lng":22.941732044946015,"url":"https://maps.app.goo.gl/jjCCeEkXCKm7ow7v6?g_st=ipc","address":"Aristotelous Sq 10, Thessaloniki 546 23","categoryIds":["coffee-brunch"],"categories":["Coffee & Brunch Spots"]},"sameCategory":[{"id":"coffeeBrunchRestaurants_c75ff3cb9f5e","slug":"rafiki-outdoors-c75f","kind":"restaurant","name":"Rafiki Outdoors","lat":40.63384593288072,"lng":22.94144670060357,"url":"https://maps.app.goo.gl/EDFEAtyxnASt6ymy5?g_st=ipc","address":"Tsimiski 33, Thessaloniki 546 34","categoryIds":["coffee-brunch"],"categories":["Coffee & Brunch Spots"]},{"id":"coffeeBrunchRestaurants_5c966e24d1c8","slug":"pantheon-bar-5c96","kind":"restaurant","name":"Pantheon Bar","lat":40.631470349652666,"lng":22.942304739075517,"url":"https://maps.app.goo.gl/9EzJNfobuDEBDMXt9?g_st=ipc","address":"Proxenou Koromila 8, Thessaloniki 546 23","categoryIds":["coffee-brunch"],"categories":["Coffee & Brunch Spots"]},{"id":"coffeeBrunchRestaurants_7d9521648c08","slug":"gellissimo-biscoto-brunch-coffee-thessaloniki-7d95","kind":"restaurant","name":"Gellissimo Biscoto | Brunch • Coffee | Thessaloniki","lat":40.63140115464137,"lng":22.942410197737622,"url":"https://maps.app.goo.gl/wcnUMwvELMBCafND6?g_st=ipc","address":"Proxenou Koromila 8, Thessaloniki 546 23","categoryIds":["coffee-brunch","desserts"],"categories":["Coffee & Brunch Spots","Dessert Shops"]},{"id":"coffeeBrunchRestaurants_987872bb6308","slug":"country-breadery-9878","kind":"restaurant","name":"COUNTRY BREADERY","lat":40.63135416254277,"lng":22.942765966640508,"url":"https://maps.app.goo.gl/xymcn1s9hE8P57deA?g_st=ipc","address":"Proxenou Koromila 13, Thessaloniki 546 23","categoryIds":["coffee-brunch"],"categories":["Coffee & Brunch Spots"]},{"id":"coffeeBrunchRestaurants_3b150a298ebf","slug":"tribeca-3b15","kind":"restaurant","name":"Tribeca","lat":40.631124138525365,"lng":22.9420760162127,"url":"https://maps.app.goo.gl/mW7fQGRSkeQqkwf8A?g_st=ipc","address":"Leof. Nikis 21, Thessaloniki 546 23","categoryIds":["coffee-brunch"],"categories":["Coffee & Brunch Spots"]},{"id":"coffeeBrunchRestaurants_eb01fc18d144","slug":"mangiare-gastro-pizza-pasta-bar-eb01","kind":"restaurant","name":"Mangiare Gastro Pizza Pasta Bar","lat":40.63353783457787,"lng":22.939678053388604,"url":"https://maps.app.goo.gl/aWDb6qE5HF6MmFreA?g_st=ipc","address":"Mitropoleos 20, Thessaloniki 546 24","categoryIds":["coffee-brunch"],"categories":["Coffee & Brunch Spots"]},{"id":"coffeeBrunchRestaurants_b487090aef38","slug":"moonkiz-cafe-b487","kind":"restaurant","name":"Moonkiz Café","lat":40.63268245780202,"lng":22.944199601012993,"url":"https://maps.app.goo.gl/34HUt3Zqr1wPaAQUA?g_st=ipc","address":"Geor. Stavrou 8, Thessaloniki 546 23","categoryIds":["coffee-brunch"],"categories":["Coffee & Brunch Spots"]},{"id":"coffeeBrunchRestaurants_bb53d56df5ab","slug":"candybar-bb53","kind":"restaurant","name":"Candybar","lat":40.63307970052453,"lng":22.944591933924332,"url":"https://maps.app.goo.gl/Qxj6VN1pGyEntd7A9?g_st=ipc","address":"Ag. Theodoras 4, Thessaloniki 546 23","categoryIds":["coffee-brunch"],"categories":["Coffee & Brunch Spots"]}],"nearby":[{"id":"cheapEatsRestaurants_d0809c48801b","slug":"22-soyvlakia-d080","kind":"restaurant","name":"22 Σουβλάκια","lat":40.632325575157445,"lng":22.941533229878075,"url":"https://maps.app.goo.gl/dAaaqBN4npr7HBBU7?g_st=ipc","address":"Aristotelous Sq 8, Thessaloniki 546 23","categoryIds":["cheap-eats"],"categories":["Gyros & Cheap Eats"],"distanceKm":0.044338639125308145},{"id":"dessertsRestaurants_fa6b1cda2935","slug":"terkenlis-fa6b","kind":"restaurant","name":"Terkenlis","lat":40.63318101509439,"lng":22.941941930979123,"url":"https://maps.app.goo.gl/x8RmTioRat9tbKBd8?g_st=ipc","address":"Tsimiski 30, Thessaloniki 546 36","categoryIds":["desserts"],"categories":["Dessert Shops"],"distanceKm":0.05690511546361057},{"id":"rooftopLoungesRestaurants_c00e2007b8c8","slug":"orizontes-roof-garden-c00e","kind":"restaurant","name":"Orizontes Roof Garden","lat":40.63324843271599,"lng":22.94121400261453,"url":"https://maps.app.goo.gl/k4RMBTJaYnWPwHrU7?g_st=ipc","address":"Aristotelous Sq 9, Thessaloniki 546 24","categoryIds":["rooftop-lounges"],"categories":["Rooftop Lounges"],"distanceKm":0.0755150408397395},{"id":"cheapEatsRestaurants_284a6ef1dfeb","slug":"the-last-slice-284a","kind":"restaurant","name":"The Last Slice","lat":40.63188753569458,"lng":22.94190837965703,"url":"https://maps.app.goo.gl/iyZQfPWo4E2pskqX8?g_st=ipc","address":"Proxenou Koromila 1, Thessaloniki 546 23","categoryIds":["cheap-eats","italian"],"categories":["Gyros & Cheap Eats","Italian Restaurants"],"distanceKm":0.09097488192686294},{"id":"dessertsRestaurants_9a44dfef37c2","slug":"softie-9a44","kind":"restaurant","name":"Softie","lat":40.63175293928538,"lng":22.94216885639287,"url":"https://maps.app.goo.gl/wypmiNMsE5au37Mr7?g_st=ic","address":"Proxenou Koromila 5, Thessaloniki 546 23","categoryIds":["desserts"],"categories":["Dessert Shops"],"distanceKm":0.11101440396837145},{"id":"italianRestaurants_7c05bdca6535","slug":"apallou-7c05","kind":"restaurant","name":"Apallou","lat":40.6319800622151,"lng":22.942842887749638,"url":"https://maps.app.goo.gl/gJ5jrWEXwAbU6ynW8?g_st=ipc","address":"Μητροπόλεως &, Karolou Ntil 10, Thessaloniki 546 23","categoryIds":["italian"],"categories":["Italian Restaurants"],"distanceKm":0.12288713688580434},{"id":"coffeeBrunchRestaurants_c75ff3cb9f5e","slug":"rafiki-outdoors-c75f","kind":"restaurant","name":"Rafiki Outdoors","lat":40.63384593288072,"lng":22.94144670060357,"url":"https://maps.app.goo.gl/EDFEAtyxnASt6ymy5?g_st=ipc","address":"Tsimiski 33, Thessaloniki 546 34","categoryIds":["coffee-brunch"],"categories":["Coffee & Brunch Spots"],"distanceKm":0.13025900413032948},{"id":"coffeeBrunchRestaurants_5c966e24d1c8","slug":"pantheon-bar-5c96","kind":"restaurant","name":"Pantheon Bar","lat":40.631470349652666,"lng":22.942304739075517,"url":"https://maps.app.goo.gl/9EzJNfobuDEBDMXt9?g_st=ipc","address":"Proxenou Koromila 8, Thessaloniki 546 23","categoryIds":["coffee-brunch"],"categories":["Coffee & Brunch Spots"],"distanceKm":0.14446211650120233}],"sameRegion":[],"mentionedGuides":[],"canonicalSlug":"olympion-cafe-bar-1951-3daa","isCanonicalEntity":true,"enrichment":{"summary_en":"Olympion Cafe Bar 1951 is a curated restaurant in Thessaloniki 546 23 in the Coffee & Brunch Spots collection. It is connected to 185 nearby Googlementor picks to help travelers build a stronger local route.","summary_el":"Olympion Cafe Bar 1951 είναι ένα επιλεγμένο σημείο φαγητού στην περιοχή Thessaloniki 546 23 και ανήκει στη συλλογή Coffee & Brunch Spots. Συνδέεται με 185 κοντινές προτάσεις του Googlementor για πιο ολοκληρωμένη εμπειρία.","vibe_tags":["curated","daytime-favorite"],"best_for":["first-time visitors","food lovers"],"visit_moments":["early morning","late brunch"],"practical_note":"Address and direct map link are available for easy turn-by-turn access.","nearby_walkable_count":185,"nearby_count_2km":259,"confidence":0.98}},"__N_SSG":true}