{"pageProps":{"entity":{"id":"dessertsRestaurants_02af5db1ffaa","slug":"overoll-croissanterie-02af","kind":"restaurant","name":"Overoll Croissanterie","lat":37.9788693032848,"lng":23.729688539887693,"url":"https://maps.app.goo.gl/eMRJKRxLBxxiGu628?g_st=ipc","address":"Πραξιτέλους 27, Αθήνα 105 60","categoryIds":["desserts"],"categories":["Dessert Shops"]},"sameCategory":[{"id":"dessertsRestaurants_1924a0d216d5","slug":"sol-bake-and-coffee-project-athens-1924","kind":"restaurant","name":"Sol Bake and Coffee Project - Athens","lat":37.978160024245575,"lng":23.730562902712155,"url":"https://maps.app.goo.gl/b6SrDJp3RTtqrXM58?g_st=ic","address":"Πραξιτέλους 11, Chavriou 9, Athina 105 62","categoryIds":["desserts"],"categories":["Dessert Shops"]},{"id":"dessertsRestaurants_0b6ae51a593c","slug":"koykoyvagia-0b6a","kind":"restaurant","name":"Κουκουβάγια","lat":37.97736767389115,"lng":23.728413094267065,"url":"https://maps.app.goo.gl/CMZY3dTRrJ7tTadz6?g_st=ipc","address":"Σκουζέ 1, Αθήνα 105 60","categoryIds":["desserts"],"categories":["Dessert Shops"]},{"id":"dessertsRestaurants_7f6602abadca","slug":"krinos-7f66","kind":"restaurant","name":"Κρίνος","lat":37.98041054951213,"lng":23.728412779668,"url":"https://maps.app.goo.gl/dP718rebSLuGyq4GA?g_st=ipc","address":"Αιόλου 87, Αθήνα 105 51","categoryIds":["desserts"],"categories":["Dessert Shops"]},{"id":"dessertsRestaurants_0f0c49ba7b9d","slug":"lukumades-0f0c","kind":"restaurant","name":"LUKUMAΔΕΣ","lat":37.97694430629526,"lng":23.727608988769845,"url":"https://maps.app.goo.gl/wq9zqPDm2JRLP8hZ7?g_st=ipc","address":"Eolou 21, & Aghias Irinis Str, Athina 105 51","categoryIds":["desserts"],"categories":["Dessert Shops"]},{"id":"dessertsRestaurants_d96257796e81","slug":"kokkion-monastiraki-d962","kind":"restaurant","name":"Kokkion Μοναστηράκι","lat":37.97829626511462,"lng":23.72638522814765,"url":"https://maps.app.goo.gl/FfAWG58apt6AFDPU7?g_st=ipc","address":"Πρωτογένους 2, Αθήνα 105 54","categoryIds":["desserts"],"categories":["Dessert Shops"]},{"id":"dessertsRestaurants_eb9f02ba5b47","slug":"choureal-choux-profiterole-eb9f","kind":"restaurant","name":"CHOUREAL - Choux & Profiterole","lat":37.97617972861017,"lng":23.73180056203846,"url":"https://maps.app.goo.gl/qEAK3Nkr3LyPuUwh9?g_st=ipc","address":"Διομείας 2 &, Ερμού 18, Αθήνα 105 63","categoryIds":["desserts"],"categories":["Dessert Shops"]},{"id":"dessertsRestaurants_c341ccbd87e0","slug":"ariston-lompotesis-c341","kind":"restaurant","name":"ΑΡΙΣΤΟΝ ΛΟΜΠΟΤΕΣΗΣ","lat":37.97670511785389,"lng":23.732649290748736,"url":"https://maps.app.goo.gl/GQVtxtBLY3rpmzsa9?g_st=ipc","address":"Βουλής 10, Αθήνα 105 62","categoryIds":["desserts","vegetarian"],"categories":["Dessert Shops","Vegetarian Friendly Restaurants"]},{"id":"dessertsRestaurants_ce9de85fc0a1","slug":"aristokratikon-epich-ap-to-1928-syntagma-athina-ce9d","kind":"restaurant","name":"Αριστοκρατικόν (Επιχ. απ'το 1928) - Σύνταγμα, Αθήνα","lat":37.97685312862056,"lng":23.732864293474787,"url":"https://maps.app.goo.gl/ZpgyyzyeJjW4e7Y58?g_st=ipc","address":"Βουλής 7, Αθήνα 105 62","categoryIds":["desserts"],"categories":["Dessert Shops"]}],"nearby":[{"id":"cheapEatsRestaurants_c89c11621856","slug":"kapsa-c89c","kind":"restaurant","name":"Κάψα","lat":37.9791128198558,"lng":23.729644254058044,"url":"https://maps.app.goo.gl/GnCnbQadKKWk2pSs5?g_st=ipc","address":"Σκουλενίου 4, Αθήνα 105 61","categoryIds":["cheap-eats"],"categories":["Gyros & Cheap Eats"],"distanceKm":0.02735460018251217},{"id":"rooftopLoungesRestaurants_e13e9020f860","slug":"horostasio-e13e","kind":"restaurant","name":"Horostasio","lat":37.979148709346994,"lng":23.729708422545425,"url":"https://maps.app.goo.gl/z4BDM28nzQm5DRAz5?g_st=ipc","address":"Σκουλενίου 2B, Αθήνα 105 61","categoryIds":["rooftop-lounges"],"categories":["Rooftop Lounges"],"distanceKm":0.031117372539753108},{"id":"coffeeBrunchRestaurants_3bd143dc0b3c","slug":"anana-coffee-food-3bd1","kind":"restaurant","name":"Anana Coffee|Food","lat":37.9790791623964,"lng":23.72939339771832,"url":"https://maps.app.goo.gl/LVwtjjfHm1ZP7KNd9?g_st=ipc","address":"Πραξιτέλους 33, Αθήνα 105 60","categoryIds":["coffee-brunch","vegetarian"],"categories":["Coffee & Brunch Spots","Vegetarian Friendly Restaurants"],"distanceKm":0.034838469991229956},{"id":"coffeeBrunchRestaurants_03891d56076e","slug":"odori-0389","kind":"restaurant","name":"Odori","lat":37.97922436265169,"lng":23.729754698272135,"url":"https://maps.app.goo.gl/Wa5G5txL7dyLZjDX9?g_st=ipc","address":"Σκουλενίου 2, Αθήνα 105 61","categoryIds":["coffee-brunch","italian"],"categories":["Coffee & Brunch Spots","Italian Restaurants"],"distanceKm":0.03990435814777169},{"id":"greekRestaurants_4e928b322f7b","slug":"dopios-athens-4e92","kind":"restaurant","name":"Dopios Athens","lat":37.9792133312479,"lng":23.729886930144186,"url":"https://maps.app.goo.gl/nEVnGCyfc79ueYWh7","address":"Σκουλενίου 1, Αθήνα 105 61","categoryIds":["greek-restaurants"],"categories":["Greek Restaurants"],"distanceKm":0.04202071131859278},{"id":"cheapEatsRestaurants_b7a4db625995","slug":"mozzart-pizza-center-b7a4","kind":"restaurant","name":"Mozzart Pizza Center","lat":37.97910186394194,"lng":23.729304129555086,"url":"https://maps.app.goo.gl/QMAXfCna6DxXHDpcA?g_st=ipc","address":"Chrisospiliotissis 1, Athina 105 60","categoryIds":["cheap-eats"],"categories":["Gyros & Cheap Eats"],"distanceKm":0.04247256875253534},{"id":"greekRestaurants_0010dafcf3e9","slug":"manari-taverna-0010","kind":"restaurant","name":"Manári Taverna","lat":37.97931896525327,"lng":23.72965489387422,"url":"https://maps.app.goo.gl/o8x2B33WaG8QRBXq8","address":"Πλ. Αγίων Θεοδώρων 3, Αθήνα 105 61","categoryIds":["greek-restaurants"],"categories":["Greek Restaurants"],"distanceKm":0.05008701977124879},{"id":"cheapEatsRestaurants_1135b4cf022d","slug":"photis-deli-sandwiches-1135","kind":"restaurant","name":"Photis Deli Sandwiches","lat":37.97857197779405,"lng":23.73022657557408,"url":"https://maps.app.goo.gl/cJGp1CcZqq5tUPco9?g_st=ipc","address":"Πραξιτέλους 20, Αθήνα 105 61","categoryIds":["cheap-eats"],"categories":["Gyros & Cheap Eats"],"distanceKm":0.057592534127436756}],"sameRegion":[],"mentionedGuides":[],"canonicalSlug":"overoll-croissanterie-02af","isCanonicalEntity":true,"enrichment":{"summary_en":"Overoll Croissanterie is a curated restaurant in Αθήνα 105 60 in the Dessert Shops collection. It is connected to 327 nearby Googlementor picks to help travelers build a stronger local route.","summary_el":"Overoll Croissanterie είναι ένα επιλεγμένο σημείο φαγητού στην περιοχή Αθήνα 105 60 και ανήκει στη συλλογή Dessert Shops. Συνδέεται με 327 κοντινές προτάσεις του Googlementor για πιο ολοκληρωμένη εμπειρία.","vibe_tags":["curated","sweet-stop"],"best_for":["first-time visitors","food lovers"],"visit_moments":["afternoon break","after dinner"],"practical_note":"Address and direct map link are available for easy turn-by-turn access.","nearby_walkable_count":327,"nearby_count_2km":642,"confidence":0.98}},"__N_SSG":true}