{"pageProps":{"entity":{"id":"coffeeBrunchRestaurants_d2dd2ec9a7b0","slug":"pangaia-the-food-project-d2dd","kind":"restaurant","name":"Pangaia - The Food Project","lat":37.979003020963276,"lng":23.70956014016223,"url":"https://maps.app.goo.gl/dttggVUcZNJqG52r9?g_st=ipc","address":"Λ. Κωνσταντινουπόλεως 67, Αθήνα 118 55","categoryIds":["coffee-brunch"],"categories":["Coffee & Brunch Spots"]},"sameCategory":[{"id":"coffeeBrunchRestaurants_4c997e8e7df4","slug":"the-place-secret-yard-4c99","kind":"restaurant","name":"The Place Secret Yard","lat":37.979297007842895,"lng":23.7118945584477,"url":"https://maps.app.goo.gl/H2MApFAjiqUyTf7B8?g_st=ipc","address":"Τριπτολέμου 26, Αθήνα 118 54","categoryIds":["coffee-brunch","vegetarian"],"categories":["Coffee & Brunch Spots","Vegetarian Friendly Restaurants"]},{"id":"coffeeBrunchRestaurants_d3ad015b2f14","slug":"candycat-d3ad","kind":"restaurant","name":"CandyCat","lat":37.9775897353217,"lng":23.712604313955598,"url":"https://maps.app.goo.gl/bi9guRdYDSpWYmxn9?g_st=ipc","address":"Περσεφόνης 23, Αθήνα 118 54","categoryIds":["coffee-brunch","desserts"],"categories":["Coffee & Brunch Spots","Dessert Shops"]},{"id":"coffeeBrunchRestaurants_23781ddd1e06","slug":"10am-apotheke-2378","kind":"restaurant","name":"10AM apotheke","lat":37.98117919525422,"lng":23.71209439007436,"url":"https://maps.app.goo.gl/a8MxDmC9cjFhDaGA8?g_st=ic","address":"Konstantinoupoleos Ave. 82, Athina 104 35","categoryIds":["coffee-brunch"],"categories":["Coffee & Brunch Spots"]},{"id":"coffeeBrunchRestaurants_694f840c415f","slug":"mour-athens-694f","kind":"restaurant","name":"Mour Athens","lat":37.9833034256398,"lng":23.711600559592124,"url":"https://maps.app.goo.gl/t12h1kgPVWW5kBNk8?g_st=ipc","address":"Κορυτσάς 15, Αθήνα 104 47","categoryIds":["coffee-brunch"],"categories":["Coffee & Brunch Spots"]},{"id":"coffeeBrunchRestaurants_7d6f8bb1e944","slug":"cat-cafe-athens-7-pers-allowed-age-14-7d6f","kind":"restaurant","name":"Cat Cafe Athens (7€/pers, Allowed Age 14+)","lat":37.97535368517015,"lng":23.71475955469486,"url":"https://maps.app.goo.gl/QcdxYRurM98VpWWX7?g_st=ipc","address":"Νηλέως 54, Αθήνα 118 51","categoryIds":["coffee-brunch"],"categories":["Coffee & Brunch Spots"]},{"id":"coffeeBrunchRestaurants_62e18f8f4450","slug":"latraac-skate-cafe-62e1","kind":"restaurant","name":"Latraac Skate Cafe","lat":37.98176220702239,"lng":23.717574996831285,"url":"https://maps.app.goo.gl/J7RDc1cHJeB4hUZC7?g_st=ipc","address":"Λεωνίδου 63-65, Αθήνα 104 35","categoryIds":["coffee-brunch"],"categories":["Coffee & Brunch Spots"]},{"id":"coffeeBrunchRestaurants_97adfd0567d5","slug":"the-underdog-flagship-store-thissio-97ad","kind":"restaurant","name":"The Underdog® Flagship Store Thissio","lat":37.97497137545366,"lng":23.719135012325086,"url":"https://maps.app.goo.gl/LEHRwEwwo2yTd8KD9?g_st=ipc","address":"Ηρακλειδών 8, Αθήνα 118 51","categoryIds":["coffee-brunch"],"categories":["Coffee & Brunch Spots"]},{"id":"coffeeBrunchRestaurants_427065b8cb6b","slug":"okupa-kitchen-listening-bar-4270","kind":"restaurant","name":"Okupa Kitchen & Listening Bar","lat":37.979629344397615,"lng":23.720723846557707,"url":"https://maps.app.goo.gl/qmz7mBRbaa6QhTDd8?g_st=ipc","address":"Σαμουήλ Καλογήρου 3, Αθήνα 105 53","categoryIds":["coffee-brunch"],"categories":["Coffee & Brunch Spots"]}],"nearby":[{"id":"coffeeBrunchRestaurants_4c997e8e7df4","slug":"the-place-secret-yard-4c99","kind":"restaurant","name":"The Place Secret Yard","lat":37.979297007842895,"lng":23.7118945584477,"url":"https://maps.app.goo.gl/H2MApFAjiqUyTf7B8?g_st=ipc","address":"Τριπτολέμου 26, Αθήνα 118 54","categoryIds":["coffee-brunch","vegetarian"],"categories":["Coffee & Brunch Spots","Vegetarian Friendly Restaurants"],"distanceKm":0.20720136722641397},{"id":"asianRestaurants_f1cd493b50d2","slug":"zafran-indian-kitchen-f1cd","kind":"restaurant","name":"Zafran Indian Kitchen","lat":37.977657888236905,"lng":23.712403701256626,"url":"https://maps.app.goo.gl/JyaNzBjgKky4afGL8?g_st=ipc","address":"Περσεφόνης 25, Αθήνα 118 54","categoryIds":["asian"],"categories":["Asian Restaurants"],"distanceKm":0.29067084874123256},{"id":"cheapEatsRestaurants_ed7bd1fc7e39","slug":"mirlo-kebabs-ed7b","kind":"restaurant","name":"mirlo kebabs","lat":37.976362795934286,"lng":23.71060804281136,"url":"https://maps.app.goo.gl/rT5pzNjpc9bM7HzT9?g_st=ipc","address":"Ελασιδών 5A, Αθήνα 118 54","categoryIds":["cheap-eats"],"categories":["Gyros & Cheap Eats"],"distanceKm":0.3076118840835819},{"id":"coffeeBrunchRestaurants_d3ad015b2f14","slug":"candycat-d3ad","kind":"restaurant","name":"CandyCat","lat":37.9775897353217,"lng":23.712604313955598,"url":"https://maps.app.goo.gl/bi9guRdYDSpWYmxn9?g_st=ipc","address":"Περσεφόνης 23, Αθήνα 118 54","categoryIds":["coffee-brunch","desserts"],"categories":["Coffee & Brunch Spots","Dessert Shops"],"distanceKm":0.30965787640186127},{"id":"municipalities_2dbf77b73060","slug":"royf-2dbf","kind":"municipality","name":"Ρουφ","lat":37.9767,"lng":23.7074,"region":"Κέντρο Αθήνας","name_en":"Rouf","region_en":"Athens Center","distanceKm":0.31847568362200007},{"id":"coffeeBrunchRestaurants_23781ddd1e06","slug":"10am-apotheke-2378","kind":"restaurant","name":"10AM apotheke","lat":37.98117919525422,"lng":23.71209439007436,"url":"https://maps.app.goo.gl/a8MxDmC9cjFhDaGA8?g_st=ic","address":"Konstantinoupoleos Ave. 82, Athina 104 35","categoryIds":["coffee-brunch"],"categories":["Coffee & Brunch Spots"],"distanceKm":0.3284671282343817},{"id":"cheapEatsRestaurants_a74d191853cb","slug":"wolfie-s-iera-odos-a74d","kind":"restaurant","name":"Wolfie’s Iera Odos","lat":37.98005072086818,"lng":23.713098576163578,"url":"https://maps.app.goo.gl/WroCvakHc4brPbjt7?g_st=ipc","address":"Ιερά Οδός 37, Αθήνα 118 54","categoryIds":["cheap-eats"],"categories":["Gyros & Cheap Eats"],"distanceKm":0.33129325177940405},{"id":"luxuryDiningRestaurants_c1adda39b182","slug":"sta-kala-kathoymena-c1ad","kind":"restaurant","name":"Στα Καλά Καθούμενα","lat":37.97981343858823,"lng":23.713855292153,"url":"https://maps.app.goo.gl/kdwd63rguvb581o36?g_st=ipc","address":"Ιερά Οδός 25-27-29, Ιερά Οδός 29, Αθήνα 118 54","categoryIds":["luxury-dining"],"categories":["Luxury Dining"],"distanceKm":0.3870941559353269}],"sameRegion":[],"mentionedGuides":[],"canonicalSlug":"pangaia-the-food-project-d2dd","isCanonicalEntity":true,"enrichment":{"summary_en":"Pangaia - The Food Project is a curated restaurant in Αθήνα 118 55 in the Coffee & Brunch Spots collection. It is connected to 36 nearby Googlementor picks to help travelers build a stronger local route.","summary_el":"Pangaia - The Food Project είναι ένα επιλεγμένο σημείο φαγητού στην περιοχή Αθήνα 118 55 και ανήκει στη συλλογή Coffee & Brunch Spots. Συνδέεται με 36 κοντινές προτάσεις του Googlementor για πιο ολοκληρωμένη εμπειρία.","vibe_tags":["curated","daytime-favorite"],"best_for":["first-time visitors","food lovers"],"visit_moments":["early morning","late brunch"],"practical_note":"Address and direct map link are available for easy turn-by-turn access.","nearby_walkable_count":36,"nearby_count_2km":342,"confidence":0.98}},"__N_SSG":true}