{"pageProps":{"entity":{"id":"municipalities_2909a9376e1f","slug":"pilio-2909","kind":"municipality","name":"Πήλιο","lat":39.4167,"lng":23.0833,"aliases":["Πηλιο"],"region":"Θεσσαλία","name_en":"Pelion","region_en":"Thessaly"},"sameCategory":[],"nearby":[{"id":"municipalities_3345708eb61e","slug":"portaria-3345","kind":"municipality","name":"Πορταριά","lat":39.3931,"lng":23.0681,"aliases":["Πορταρια"],"region":"Θεσσαλία","name_en":"Portaria","region_en":"Thessaly","distanceKm":2.931201535765888},{"id":"municipalities_3598a91927f2","slug":"makrinitsa-3598","kind":"municipality","name":"Μακρινίτσα","lat":39.3858,"lng":23.0556,"aliases":["Μακρινιτσα","Balcony of Pelion"],"region":"Θεσσαλία","name_en":"Makrinitsa","region_en":"Thessaly","distanceKm":4.179739611523351},{"id":"greekRestaurants_24faaabf2725","slug":"estiatorio-o-makis-ta-5f-24fa","kind":"restaurant","name":"Εστιατόριο \"Ο Μάκης\" (Τα 5φ)","lat":39.406879787357994,"lng":23.13137854437809,"url":"https://maps.app.goo.gl/MVaqELfDNQavTVj78?g_st=ipc","address":"Κισσός 370 12","categoryIds":["greek-restaurants"],"categories":["Greek Restaurants"],"distanceKm":4.272308191634052},{"id":"greekRestaurants_a4dfe435f448","slug":"synantisi-estiatorio-kissos-pilio-a4df","kind":"restaurant","name":"Συνάντηση ΕΣΤΙΑΤΟΡΙΟ ΚΙΣΣΟΣ ΠΗΛΙΟ","lat":39.40657416072869,"lng":23.13161356443952,"url":"https://maps.app.goo.gl/wt5g3M2MqHJT3Hdz8?g_st=ipc","address":"Κισσός 370 12","categoryIds":["greek-restaurants"],"categories":["Greek Restaurants"],"distanceKm":4.300611980807898},{"id":"fishTavernasRestaurants_144ba866725a","slug":"taverna-plymari-144b","kind":"restaurant","name":"Ταβέρνα Πλυμάρι","lat":39.47033473010399,"lng":23.111161118498085,"url":"https://maps.app.goo.gl/GtDv9b8CT74i2V498?g_st=ipc","address":"Analipsi, Zagora 370 01","categoryIds":["fish-tavernas"],"categories":["Fish Tavernas"],"distanceKm":6.425886525035301},{"id":"greekRestaurants_267ed799993c","slug":"platanus-orientalis-267e","kind":"restaurant","name":"Platanus Orientalis","lat":39.36160028394274,"lng":23.05970176441853,"url":"https://maps.app.goo.gl/CeNcPhtv8mJKEc4q7?g_st=ipc","address":"Αγ. Λαυρέντιος 373 00","categoryIds":["greek-restaurants"],"categories":["Greek Restaurants"],"distanceKm":6.4537163053603335},{"id":"greekRestaurants_f1609d667006","slug":"kritsa-restaurant-f160","kind":"restaurant","name":"KRITSA Restaurant","lat":39.390714981206585,"lng":22.99890427348712,"url":"https://maps.app.goo.gl/nVaAkJVNsbHGrwKh9?g_st=ipc","address":"CENTRAL SQUARE PORTARIA PELION, 370 11","categoryIds":["greek-restaurants"],"categories":["Greek Restaurants"],"distanceKm":7.805708366279961},{"id":"coffeeBrunchRestaurants_e35f2fd907c7","slug":"aeriko-cafe-bar-makrinitsa-e35f","kind":"restaurant","name":"Aeriko cafe bar - Makrinitsa","lat":39.396275519682625,"lng":22.994190417214696,"url":"https://maps.app.goo.gl/uEvFEaZxa3VWrgDA7?g_st=ipc","address":"1o km PORTARIAS-MAKRINITSAS, PELION 370 11","categoryIds":["coffee-brunch"],"categories":["Coffee & Brunch Spots"],"distanceKm":7.9856975629316596}],"sameRegion":[{"id":"municipalities_15e687326170","slug":"kastraki-15e6","kind":"municipality","name":"Καστράκι","lat":39.7156,"lng":21.6303,"aliases":["Καστρακι"],"region":"Θεσσαλία","name_en":"Kastraki","region_en":"Thessaly"},{"id":"municipalities_20d3dae1213c","slug":"larisa-20d3","kind":"municipality","name":"Λάρισα","lat":39.64,"lng":22.42,"aliases":["Larissa","Λάρισσα","Λαρισα"],"region":"Θεσσαλία","name_en":"Larissa","region_en":"Thessaly"},{"id":"municipalities_3345708eb61e","slug":"portaria-3345","kind":"municipality","name":"Πορταριά","lat":39.3931,"lng":23.0681,"aliases":["Πορταρια"],"region":"Θεσσαλία","name_en":"Portaria","region_en":"Thessaly"},{"id":"municipalities_3598a91927f2","slug":"makrinitsa-3598","kind":"municipality","name":"Μακρινίτσα","lat":39.3858,"lng":23.0556,"aliases":["Μακρινιτσα","Balcony of Pelion"],"region":"Θεσσαλία","name_en":"Makrinitsa","region_en":"Thessaly"},{"id":"municipalities_50332bb56229","slug":"elassona-5033","kind":"municipality","name":"Ελασσόνα","lat":39.89,"lng":22.19,"region":"Θεσσαλία","name_en":"Elassona","region_en":"Thessaly"},{"id":"municipalities_5a21ee6d3ece","slug":"skopelos-5a21","kind":"municipality","name":"Σκόπελος","lat":39.121,"lng":23.725,"region":"Θεσσαλία","name_en":"Skopelos","region_en":"Thessaly"},{"id":"municipalities_719868db1f0f","slug":"karditsa-7198","kind":"municipality","name":"Καρδίτσα","lat":39.3667,"lng":21.9167,"region":"Θεσσαλία","name_en":"Karditsa","region_en":"Thessaly"},{"id":"municipalities_778d49aa06b7","slug":"agia-778d","kind":"municipality","name":"Αγιά","lat":39.7333,"lng":22.757,"region":"Θεσσαλία","name_en":"Agia","region_en":"Thessaly"}],"mentionedGuides":[],"canonicalSlug":"pilio-2909","isCanonicalEntity":true,"enrichment":{"summary_en":"Πήλιο is a curated neighborhood area in Θεσσαλία. It is connected to 0 nearby Googlementor picks to help travelers build a stronger local route.","summary_el":"Πήλιο είναι ένα επιλεγμένο σημείο ενδιαφέροντος στην περιοχή Θεσσαλία. Συνδέεται με 0 κοντινές προτάσεις του Googlementor για πιο ολοκληρωμένη εμπειρία.","vibe_tags":["local-neighborhood","base-for-exploring"],"best_for":["first-time visitors","walk-and-explore days","return visitors"],"visit_moments":["late morning walks","sunset exploration"],"practical_note":"0 curated places are within walkable distance from this area center.","nearby_walkable_count":0,"nearby_count_2km":0,"confidence":0.55}},"__N_SSG":true}