{"pageProps":{"entity":{"id":"coffeeBrunchRestaurants_273a7e7d2a9d","slug":"piu-verde-273a","kind":"restaurant","name":"Piu Verde","lat":37.993592134048,"lng":23.792630644928746,"url":"https://maps.app.goo.gl/uttCEc9rHvmfUF3c7?g_st=ipc","address":"Στρατ, Αλ. Παπάγου, Παπάγου 156 69","categoryIds":["coffee-brunch","family-friendly"],"categories":["Coffee & Brunch Spots","Kid Friendly Locations"]},"sameCategory":[{"id":"coffeeBrunchRestaurants_f3a3be0d750a","slug":"alsos-cholargou-alsos-cholargoy-f3a3","kind":"restaurant","name":"Alsos Cholargou / Άλσος Χολαργού","lat":37.99731205193856,"lng":23.801346586633024,"url":"https://maps.app.goo.gl/9NgrgwXAtnAhzyQM7?g_st=ipc","address":"Ευριπίδου 1, Χολαργός 155 62","categoryIds":["coffee-brunch","family-friendly"],"categories":["Coffee & Brunch Spots","Kid Friendly Locations"]},{"id":"coffeeBrunchRestaurants_0e2616bd7fc7","slug":"saloon-park-0e26","kind":"restaurant","name":"Saloon Park","lat":38.90092398449493,"lng":21.77279442117925,"url":"https://maps.app.goo.gl/ou4ZLrrH5JymyBSH7?g_st=ipc","address":"3ο χιλ Καρπενησίου Προυσσου, Karpenisi 361 00","categoryIds":["coffee-brunch","family-friendly"],"categories":["Coffee & Brunch Spots","Kid Friendly Locations"]},{"id":"coffeeBrunchRestaurants_3849ba172973","slug":"ergon-agora-east-3849","kind":"restaurant","name":"ERGON Agora (East)","lat":40.55876847950934,"lng":22.976949760424034,"url":"https://maps.app.goo.gl/um7bZpan68i3iqsx7?g_st=ipc","address":"Leof. Georgikis Scholis 50, Pilea Chortiatis 555 35","categoryIds":["coffee-brunch","family-friendly"],"categories":["Coffee & Brunch Spots","Kid Friendly Locations"]},{"id":"familyFriendly_c4b368df83c1","slug":"oikogeneiako-parko-perivallontikis-eyaisthitopoiisis-c4b3","kind":"restaurant","name":"Οικογενειακό Πάρκο Περιβαλλοντικής Ευαισθητοποίησης","lat":37.99329104933058,"lng":23.791786076511723,"url":"https://maps.app.goo.gl/ah7MLHXrkbxTWacS8?g_st=ipc","address":"Λεωφ. Παπάγου, Παπάγου 156 69","categoryIds":["family-friendly"],"categories":["Kid Friendly Locations"]},{"id":"familyFriendly_7679184c0c6a","slug":"alsos-papagoy-7679","kind":"restaurant","name":"Άλσος Παπάγου","lat":37.99340202683861,"lng":23.794076076253262,"url":"https://maps.app.goo.gl/rJbRGPSSoVw8phSo6?g_st=ipc","address":"Κορυτσάς 31, Παπάγου 156 69","categoryIds":["family-friendly"],"categories":["Kid Friendly Locations"]},{"id":"coffeeBrunchRestaurants_8ebbeeadfb00","slug":"jerry-s-8ebb","kind":"restaurant","name":"JERRY’S","lat":37.99081436071943,"lng":23.798622930452883,"url":"https://maps.app.goo.gl/s7TjtfQj1q9s9Tnk8?g_st=ipc","address":"Εθ. Αμύνης 27, Παπάγου 156 69","categoryIds":["coffee-brunch","vegetarian"],"categories":["Coffee & Brunch Spots","Vegetarian Friendly Restaurants"]},{"id":"coffeeBrunchRestaurants_1fbd5adec6bb","slug":"olivia-s-brother-1fbd","kind":"restaurant","name":"Olivia’s Brother","lat":37.99842910582675,"lng":23.799666763449746,"url":"https://maps.app.goo.gl/j4jHouWVFDNbqaBK6?g_st=ipc","address":"Leof. Perikleous, Κεραμεικού 4, Χολαργός 155 61","categoryIds":["coffee-brunch"],"categories":["Coffee & Brunch Spots"]},{"id":"coffeeBrunchRestaurants_848168a5d6a3","slug":"cornell-8481","kind":"restaurant","name":"Cornell","lat":38.00169766553315,"lng":23.79390617469456,"url":"https://maps.app.goo.gl/GzFQB9fD18CsSH7k9?g_st=ipc","address":"Αετιδέων 18 &, Βουτσινά, Χολαργός 155 61","categoryIds":["coffee-brunch"],"categories":["Coffee & Brunch Spots"]}],"nearby":[{"id":"familyFriendly_c4b368df83c1","slug":"oikogeneiako-parko-perivallontikis-eyaisthitopoiisis-c4b3","kind":"restaurant","name":"Οικογενειακό Πάρκο Περιβαλλοντικής Ευαισθητοποίησης","lat":37.99329104933058,"lng":23.791786076511723,"url":"https://maps.app.goo.gl/ah7MLHXrkbxTWacS8?g_st=ipc","address":"Λεωφ. Παπάγου, Παπάγου 156 69","categoryIds":["family-friendly"],"categories":["Kid Friendly Locations"],"distanceKm":0.081230163474241},{"id":"familyFriendly_7679184c0c6a","slug":"alsos-papagoy-7679","kind":"restaurant","name":"Άλσος Παπάγου","lat":37.99340202683861,"lng":23.794076076253262,"url":"https://maps.app.goo.gl/rJbRGPSSoVw8phSo6?g_st=ipc","address":"Κορυτσάς 31, Παπάγου 156 69","categoryIds":["family-friendly"],"categories":["Kid Friendly Locations"],"distanceKm":0.12841579346608242},{"id":"italianRestaurants_9e93d0527186","slug":"casareccio-trattoria-pizzeria-9e93","kind":"restaurant","name":"Casareccio trattoria pizzeria","lat":37.995258640416544,"lng":23.796024502616564,"url":"https://maps.app.goo.gl/f357srheHFN2PfBk6?g_st=ipc","address":"Ξανθίππου 84, Χολαργός 155 61","categoryIds":["italian"],"categories":["Italian Restaurants"],"distanceKm":0.35040918987303427},{"id":"cheapEatsRestaurants_b8837f726b0e","slug":"avraam-cholargos-b883","kind":"restaurant","name":"Αβραάμ Χολαργός","lat":37.99365661341766,"lng":23.796975079778093,"url":"https://maps.app.goo.gl/njaacvURe6u87qaX6?g_st=ipc","address":"Αναστάσεως 111, Χολαργός 155 61","categoryIds":["cheap-eats"],"categories":["Gyros & Cheap Eats"],"distanceKm":0.3807721373799252},{"id":"cheapEatsRestaurants_69bbfb44507d","slug":"papigko-69bb","kind":"restaurant","name":"Πάπιγκο","lat":37.9930301423727,"lng":23.798961270934143,"url":"https://maps.app.goo.gl/7eU14tbuLV6n9imX7?g_st=ipc","address":"25ης Μαρτίου 9, Χολαργός 155 61","categoryIds":["cheap-eats"],"categories":["Gyros & Cheap Eats"],"distanceKm":0.5582662836891953},{"id":"cheapEatsRestaurants_33f4e7b2d02a","slug":"dix-sept-33f4","kind":"restaurant","name":"Dix Sept","lat":37.99369686292994,"lng":23.79952330912713,"url":"https://maps.app.goo.gl/LQP8izqcwdktGcwX6?g_st=ipc","address":"25ης Μαρτίου 17, Χολαργός 155 61","categoryIds":["cheap-eats"],"categories":["Gyros & Cheap Eats"],"distanceKm":0.6041191105097702},{"id":"dessertsRestaurants_a4d470fd6efd","slug":"dix-sept-a4d4","kind":"restaurant","name":"Dix Sept","lat":37.99369642530963,"lng":23.799524104459625,"url":"https://maps.app.goo.gl/UywSucCQ3HFw2LJ1A?g_st=ipc","address":"25is Martiou 17, Cholargos 155 61","categoryIds":["desserts"],"categories":["Dessert Shops"],"distanceKm":0.6041878587089949},{"id":"coffeeBrunchRestaurants_8ebbeeadfb00","slug":"jerry-s-8ebb","kind":"restaurant","name":"JERRY’S","lat":37.99081436071943,"lng":23.798622930452883,"url":"https://maps.app.goo.gl/s7TjtfQj1q9s9Tnk8?g_st=ipc","address":"Εθ. Αμύνης 27, Παπάγου 156 69","categoryIds":["coffee-brunch","vegetarian"],"categories":["Coffee & Brunch Spots","Vegetarian Friendly Restaurants"],"distanceKm":0.6092214876885351}],"sameRegion":[],"mentionedGuides":[{"slug":"american-college-of-greece-agia-paraskevi-guide-el","title":"American College of Greece: Οδηγός Αγίας Παρασκευής"},{"slug":"american-college-of-greece-agia-paraskevi-guide","title":"American College of Greece: Welcome to Agia Paraskevi"}],"canonicalSlug":"piu-verde-273a","isCanonicalEntity":true,"enrichment":{"summary_en":"Piu Verde is a curated restaurant in Παπάγου 156 69 in the Coffee & Brunch Spots collection. It is connected to 12 nearby Googlementor picks to help travelers build a stronger local route.","summary_el":"Piu Verde είναι ένα επιλεγμένο σημείο φαγητού στην περιοχή Παπάγου 156 69 και ανήκει στη συλλογή Coffee & Brunch Spots. Συνδέεται με 12 κοντινές προτάσεις του Googlementor για πιο ολοκληρωμένη εμπειρία.","vibe_tags":["curated","daytime-favorite","family-ready"],"best_for":["first-time visitors","food lovers","families"],"visit_moments":["early morning","late brunch"],"practical_note":"Address and direct map link are available for easy turn-by-turn access.","nearby_walkable_count":12,"nearby_count_2km":50,"confidence":0.98}},"__N_SSG":true}