{"pageProps":{"entity":{"id":"municipalities_08004ad1efaf","slug":"platanias-0800","kind":"municipality","name":"Πλατανιάς","lat":35.517,"lng":23.883,"region":"Δυτική Κρήτη","name_en":"Platanias","region_en":"West Crete"},"sameCategory":[],"nearby":[{"id":"municipalities_d3b3bd48a579","slug":"agia-marina-d3b3","kind":"municipality","name":"Αγία Μαρίνα","lat":35.515,"lng":23.915,"region":"Κρήτη","name_en":"Agia Marina","region_en":"Crete","distanceKm":2.9047649862143565},{"id":"wineriesVineyards_6807d76cc581","slug":"manousakis-winery-6807","kind":"restaurant","name":"Manousakis Winery","lat":35.44928609215256,"lng":23.88714203573119,"url":"https://maps.app.goo.gl/rcCjRKaUHGWTfgjX9?g_st=ipc","address":"Βατόλακκος 730 05","categoryIds":["wineries-vineyards"],"categories":["Wineries & Vineyards"],"distanceKm":7.538777489308712},{"id":"wineriesVineyards_30791389b0f6","slug":"anoskeli-winery-3079","kind":"restaurant","name":"Anoskeli Winery","lat":35.460142479001455,"lng":23.77578731455054,"url":"https://maps.app.goo.gl/PgqU5uYf8bg9kRur9?g_st=ipc","address":"Ανώσκελη 730 02","categoryIds":["wineries-vineyards"],"categories":["Wineries & Vineyards"],"distanceKm":11.584224487874643},{"id":"coffeeBrunchRestaurants_8cd2a3bebc65","slug":"red-jane-bakery-8cd2","kind":"restaurant","name":"Red Jαne Bakery","lat":35.51226915120583,"lng":24.01521028800191,"url":"https://maps.app.goo.gl/qBPXWtniji8hcKB88?g_st=ipc","address":"Kidonias 101, Chania 731 36","categoryIds":["coffee-brunch"],"categories":["Coffee & Brunch Spots"],"distanceKm":11.977779797301048},{"id":"municipalities_a217cf921275","slug":"chania-a217","kind":"municipality","name":"Χανιά","lat":35.5138,"lng":24.018,"aliases":["Chania","Hania","Χάνια","Χανιών","Χανια","Xania"],"region":"Δυτική Κρήτη","name_en":"Chania","region_en":"West Crete","distanceKm":12.223780139824022},{"id":"cheapEatsRestaurants_57bd67d6d5e4","slug":"delish-food-streat-story-57bd","kind":"restaurant","name":"Delish Food Streat Story","lat":35.515029891736845,"lng":24.02042482402925,"url":"https://maps.app.goo.gl/UfCwCDqjCiAuobpi9?g_st=ipc","address":"Tsouderon 69, Chania 731 32","categoryIds":["cheap-eats"],"categories":["Gyros & Cheap Eats"],"distanceKm":12.439900227273734},{"id":"cheapEatsRestaurants_620134dd9978","slug":"oasis-6201","kind":"restaurant","name":"Oasis","lat":35.51332964693983,"lng":24.021015604554556,"url":"https://maps.app.goo.gl/cmq1VkqB1tUYSWUX9?g_st=ipc","address":"Voloudaki 4, Chania 731 34","categoryIds":["cheap-eats"],"categories":["Gyros & Cheap Eats"],"distanceKm":12.49823886055336},{"id":"greekRestaurants_4a595232b3a3","slug":"o-koympes-4a59","kind":"restaurant","name":"Ο Κουμπές","lat":35.5043816279159,"lng":24.026404656039464,"url":"https://maps.app.goo.gl/aq1X1YzrveFNjWCR6?g_st=ipc","address":"Παναγούλη 1, Χανιά 731 34","categoryIds":["greek-restaurants"],"categories":["Greek Restaurants"],"distanceKm":13.055666011275054}],"sameRegion":[{"id":"municipalities_0ffa5a36fefc","slug":"palaiochora-0ffa","kind":"municipality","name":"Παλαιοχώρα","lat":35.2308,"lng":23.6839,"aliases":["Παλαιοχωρα","Paleohora"],"region":"Δυτική Κρήτη","name_en":"Paleochora","region_en":"West Crete"},{"id":"municipalities_62af137be2d2","slug":"kissamos-62af","kind":"municipality","name":"Κίσσαμος","lat":35.493,"lng":23.653,"region":"Δυτική Κρήτη","name_en":"Kissamos","region_en":"West Crete"},{"id":"municipalities_7c02ce6807c9","slug":"apokoronoy-7c02","kind":"municipality","name":"Αποκορώνου","lat":35.437,"lng":24.215,"region":"Δυτική Κρήτη","name_en":"Apokoronas","region_en":"West Crete"},{"id":"municipalities_a217cf921275","slug":"chania-a217","kind":"municipality","name":"Χανιά","lat":35.5138,"lng":24.018,"aliases":["Chania","Hania","Χάνια","Χανιών","Χανια","Xania"],"region":"Δυτική Κρήτη","name_en":"Chania","region_en":"West Crete"},{"id":"municipalities_c3a3f80c3d67","slug":"kandanos-selinoy-c3a3","kind":"municipality","name":"Κάνδανος - Σελίνου","lat":35.277,"lng":23.687,"region":"Δυτική Κρήτη","name_en":"Kandanos - Selino","region_en":"West Crete"}],"mentionedGuides":[],"canonicalSlug":"platanias-0800","isCanonicalEntity":true,"enrichment":{"summary_en":"Πλατανιάς is a curated neighborhood area in Δυτική Κρήτη. It is connected to 0 nearby Googlementor picks to help travelers build a stronger local route.","summary_el":"Πλατανιάς είναι ένα επιλεγμένο σημείο ενδιαφέροντος στην περιοχή Δυτική Κρήτη. Συνδέεται με 0 κοντινές προτάσεις του Googlementor για πιο ολοκληρωμένη εμπειρία.","vibe_tags":["local-neighborhood","base-for-exploring"],"best_for":["first-time visitors","walk-and-explore days","return visitors"],"visit_moments":["late morning walks","sunset exploration"],"practical_note":"0 curated places are within walkable distance from this area center.","nearby_walkable_count":0,"nearby_count_2km":0,"confidence":0.55}},"__N_SSG":true}