{"pageProps":{"entity":{"id":"greekRestaurants_42b778a801b1","slug":"psomi-alati-42b7","kind":"restaurant","name":"ΨΩΜΙ & ΑΛΑΤΙ","lat":38.02138760980619,"lng":23.797709722137604,"url":"https://maps.app.goo.gl/3yMZtJ6XHLXuktHM7?g_st=ipc","address":"Πλ. Ελευθερωτών 8, Χαλάνδρι 152 32","categoryIds":["greek-restaurants"],"categories":["Greek Restaurants"]},"sameCategory":[{"id":"cheapEatsRestaurants_d9e484914294","slug":"mparmpalias-d9e4","kind":"restaurant","name":"Μπαρμπαλιάς","lat":38.022224299572,"lng":23.79656538042495,"url":"https://maps.app.goo.gl/LeEZCDs2GRC6YKuT7?g_st=ipc","address":"Λεωφ. Βασιλέως Γεωργίου B 6, Χαλάνδρι 152 33","categoryIds":["cheap-eats","greek-restaurants"],"categories":["Gyros & Cheap Eats","Greek Restaurants"]},{"id":"greekRestaurants_f52198928cda","slug":"mystikos-kipos-f521","kind":"restaurant","name":"Μυστικός Κήπος","lat":38.02018220795105,"lng":23.798366893276665,"url":"https://maps.app.goo.gl/RvfsJX8RaCUstXSa6?g_st=ipc","address":"Καραολη Δημήτριου 21, Χαλάνδρι 152 32","categoryIds":["greek-restaurants"],"categories":["Greek Restaurants"]},{"id":"greekRestaurants_69231f24503b","slug":"mpakalotaverna-6923","kind":"restaurant","name":"Μπακαλοταβέρνα","lat":38.02091962634735,"lng":23.79935272546419,"url":"https://maps.app.goo.gl/D6gW3fsdkz7sh9bg8?g_st=ipc","address":"Θουκυδίδου 6, Χαλάνδρι 152 32","categoryIds":["greek-restaurants"],"categories":["Greek Restaurants"]},{"id":"greekRestaurants_6657f75f25c7","slug":"trypia-dekara-6657","kind":"restaurant","name":"Τρύπια Δεκάρα","lat":38.020535111511364,"lng":23.799981150995844,"url":"https://maps.app.goo.gl/aTApNBNRqHkEo3CH8?g_st=ipc","address":"Θεμιστοκλέους 6, Χαλάνδρι 152 32","categoryIds":["greek-restaurants"],"categories":["Greek Restaurants"]},{"id":"greekRestaurants_a120da3cfe10","slug":"mezedopoleio-iordanis-a120","kind":"restaurant","name":"Μεζεδοπωλείο Ιορδάνης","lat":38.020133303757966,"lng":23.80185334902281,"url":"https://maps.app.goo.gl/FYyCghhM4WWKom5n9?g_st=ipc","address":"Αριστοτέλους 42, Χαλάνδρι 152 32","categoryIds":["greek-restaurants"],"categories":["Greek Restaurants"]},{"id":"greekRestaurants_f482326498f3","slug":"taverna-michalis-f482","kind":"restaurant","name":"Ταβέρνα Μιχάλης","lat":38.024972399350155,"lng":23.792694033579224,"url":"https://maps.app.goo.gl/o1rWWp4p742jj85G7?g_st=ipc","address":"Βαλαωρίτου 20, Χαλάνδρι 152 33","categoryIds":["greek-restaurants"],"categories":["Greek Restaurants"]},{"id":"greekRestaurants_166b7c278db9","slug":"tzitzikas-kai-mermigkas-166b","kind":"restaurant","name":"Τζίτζικας Και Μέρμηγκας","lat":38.02047878345652,"lng":23.804706604274816,"url":"https://maps.app.goo.gl/8pYJH9GZBYeQD5mk6?g_st=ipc","address":"Αισχύλου 26, Χαλάνδρι 152 34","categoryIds":["greek-restaurants"],"categories":["Greek Restaurants"]},{"id":"greekRestaurants_22195ee291a7","slug":"i-parea-tis-fanis-2219","kind":"restaurant","name":"Η παρέα της Φανής","lat":38.02610478288273,"lng":23.79313013557708,"url":"https://maps.app.goo.gl/BaPBtWqbaacn9oDc6?g_st=ipc","address":"Καρέλλα 20, Χαλάνδρι 152 33","categoryIds":["greek-restaurants"],"categories":["Greek Restaurants"]}],"nearby":[{"id":"coffeeBrunchRestaurants_37f29da6a3ac","slug":"petite-fleur-chalandri-37f2","kind":"restaurant","name":"Petite Fleur Chalandri","lat":38.02118310968284,"lng":23.79790895879059,"url":"https://maps.app.goo.gl/3oREsLJ4wCJ3pzXJA?g_st=ipc","address":"Πλατεία Ελευθερωτών 16, Platia Eleftheroton 16, Χαλάνδρι 152 32","categoryIds":["coffee-brunch"],"categories":["Coffee & Brunch Spots"],"distanceKm":0.028664832859486736},{"id":"italianRestaurants_0499cd7a1aa6","slug":"totonno-pizzeria-0499","kind":"restaurant","name":"Totonno Pizzeria","lat":38.0207813740758,"lng":23.7979881651798,"url":"https://maps.app.goo.gl/nUn81XsFVAHwxcV18?g_st=ipc","address":"Καλογρέζης 1, Χαλάνδρι 152 32","categoryIds":["italian"],"categories":["Italian Restaurants"],"distanceKm":0.0716873187572861},{"id":"cheapEatsRestaurants_4176abbd859b","slug":"to-soyvlaki-toy-chalandrioy-express-4176","kind":"restaurant","name":"Το Σουβλάκι του Χαλανδρίου «Express»","lat":38.02210047029897,"lng":23.79733270387276,"url":"https://maps.app.goo.gl/jvDmvkwHFZFAd18e6?g_st=ipc","address":"Κολοκοτρώνη 26, Χαλάνδρι 152 33","categoryIds":["cheap-eats"],"categories":["Gyros & Cheap Eats"],"distanceKm":0.08587120244183663},{"id":"dessertsRestaurants_c2edf21ae9fe","slug":"choureal-choux-profiterole-c2ed","kind":"restaurant","name":"CHOUREAL - Choux & Profiterole","lat":38.02110578860944,"lng":23.7987271310142,"url":"https://maps.app.goo.gl/y6r478JecsCWC6aR6?g_st=ipc","address":"Ιφικράτους 2, Χαλάνδρι 152 32","categoryIds":["desserts"],"categories":["Dessert Shops"],"distanceKm":0.094471219674032},{"id":"burgersRestaurants_020aef5345e3","slug":"raw-street-burger-chalandri-020a","kind":"restaurant","name":"Raw Street Burger - Chalandri","lat":38.02124916375188,"lng":23.799011494235714,"url":"https://maps.app.goo.gl/BoNocomx2EgJt83f6?g_st=ipc","address":"Αγίας Παρασκευής 2, Χαλάνδρι 152 32","categoryIds":["burgers"],"categories":["Burger Spots"],"distanceKm":0.11506619820355721},{"id":"burgersRestaurants_e22a52b46127","slug":"raw-street-burger-chalandri-e22a","kind":"restaurant","name":"Raw Street Burger - Chalandri","lat":38.0212493909348,"lng":23.79901287705001,"url":"https://maps.app.goo.gl/hgvkfPtXihqrFqAA8?g_st=ic","address":"Agias Paraskevis 2, Chalandri 152 32","categoryIds":["burgers"],"categories":["Burger Spots"],"distanceKm":0.1151828675632378},{"id":"cheapEatsRestaurants_6071194d9f9f","slug":"curry-express-indian-chef-6071","kind":"restaurant","name":"Curry Express & Indian Chef","lat":38.02245552538877,"lng":23.798012966612305,"url":"https://maps.app.goo.gl/z58YmxhSwvtKJai57?g_st=ipc","address":"Γρ. Γυφτοπούλου 7, Χαλάνδρι 152 33","categoryIds":["cheap-eats"],"categories":["Gyros & Cheap Eats"],"distanceKm":0.12168156833096525},{"id":"vegetarianRestaurants_a667646c43d0","slug":"pink-elephant-a667","kind":"restaurant","name":"Pink Elephant","lat":38.02048886312005,"lng":23.79851470032454,"url":"https://maps.app.goo.gl/JBEM9qi3Gh27zDWa9?g_st=ipc","address":"Sokratous 4Α, Chalandri 152 32","categoryIds":["vegetarian"],"categories":["Vegetarian Friendly Restaurants"],"distanceKm":0.12230897203684721}],"sameRegion":[],"mentionedGuides":[],"canonicalSlug":"psomi-alati-42b7","isCanonicalEntity":true,"enrichment":{"summary_en":"ΨΩΜΙ & ΑΛΑΤΙ is a curated restaurant in Χαλάνδρι 152 32 in the Greek Restaurants collection. It is connected to 66 nearby Googlementor picks to help travelers build a stronger local route.","summary_el":"ΨΩΜΙ & ΑΛΑΤΙ είναι ένα επιλεγμένο σημείο φαγητού στην περιοχή Χαλάνδρι 152 32 και ανήκει στη συλλογή Greek Restaurants. Συνδέεται με 66 κοντινές προτάσεις του Googlementor για πιο ολοκληρωμένη εμπειρία.","vibe_tags":["curated"],"best_for":["first-time visitors","food lovers"],"visit_moments":["lunch stop","dinner stop"],"practical_note":"Address and direct map link are available for easy turn-by-turn access.","nearby_walkable_count":66,"nearby_count_2km":116,"confidence":0.98}},"__N_SSG":true}