{"pageProps":{"entity":{"id":"italianRestaurants_5c52a29bf906","slug":"raffaele-pizza-pasta-5c52","kind":"restaurant","name":"Raffaele Pizza & Pasta","lat":40.66835766189394,"lng":22.909237229764354,"url":"https://maps.app.goo.gl/aQ6nFJz5CrVrnaNv6","address":"P. Mela 8, Evosmos 562 24","categoryIds":["italian"],"categories":["Italian Restaurants"]},"sameCategory":[{"id":"italianRestaurants_78702cadc159","slug":"pizzicato-osteria-7870","kind":"restaurant","name":"Pizzicato Osteria","lat":40.669954093386394,"lng":22.89587107388144,"url":"https://maps.app.goo.gl/FjcCcP1uvC3Gxrju5?g_st=ipc","address":"Eth. Antistaseos 79, Eleftherio Kordelio 563 34","categoryIds":["italian"],"categories":["Italian Restaurants"]},{"id":"italianRestaurants_767d6c96919e","slug":"funghi-pizza-pasta-767d","kind":"restaurant","name":"Funghi Pizza & Pasta","lat":40.6605072820276,"lng":22.9274131044966,"url":"https://maps.app.goo.gl/SJNcMHpxLNtQxnKLA?g_st=ipc","address":"Iatrou Gogousi 25, κέντρο 564 30","categoryIds":["italian"],"categories":["Italian Restaurants"]},{"id":"italianRestaurants_8d018442e7f5","slug":"freskia-zymi-pizza-pasta-fresca-8d01","kind":"restaurant","name":"Freskia zymi,pizza ,pasta fresca","lat":40.654424928028824,"lng":22.93913723718484,"url":"https://maps.app.goo.gl/Nhxk1VKn5ej1EsSF6?g_st=ipc","address":"P. Tsaldari 29, Neapoli 567 27","categoryIds":["italian"],"categories":["Italian Restaurants"]},{"id":"italianRestaurants_753fa8defec2","slug":"raffaele-pizza-pasta-753f","kind":"restaurant","name":"Raffaele Pizza & Pasta","lat":40.66556499607672,"lng":22.94711551769067,"url":"https://maps.app.goo.gl/EpFwtHWFaS5GMZ8C9?g_st=ipc","address":"40.6655613219397, 22.94711932792721","categoryIds":["italian"],"categories":["Italian Restaurants"]},{"id":"italianRestaurants_7cee9388f440","slug":"pizza-hood-7cee","kind":"restaurant","name":"Pizza Hood","lat":40.63650781158609,"lng":22.937112758246737,"url":"https://maps.app.goo.gl/PSUf6oyYdwKAkgEFA","address":"Ernestou Emprar 2, Thessaloniki 546 25","categoryIds":["italian"],"categories":["Italian Restaurants"]},{"id":"cheapEatsRestaurants_763f0b4ef33d","slug":"pizza-poselli-763f","kind":"restaurant","name":"Pízza Poselli","lat":40.63738632422352,"lng":22.938994583377827,"url":"https://maps.app.goo.gl/msSh5RZw3k81mKHWA?g_st=ipc","address":"Vilara 2, Thessaloniki 546 25","categoryIds":["cheap-eats","italian"],"categories":["Gyros & Cheap Eats","Italian Restaurants"]},{"id":"cheapEatsRestaurants_e80e8a708de9","slug":"salento-wood-fired-street-food-e80e","kind":"restaurant","name":"Salento Wood Fired Street Food","lat":40.639269734572295,"lng":22.943990430297482,"url":"https://maps.app.goo.gl/6mWAWHUbEwXuAb589?g_st=ipc","address":"El. Venizelou 76, Thessaloniki 546 31","categoryIds":["cheap-eats","italian"],"categories":["Gyros & Cheap Eats","Italian Restaurants"]},{"id":"cheapEatsRestaurants_d40ad575edd7","slug":"michelangelo-skg-d40a","kind":"restaurant","name":"Michelangelo.skg","lat":40.65053808833563,"lng":22.95671243903333,"url":"https://maps.app.goo.gl/nAwyYBALch1ybbQSA?g_st=ipc","address":"Riga Feraiou 162, Sikies 566 26","categoryIds":["cheap-eats","italian"],"categories":["Gyros & Cheap Eats","Italian Restaurants"]}],"nearby":[{"id":"cheapEatsRestaurants_f921d077e63d","slug":"psitopoleio-nikos-f921","kind":"restaurant","name":"Ψητοπωλείο \"ΝΙΚΟΣ\"","lat":40.66963563529277,"lng":22.908013940571315,"url":"https://maps.app.goo.gl/LAQoYu8du3ZFbwSR7?g_st=ipc","address":"Meg. Alexandrou 56, Evosmos 562 24","categoryIds":["cheap-eats"],"categories":["Gyros & Cheap Eats"],"distanceKm":0.17560773193086984},{"id":"coffeeBrunchRestaurants_5f036d7db680","slug":"model-urban-style-bar-5f03","kind":"restaurant","name":"Model Urban Style Bar","lat":40.66742278574293,"lng":22.91124275092617,"url":"https://maps.app.goo.gl/kRz7a3AxwDHMinRU6?g_st=ipc","address":"P. Mela 26, Evosmos 562 24","categoryIds":["coffee-brunch"],"categories":["Coffee & Brunch Spots"],"distanceKm":0.19853833794473988},{"id":"burgersRestaurants_d1dcd32d4d8e","slug":"stivos-burger-steak-d1dc","kind":"restaurant","name":"STIVOS BURGER & STEAK","lat":40.669593987579994,"lng":22.91138406394072,"url":"https://maps.app.goo.gl/7TUUVwTEcxqLX9347?g_st=ipc","address":"Ευαγγελισμού της Θεοτόκου 43, Evosmos 562 24","categoryIds":["burgers","cheap-eats"],"categories":["Burger Spots","Gyros & Cheap Eats"],"distanceKm":0.22733893237076966},{"id":"burgersRestaurants_e6cca423021b","slug":"rookie-skg-e6cc","kind":"restaurant","name":"Rookie.skg","lat":40.66725084444489,"lng":22.911546340289146,"url":"https://maps.app.goo.gl/UbXbrxK1VEFkvDdp7?g_st=ipc","address":"P. Mela 28, Evosmos 562 24","categoryIds":["burgers","cheap-eats"],"categories":["Burger Spots","Gyros & Cheap Eats"],"distanceKm":0.23038191788292225},{"id":"burgersRestaurants_8809fdd68e04","slug":"jokerman-8809","kind":"restaurant","name":"JOKERMAN","lat":40.668414646990946,"lng":22.912364509174097,"url":"https://maps.app.goo.gl/Mz4wckU7VyfPoiNe7?g_st=ipc","address":"Meg. Alexandrou 87, Evosmos 562 24","categoryIds":["burgers"],"categories":["Burger Spots"],"distanceKm":0.26383299776659297},{"id":"cheapEatsRestaurants_9aa1dc025a0d","slug":"psitopoleia-eyosmos-ano-kato-9aa1","kind":"restaurant","name":"ΨΗΤΟΠΩΛΕΙΑ ΕΥΟΣΜΟΣ- ΑΝΩ ΚΑΤΩ","lat":40.66706897454817,"lng":22.912010033587894,"url":"https://maps.app.goo.gl/Keom9mTvrZ5H3Nat7?g_st=ipc","address":"Tzavella 2, Evosmos 562 24","categoryIds":["cheap-eats"],"categories":["Gyros & Cheap Eats"],"distanceKm":0.27427228577159524},{"id":"cheapEatsRestaurants_da038af38ca1","slug":"devido-da03","kind":"restaurant","name":"Devido","lat":40.66696798830783,"lng":22.91206522121093,"url":"https://maps.app.goo.gl/ghxqsvRTJj4mWN988?g_st=ipc","address":"Karaoli ke Dimitriou 89, Evosmos 562 24","categoryIds":["cheap-eats"],"categories":["Gyros & Cheap Eats"],"distanceKm":0.28419779209487106},{"id":"greekRestaurants_7f8b3d2ad28e","slug":"backxes-7f8b","kind":"restaurant","name":"Backξες","lat":40.66851175512014,"lng":22.912875049998018,"url":"https://maps.app.goo.gl/4QcvwjevNtMp66VDA?g_st=ipc","address":"Καρατασου, Τσάμη - Καρατάσου 7, Θεσσαλονίκη 562 24","categoryIds":["greek-restaurants"],"categories":["Greek Restaurants"],"distanceKm":0.30729410572204496}],"sameRegion":[],"mentionedGuides":[],"canonicalSlug":"raffaele-pizza-pasta-5c52","isCanonicalEntity":true,"enrichment":{"summary_en":"Raffaele Pizza & Pasta is a curated restaurant in Evosmos 562 24 in the Italian Restaurants collection. It is connected to 15 nearby Googlementor picks to help travelers build a stronger local route.","summary_el":"Raffaele Pizza & Pasta είναι ένα επιλεγμένο σημείο φαγητού στην περιοχή Evosmos 562 24 και ανήκει στη συλλογή Italian Restaurants. Συνδέεται με 15 κοντινές προτάσεις του Googlementor για πιο ολοκληρωμένη εμπειρία.","vibe_tags":["curated"],"best_for":["first-time visitors","food lovers"],"visit_moments":["lunch stop","dinner stop"],"practical_note":"Address and direct map link are available for easy turn-by-turn access.","nearby_walkable_count":15,"nearby_count_2km":28,"confidence":0.98}},"__N_SSG":true}