{"pageProps":{"entity":{"id":"vegetarianRestaurants_291831247589","slug":"rubik-s-2918","kind":"restaurant","name":"Rubik's","lat":38.24434291588552,"lng":21.735549427551657,"url":"https://maps.app.goo.gl/6yHAVjve3kJGvFFa9?g_st=ipc","address":"Patreos 92, Patra 262 25","categoryIds":["vegetarian"],"categories":["Vegetarian Friendly Restaurants"]},"sameCategory":[{"id":"vegetarianRestaurants_8b929e1b12ca","slug":"little-bear-piraeus-vegan-patisserie-bistro-8b92","kind":"restaurant","name":"Little Bear Piraeus - Vegan Patisserie & Bistro","lat":37.94629157937497,"lng":23.647726020498503,"url":"https://maps.app.goo.gl/JNBSLzAJfWz7F5zV6?g_st=ipc","address":"Little Bear Piraeus - Vegan Patisserie & Bistro","categoryIds":["vegetarian"],"categories":["Vegetarian Friendly Restaurants"]},{"id":"coffeeBrunchRestaurants_6a62e770d50a","slug":"mind-the-cup-6a62","kind":"restaurant","name":"Mind The Cup","lat":38.01157944836187,"lng":23.693274104432696,"url":"https://maps.app.goo.gl/ztF6fFTkc58DpW1r6?g_st=ipc","address":"Αιμιλίου Βεάκη 29, Περιστέρι 121 34","categoryIds":["coffee-brunch","vegetarian"],"categories":["Coffee & Brunch Spots","Vegetarian Friendly Restaurants"]},{"id":"vegetarianRestaurants_617b8834cbfd","slug":"city-bliss-617b","kind":"restaurant","name":"City Bliss","lat":37.962615845106846,"lng":23.696852638288863,"url":"https://maps.app.goo.gl/yu97jv8qaY2BF8AQ8?g_st=ipc","address":"Κύπρου 14, Ταύρος Αττικής 177 78","categoryIds":["vegetarian"],"categories":["Vegetarian Friendly Restaurants"]},{"id":"vegetarianRestaurants_c67e718a73e4","slug":"calibra-votanikos-c67e","kind":"restaurant","name":"CALIBRA - Votanikos","lat":37.98303566126477,"lng":23.711367796488275,"url":"https://maps.app.goo.gl/aPvyrqA5tYdbUuhP8?g_st=ipc","address":"CALIBRA - Votanikos","categoryIds":["vegetarian"],"categories":["Vegetarian Friendly Restaurants"]},{"id":"coffeeBrunchRestaurants_4c997e8e7df4","slug":"the-place-secret-yard-4c99","kind":"restaurant","name":"The Place Secret Yard","lat":37.979297007842895,"lng":23.7118945584477,"url":"https://maps.app.goo.gl/H2MApFAjiqUyTf7B8?g_st=ipc","address":"Τριπτολέμου 26, Αθήνα 118 54","categoryIds":["coffee-brunch","vegetarian"],"categories":["Coffee & Brunch Spots","Vegetarian Friendly Restaurants"]},{"id":"vegetarianRestaurants_5038de25697a","slug":"los-v-vegan-vegetarian-restaurant-5038","kind":"restaurant","name":"Los V - Vegan & Vegetarian Restaurant","lat":37.98154957793841,"lng":23.71604712211994,"url":"https://maps.app.goo.gl/ZWkqdkixRwwqeKq8A?g_st=ipc","address":"Πλαταιών 37, Αθήνα 104 35","categoryIds":["vegetarian"],"categories":["Vegetarian Friendly Restaurants"]},{"id":"vegetarianRestaurants_92b90dbde5a4","slug":"veganistan-92b9","kind":"restaurant","name":"Veganistan","lat":37.980551028763045,"lng":23.716428370276027,"url":"https://maps.app.goo.gl/hviT1v1LXcBDpknS6?g_st=ipc","address":"Κεραμεικού 101, Αθήνα 104 35","categoryIds":["vegetarian"],"categories":["Vegetarian Friendly Restaurants"]},{"id":"vegetarianRestaurants_de7324c496a6","slug":"fakafel-de73","kind":"restaurant","name":"Φakafel","lat":37.945977379116876,"lng":23.71063148252821,"url":"https://maps.app.goo.gl/r5AXr2ToKxBqZpAv9?g_st=ipc","address":"Φakafel","categoryIds":["vegetarian"],"categories":["Vegetarian Friendly Restaurants"]}],"nearby":[{"id":"dessertsRestaurants_189ec545bdd1","slug":"lotsares-189e","kind":"restaurant","name":"Lotsárēs","lat":38.245712406206245,"lng":21.73585932751544,"url":"https://maps.app.goo.gl/uHizqRuZ9AFawcUz5?g_st=ipc","address":"Gerokostopoulou 23, Patra 262 21","categoryIds":["desserts"],"categories":["Dessert Shops"],"distanceKm":0.15466653306814931},{"id":"municipalities_9cb35779b9fc","slug":"patra-9cb3","kind":"municipality","name":"Πάτρα","lat":38.2466,"lng":21.7346,"aliases":["Patra","Patrae","Πάτραι","Πάτρη","Πατρα"],"region":"Δυτική Ελλάδα","name_en":"Patras","region_en":"Western Greece","distanceKm":0.2643171380463535},{"id":"cheapEatsRestaurants_1354d27873fc","slug":"choiropoiito-soyvlakopoieio-1354","kind":"restaurant","name":"Χοιροποίητο Σουβλακοποιείο","lat":38.2456567707955,"lng":21.73248119818369,"url":"https://maps.app.goo.gl/kQo4C3a3QHbyJMpq6?g_st=ipc","address":"Riga Fereou 139, Patra 262 21","categoryIds":["cheap-eats"],"categories":["Gyros & Cheap Eats"],"distanceKm":0.3051862262321485},{"id":"dessertsRestaurants_8ff0226983b7","slug":"lotsaris-bros-o-e-8ff0","kind":"restaurant","name":"Lotsaris Bros O.E.","lat":38.24431368433903,"lng":21.73185220313626,"url":"https://maps.app.goo.gl/vW8aWwnYez1UELdL8?g_st=ipc","address":"Maizonos 124, Patra 262 22","categoryIds":["desserts"],"categories":["Dessert Shops"],"distanceKm":0.3228952368261295},{"id":"dessertsRestaurants_6449be12e482","slug":"da-vinci-6449","kind":"restaurant","name":"DA VINCI","lat":38.24539440430271,"lng":21.731371228848985,"url":"https://maps.app.goo.gl/cgshZD6Sh33x15CL8?g_st=ipc","address":"Dim. Gounari 11, Patra 262 21","categoryIds":["desserts"],"categories":["Dessert Shops"],"distanceKm":0.3831546833172157},{"id":"coffeeBrunchRestaurants_f84032a69c94","slug":"zeabakery-f840","kind":"restaurant","name":"zeabakery","lat":38.24285092491478,"lng":21.73125949400658,"url":"https://maps.app.goo.gl/2ULzYbujrWoB52n26?g_st=ipc","address":"Korinthou 302, Patra 262 22","categoryIds":["coffee-brunch"],"categories":["Coffee & Brunch Spots"],"distanceKm":0.4097334810977429},{"id":"cheapEatsRestaurants_fab534827f1a","slug":"rigas-fab5","kind":"restaurant","name":"Rigas","lat":38.250839822865835,"lng":21.737567051131727,"url":"https://maps.app.goo.gl/p9VptZqYVY3ELr9j8?g_st=ipc","address":"Αγίου Ανδρέου κ, Zaimi, Patra 262 23","categoryIds":["cheap-eats"],"categories":["Gyros & Cheap Eats"],"distanceKm":0.7435983485079412},{"id":"dessertsRestaurants_298a5dde0910","slug":"grande-mylonas-298a","kind":"restaurant","name":"GRANDE MYLONAS","lat":38.226507714136424,"lng":21.749216193252526,"url":"https://maps.app.goo.gl/koEwVV1SwKUtb4o86?g_st=ipc","address":"Patron Klaous 54, Patra 263 34","categoryIds":["desserts"],"categories":["Dessert Shops"],"distanceKm":2.3147044267587167}],"sameRegion":[],"mentionedGuides":[],"canonicalSlug":"rubik-s-2918","isCanonicalEntity":true,"enrichment":{"summary_en":"Rubik's is a curated restaurant in Patra 262 25 in the Vegetarian Friendly Restaurants collection. It is connected to 7 nearby Googlementor picks to help travelers build a stronger local route.","summary_el":"Rubik's είναι ένα επιλεγμένο σημείο φαγητού στην περιοχή Patra 262 25 και ανήκει στη συλλογή Vegetarian Friendly Restaurants. Συνδέεται με 7 κοντινές προτάσεις του Googlementor για πιο ολοκληρωμένη εμπειρία.","vibe_tags":["curated"],"best_for":["first-time visitors","food lovers"],"visit_moments":["lunch stop","dinner stop"],"practical_note":"Address and direct map link are available for easy turn-by-turn access.","nearby_walkable_count":7,"nearby_count_2km":7,"confidence":0.98}},"__N_SSG":true}