{"pageProps":{"entity":{"id":"luxuryDiningRestaurants_be300778d86d","slug":"salonika-restaurant-bar-be30","kind":"restaurant","name":"Salonika Restaurant & Bar","lat":40.618706388830155,"lng":22.951992243395964,"url":"https://maps.app.goo.gl/m2U4xxrF3WyY7WwP7?g_st=ipc","address":"Leof. Meg. Alexandrou 2, Thessaloniki 546 40","categoryIds":["luxury-dining"],"categories":["Luxury Dining"]},"sameCategory":[{"id":"luxuryDiningRestaurants_cef26dabbaec","slug":"moldee-bar-restaurant-cef2","kind":"restaurant","name":"Moldee Bar Restaurant","lat":40.629517298749846,"lng":22.945471093260796,"url":"https://maps.app.goo.gl/NUgNPs38t8Wn1YP49?g_st=ipc","address":"Proksenou Koromila &, Mitropolitou Iosif 8, Thessaloniki 546 22","categoryIds":["luxury-dining"],"categories":["Luxury Dining"]},{"id":"luxuryDiningRestaurants_1c1d2a89028b","slug":"clochard-1c1d","kind":"restaurant","name":"Clochard","lat":40.63347961221164,"lng":22.940223853089645,"url":"https://maps.app.goo.gl/kbkr5X52jL9fcqFi7?g_st=ipc","address":"Κομνηνών 10, Mitropoleos 23, Thessaloniki 546 24","categoryIds":["luxury-dining"],"categories":["Luxury Dining"]},{"id":"fishTavernasRestaurants_922d6e12caee","slug":"grada-nuevo-922d","kind":"restaurant","name":"Grada nuevo","lat":40.63326503370027,"lng":22.939389299837984,"url":"https://maps.app.goo.gl/rQ6F7EFgSPvzE7iK6?g_st=ipc","address":"Kalapothaki 14, Thessaloniki 546 24","categoryIds":["fish-tavernas","luxury-dining"],"categories":["Fish Tavernas","Luxury Dining"]},{"id":"fishTavernasRestaurants_d0a79fe35429","slug":"7-thalasses-d0a7","kind":"restaurant","name":"7 Thalasses","lat":40.63335235155445,"lng":22.93920259335502,"url":"https://maps.app.goo.gl/Y7xSN6vCv7jLy7oPA?g_st=ipc","address":"Kalapothaki 10, Thessaloniki 546 24","categoryIds":["fish-tavernas","luxury-dining"],"categories":["Fish Tavernas","Luxury Dining"]},{"id":"luxuryDiningRestaurants_098393014e42","slug":"olympos-naoussa-0983","kind":"restaurant","name":"Olympos Naoussa","lat":40.63309915839342,"lng":22.938647906596046,"url":"https://maps.app.goo.gl/dnRtTeQACnMMpm9n9?g_st=ipc","address":"Leof. Nikis 5, Thessaloniki 546 24","categoryIds":["luxury-dining"],"categories":["Luxury Dining"]},{"id":"fishTavernasRestaurants_a41c35691ce2","slug":"kritikos-restaurant-port-a41c","kind":"restaurant","name":"Kritikos Restaurant Port","lat":40.63312219901904,"lng":22.938682406464917,"url":"https://maps.app.goo.gl/4a7sWdZdLkA9MqcNA?g_st=ipc","address":"Leof. Nikis 03, Thessaloniki 546 21","categoryIds":["fish-tavernas","luxury-dining"],"categories":["Fish Tavernas","Luxury Dining"]},{"id":"luxuryDiningRestaurants_615ed60929b5","slug":"l-albero-615e","kind":"restaurant","name":"L'Albero","lat":40.6387415311347,"lng":22.94294998162837,"url":"https://maps.app.goo.gl/X4RLEkPp4XfoJhpx9?g_st=ipc","address":"Filippou 17, Thessaloniki 546 31","categoryIds":["luxury-dining"],"categories":["Luxury Dining"]},{"id":"greekRestaurants_776ec954209f","slug":"maestranza-skg-776e","kind":"restaurant","name":"Maestranza.skg","lat":40.6389335540748,"lng":22.939948700094217,"url":"https://maps.app.goo.gl/9dU4LoJrsfE8osv2A?g_st=ipc","address":"Ptolemeon 29Β, Thessaloniki 546 30","categoryIds":["greek-restaurants","luxury-dining"],"categories":["Greek Restaurants","Luxury Dining"]}],"nearby":[{"id":"fishTavernasRestaurants_8c218ee54db9","slug":"trizoni-exclusive-8c21","kind":"restaurant","name":"Trizoni Exclusive","lat":40.6187461914036,"lng":22.951970459036858,"url":"https://maps.app.goo.gl/mWZS1wKdUUfV8Ris7?g_st=ipc","address":"Leof. Meg. Alexandrou 2, Thessaloniki 546 40","categoryIds":["fish-tavernas"],"categories":["Fish Tavernas"],"distanceKm":0.004792580114243383},{"id":"familyFriendly_7f25af87c856","slug":"bikeit-7f25","kind":"restaurant","name":"BikeIT","lat":40.61873680277816,"lng":22.95194585489908,"url":"https://maps.app.goo.gl/JgmdrRTYY3tBNz6y8?g_st=ic","address":"Leof. Meg. Alexandrou 2, Thessaloniki 546 40","categoryIds":["family-friendly"],"categories":["Kid Friendly Locations"],"distanceKm":0.005173688805592094},{"id":"italianRestaurants_0a96069b98fe","slug":"navona-restaurant-bar-0a96","kind":"restaurant","name":"Navona Restaurant Bar","lat":40.617883104732,"lng":22.952114230685524,"url":"https://maps.app.goo.gl/oPmtz2JTaw4nxWtp6","address":"Leof. Meg. Alexandrou 2, Thessaloniki 546 40","categoryIds":["italian"],"categories":["Italian Restaurants"],"distanceKm":0.09212221132254997},{"id":"familyFriendly_220ccb0fa158","slug":"road-safety-park-220c","kind":"restaurant","name":"Road Safety Park","lat":40.61702068861312,"lng":22.952313879309372,"url":"https://maps.app.goo.gl/dvUGTVktdMviyjRy9?g_st=ic","address":"Leof. Meg. Alexandrou 6, Thessaloniki 546 41","categoryIds":["family-friendly"],"categories":["Kid Friendly Locations"],"distanceKm":0.1893970277074167},{"id":"italianRestaurants_7e579a43d1ce","slug":"dos-margaritas-7e57","kind":"restaurant","name":"Dos Margaritas","lat":40.621386723569444,"lng":22.952891023289123,"url":"https://maps.app.goo.gl/XC8KbzgVXxEiYUru8?g_st=ipc","address":"Emiliou Riadi 5, Thessaloniki 546 40","categoryIds":["italian"],"categories":["Italian Restaurants"],"distanceKm":0.30754211168445406},{"id":"coffeeBrunchRestaurants_4980bf5534c8","slug":"avenue-modern-cuisine-4980","kind":"restaurant","name":"AVENUE - Modern Cuisine","lat":40.6155426258885,"lng":22.952060123633387,"url":"https://maps.app.goo.gl/sbWsHkcndnd2Zv547?g_st=ipc","address":"Leof. Meg. Alexandrou 6, Thessaloniki 546 41","categoryIds":["coffee-brunch"],"categories":["Coffee & Brunch Spots"],"distanceKm":0.3518410413015145},{"id":"cheapEatsRestaurants_c679cc68cdf8","slug":"tost-spesial-c679","kind":"restaurant","name":"Tost Spesial","lat":40.616314670176166,"lng":22.955059124656405,"url":"https://maps.app.goo.gl/9AT6QmGaM1pLwsRb9?g_st=ipc","address":"Paraskevopoulou 12, Thessaloniki 546 40","categoryIds":["cheap-eats"],"categories":["Gyros & Cheap Eats"],"distanceKm":0.37112848354617217},{"id":"greekRestaurants_3e3bf2271718","slug":"tiganies-schares-meat-restaurant-3e3b","kind":"restaurant","name":"Τηγανιές & Σχάρες Meat Restaurant","lat":40.62182611021091,"lng":22.95622107562596,"url":"https://maps.app.goo.gl/LQSzg3m51jKr2wvR7?g_st=ipc","address":"Λυσιμάχου Καυταντζόγλου 12, Θεσσαλονίκη 546 40","categoryIds":["greek-restaurants"],"categories":["Greek Restaurants"],"distanceKm":0.4977242627069106}],"sameRegion":[],"mentionedGuides":[],"canonicalSlug":"salonika-restaurant-bar-be30","isCanonicalEntity":true,"enrichment":{"summary_en":"Salonika Restaurant & Bar is a curated restaurant in Thessaloniki 546 40 in the Luxury Dining collection. It is connected to 14 nearby Googlementor picks to help travelers build a stronger local route.","summary_el":"Salonika Restaurant & Bar είναι ένα επιλεγμένο σημείο φαγητού στην περιοχή Thessaloniki 546 40 και ανήκει στη συλλογή Luxury Dining. Συνδέεται με 14 κοντινές προτάσεις του Googlementor για πιο ολοκληρωμένη εμπειρία.","vibe_tags":["curated","premium-dining"],"best_for":["first-time visitors","food lovers","special occasions"],"visit_moments":["lunch stop","dinner stop"],"practical_note":"Address and direct map link are available for easy turn-by-turn access.","nearby_walkable_count":14,"nearby_count_2km":212,"confidence":0.98}},"__N_SSG":true}