{"pageProps":{"entity":{"id":"municipalities_7b6436cb2406","slug":"sikinos-7b64","kind":"municipality","name":"Σίκινος","lat":36.6833,"lng":25.1333,"region":"Κυκλάδες","name_en":"Sikinos","region_en":"Cyclades"},"sameCategory":[],"nearby":[{"id":"wineriesVineyards_c4b8aaa71f14","slug":"manalis-c4b8","kind":"restaurant","name":"Μάναλης","lat":36.681144681918035,"lng":25.100751857820168,"url":"https://maps.app.goo.gl/3DPBf6dGCNTLKikN6?g_st=ipc","address":"Σίκινος 840 10","categoryIds":["wineries-vineyards"],"categories":["Wineries & Vineyards"],"distanceKm":2.9123257616286846},{"id":"fishTavernasRestaurants_1b4735e87a52","slug":"koubara-seafood-bar-restaurant-1b47","kind":"restaurant","name":"Koubara Seafood Bar Restaurant","lat":36.72514063337273,"lng":25.257265066552723,"url":"https://maps.app.goo.gl/kT2ULB9zvGfgQDHr6?g_st=ipc","address":"Κουμπάρα 840 01","categoryIds":["fish-tavernas"],"categories":["Fish Tavernas"],"distanceKm":11.990688273320197},{"id":"municipalities_fd8232e20785","slug":"ios-fd82","kind":"municipality","name":"Ίος","lat":36.7333,"lng":25.2833,"aliases":["Ios","Ios island","Ιος"],"region":"Κυκλάδες","name_en":"Ios","region_en":"Cyclades","distanceKm":14.481347390848587},{"id":"greekRestaurants_7df46f2d33f8","slug":"taverna-vilaeti-7df4","kind":"restaurant","name":"Ταβέρνα Βιλαέτι","lat":36.74797589012075,"lng":25.29254143751964,"url":"https://maps.app.goo.gl/YzqRc8pVvtFzcna37?g_st=ipc","address":"Επάνω Κάμπος 840 01","categoryIds":["greek-restaurants"],"categories":["Greek Restaurants"],"distanceKm":15.911938177664991},{"id":"coffeeBrunchRestaurants_71a1ad70f79c","slug":"pounta-71a1","kind":"restaurant","name":"Pounta","lat":36.62857034644093,"lng":24.920634222757425,"url":"https://maps.app.goo.gl/QSbpTWeVNhvVqhFt6?g_st=ipc","address":"Folegandros 840 11","categoryIds":["coffee-brunch"],"categories":["Coffee & Brunch Spots"],"distanceKm":19.922948889482438},{"id":"greekRestaurants_7686c3c0f262","slug":"o-kritikos-grill-house-7686","kind":"restaurant","name":"O kritikos grill House","lat":36.627890366358834,"lng":24.919693098594816,"url":"https://maps.app.goo.gl/iQF1nr3qBtvUYK6aA?g_st=ipc","address":"Χώρας, Φολέγανδρος 840 11","categoryIds":["greek-restaurants"],"categories":["Greek Restaurants"],"distanceKm":20.026118376720216},{"id":"municipalities_b0831f971d7e","slug":"folegandros-b083","kind":"municipality","name":"Φολέγανδρος","lat":36.6167,"lng":24.9167,"aliases":["Φολεγανδρος"],"region":"Κυκλάδες","name_en":"Folegandros","region_en":"Cyclades","distanceKm":20.69365906007489},{"id":"greekRestaurants_afec4abcf3cf","slug":"irini-s-tavern-grocery-store-afec","kind":"restaurant","name":"Irini's Tavern & Grocery Store","lat":36.643579045129016,"lng":24.882277410847504,"url":"https://maps.app.goo.gl/3Qs2PLBqT99YH2Hz7?g_st=ipc","address":"Άνω Μεριά 840 11","categoryIds":["greek-restaurants"],"categories":["Greek Restaurants"],"distanceKm":22.821622568414316}],"sameRegion":[{"id":"municipalities_094e7414e11a","slug":"mykonos-094e","kind":"municipality","name":"Μύκονος","lat":37.4467,"lng":25.3289,"aliases":["Mikonos","Μύκονα","Μυκονος","Mykonos","Myconos"],"region":"Κυκλάδες","name_en":"Mykonos","region_en":"Cyclades"},{"id":"municipalities_10c41fed1584","slug":"syros-10c4","kind":"municipality","name":"Σύρος","lat":37.4442,"lng":24.9428,"aliases":["Syros","Siros","Σύρα","Συρος","Συρο"],"region":"Κυκλάδες","name_en":"Syros","region_en":"Cyclades"},{"id":"municipalities_27d97a869977","slug":"schoinoysa-27d9","kind":"municipality","name":"Σχοινούσα","lat":36.8667,"lng":25.5167,"region":"Κυκλάδες","name_en":"Schinoussa","region_en":"Cyclades"},{"id":"municipalities_3cbd90a19d63","slug":"andros-3cbd","kind":"municipality","name":"Άνδρος","lat":37.8333,"lng":24.9333,"region":"Κυκλάδες","name_en":"Andros","region_en":"Cyclades"},{"id":"municipalities_402e7912632b","slug":"serifos-402e","kind":"municipality","name":"Σέριφος","lat":37.1537,"lng":24.5197,"aliases":["Σεριφος"],"region":"Κυκλάδες","name_en":"Serifos","region_en":"Cyclades"},{"id":"municipalities_444e7b37bb5a","slug":"koyfonisi-444e","kind":"municipality","name":"Κουφονήσι","lat":36.9333,"lng":25.6,"region":"Κυκλάδες","name_en":"Koufonisia","region_en":"Cyclades"},{"id":"municipalities_56cba484379e","slug":"anafi-56cb","kind":"municipality","name":"Ανάφη","lat":36.35,"lng":25.7667,"region":"Κυκλάδες","name_en":"Anafi","region_en":"Cyclades"},{"id":"municipalities_5b32b43e93f7","slug":"santorini-5b32","kind":"municipality","name":"Σαντορίνη","lat":36.3932,"lng":25.4615,"aliases":["Thira","Thera","Santorin","Σαντορίνα","Σαντορινη","Θήρα","Θηρα"],"region":"Κυκλάδες","name_en":"Santorini","region_en":"Cyclades"}],"mentionedGuides":[],"canonicalSlug":"sikinos-7b64","isCanonicalEntity":true,"enrichment":{"summary_en":"Σίκινος is a curated neighborhood area in Κυκλάδες. It is connected to 0 nearby Googlementor picks to help travelers build a stronger local route.","summary_el":"Σίκινος είναι ένα επιλεγμένο σημείο ενδιαφέροντος στην περιοχή Κυκλάδες. Συνδέεται με 0 κοντινές προτάσεις του Googlementor για πιο ολοκληρωμένη εμπειρία.","vibe_tags":["local-neighborhood","base-for-exploring"],"best_for":["first-time visitors","walk-and-explore days","return visitors"],"visit_moments":["late morning walks","sunset exploration"],"practical_note":"0 curated places are within walkable distance from this area center.","nearby_walkable_count":0,"nearby_count_2km":0,"confidence":0.55}},"__N_SSG":true}