{"pageProps":{"entity":{"id":"cheapEatsRestaurants_2ea89cfd165d","slug":"stavropoulos-meat-grill-nafplio-2ea8","kind":"restaurant","name":"Stavropoulos Meat & Grill Nafplio","lat":37.56729472413989,"lng":22.801012947686594,"url":"https://maps.app.goo.gl/iaJ7WLVkfAWX8uMY7?g_st=ipc","address":"Μπουμπουλίνας 43, Ναύπλιο 211 00","categoryIds":["cheap-eats"],"categories":["Gyros & Cheap Eats"]},"sameCategory":[{"id":"cheapEatsRestaurants_af2ed2b481d6","slug":"trendy-grill-limani-nayplioy-af2e","kind":"restaurant","name":"Trendy Grill Λιμάνι Ναυπλίου","lat":37.56727361524451,"lng":22.801083825814366,"url":"https://maps.app.goo.gl/9EusCQot9r26ZXTs5?g_st=ipc","address":"Μπουμπουλίνας 41, Ναύπλιο 211 00","categoryIds":["cheap-eats"],"categories":["Gyros & Cheap Eats"]},{"id":"cheapEatsRestaurants_0b1305dba65e","slug":"fytampanis-g-psitopoleio-soyvlatzidiko-0b13","kind":"restaurant","name":"Φυταμπανης Γ. Ψητοπωλειο - Σουβλατζιδικο","lat":37.92024228635265,"lng":22.99364053559187,"url":"https://maps.app.goo.gl/xoTkQyq8YGQpxjaU8?g_st=ipc","address":"ΕΟ Ισθμού Αρχαίας Επιδαύρου 21, Ίσθμια 200 10","categoryIds":["cheap-eats"],"categories":["Gyros & Cheap Eats"]},{"id":"cheapEatsRestaurants_5b9438409713","slug":"o-gyros-tis-aiginas-5b94","kind":"restaurant","name":"Ο Γύρος της Αίγινας","lat":37.74389384596183,"lng":23.430224050202156,"url":"https://maps.app.goo.gl/xrxu9zu1wwgoXRKH8?g_st=ipc","address":"Π. Αιγινήτου 31, Αίγινα 180 10","categoryIds":["cheap-eats"],"categories":["Gyros & Cheap Eats"]},{"id":"cheapEatsRestaurants_8ba4f0065f8a","slug":"pita-tom-8ba4","kind":"restaurant","name":"Pita Tom","lat":37.74366491916778,"lng":23.535568140347873,"url":"https://maps.app.goo.gl/YMXgj9Wj4KVHBdms9?g_st=ipc","address":"Αγ. Μαρίνα 180 10","categoryIds":["cheap-eats"],"categories":["Gyros & Cheap Eats"]},{"id":"cheapEatsRestaurants_10569f764062","slug":"sotiris-1056","kind":"restaurant","name":"Σωτήρης","lat":37.96420811591891,"lng":23.572955787134685,"url":"https://maps.app.goo.gl/6kV5zXHh5EwZ8Cy57?g_st=ipc","address":"ΑΘ.ΔΙΑΚΟΥ &, Σολωμού 6, Πέραμα 188 63","categoryIds":["cheap-eats"],"categories":["Gyros & Cheap Eats"]},{"id":"cheapEatsRestaurants_5e71f8045feb","slug":"to-steki-toy-manoli-5e71","kind":"restaurant","name":"Το Στέκι του Μανώλη","lat":37.963705294377505,"lng":23.57363615954898,"url":"https://maps.app.goo.gl/t3CWta3mHexys9Gs7?g_st=ipc","address":"Λεωφ. Ειρήνης 179, Πέραμα 188 63","categoryIds":["cheap-eats"],"categories":["Gyros & Cheap Eats"]},{"id":"cheapEatsRestaurants_4a509c86a037","slug":"souvlakia-o-tzimis-4a50","kind":"restaurant","name":"Souvlakia o Tzimis","lat":37.04342911583992,"lng":22.113254908943482,"url":"https://maps.app.goo.gl/VEjvVPTR3XkkoZxW8?g_st=ipc","address":"Mpenaki 1, Kalamata 241 00","categoryIds":["cheap-eats"],"categories":["Gyros & Cheap Eats"]},{"id":"burgersRestaurants_51cd3df73f20","slug":"mpar-mpee-kioy-freattyda-51cd","kind":"restaurant","name":"Μπαρ Μπεε Κιου - Φρεαττύδα","lat":37.93450645446817,"lng":23.642685440187794,"url":"https://maps.app.goo.gl/UkJPpNzXrBGL944RA?g_st=ipc","address":"Λεωφ. Φρεάττυδος 13, Πειραιάς 185 37","categoryIds":["burgers","cheap-eats"],"categories":["Burger Spots","Gyros & Cheap Eats"]}],"nearby":[{"id":"cheapEatsRestaurants_af2ed2b481d6","slug":"trendy-grill-limani-nayplioy-af2e","kind":"restaurant","name":"Trendy Grill Λιμάνι Ναυπλίου","lat":37.56727361524451,"lng":22.801083825814366,"url":"https://maps.app.goo.gl/9EusCQot9r26ZXTs5?g_st=ipc","address":"Μπουμπουλίνας 41, Ναύπλιο 211 00","categoryIds":["cheap-eats"],"categories":["Gyros & Cheap Eats"],"distanceKm":0.006673414713938128},{"id":"italianRestaurants_74b63c612882","slug":"il-porto-74b6","kind":"restaurant","name":"Il Porto","lat":37.56732416244355,"lng":22.800888651268885,"url":"https://maps.app.goo.gl/vWaWFumGBn6ey64P6?g_st=ipc","address":"Μπουμπουλίνας 43, Ναύπλιο 211 00","categoryIds":["italian"],"categories":["Italian Restaurants"],"distanceKm":0.011433737989374514},{"id":"municipalities_6a56a10792f1","slug":"nayplio-6a56","kind":"municipality","name":"Ναύπλιο","lat":37.567,"lng":22.801,"aliases":["Nafplio","Nauplia","Ναυπλία","Ναυπλίων","Ναυπλιο","Ναυπλια"],"region":"Αργολίδα","name_en":"Nafplio","region_en":"Argolis","distanceKm":0.03279169204521808},{"id":"coffeeBrunchRestaurants_4eafd9c8fe54","slug":"ar-ko-4eaf","kind":"restaurant","name":"Ar&Ko","lat":37.565832099209665,"lng":22.80288803557191,"url":"https://maps.app.goo.gl/VsqimzGRSLvrL3FN7?g_st=ipc","address":"Πάρκο Κολοκοτρώνη, Vasileos Pavlou, Nafplio 211 00","categoryIds":["coffee-brunch"],"categories":["Coffee & Brunch Spots"],"distanceKm":0.23187009290209404},{"id":"luxuryDiningRestaurants_e6807e074ed0","slug":"wild-duck-e680","kind":"restaurant","name":"Wild Duck","lat":37.56734308437463,"lng":22.797850601824372,"url":"https://maps.app.goo.gl/3WVLVVZ3Za8oDxQz6?g_st=ipc","address":"Boumpoulinas 67, Nafplio 211 00","categoryIds":["luxury-dining"],"categories":["Luxury Dining"],"distanceKm":0.2787724087516424},{"id":"greekRestaurants_7230005d3481","slug":"skarpeta-skarpeta-7230","kind":"restaurant","name":"Σκαρπέτα | Skarpeta","lat":37.56454091062987,"lng":22.80102416836778,"url":"https://maps.app.goo.gl/y1tbJ7Ka9yN8RJXn7?g_st=ipc","address":"Πάρκο, Σταϊκοπούλου, Ναύπλιο 211 00","categoryIds":["greek-restaurants"],"categories":["Greek Restaurants"],"distanceKm":0.30621168830718937},{"id":"italianRestaurants_0d133bb8af27","slug":"itria-cucina-italiana-restaurant-0d13","kind":"restaurant","name":"ITRIA Cucina Italiana Restaurant","lat":37.567386909343334,"lng":22.797290266729004,"url":"https://maps.app.goo.gl/HHmGQxRgnuihmTyY7?g_st=ipc","address":"Boumpoulinas 81, Nafplio 211 00","categoryIds":["italian"],"categories":["Italian Restaurants"],"distanceKm":0.32826693192576945},{"id":"greekRestaurants_742eabdb9109","slug":"to-teloneio-742e","kind":"restaurant","name":"Το Τελωνείο","lat":37.56743155679151,"lng":22.79708632929498,"url":"https://maps.app.goo.gl/nh7yb45ifREfXwro7?g_st=ipc","address":"Ακτής Μιαούλη 83, Ναύπλιο 211 00","categoryIds":["greek-restaurants"],"categories":["Greek Restaurants"],"distanceKm":0.3464155270498034}],"sameRegion":[],"mentionedGuides":[{"slug":"athens-day-trips-guide-el","title":"Καλύτερες Ημερήσιες Εκδρομές από την Αθήνα"},{"slug":"athens-day-trips-guide","title":"Best Day Trip Ideas from Athens"}],"canonicalSlug":"stavropoulos-meat-grill-nafplio-2ea8","isCanonicalEntity":true,"enrichment":{"summary_en":"Stavropoulos Meat & Grill Nafplio is a curated restaurant in Ναύπλιο 211 00 in the Gyros & Cheap Eats collection. It is connected to 16 nearby Googlementor picks to help travelers build a stronger local route.","summary_el":"Stavropoulos Meat & Grill Nafplio είναι ένα επιλεγμένο σημείο φαγητού στην περιοχή Ναύπλιο 211 00 και ανήκει στη συλλογή Gyros & Cheap Eats. Συνδέεται με 16 κοντινές προτάσεις του Googlementor για πιο ολοκληρωμένη εμπειρία.","vibe_tags":["curated","budget-friendly"],"best_for":["first-time visitors","food lovers","budget travelers"],"visit_moments":["lunch stop","dinner stop"],"practical_note":"Address and direct map link are available for easy turn-by-turn access.","nearby_walkable_count":16,"nearby_count_2km":16,"confidence":0.98}},"__N_SSG":true}