{"pageProps":{"entity":{"id":"dessertsRestaurants_46c9cba5969e","slug":"sweet-nolan-46c9","kind":"restaurant","name":"Sweet Nolan","lat":37.9747984209274,"lng":23.73248311530336,"url":"https://maps.app.goo.gl/vVwFTAJ3a7QrKyTr5?g_st=ipc","address":"Απόλλωνος 6Β, Αθήνα 105 57","categoryIds":["desserts"],"categories":["Dessert Shops"]},"sameCategory":[{"id":"dessertsRestaurants_2434d906577a","slug":"le-greche-syntagma-2434","kind":"restaurant","name":"Le Greche Syntagma","lat":37.975295473634475,"lng":23.732572121627147,"url":"https://maps.app.goo.gl/8ERFwaLDZCRWvw329?g_st=ipc","address":"Μητροπόλεως 16, Αθήνα 105 63","categoryIds":["desserts"],"categories":["Dessert Shops"]},{"id":"dessertsRestaurants_fb018ad3c271","slug":"baklavas-fb01","kind":"restaurant","name":"Baklavas","lat":37.975429717960225,"lng":23.733177865867727,"url":"https://maps.app.goo.gl/JsVLmYGPmMaYJGiKA?g_st=ipc","address":"Νίκης 10, Αθήνα 105 63","categoryIds":["desserts"],"categories":["Dessert Shops"]},{"id":"dessertsRestaurants_dd2783c4061c","slug":"my-cookie-dough-athens-dd27","kind":"restaurant","name":"My Cookie Dough Athens","lat":37.97549732457017,"lng":23.731646460060947,"url":"https://maps.app.goo.gl/h3es1mjnAZfnhipp6?g_st=ipc","address":"Petraki 7, Athina 105 63","categoryIds":["desserts"],"categories":["Dessert Shops"]},{"id":"dessertsRestaurants_5b8f8c355ff9","slug":"smyrni-baklava-5b8f","kind":"restaurant","name":"Smyrni Baklava","lat":37.9752937454741,"lng":23.73138268254239,"url":"https://maps.app.goo.gl/gwLnHFtKf8mGiYH8A?g_st=ipc","address":"Μητροπόλεως 25, Αθήνα 105 57","categoryIds":["desserts"],"categories":["Dessert Shops"]},{"id":"dessertsRestaurants_ecf6d66518c8","slug":"oggi-officina-gelato-gusto-italiano-athens-ecf6","kind":"restaurant","name":"Oggi - Officina Gelato Gusto Italiano, Athens","lat":37.97609425961556,"lng":23.73264733165775,"url":"https://maps.app.goo.gl/tFchspxKZcFEKXjf6?g_st=ipc","address":"Βουλής 17, Αθήνα 105 63","categoryIds":["desserts"],"categories":["Dessert Shops"]},{"id":"dessertsRestaurants_9b5ef29493b0","slug":"fystiki-shop-downtown-9b5e","kind":"restaurant","name":"Fystiki Shop Downtown","lat":37.97606272763876,"lng":23.7332915007465,"url":"https://maps.app.goo.gl/kHKQgnoXfNFn8vtP9?g_st=ipc","address":"Ερμού &, Νίκης 4, Αθήνα 105 63","categoryIds":["desserts"],"categories":["Dessert Shops"]},{"id":"dessertsRestaurants_eb9f02ba5b47","slug":"choureal-choux-profiterole-eb9f","kind":"restaurant","name":"CHOUREAL - Choux & Profiterole","lat":37.97617972861017,"lng":23.73180056203846,"url":"https://maps.app.goo.gl/qEAK3Nkr3LyPuUwh9?g_st=ipc","address":"Διομείας 2 &, Ερμού 18, Αθήνα 105 63","categoryIds":["desserts"],"categories":["Dessert Shops"]},{"id":"dessertsRestaurants_c341ccbd87e0","slug":"ariston-lompotesis-c341","kind":"restaurant","name":"ΑΡΙΣΤΟΝ ΛΟΜΠΟΤΕΣΗΣ","lat":37.97670511785389,"lng":23.732649290748736,"url":"https://maps.app.goo.gl/GQVtxtBLY3rpmzsa9?g_st=ipc","address":"Βουλής 10, Αθήνα 105 62","categoryIds":["desserts","vegetarian"],"categories":["Dessert Shops","Vegetarian Friendly Restaurants"]}],"nearby":[{"id":"asianRestaurants_e28b11d8898b","slug":"nolan-e28b","kind":"restaurant","name":"Nolan","lat":37.97479795746223,"lng":23.732371775380916,"url":"https://maps.app.goo.gl/X3KiMCEXwDEoAj3N6?g_st=ipc","address":"Βουλής 31 - 33, Αθήνα 105 57","categoryIds":["asian","luxury-dining"],"categories":["Asian Restaurants","Luxury Dining"],"distanceKm":0.009759403291207785},{"id":"asianRestaurants_42df17dcd2e4","slug":"dosirak-42df","kind":"restaurant","name":"Dosirak","lat":37.97494107666411,"lng":23.732376863056064,"url":"https://maps.app.goo.gl/PwDtN3ePd5r7qvjc7?g_st=ipc","address":"Βουλής 33, Αθήνα 105 57","categoryIds":["asian"],"categories":["Asian Restaurants"],"distanceKm":0.018394553874014508},{"id":"italianRestaurants_4213a3098622","slug":"ami-italian-bistrot-4213","kind":"restaurant","name":"Ami Italian Bistrot","lat":37.97469248298705,"lng":23.732316050865755,"url":"https://maps.app.goo.gl/ddcDFfjhHBSTkLzH8?g_st=ipc","address":"Βουλής, Απόλλωνος &, Αθήνα 105 57","categoryIds":["italian"],"categories":["Italian Restaurants"],"distanceKm":0.018793630057199563},{"id":"asianRestaurants_7b8b9814562d","slug":"pink-flamingo-dim-sum-7b8b","kind":"restaurant","name":"Pink Flamingo Dim Sum","lat":37.97460809363569,"lng":23.732494338257986,"url":"https://maps.app.goo.gl/fYsHDCdPt7Ag7nwx7?g_st=ipc","address":"Σκούφου 2-4, Αθήνα 105 57","categoryIds":["asian"],"categories":["Asian Restaurants"],"distanceKm":0.02118627984503362},{"id":"italianRestaurants_8dc12f0e929e","slug":"ovio-8dc1","kind":"restaurant","name":"OVIO","lat":37.974772406489194,"lng":23.732726038133688,"url":"https://maps.app.goo.gl/YsVGa9MzZPoFLxFs9?g_st=ipc","address":"Απόλλωνος 4, Αθήνα 105 57","categoryIds":["italian"],"categories":["Italian Restaurants"],"distanceKm":0.02148848340069652},{"id":"italianRestaurants_ef8284fad678","slug":"v1935-roof-garden-ef82","kind":"restaurant","name":"V1935 Roof Garden","lat":37.974997891356715,"lng":23.732428069404467,"url":"https://maps.app.goo.gl/TKodgxdpAuijQZCk7?g_st=ipc","address":"Βουλής 29, Αθήνα 105 57","categoryIds":["italian"],"categories":["Italian Restaurants"],"distanceKm":0.022698826790847615},{"id":"burgersRestaurants_fed9fc98ba72","slug":"lobby-athens-fed9","kind":"restaurant","name":"Lobby Athens","lat":37.97480226330857,"lng":23.732216902854162,"url":"https://maps.app.goo.gl/McpvxRFgv3HSY4VF6?g_st=ipc","address":"Βουλής 30, Αθήνα 105 57","categoryIds":["burgers"],"categories":["Burger Spots"],"distanceKm":0.023338204026627903},{"id":"burgersRestaurants_49b08b8052e0","slug":"birdman-49b0","kind":"restaurant","name":"Birdman","lat":37.97462442043903,"lng":23.73232607660368,"url":"https://maps.app.goo.gl/hqjbsZtLtS6aPvv9A?g_st=ipc","address":"Βουλής 35, Αθήνα 105 57","categoryIds":["burgers"],"categories":["Burger Spots"],"distanceKm":0.023744828015197724}],"sameRegion":[],"mentionedGuides":[],"canonicalSlug":"sweet-nolan-46c9","isCanonicalEntity":true,"enrichment":{"summary_en":"Sweet Nolan is a curated restaurant in Αθήνα 105 57 in the Dessert Shops collection. It is connected to 276 nearby Googlementor picks to help travelers build a stronger local route.","summary_el":"Sweet Nolan είναι ένα επιλεγμένο σημείο φαγητού στην περιοχή Αθήνα 105 57 και ανήκει στη συλλογή Dessert Shops. Συνδέεται με 276 κοντινές προτάσεις του Googlementor για πιο ολοκληρωμένη εμπειρία.","vibe_tags":["curated","sweet-stop"],"best_for":["first-time visitors","food lovers"],"visit_moments":["afternoon break","after dinner"],"practical_note":"Address and direct map link are available for easy turn-by-turn access.","nearby_walkable_count":276,"nearby_count_2km":656,"confidence":0.98}},"__N_SSG":true}