{"pageProps":{"entity":{"id":"municipalities_10c41fed1584","slug":"syros-10c4","kind":"municipality","name":"Σύρος","lat":37.4442,"lng":24.9428,"aliases":["Syros","Siros","Σύρα","Συρος","Συρο"],"region":"Κυκλάδες","name_en":"Syros","region_en":"Cyclades"},"sameCategory":[],"nearby":[{"id":"dessertsRestaurants_a081a0be0db3","slug":"so-in-d-cjdh-a081","kind":"restaurant","name":"So in d cjdh","lat":37.4444390329241,"lng":24.943371459609835,"url":"https://maps.app.goo.gl/kDu69AUHWaiUN8MD9?g_st=ipc","address":"Γεωρ. Γεννηματά, Ερμούπολη 841 00","categoryIds":["desserts"],"categories":["Dessert Shops"],"distanceKm":0.0570232702480218},{"id":"coffeeBrunchRestaurants_9e14262d126e","slug":"artisti-prozymi-9e14","kind":"restaurant","name":"Artisti Προζύμι","lat":37.44450469447684,"lng":24.94200878171083,"url":"https://maps.app.goo.gl/zBtgvSEn5xc7LXJYA?g_st=ipc","address":"Ermoupoli 841 00","categoryIds":["coffee-brunch"],"categories":["Coffee & Brunch Spots"],"distanceKm":0.07763387680297301},{"id":"coffeeBrunchRestaurants_ec0f2731baff","slug":"epta-syros-island-ec0f","kind":"restaurant","name":"Epta - Syros Island","lat":37.443982055478656,"lng":24.941782056394448,"url":"https://maps.app.goo.gl/67zZLni25BkifsZy6?g_st=ipc","address":"Peloponnisou 7, Ermoupoli 841 00","categoryIds":["coffee-brunch"],"categories":["Coffee & Brunch Spots"],"distanceKm":0.09307727148203696},{"id":"greekRestaurants_146807342037","slug":"ithaki-toy-ai-1468","kind":"restaurant","name":"Ιθάκη του Αή","lat":37.44420854822272,"lng":24.943948745039016,"url":"https://maps.app.goo.gl/KDXT6jt1hACmxQyQ9?g_st=ipc","address":"Κλώνος &, Κυπαρίσσου 1Α, Ερμούπολη 841 00","categoryIds":["greek-restaurants"],"categories":["Greek Restaurants"],"distanceKm":0.10141881807921405},{"id":"coffeeBrunchRestaurants_4d25f45b5203","slug":"armadillo-coffee-brewery-4d25","kind":"restaurant","name":"Armadillo coffee brewery","lat":37.44456566950848,"lng":24.94393269848808,"url":"https://maps.app.goo.gl/1CcqyVuzhyYwut3Y7?g_st=ipc","address":"Emmanouil Roidi 9, Ermoupoli 841 00","categoryIds":["coffee-brunch"],"categories":["Coffee & Brunch Spots"],"distanceKm":0.10794805341392953},{"id":"vegetarianRestaurants_01ab7c5f61ba","slug":"seminario-01ab","kind":"restaurant","name":"SEMINARIO","lat":37.4442691864213,"lng":24.94407924993465,"url":"https://maps.app.goo.gl/67qtbde9XNL2VBgVA?g_st=ipc","address":"Kiparissou 7, Ermoupoli 841 00","categoryIds":["vegetarian"],"categories":["Vegetarian Friendly Restaurants"],"distanceKm":0.11319737471881279},{"id":"dessertsRestaurants_047955347234","slug":"django-gelato-syros-0479","kind":"restaurant","name":"Django Gelato Syros","lat":37.44450627617555,"lng":24.944030796272305,"url":"https://maps.app.goo.gl/n5hxCbxJp7iEtRnS8?g_st=ipc","address":"Εμμανουήλ Ροΐδη 10, Ερμούπολη 841 00","categoryIds":["desserts"],"categories":["Dessert Shops"],"distanceKm":0.11386994781680515},{"id":"greekRestaurants_1696c19253da","slug":"seminario-restaurant-1696","kind":"restaurant","name":"SEMINARIO RESTAURANT","lat":37.44429164128135,"lng":24.944085469492308,"url":"https://maps.app.goo.gl/nJKupgtgjMPeqH9s9?g_st=ipc","address":"Κυπαρίσσου 7, Ερμούπολη 841 00","categoryIds":["greek-restaurants"],"categories":["Greek Restaurants"],"distanceKm":0.1139412856034721}],"sameRegion":[{"id":"municipalities_094e7414e11a","slug":"mykonos-094e","kind":"municipality","name":"Μύκονος","lat":37.4467,"lng":25.3289,"aliases":["Mikonos","Μύκονα","Μυκονος","Mykonos","Myconos"],"region":"Κυκλάδες","name_en":"Mykonos","region_en":"Cyclades"},{"id":"municipalities_27d97a869977","slug":"schoinoysa-27d9","kind":"municipality","name":"Σχοινούσα","lat":36.8667,"lng":25.5167,"region":"Κυκλάδες","name_en":"Schinoussa","region_en":"Cyclades"},{"id":"municipalities_3cbd90a19d63","slug":"andros-3cbd","kind":"municipality","name":"Άνδρος","lat":37.8333,"lng":24.9333,"region":"Κυκλάδες","name_en":"Andros","region_en":"Cyclades"},{"id":"municipalities_402e7912632b","slug":"serifos-402e","kind":"municipality","name":"Σέριφος","lat":37.1537,"lng":24.5197,"aliases":["Σεριφος"],"region":"Κυκλάδες","name_en":"Serifos","region_en":"Cyclades"},{"id":"municipalities_444e7b37bb5a","slug":"koyfonisi-444e","kind":"municipality","name":"Κουφονήσι","lat":36.9333,"lng":25.6,"region":"Κυκλάδες","name_en":"Koufonisia","region_en":"Cyclades"},{"id":"municipalities_56cba484379e","slug":"anafi-56cb","kind":"municipality","name":"Ανάφη","lat":36.35,"lng":25.7667,"region":"Κυκλάδες","name_en":"Anafi","region_en":"Cyclades"},{"id":"municipalities_5b32b43e93f7","slug":"santorini-5b32","kind":"municipality","name":"Σαντορίνη","lat":36.3932,"lng":25.4615,"aliases":["Thira","Thera","Santorin","Σαντορίνα","Σαντορινη","Θήρα","Θηρα"],"region":"Κυκλάδες","name_en":"Santorini","region_en":"Cyclades"},{"id":"municipalities_6d137de68b2c","slug":"kea-6d13","kind":"municipality","name":"Κέα","lat":37.6333,"lng":24.3333,"aliases":["Kea","Keios","Κέιος","Κεα"],"region":"Κυκλάδες","name_en":"Kea","region_en":"Cyclades"}],"mentionedGuides":[],"canonicalSlug":"syros-10c4","isCanonicalEntity":true,"enrichment":{"summary_en":"Σύρος is a curated neighborhood area in Κυκλάδες. It is connected to 14 nearby Googlementor picks to help travelers build a stronger local route.","summary_el":"Σύρος είναι ένα επιλεγμένο σημείο ενδιαφέροντος στην περιοχή Κυκλάδες. Συνδέεται με 14 κοντινές προτάσεις του Googlementor για πιο ολοκληρωμένη εμπειρία.","vibe_tags":["local-neighborhood","base-for-exploring"],"best_for":["first-time visitors","walk-and-explore days","return visitors"],"visit_moments":["late morning walks","sunset exploration"],"practical_note":"14 curated places are within walkable distance from this area center.","nearby_walkable_count":14,"nearby_count_2km":17,"confidence":0.6}},"__N_SSG":true}