{"pageProps":{"entity":{"id":"greekRestaurants_bad759859413","slug":"ta-skalakia-bad7","kind":"restaurant","name":"Τα Σκαλάκια","lat":37.98954880589726,"lng":23.709123253452237,"url":"https://maps.app.goo.gl/Dec4aP4V9Z2pEehcA","address":"Μαραθωνομάχων 57, Αθήνα 104 41","categoryIds":["greek-restaurants"],"categories":["Greek Restaurants"]},"sameCategory":[{"id":"greekRestaurants_83a0250938d4","slug":"taverna-ton-filon-83a0","kind":"restaurant","name":"Ταβέρνα των Φίλων","lat":37.99014835512761,"lng":23.713340464618646,"url":"https://maps.app.goo.gl/CyUaWUVM84i2Ym18A","address":"Άργους 66, Αθήνα 104 41","categoryIds":["greek-restaurants"],"categories":["Greek Restaurants"]},{"id":"greekRestaurants_c6cbcafef8ce","slug":"to-palaio-kafeneio-c6cb","kind":"restaurant","name":"Το παλαιό καφενείο","lat":37.984456056477114,"lng":23.70991900524202,"url":"https://maps.app.goo.gl/giNLK8YBTxmzzF9PA","address":"Κορυτσάς 48, Αθήνα 104 47","categoryIds":["greek-restaurants"],"categories":["Greek Restaurants"]},{"id":"greekRestaurants_9611782bc12d","slug":"o-thessalos-9611","kind":"restaurant","name":"Ο Θεσσαλός","lat":37.98471994306453,"lng":23.712346428545427,"url":"https://maps.app.goo.gl/nM83keU2k42E2kxJ6","address":"Μελενίκου 2, Αθήνα 104 47","categoryIds":["greek-restaurants"],"categories":["Greek Restaurants"]},{"id":"greekRestaurants_7e068071958f","slug":"rafiki-7e06","kind":"restaurant","name":"Ραφίκι","lat":37.98338715429696,"lng":23.71184940799049,"url":"https://maps.app.goo.gl/awtPeTxoWYGakCkX9","address":"Πέλλης 22, Αθήνα 104 47","categoryIds":["greek-restaurants"],"categories":["Greek Restaurants"]},{"id":"greekRestaurants_91881b4e9587","slug":"seramiko-9188","kind":"restaurant","name":"Σεράμικο","lat":37.98162530293091,"lng":23.71443381634983,"url":"https://maps.app.goo.gl/o8XfcUJ1JPyFTfao8","address":"Μεγ. Αλεξάνδρου 109-111, Αθήνα 104 35","categoryIds":["greek-restaurants"],"categories":["Greek Restaurants"]},{"id":"greekRestaurants_fe1298439f3b","slug":"pyroliki-fe12","kind":"restaurant","name":"Πυρολίκι","lat":37.98138914645396,"lng":23.713920948942256,"url":"https://maps.app.goo.gl/VoibgN4wKpaNpoSG7","address":"Μεγ. Αλεξάνδρου 117, Αθήνα 104 35","categoryIds":["greek-restaurants"],"categories":["Greek Restaurants"]},{"id":"greekRestaurants_1b0710fd0635","slug":"loyis-kafeneio-1b07","kind":"restaurant","name":"Λούης καφενείο","lat":37.98085946462118,"lng":23.71532632472864,"url":"https://maps.app.goo.gl/HykcqWbVLkwR9HqJ7","address":"Λεωνίδου 87, Αθήνα 104 35","categoryIds":["greek-restaurants"],"categories":["Greek Restaurants"]},{"id":"greekRestaurants_6dad5c0e5b55","slug":"to-aygo-toy-kokkora-6dad","kind":"restaurant","name":"Το Αυγό Του Κόκκορα","lat":37.98270365301358,"lng":23.719206888648312,"url":"https://maps.app.goo.gl/iKbPmGsQDpnYazKs9","address":"Λεωνίδου 46, Αθήνα 104 36","categoryIds":["greek-restaurants"],"categories":["Greek Restaurants"]}],"nearby":[{"id":"familyFriendly_8eb78af38b86","slug":"archaiologiko-alsos-akadimias-platonos-8eb7","kind":"restaurant","name":"Αρχαιολογικό Άλσος Ακαδημίας Πλάτωνος","lat":37.99129905736324,"lng":23.708384657791346,"url":"https://maps.app.goo.gl/YkXeKrRsNFSepRDT8?g_st=ipc","address":"Αθήνα 104 42","categoryIds":["family-friendly"],"categories":["Kid Friendly Locations"],"distanceKm":0.2051001643434997},{"id":"greekRestaurants_83a0250938d4","slug":"taverna-ton-filon-83a0","kind":"restaurant","name":"Ταβέρνα των Φίλων","lat":37.99014835512761,"lng":23.713340464618646,"url":"https://maps.app.goo.gl/CyUaWUVM84i2Ym18A","address":"Άργους 66, Αθήνα 104 41","categoryIds":["greek-restaurants"],"categories":["Greek Restaurants"],"distanceKm":0.3755397953026859},{"id":"cheapEatsRestaurants_8f156c4c3126","slug":"o-meraklis-cheiropoiitos-gyros-8f15","kind":"restaurant","name":"«Ο Μερακλής» Χειροποίητος Γύρος","lat":37.987612206644826,"lng":23.712852337967995,"url":"https://maps.app.goo.gl/SzCvMEeUoY15EeqY8?g_st=ipc","address":"Πλάτωνος 50-52, Αθήνα 104 41","categoryIds":["cheap-eats"],"categories":["Gyros & Cheap Eats"],"distanceKm":0.39137191338601574},{"id":"greekRestaurants_c6cbcafef8ce","slug":"to-palaio-kafeneio-c6cb","kind":"restaurant","name":"Το παλαιό καφενείο","lat":37.984456056477114,"lng":23.70991900524202,"url":"https://maps.app.goo.gl/giNLK8YBTxmzzF9PA","address":"Κορυτσάς 48, Αθήνα 104 47","categoryIds":["greek-restaurants"],"categories":["Greek Restaurants"],"distanceKm":0.570565878493252},{"id":"cheapEatsRestaurants_26cfead773fa","slug":"o-peinaleos-o-peinaleos-26cf","kind":"restaurant","name":"Ο ΠΕΙΝΑΛΕΟΣ -O Peinaleos","lat":37.984683017890625,"lng":23.71166951732043,"url":"https://maps.app.goo.gl/6gyRh1g3eUYCXoVV9?g_st=ipc","address":"Προφήτου Δανιήλ 35, Αθήνα 104 47","categoryIds":["cheap-eats"],"categories":["Gyros & Cheap Eats"],"distanceKm":0.5852623541673146},{"id":"greekRestaurants_9611782bc12d","slug":"o-thessalos-9611","kind":"restaurant","name":"Ο Θεσσαλός","lat":37.98471994306453,"lng":23.712346428545427,"url":"https://maps.app.goo.gl/nM83keU2k42E2kxJ6","address":"Μελενίκου 2, Αθήνα 104 47","categoryIds":["greek-restaurants"],"categories":["Greek Restaurants"],"distanceKm":0.6067133351494608},{"id":"greekRestaurants_7e068071958f","slug":"rafiki-7e06","kind":"restaurant","name":"Ραφίκι","lat":37.98338715429696,"lng":23.71184940799049,"url":"https://maps.app.goo.gl/awtPeTxoWYGakCkX9","address":"Πέλλης 22, Αθήνα 104 47","categoryIds":["greek-restaurants"],"categories":["Greek Restaurants"],"distanceKm":0.7256061948801716},{"id":"coffeeBrunchRestaurants_694f840c415f","slug":"mour-athens-694f","kind":"restaurant","name":"Mour Athens","lat":37.9833034256398,"lng":23.711600559592124,"url":"https://maps.app.goo.gl/t12h1kgPVWW5kBNk8?g_st=ipc","address":"Κορυτσάς 15, Αθήνα 104 47","categoryIds":["coffee-brunch"],"categories":["Coffee & Brunch Spots"],"distanceKm":0.7276011023566868}],"sameRegion":[],"mentionedGuides":[],"canonicalSlug":"ta-skalakia-bad7","isCanonicalEntity":true,"enrichment":{"summary_en":"Τα Σκαλάκια is a curated restaurant in Αθήνα 104 41 in the Greek Restaurants collection. It is connected to 10 nearby Googlementor picks to help travelers build a stronger local route.","summary_el":"Τα Σκαλάκια είναι ένα επιλεγμένο σημείο φαγητού στην περιοχή Αθήνα 104 41 και ανήκει στη συλλογή Greek Restaurants. Συνδέεται με 10 κοντινές προτάσεις του Googlementor για πιο ολοκληρωμένη εμπειρία.","vibe_tags":["curated"],"best_for":["first-time visitors","food lovers"],"visit_moments":["lunch stop","dinner stop"],"practical_note":"Address and direct map link are available for easy turn-by-turn access.","nearby_walkable_count":10,"nearby_count_2km":171,"confidence":0.98}},"__N_SSG":true}