{"pageProps":{"entity":{"id":"asianRestaurants_0fceaf69bfec","slug":"tailandi-0fce","kind":"restaurant","name":"Ταϊλάνδη","lat":38.05465471580679,"lng":23.844081463874097,"url":"https://maps.app.goo.gl/EKBgxEmreeAUsw7BA?g_st=ipc","address":"Σωκράτους 7, Μελίσσια 151 27","categoryIds":["asian"],"categories":["Asian Restaurants"]},"sameCategory":[{"id":"asianRestaurants_b06ea4e8fead","slug":"shisan-sushi-bar-b06e","kind":"restaurant","name":"Shisan Sushi Bar","lat":38.053962138366174,"lng":23.841922115859383,"url":"https://maps.app.goo.gl/xTbQEiSszAswqYqi8?g_st=ipc","address":"Αλ. Ζαΐμη 1, Μελίσσια 151 27","categoryIds":["asian"],"categories":["Asian Restaurants"]},{"id":"asianRestaurants_02d0f232a272","slug":"new-great-wall-marousi-02d0","kind":"restaurant","name":"New Great Wall Marousi","lat":38.05713122309269,"lng":23.805863056780513,"url":"https://maps.app.goo.gl/UXfhhMjtr2rYJfNW7?g_st=ipc","address":"Βασ. Αμαλίας 1, Μαρούσι 151 22","categoryIds":["asian"],"categories":["Asian Restaurants"]},{"id":"asianRestaurants_313cbf5dd5ee","slug":"wagamama-kifisia-313c","kind":"restaurant","name":"wagamama kifisia","lat":38.072331147675214,"lng":23.812549926712027,"url":"https://maps.app.goo.gl/ukrWwWHZBibG1ZuR9?g_st=ipc","address":"Κασσαβέτη 3, Αθήνα 145 62","categoryIds":["asian"],"categories":["Asian Restaurants"]},{"id":"asianRestaurants_a10e769c77cd","slug":"shisan-sushi-bar-a10e","kind":"restaurant","name":"Shisan Sushi Bar","lat":38.04672189810274,"lng":23.805795459456142,"url":"https://maps.app.goo.gl/7Qc86HdEYaZECDNi6?g_st=ipc","address":"Αγίου Κωνσταντίνου 48, Μαρούσι 151 24","categoryIds":["asian"],"categories":["Asian Restaurants"]},{"id":"asianRestaurants_a4e89dbc83d0","slug":"salamat-asian-food-store-a4e8","kind":"restaurant","name":"Salamat | Asian Food Store","lat":38.02126807453902,"lng":23.819767317882288,"url":"https://maps.app.goo.gl/62Tadxw4r6L1Cia48?g_st=ipc","address":"Δουκίσσης Πλακεντίας 68, Χαλάνδρι 152 34","categoryIds":["asian"],"categories":["Asian Restaurants"]},{"id":"asianRestaurants_594b8ad5ccca","slug":"streetwok-594b","kind":"restaurant","name":"Streetwok","lat":38.08826144126291,"lng":23.817027905393033,"url":"https://maps.app.goo.gl/3GSewqndnBiBnEL89?g_st=ipc","address":"Χαρ. Τρικούπη 144, Νέα Ερυθραία 146 71","categoryIds":["asian","cheap-eats"],"categories":["Asian Restaurants","Gyros & Cheap Eats"]},{"id":"asianRestaurants_302bc43e3be3","slug":"wagamama-golden-hall-302b","kind":"restaurant","name":"Wagamama Golden Hall","lat":38.03406369279884,"lng":23.792244943430262,"url":"https://maps.app.goo.gl/A7uShDTP3yFcChSd7?g_st=ipc","address":"Λεωφ. Κηφισίας, Μαρούσι 151 23","categoryIds":["asian"],"categories":["Asian Restaurants"]},{"id":"asianRestaurants_879da0a96347","slug":"saipan-kineziko-estiatorio-879d","kind":"restaurant","name":"Saipan Κινέζικο Εστιατόριο","lat":38.02355205934916,"lng":23.800206153183655,"url":"https://maps.app.goo.gl/nbuLEwHeZBiLrKZS8?g_st=ipc","address":"Κώστα Βάρναλη 9, Χαλάνδρι 152 33","categoryIds":["asian"],"categories":["Asian Restaurants"]}],"nearby":[{"id":"italianRestaurants_3f60e58e5074","slug":"nolio-restaurant-3f60","kind":"restaurant","name":"Nolio Restaurant","lat":38.0541360368352,"lng":23.842912804517134,"url":"https://maps.app.goo.gl/yrWwCAmRFC73bnXRA?g_st=ipc","address":"Π. Τσαλδάρη 32-34, Μελίσσια 151 27","categoryIds":["italian"],"categories":["Italian Restaurants"],"distanceKm":0.11745974401023232},{"id":"luxuryDiningRestaurants_7b82ed0407ba","slug":"kozi-s-7b82","kind":"restaurant","name":"Kozi's","lat":38.05410178054939,"lng":23.84283580469915,"url":"https://maps.app.goo.gl/FDQnvFLEucyn2rft6?g_st=ipc","address":"Π. Τσαλδάρη 34, Μελίσσια 151 27","categoryIds":["luxury-dining"],"categories":["Luxury Dining"],"distanceKm":0.12520334570091826},{"id":"mexicanRestaurants_a122440089bb","slug":"chilangos-melissia-a122","kind":"restaurant","name":"Chilangos Μελίσσια","lat":38.054355571864015,"lng":23.84267375327988,"url":"https://maps.app.goo.gl/1nUje6biZMsuVgA88?g_st=ipc","address":"Π. Τσαλδάρη 31, Μελίσσια 151 27","categoryIds":["mexican"],"categories":["Mexican Restaurants"],"distanceKm":0.12766534727824833},{"id":"burgersRestaurants_b5cd5e9d8f33","slug":"comet-street-gourmet-athens-b5cd","kind":"restaurant","name":"Comet Street Gourmet Athens","lat":38.05458806834009,"lng":23.84252767987863,"url":"https://maps.app.goo.gl/7yT5TAqAFBttQ8yZ7?g_st=ipc","address":"Σωκράτους 3, Μελίσσια 151 27","categoryIds":["burgers"],"categories":["Burger Spots"],"distanceKm":0.13624713254639179},{"id":"asianRestaurants_b06ea4e8fead","slug":"shisan-sushi-bar-b06e","kind":"restaurant","name":"Shisan Sushi Bar","lat":38.053962138366174,"lng":23.841922115859383,"url":"https://maps.app.goo.gl/xTbQEiSszAswqYqi8?g_st=ipc","address":"Αλ. Ζαΐμη 1, Μελίσσια 151 27","categoryIds":["asian"],"categories":["Asian Restaurants"],"distanceKm":0.20415039654686398},{"id":"cheapEatsRestaurants_b596150cf3db","slug":"trigono-melission-b596","kind":"restaurant","name":"ΤΡΙΓΩΝΟ ΜΕΛΙΣΣΙΩΝ","lat":38.05317998498453,"lng":23.84087862675326,"url":"https://maps.app.goo.gl/FjiCt1o7yoa331UN8?g_st=ipc","address":"Π. Τσαλδάρη 21, Μελίσσια 151 27","categoryIds":["cheap-eats"],"categories":["Gyros & Cheap Eats"],"distanceKm":0.32486016962940967},{"id":"fishTavernasRestaurants_8fa64823bdb9","slug":"psarokokkalo-8fa6","kind":"restaurant","name":"Ψαροκόκκαλο","lat":38.05407148936591,"lng":23.838879406158195,"url":"https://maps.app.goo.gl/yjqJBhxZ9XwdkDBv7?g_st=ipc","address":"Ελ. Βενιζέλου 19, Μελίσσια 151 27","categoryIds":["fish-tavernas","luxury-dining"],"categories":["Fish Tavernas","Luxury Dining"],"distanceKm":0.46007442085576017},{"id":"dessertsRestaurants_2b678632636d","slug":"gelateria-giovanni-2b67","kind":"restaurant","name":"Gelateria Giovanni","lat":38.05439248631055,"lng":23.83864189197517,"url":"https://maps.app.goo.gl/vHiSCvP87r2bMcgL7?g_st=ipc","address":"Μπουμπουλίνας 1, Μελίσσια 151 27","categoryIds":["desserts"],"categories":["Dessert Shops"],"distanceKm":0.47716766585762094}],"sameRegion":[],"mentionedGuides":[],"canonicalSlug":"tailandi-0fce","isCanonicalEntity":true,"enrichment":{"summary_en":"Ταϊλάνδη is a curated restaurant in Μελίσσια 151 27 in the Asian Restaurants collection. It is connected to 9 nearby Googlementor picks to help travelers build a stronger local route.","summary_el":"Ταϊλάνδη είναι ένα επιλεγμένο σημείο φαγητού στην περιοχή Μελίσσια 151 27 και ανήκει στη συλλογή Asian Restaurants. Συνδέεται με 9 κοντινές προτάσεις του Googlementor για πιο ολοκληρωμένη εμπειρία.","vibe_tags":["curated"],"best_for":["first-time visitors","food lovers"],"visit_moments":["lunch stop","dinner stop"],"practical_note":"Address and direct map link are available for easy turn-by-turn access.","nearby_walkable_count":9,"nearby_count_2km":25,"confidence":0.98}},"__N_SSG":true}