{"pageProps":{"entity":{"id":"greekRestaurants_4d35ec674015","slug":"taverna-saita-4d35","kind":"restaurant","name":"Taverna Saita","lat":37.97248143588815,"lng":23.732031545694568,"url":"https://maps.app.goo.gl/SCwWcqyGvhz7WVrE8","address":"Κυδαθηναίων 21, Αθήνα 105 58","categoryIds":["greek-restaurants"],"categories":["Greek Restaurants"]},"sameCategory":[{"id":"greekRestaurants_93f1c5af7d4e","slug":"evgenia-restaurant-93f1","kind":"restaurant","name":"Evgenia Restaurant","lat":37.9738473626084,"lng":23.732008770618236,"url":"https://maps.app.goo.gl/snfb8zhcUBZxSoPx9","address":"Βουλής 44Α, Αθήνα 105 58","categoryIds":["greek-restaurants"],"categories":["Greek Restaurants"]},{"id":"greekRestaurants_3e896dd5b050","slug":"spit-jack-3e89","kind":"restaurant","name":"Spit Jack","lat":37.97409123224814,"lng":23.732567622429254,"url":"https://maps.app.goo.gl/WP3HmHeYBBcXxVPM6","address":"Σκούφου 10, Αθήνα 105 57","categoryIds":["greek-restaurants"],"categories":["Greek Restaurants"]},{"id":"greekRestaurants_e299a6be96f9","slug":"to-kafeneio-e299","kind":"restaurant","name":"Το Καφενείο","lat":37.97255962660001,"lng":23.729567011443763,"url":"https://maps.app.goo.gl/3s8YnKNXM61cpsz69","address":"Επιχάρμου 1, Αθήνα 105 58","categoryIds":["greek-restaurants"],"categories":["Greek Restaurants"]},{"id":"greekRestaurants_75bff303ba08","slug":"symposio-restaurant-75bf","kind":"restaurant","name":"Symposio Restaurant","lat":37.97466836386933,"lng":23.73070242967316,"url":"https://maps.app.goo.gl/tMkNDw4cpv1tsuv86?g_st=ipc","address":"Apollonos 22, Athina 105 56","categoryIds":["greek-restaurants"],"categories":["Greek Restaurants"]},{"id":"greekRestaurants_2ce35eba5f67","slug":"aspro-alogo-i-e-white-horse-traditional-greek-food-2ce3","kind":"restaurant","name":"Aspro Alogo (i.e. White Horse) Traditional Greek Food","lat":37.9748589013975,"lng":23.731279347476626,"url":"https://maps.app.goo.gl/Lo9db7KSrAQMHjXi6","address":"Απόλλωνος, Αθήνα 105 57","categoryIds":["greek-restaurants"],"categories":["Greek Restaurants"]},{"id":"greekRestaurants_60d2190d08b8","slug":"aerides-mezedopoleio-plaka-60d2","kind":"restaurant","name":"Αέρηδες Μεζεδοπωλείο Πλάκα","lat":37.974495755428926,"lng":23.72798871305526,"url":"https://maps.app.goo.gl/Cx6gQQWkCy2n1mXw6","address":"Διογένους 3, Αθήνα 105 56","categoryIds":["greek-restaurants"],"categories":["Greek Restaurants"]},{"id":"greekRestaurants_9a0e0e6e3a9d","slug":"feedel-urban-gastronomy-9a0e","kind":"restaurant","name":"Feedέλ Urban Gastronomy","lat":37.976600766846424,"lng":23.729911306320325,"url":"https://maps.app.goo.gl/Uppwoqd1GbSaLvCe7","address":"Κτενά 1, Αθήνα 105 63","categoryIds":["greek-restaurants","luxury-dining"],"categories":["Greek Restaurants","Luxury Dining"]},{"id":"greekRestaurants_c15edd7fcde2","slug":"estiatorio-smile-c15e","kind":"restaurant","name":"Εστιατόριο Smile","lat":37.967615812266935,"lng":23.729979287152204,"url":"https://maps.app.goo.gl/dzqWtwgMFs9Vcqew6","address":"Πλ. Τσώκρη 1, Αθήνα 117 42","categoryIds":["greek-restaurants"],"categories":["Greek Restaurants"]}],"nearby":[{"id":"mustSeeAttractions_513259a6b06d","slug":"olympioy-dios-5132","kind":"restaurant","name":"Ολυμπίου Διός","lat":37.97177631416209,"lng":23.731310537974434,"url":"https://maps.app.goo.gl/FgkJ1umuygHQYmoC8?g_st=ipc","address":"Αθήνα 105 58","categoryIds":["attractions"],"categories":["Must-See Attractions"],"distanceKm":0.10070662804082434},{"id":"coffeeBrunchRestaurants_ca5c6fd3b033","slug":"plakaki-cafe-ca5c","kind":"restaurant","name":"Plakaki Cafe","lat":37.97168034602651,"lng":23.731177071228885,"url":"https://maps.app.goo.gl/fCZvCfcqYbM4mrRz8?g_st=ic","address":"Pl. Filomousou Eterias 2, Athina 105 58","categoryIds":["coffee-brunch"],"categories":["Coffee & Brunch Spots"],"distanceKm":0.11638185250422248},{"id":"coffeeBrunchRestaurants_6b3f7db90a24","slug":"nonnas-athens-6b3f","kind":"restaurant","name":"Nonnas Athens","lat":37.971651792837406,"lng":23.731123841030353,"url":"https://maps.app.goo.gl/5RFfLvtqnpk2BDQp8?g_st=ipc","address":"Pl. Filomousou Eterias 3, Athina 105 58","categoryIds":["coffee-brunch"],"categories":["Coffee & Brunch Spots"],"distanceKm":0.12182439549471115},{"id":"cheapEatsRestaurants_62f01dc2ec9e","slug":"iliada-62f0","kind":"restaurant","name":"ILIADA","lat":37.97276950938018,"lng":23.73338516103142,"url":"https://maps.app.goo.gl/zskFwnAEHYv2rZ486?g_st=ipc","address":"Κυδαθηναίων 1 - 3, Αθήνα 105 57","categoryIds":["cheap-eats"],"categories":["Gyros & Cheap Eats"],"distanceKm":0.12289965061427495},{"id":"luxuryDiningRestaurants_915576fc1c0f","slug":"samano-radio-restaurant-9155","kind":"restaurant","name":"Samano Radio Restaurant","lat":37.97164530530575,"lng":23.731079390163124,"url":"https://maps.app.goo.gl/HCtBkZVH9f9shwEp9?g_st=ipc","address":"Πλ. Φιλόμουσου Εταιρίας 3, Αθήνα 105 58","categoryIds":["luxury-dining"],"categories":["Luxury Dining"],"distanceKm":0.12494008154151667},{"id":"luxuryDiningRestaurants_bbd06feb8236","slug":"okio-restaurant-fine-dining-athens-bbd0","kind":"restaurant","name":"Okio Restaurant Fine Dining Athens","lat":37.973490463159685,"lng":23.733043418426053,"url":"https://maps.app.goo.gl/Z185a4BudLXiNxEu8?g_st=ipc","address":"Nikis 33 &, Ναυάρχου Νικοδήμου 3, Αθήνα 105 57","categoryIds":["luxury-dining"],"categories":["Luxury Dining"],"distanceKm":0.14302269389746974},{"id":"luxuryDiningRestaurants_165813797a98","slug":"aneton-1658","kind":"restaurant","name":"ΑΝΕΤΟΝ","lat":37.973499757295556,"lng":23.733045100192022,"url":"https://maps.app.goo.gl/tZNVrAuGYm6zBKgh9?g_st=ipc","address":"Ναυάρχου Νικοδήμου 3, Αθήνα 105 57","categoryIds":["luxury-dining"],"categories":["Luxury Dining"],"distanceKm":0.14392579999939004},{"id":"luxuryDiningRestaurants_d7864d62c4d5","slug":"electra-roof-garden-d786","kind":"restaurant","name":"Electra Roof Garden","lat":37.97379853875271,"lng":23.731619747681133,"url":"https://maps.app.goo.gl/DRSR8qGkR5GU1Bts9?g_st=ipc","address":"Ναυάρχου Νικοδήμου 18-20, Αθήνα 105 57","categoryIds":["luxury-dining","rooftop-lounges"],"categories":["Luxury Dining","Rooftop Lounges"],"distanceKm":0.15083779932993707}],"sameRegion":[],"mentionedGuides":[],"canonicalSlug":"taverna-saita-4d35","isCanonicalEntity":true,"enrichment":{"summary_en":"Taverna Saita is a curated restaurant in Αθήνα 105 58 in the Greek Restaurants collection. It is connected to 260 nearby Googlementor picks to help travelers build a stronger local route.","summary_el":"Taverna Saita είναι ένα επιλεγμένο σημείο φαγητού στην περιοχή Αθήνα 105 58 και ανήκει στη συλλογή Greek Restaurants. Συνδέεται με 260 κοντινές προτάσεις του Googlementor για πιο ολοκληρωμένη εμπειρία.","vibe_tags":["curated"],"best_for":["first-time visitors","food lovers"],"visit_moments":["lunch stop","dinner stop"],"practical_note":"Address and direct map link are available for easy turn-by-turn access.","nearby_walkable_count":260,"nearby_count_2km":656,"confidence":0.98}},"__N_SSG":true}