{"pageProps":{"entity":{"id":"greekRestaurants_ad3a4104d172","slug":"taverna-lestori-ad3a","kind":"restaurant","name":"Ταβέρνα Λεστόρι","lat":38.16672026950688,"lng":23.331475593266063,"url":"https://maps.app.goo.gl/ua2rbjj6TsXM4Ua49?g_st=ipc","address":"Ι. Σακελλαρίου 59, Βίλια 190 12","categoryIds":["greek-restaurants"],"categories":["Greek Restaurants"]},"sameCategory":[{"id":"greekRestaurants_884db7ea726f","slug":"rakoyn-884d","kind":"restaurant","name":"Ρακούν","lat":38.04130257579753,"lng":23.540052368264472,"url":"https://maps.app.goo.gl/8AuC45RCCAkJsvne9","address":"Νικολαΐδου 66, Ελευσίνα 192 00","categoryIds":["greek-restaurants"],"categories":["Greek Restaurants"]},{"id":"greekRestaurants_9cb9af8d0b5c","slug":"ayli-eleysina-9cb9","kind":"restaurant","name":"Αυλή Ελευσίνα","lat":38.03677889549646,"lng":23.538522460635875,"url":"https://maps.app.goo.gl/FqXm1SHTy3UsbXZy9","address":"Κανελλόπουλου 9, Ελευσίνα 192 00","categoryIds":["greek-restaurants"],"categories":["Greek Restaurants"]},{"id":"greekRestaurants_da2ab78c5fb8","slug":"sknipa-da2a","kind":"restaurant","name":"Σκνίπα","lat":37.96447715022685,"lng":23.56326926823615,"url":"https://maps.app.goo.gl/zYvZ3P8Ee67RZoNy6","address":"Ηλέκτρας 1, Πέραμα 188 63","categoryIds":["greek-restaurants"],"categories":["Greek Restaurants"]},{"id":"greekRestaurants_d0434bb7301e","slug":"ena-ena-d043","kind":"restaurant","name":"Ένα & Ένα","lat":38.008987140141066,"lng":23.65280105299395,"url":"https://maps.app.goo.gl/ndrwbvbypJGEEjum6","address":"Κύπρου 19, Χαϊδάρι 124 61","categoryIds":["greek-restaurants"],"categories":["Greek Restaurants"]},{"id":"greekRestaurants_9919fac2ca6c","slug":"mezedopoleio-aney-oron-9919","kind":"restaurant","name":"Μεζεδοπωλείο Άνευ Όρων","lat":38.07817620964211,"lng":23.702197123618852,"url":"https://maps.app.goo.gl/hQsQJwctvni6scyCA","address":"Δημαρχείου 8, Άνω Λιόσια 133 41","categoryIds":["greek-restaurants"],"categories":["Greek Restaurants"]},{"id":"greekRestaurants_9f4c1147cab2","slug":"ellinon-ta-xydia-9f4c","kind":"restaurant","name":"Ελλήνων Τα..ξυδια","lat":38.00596041944379,"lng":23.66399500584869,"url":"https://maps.app.goo.gl/oC72DF6MLMBssYjU7","address":"Νικ. Πλαστήρα 32, Χαϊδάρι 124 61","categoryIds":["greek-restaurants"],"categories":["Greek Restaurants"]},{"id":"greekRestaurants_741518abaa86","slug":"the-meaters-urban-beer-garden-7415","kind":"restaurant","name":"The Meaters Urban Beer Garden","lat":38.003598614109904,"lng":23.66346778642219,"url":"https://maps.app.goo.gl/zrm7vsMu18rMsZFJA","address":"Στρ. Καραϊσκάκη 25, Χαϊδάρι 124 61","categoryIds":["greek-restaurants"],"categories":["Greek Restaurants"]},{"id":"greekRestaurants_2f9a21e4ef01","slug":"pesto-ki-egine-2f9a","kind":"restaurant","name":"Πέστο Κι Έγινε","lat":38.00286560260897,"lng":23.663110435533067,"url":"https://maps.app.goo.gl/xWbZXEXeN5pg16TG9","address":"Στρ. Καραϊσκάκη 17, Χαϊδάρι 124 61","categoryIds":["greek-restaurants"],"categories":["Greek Restaurants"]}],"nearby":[{"id":"municipalities_55021c83f2f3","slug":"mandra-eidyllia-5502","kind":"municipality","name":"Μάνδρα - Ειδυλλία","lat":38.0833,"lng":23.4167,"region":"Δυτική Αττική","name_en":"Mandra - Eidyllia","region_en":"West Attica","distanceKm":11.900308028968375},{"id":"monasteriesChurches_a960e0dee86b","slug":"iera-moni-panagias-gorgoepikooy-a960","kind":"restaurant","name":"Ιερά Μονή Παναγίας Γοργοεπηκόου","lat":38.06149256664941,"lng":23.467831046678143,"url":"https://maps.app.goo.gl/vNnKum91S5s8eiVu8?g_st=ipc","address":"Μακεδονομάχων, Μάνδρα-Ειδύλλια 196 00","categoryIds":["monasteries-churches"],"categories":["Monasteries & Spiritual Sites"],"distanceKm":16.709723342259103},{"id":"municipalities_f523a4be73e1","slug":"thiva-f523","kind":"municipality","name":"Θήβα","lat":38.325,"lng":23.318,"region":"Στερεά Ελλάδα","name_en":"Thebes","region_en":"Central Greece","distanceKm":17.63920183758906},{"id":"mustSeeAttractions_73a680ef4731","slug":"railbiking-in-greece-73a6","kind":"restaurant","name":"Railbiking in Greece","lat":37.98899577004485,"lng":23.337743851168998,"url":"https://maps.app.goo.gl/YdUw2GvNU3PMRgCM6?g_st=ipc","address":"28ης Οκτωβρίου 197, Μέγαρα 191 00","categoryIds":["attractions"],"categories":["Must-See Attractions"],"distanceKm":19.769677464406946},{"id":"municipalities_7709f485a990","slug":"megara-7709","kind":"municipality","name":"Μέγαρα","lat":37.9833,"lng":23.3333,"aliases":["Μεγαρα"],"region":"Δυτική Αττική","name_en":"Megara","region_en":"West Attica","distanceKm":20.39602861145414},{"id":"cheapEatsRestaurants_8c8fe904de1f","slug":"o-gyros-tis-polis-8c8f","kind":"restaurant","name":"Ο Γύρος Της Πόλης","lat":38.066483272222705,"lng":23.529477178860592,"url":"https://maps.app.goo.gl/aT8YqVdyM8ijeioo7?g_st=ipc","address":"Τέρμα Αφών, Afon Kipreou, Ελευσίνα 190 18","categoryIds":["cheap-eats"],"categories":["Gyros & Cheap Eats"],"distanceKm":20.597946373340974},{"id":"monasteriesChurches_2cc7b0157c40","slug":"iera-moni-panagias-faneromenis-salaminos-2cc7","kind":"restaurant","name":"Ιερά Μονή Παναγίας Φανερωμένης Σαλαμίνος","lat":37.98425555632926,"lng":23.435533982516695,"url":"https://maps.app.goo.gl/bR5hBfrRFLjpCPf3A?g_st=ipc","address":"Σαλαμίνα 189 00","categoryIds":["monasteries-churches"],"categories":["Monasteries & Spiritual Sites"],"distanceKm":22.23992074563829},{"id":"familyFriendly_a59e646924f0","slug":"parko-arkopolis-a59e","kind":"restaurant","name":"Πάρκο ARKOPOLIS","lat":38.04423565223715,"lng":23.533199733095568,"url":"https://maps.app.goo.gl/x7x4Lu9B5vabrAyJ7?g_st=ipc","address":"Μαρίας Κιουρί, Ελευσίνα 192 00","categoryIds":["family-friendly"],"categories":["Kid Friendly Locations"],"distanceKm":22.29403011166051}],"sameRegion":[],"mentionedGuides":[],"canonicalSlug":"taverna-lestori-ad3a","isCanonicalEntity":true,"enrichment":{"summary_en":"Ταβέρνα Λεστόρι is a curated restaurant in Βίλια 190 12 in the Greek Restaurants collection. It is connected to 0 nearby Googlementor picks to help travelers build a stronger local route.","summary_el":"Ταβέρνα Λεστόρι είναι ένα επιλεγμένο σημείο φαγητού στην περιοχή Βίλια 190 12 και ανήκει στη συλλογή Greek Restaurants. Συνδέεται με 0 κοντινές προτάσεις του Googlementor για πιο ολοκληρωμένη εμπειρία.","vibe_tags":["curated"],"best_for":["first-time visitors","food lovers"],"visit_moments":["lunch stop","dinner stop"],"practical_note":"Address and direct map link are available for easy turn-by-turn access.","nearby_walkable_count":0,"nearby_count_2km":0,"confidence":0.9}},"__N_SSG":true}