{"pageProps":{"entity":{"id":"municipalities_25a63b7a432c","slug":"thasos-25a6","kind":"municipality","name":"Θάσος","lat":40.751,"lng":24.708,"region":"Ανατολική Μακεδονία και Θράκη","name_en":"Thasos","region_en":"Eastern Macedonia & Thrace"},"sameCategory":[],"nearby":[{"id":"municipalities_10b14dbcbc1b","slug":"xanthi-10b1","kind":"municipality","name":"Ξάνθη","lat":41.14,"lng":24.885,"region":"Ανατολική Μακεδονία και Θράκη","name_en":"Xanthi","region_en":"Eastern Macedonia & Thrace","distanceKm":45.73814501092828},{"id":"municipalities_8789afaef2a4","slug":"drama-8789","kind":"municipality","name":"Δράμα","lat":41.151,"lng":24.145,"region":"Ανατολική Μακεδονία και Θράκη","name_en":"Drama","region_en":"Eastern Macedonia & Thrace","distanceKm":64.91409593396773},{"id":"municipalities_b35c4092fc93","slug":"komotini-b35c","kind":"municipality","name":"Κομοτηνή","lat":41.1236,"lng":25.412,"region":"Ανατολική Μακεδονία και Θράκη","name_en":"Komotini","region_en":"Eastern Macedonia & Thrace","distanceKm":72.20474866951378},{"id":"municipalities_6919fbdafc9e","slug":"samothraki-6919","kind":"municipality","name":"Σαμοθράκη","lat":40.556,"lng":25.526,"region":"Ανατολική Μακεδονία και Θράκη","name_en":"Samothraki","region_en":"Eastern Macedonia & Thrace","distanceKm":72.33217135637592},{"id":"municipalities_d9c8f1d08440","slug":"alexandroypoli-d9c8","kind":"municipality","name":"Αλεξανδρούπολη","lat":40.85,"lng":25.873,"region":"Ανατολική Μακεδονία και Θράκη","name_en":"Alexandroupoli","region_en":"Eastern Macedonia & Thrace","distanceKm":98.67718000134604},{"id":"municipalities_246c9a1bf42b","slug":"orestiada-246c","kind":"municipality","name":"Ορεστιάδα","lat":41.5,"lng":26.53,"region":"Ανατολική Μακεδονία και Θράκη","name_en":"Orestiada","region_en":"Eastern Macedonia & Thrace","distanceKm":173.85171872048366}],"sameRegion":[{"id":"municipalities_10b14dbcbc1b","slug":"xanthi-10b1","kind":"municipality","name":"Ξάνθη","lat":41.14,"lng":24.885,"region":"Ανατολική Μακεδονία και Θράκη","name_en":"Xanthi","region_en":"Eastern Macedonia & Thrace"},{"id":"municipalities_246c9a1bf42b","slug":"orestiada-246c","kind":"municipality","name":"Ορεστιάδα","lat":41.5,"lng":26.53,"region":"Ανατολική Μακεδονία και Θράκη","name_en":"Orestiada","region_en":"Eastern Macedonia & Thrace"},{"id":"municipalities_6919fbdafc9e","slug":"samothraki-6919","kind":"municipality","name":"Σαμοθράκη","lat":40.556,"lng":25.526,"region":"Ανατολική Μακεδονία και Θράκη","name_en":"Samothraki","region_en":"Eastern Macedonia & Thrace"},{"id":"municipalities_8789afaef2a4","slug":"drama-8789","kind":"municipality","name":"Δράμα","lat":41.151,"lng":24.145,"region":"Ανατολική Μακεδονία και Θράκη","name_en":"Drama","region_en":"Eastern Macedonia & Thrace"},{"id":"municipalities_b35c4092fc93","slug":"komotini-b35c","kind":"municipality","name":"Κομοτηνή","lat":41.1236,"lng":25.412,"region":"Ανατολική Μακεδονία και Θράκη","name_en":"Komotini","region_en":"Eastern Macedonia & Thrace"},{"id":"municipalities_d9c8f1d08440","slug":"alexandroypoli-d9c8","kind":"municipality","name":"Αλεξανδρούπολη","lat":40.85,"lng":25.873,"region":"Ανατολική Μακεδονία και Θράκη","name_en":"Alexandroupoli","region_en":"Eastern Macedonia & Thrace"}],"mentionedGuides":[],"canonicalSlug":"thasos-25a6","isCanonicalEntity":true,"enrichment":{"summary_en":"Θάσος is a curated neighborhood area in Ανατολική Μακεδονία και Θράκη. It is connected to 0 nearby Googlementor picks to help travelers build a stronger local route.","summary_el":"Θάσος είναι ένα επιλεγμένο σημείο ενδιαφέροντος στην περιοχή Ανατολική Μακεδονία και Θράκη. Συνδέεται με 0 κοντινές προτάσεις του Googlementor για πιο ολοκληρωμένη εμπειρία.","vibe_tags":["local-neighborhood","base-for-exploring"],"best_for":["first-time visitors","walk-and-explore days","return visitors"],"visit_moments":["late morning walks","sunset exploration"],"practical_note":"0 curated places are within walkable distance from this area center.","nearby_walkable_count":0,"nearby_count_2km":0,"confidence":0.55}},"__N_SSG":true}