{"pageProps":{"entity":{"id":"cheapEatsRestaurants_284a6ef1dfeb","slug":"the-last-slice-284a","kind":"restaurant","name":"The Last Slice","lat":40.63188753569458,"lng":22.94190837965703,"url":"https://maps.app.goo.gl/iyZQfPWo4E2pskqX8?g_st=ipc","address":"Proxenou Koromila 1, Thessaloniki 546 23","categoryIds":["cheap-eats","italian"],"categories":["Gyros & Cheap Eats","Italian Restaurants"]},"sameCategory":[{"id":"cheapEatsRestaurants_763f0b4ef33d","slug":"pizza-poselli-763f","kind":"restaurant","name":"Pízza Poselli","lat":40.63738632422352,"lng":22.938994583377827,"url":"https://maps.app.goo.gl/msSh5RZw3k81mKHWA?g_st=ipc","address":"Vilara 2, Thessaloniki 546 25","categoryIds":["cheap-eats","italian"],"categories":["Gyros & Cheap Eats","Italian Restaurants"]},{"id":"cheapEatsRestaurants_e80e8a708de9","slug":"salento-wood-fired-street-food-e80e","kind":"restaurant","name":"Salento Wood Fired Street Food","lat":40.639269734572295,"lng":22.943990430297482,"url":"https://maps.app.goo.gl/6mWAWHUbEwXuAb589?g_st=ipc","address":"El. Venizelou 76, Thessaloniki 546 31","categoryIds":["cheap-eats","italian"],"categories":["Gyros & Cheap Eats","Italian Restaurants"]},{"id":"cheapEatsRestaurants_d40ad575edd7","slug":"michelangelo-skg-d40a","kind":"restaurant","name":"Michelangelo.skg","lat":40.65053808833563,"lng":22.95671243903333,"url":"https://maps.app.goo.gl/nAwyYBALch1ybbQSA?g_st=ipc","address":"Riga Feraiou 162, Sikies 566 26","categoryIds":["cheap-eats","italian"],"categories":["Gyros & Cheap Eats","Italian Restaurants"]},{"id":"cheapEatsRestaurants_8f3b208739c0","slug":"funky-s-thessaloniki-8f3b","kind":"restaurant","name":"Funky's Thessaloniki","lat":40.615543107651526,"lng":22.974915159309568,"url":"https://maps.app.goo.gl/QNUEoQzqLuXtrpVc7?g_st=ipc","address":"Grigoriou Lampraki 110, Thessaloniki 543 51","categoryIds":["cheap-eats","italian"],"categories":["Gyros & Cheap Eats","Italian Restaurants"]},{"id":"cheapEatsRestaurants_f6e9355765da","slug":"armando-pizzeria-cafeteria-f6e9","kind":"restaurant","name":"Armando Pizzeria Cafeteria","lat":37.98213236236815,"lng":23.71647213293712,"url":"https://maps.app.goo.gl/X5ofrEqzBi24eigT6?g_st=ipc","address":"Σαλαμίνος 43, Αθήνα 104 35","categoryIds":["cheap-eats","italian"],"categories":["Gyros & Cheap Eats","Italian Restaurants"]},{"id":"cheapEatsRestaurants_d0809c48801b","slug":"22-soyvlakia-d080","kind":"restaurant","name":"22 Σουβλάκια","lat":40.632325575157445,"lng":22.941533229878075,"url":"https://maps.app.goo.gl/dAaaqBN4npr7HBBU7?g_st=ipc","address":"Aristotelous Sq 8, Thessaloniki 546 23","categoryIds":["cheap-eats"],"categories":["Gyros & Cheap Eats"]},{"id":"cheapEatsRestaurants_c606c6424912","slug":"cong-vietasian-street-food-c606","kind":"restaurant","name":"Cong | Vietasian Street Food","lat":40.63147206727124,"lng":22.942501320363125,"url":"https://maps.app.goo.gl/gyhw2UWMtxWKgMui6?g_st=ipc","address":"Proxenou Koromila 9, Thessaloniki 546 23","categoryIds":["cheap-eats"],"categories":["Gyros & Cheap Eats"]},{"id":"italianRestaurants_7c05bdca6535","slug":"apallou-7c05","kind":"restaurant","name":"Apallou","lat":40.6319800622151,"lng":22.942842887749638,"url":"https://maps.app.goo.gl/gJ5jrWEXwAbU6ynW8?g_st=ipc","address":"Μητροπόλεως &, Karolou Ntil 10, Thessaloniki 546 23","categoryIds":["italian"],"categories":["Italian Restaurants"]}],"nearby":[{"id":"dessertsRestaurants_9a44dfef37c2","slug":"softie-9a44","kind":"restaurant","name":"Softie","lat":40.63175293928538,"lng":22.94216885639287,"url":"https://maps.app.goo.gl/wypmiNMsE5au37Mr7?g_st=ic","address":"Proxenou Koromila 5, Thessaloniki 546 23","categoryIds":["desserts"],"categories":["Dessert Shops"],"distanceKm":0.02659231249829103},{"id":"coffeeBrunchRestaurants_5c966e24d1c8","slug":"pantheon-bar-5c96","kind":"restaurant","name":"Pantheon Bar","lat":40.631470349652666,"lng":22.942304739075517,"url":"https://maps.app.goo.gl/9EzJNfobuDEBDMXt9?g_st=ipc","address":"Proxenou Koromila 8, Thessaloniki 546 23","categoryIds":["coffee-brunch"],"categories":["Coffee & Brunch Spots"],"distanceKm":0.057189858674930774},{"id":"cheapEatsRestaurants_d0809c48801b","slug":"22-soyvlakia-d080","kind":"restaurant","name":"22 Σουβλάκια","lat":40.632325575157445,"lng":22.941533229878075,"url":"https://maps.app.goo.gl/dAaaqBN4npr7HBBU7?g_st=ipc","address":"Aristotelous Sq 8, Thessaloniki 546 23","categoryIds":["cheap-eats"],"categories":["Gyros & Cheap Eats"],"distanceKm":0.0580917371690243},{"id":"cheapEatsRestaurants_c606c6424912","slug":"cong-vietasian-street-food-c606","kind":"restaurant","name":"Cong | Vietasian Street Food","lat":40.63147206727124,"lng":22.942501320363125,"url":"https://maps.app.goo.gl/gyhw2UWMtxWKgMui6?g_st=ipc","address":"Proxenou Koromila 9, Thessaloniki 546 23","categoryIds":["cheap-eats"],"categories":["Gyros & Cheap Eats"],"distanceKm":0.06810219577699898},{"id":"coffeeBrunchRestaurants_7d9521648c08","slug":"gellissimo-biscoto-brunch-coffee-thessaloniki-7d95","kind":"restaurant","name":"Gellissimo Biscoto | Brunch • Coffee | Thessaloniki","lat":40.63140115464137,"lng":22.942410197737622,"url":"https://maps.app.goo.gl/wcnUMwvELMBCafND6?g_st=ipc","address":"Proxenou Koromila 8, Thessaloniki 546 23","categoryIds":["coffee-brunch","desserts"],"categories":["Coffee & Brunch Spots","Dessert Shops"],"distanceKm":0.06868951906682291},{"id":"italianRestaurants_7c05bdca6535","slug":"apallou-7c05","kind":"restaurant","name":"Apallou","lat":40.6319800622151,"lng":22.942842887749638,"url":"https://maps.app.goo.gl/gJ5jrWEXwAbU6ynW8?g_st=ipc","address":"Μητροπόλεως &, Karolou Ntil 10, Thessaloniki 546 23","categoryIds":["italian"],"categories":["Italian Restaurants"],"distanceKm":0.07952843310391734},{"id":"italianRestaurants_cb35e3b45188","slug":"margherita-cb35","kind":"restaurant","name":"MARGHERITA","lat":40.631390383048206,"lng":22.94264327325537,"url":"https://maps.app.goo.gl/TiNtp5tDGN6Eji5d9?g_st=ipc","address":"Proxenou Koromila 11, Thessaloniki 546 23","categoryIds":["italian"],"categories":["Italian Restaurants"],"distanceKm":0.08307769792174406},{"id":"coffeeBrunchRestaurants_3b150a298ebf","slug":"tribeca-3b15","kind":"restaurant","name":"Tribeca","lat":40.631124138525365,"lng":22.9420760162127,"url":"https://maps.app.goo.gl/mW7fQGRSkeQqkwf8A?g_st=ipc","address":"Leof. Nikis 21, Thessaloniki 546 23","categoryIds":["coffee-brunch"],"categories":["Coffee & Brunch Spots"],"distanceKm":0.08605658192982268}],"sameRegion":[],"mentionedGuides":[],"canonicalSlug":"the-last-slice-284a","isCanonicalEntity":true,"enrichment":{"summary_en":"The Last Slice is a curated restaurant in Thessaloniki 546 23 in the Gyros & Cheap Eats collection. It is connected to 181 nearby Googlementor picks to help travelers build a stronger local route.","summary_el":"The Last Slice είναι ένα επιλεγμένο σημείο φαγητού στην περιοχή Thessaloniki 546 23 και ανήκει στη συλλογή Gyros & Cheap Eats. Συνδέεται με 181 κοντινές προτάσεις του Googlementor για πιο ολοκληρωμένη εμπειρία.","vibe_tags":["curated","budget-friendly"],"best_for":["first-time visitors","food lovers","budget travelers"],"visit_moments":["lunch stop","dinner stop"],"practical_note":"Address and direct map link are available for easy turn-by-turn access.","nearby_walkable_count":181,"nearby_count_2km":259,"confidence":0.98}},"__N_SSG":true}