{"pageProps":{"entity":{"id":"cheapEatsRestaurants_3a3bde48c733","slug":"thess-gyro-3a3b","kind":"restaurant","name":"Thess...Gyro","lat":40.57305742887387,"lng":22.955729191150056,"url":"https://maps.app.goo.gl/UxFcV7SWYu9feyef9?g_st=ipc","address":"Smirnis 14, Kalamaria 551 32","categoryIds":["cheap-eats"],"categories":["Gyros & Cheap Eats"]},"sameCategory":[{"id":"cheapEatsRestaurants_62516fc5ff91","slug":"theologos-fast-food-6251","kind":"restaurant","name":"Theologos Fast Food","lat":40.56936513403147,"lng":22.960477178944696,"url":"https://maps.app.goo.gl/ivkmYsPpBSwDCJHG7?g_st=ipc","address":"18, Aidiniou 14, Kalamaria 551 32","categoryIds":["cheap-eats"],"categories":["Gyros & Cheap Eats"]},{"id":"cheapEatsRestaurants_d02e33f8bb10","slug":"food-plaza-d02e","kind":"restaurant","name":"Food Plaza","lat":40.57666918251193,"lng":22.94927301198073,"url":"https://maps.app.goo.gl/zwY1QQTAGPf4oH7s8?g_st=ipc","address":"Skra 16, Kalamaria 551 32","categoryIds":["cheap-eats"],"categories":["Gyros & Cheap Eats"]},{"id":"cheapEatsRestaurants_70bee89e8126","slug":"serafino-70be","kind":"restaurant","name":"Serafino","lat":40.58386899036688,"lng":22.951506267568906,"url":"https://maps.app.goo.gl/M1gK3j7aiDegVjjs6?g_st=ipc","address":"Metamorfoseos 11, Kalamaria 551 32","categoryIds":["cheap-eats"],"categories":["Gyros & Cheap Eats"]},{"id":"burgersRestaurants_8f11f76e2e42","slug":"maverick-handmade-street-food-8f11","kind":"restaurant","name":"MAVERICK Handmade Street Food","lat":40.5733294711661,"lng":22.971759802516267,"url":"https://maps.app.goo.gl/Bc8D8iLK2oBQoFcm8?g_st=ipc","address":"Eth. Antistaseos 179, Kalamaria 551 34","categoryIds":["burgers","cheap-eats"],"categories":["Burger Spots","Gyros & Cheap Eats"]},{"id":"burgersRestaurants_c2797cbf1cc8","slug":"jacaranda-c279","kind":"restaurant","name":"Jacaranda","lat":40.583007556132294,"lng":22.982557958626895,"url":"https://maps.app.goo.gl/1GxBYUFXBeTUU8iq6?g_st=ipc","address":"Στέλιου Καζαντζίδη 24, Pilea 555 35","categoryIds":["burgers","cheap-eats"],"categories":["Burger Spots","Gyros & Cheap Eats"]},{"id":"cheapEatsRestaurants_7caa0b61c60c","slug":"o-giros-tis-ellados-7caa","kind":"restaurant","name":"O Giros Tis Ellados","lat":40.59770145420411,"lng":22.9555911779157,"url":"https://maps.app.goo.gl/dfbEJidizuzLLALq8?g_st=ipc","address":"Leof. Vasilissis Olgas 176, Thessaloniki 546 46","categoryIds":["cheap-eats"],"categories":["Gyros & Cheap Eats"]},{"id":"burgersRestaurants_8a735b95eb4f","slug":"paul-s-burger-8a73","kind":"restaurant","name":"Paul’s Burger","lat":40.59788362738132,"lng":22.95216160608432,"url":"https://maps.app.goo.gl/9L8fryr5EiA3D5rR9?g_st=ipc","address":"Geor. Papandreou 38, Thessaloniki 546 46","categoryIds":["burgers","cheap-eats"],"categories":["Burger Spots","Gyros & Cheap Eats"]},{"id":"burgersRestaurants_54aa085a6ef8","slug":"sinners-smash-burgers-54aa","kind":"restaurant","name":"Sinners Smash Burgers","lat":40.57608642412674,"lng":22.98935981589618,"url":"https://maps.app.goo.gl/Y2NDJtMWMoJrutpZ6?g_st=ipc","address":"Στέλιου Καζαντζίδη 31, Pilea 555 35","categoryIds":["burgers","cheap-eats"],"categories":["Burger Spots","Gyros & Cheap Eats"]}],"nearby":[{"id":"greekRestaurants_0e26d4a47188","slug":"to-steki-0e26","kind":"restaurant","name":"Το Στέκι","lat":40.572585888519654,"lng":22.955645778588657,"url":"https://maps.app.goo.gl/1rTE4MnvZB8TLm2j8?g_st=ipc","address":"Κουντουριώτου 16, Καλαμαριά 551 32","categoryIds":["greek-restaurants"],"categories":["Greek Restaurants"],"distanceKm":0.05290408820701972},{"id":"fishTavernasRestaurants_470d39921896","slug":"hamodrakas-seafood-restaurant-470d","kind":"restaurant","name":"Hamodrakas - Seafood Restaurant","lat":40.571711946022305,"lng":22.95231475803018,"url":"https://maps.app.goo.gl/6TCCV8GEPKaHee5b6?g_st=ipc","address":"Μ. Γαγύλη 13, Παραλία, Kalamaria 551 32","categoryIds":["fish-tavernas"],"categories":["Fish Tavernas"],"distanceKm":0.3248878071553604},{"id":"fishTavernasRestaurants_e98c62e6ec54","slug":"en-plo-e98c","kind":"restaurant","name":"En Plo","lat":40.57398660392286,"lng":22.949456391166105,"url":"https://maps.app.goo.gl/veiyM1VvYLvbo86r8?g_st=ipc","address":"Nik. Plastira 14Β, Kalamaria 551 32","categoryIds":["fish-tavernas"],"categories":["Fish Tavernas"],"distanceKm":0.5397845378919581},{"id":"fishTavernasRestaurants_36204a46aece","slug":"to-karnagio-3620","kind":"restaurant","name":"Το Καρνάγιο","lat":40.574881874460935,"lng":22.94956377176227,"url":"https://maps.app.goo.gl/pPBVRQW1crZFz6ho8?g_st=ipc","address":"Agiou Nikolaou 4, Thessaloniki 551 32","categoryIds":["fish-tavernas"],"categories":["Fish Tavernas"],"distanceKm":0.5588531793627742},{"id":"cheapEatsRestaurants_62516fc5ff91","slug":"theologos-fast-food-6251","kind":"restaurant","name":"Theologos Fast Food","lat":40.56936513403147,"lng":22.960477178944696,"url":"https://maps.app.goo.gl/ivkmYsPpBSwDCJHG7?g_st=ipc","address":"18, Aidiniou 14, Kalamaria 551 32","categoryIds":["cheap-eats"],"categories":["Gyros & Cheap Eats"],"distanceKm":0.5739245935039623},{"id":"fishTavernasRestaurants_696f7178604d","slug":"petros-ouzo-tavern-696f","kind":"restaurant","name":"\"Petros\" Ouzo Tavern","lat":40.5758568701644,"lng":22.94955610306511,"url":"https://maps.app.goo.gl/zWRjvQW7U7jg2RVz9?g_st=ipc","address":"Evelpidou 12, Kalamaria 551 32","categoryIds":["fish-tavernas"],"categories":["Fish Tavernas"],"distanceKm":0.6072310442480836},{"id":"fishTavernasRestaurants_8519dfc7e5a0","slug":"prigkipas-8519","kind":"restaurant","name":"Prigkipas","lat":40.56870307397198,"lng":22.96042239278236,"url":"https://maps.app.goo.gl/CftYQWb7WS78EL267?g_st=ipc","address":"Chanion 8, Kalamaria 551 32","categoryIds":["fish-tavernas"],"categories":["Fish Tavernas"],"distanceKm":0.6257556420059687},{"id":"cheapEatsRestaurants_d02e33f8bb10","slug":"food-plaza-d02e","kind":"restaurant","name":"Food Plaza","lat":40.57666918251193,"lng":22.94927301198073,"url":"https://maps.app.goo.gl/zwY1QQTAGPf4oH7s8?g_st=ipc","address":"Skra 16, Kalamaria 551 32","categoryIds":["cheap-eats"],"categories":["Gyros & Cheap Eats"],"distanceKm":0.67721595827232}],"sameRegion":[],"mentionedGuides":[],"canonicalSlug":"thess-gyro-3a3b","isCanonicalEntity":true,"enrichment":{"summary_en":"Thess...Gyro is a curated restaurant in Kalamaria 551 32 in the Gyros & Cheap Eats collection. It is connected to 10 nearby Googlementor picks to help travelers build a stronger local route.","summary_el":"Thess...Gyro είναι ένα επιλεγμένο σημείο φαγητού στην περιοχή Kalamaria 551 32 και ανήκει στη συλλογή Gyros & Cheap Eats. Συνδέεται με 10 κοντινές προτάσεις του Googlementor για πιο ολοκληρωμένη εμπειρία.","vibe_tags":["curated","budget-friendly"],"best_for":["first-time visitors","food lovers","budget travelers"],"visit_moments":["lunch stop","dinner stop"],"practical_note":"Address and direct map link are available for easy turn-by-turn access.","nearby_walkable_count":10,"nearby_count_2km":26,"confidence":0.98}},"__N_SSG":true}