{"pageProps":{"entity":{"id":"greekRestaurants_e3e798a7e287","slug":"to-limeri-toy-listi-e3e7","kind":"restaurant","name":"Το Λημέρι του Ληστή","lat":36.099407956222365,"lng":27.847469925314794,"url":"https://maps.app.goo.gl/WJ3azBZ7cYjda5GQ7?g_st=ipc","address":"Επαρ.Οδ. Απολακκιάς-Προφύλιας, Προφίλια 851 09","categoryIds":["greek-restaurants"],"categories":["Greek Restaurants"]},"sameCategory":[{"id":"greekRestaurants_8df912cf9d5d","slug":"sergio-s-old-times-restaurant-8df9","kind":"restaurant","name":"Sergio's Old Times Restaurant","lat":36.02217841916997,"lng":27.923644393349136,"url":"https://maps.app.goo.gl/WcoB83v33EWF8Thz8?g_st=ipc","address":"Επαρ.Οδ. Πυλώνας-Κατταβιάς 10, Γεννάδι 851 09","categoryIds":["greek-restaurants"],"categories":["Greek Restaurants"]},{"id":"greekRestaurants_8fa1ab96ff3b","slug":"estiatorio-paragka-8fa1","kind":"restaurant","name":"Εστιατόριο Παράγκα","lat":36.26098242565237,"lng":27.96998024225855,"url":"https://maps.app.goo.gl/rr6G3z1rwAh5ZVjW6?g_st=ipc","address":"Επαρ.Οδ. Απόλλωνα 13, Απόλλωνα 851 06","categoryIds":["greek-restaurants"],"categories":["Greek Restaurants"]},{"id":"greekRestaurants_a94a8469fcf3","slug":"mavrikos-a94a","kind":"restaurant","name":"Mavrikos","lat":36.09247847091618,"lng":28.08475093214934,"url":"https://maps.app.goo.gl/RT2NNoy2A6WNhV5d8?g_st=ipc","address":"Λίνδος 851 07","categoryIds":["greek-restaurants"],"categories":["Greek Restaurants"]},{"id":"greekRestaurants_091086b3e4f0","slug":"taverna-to-steki-0910","kind":"restaurant","name":"Taverna To Steki","lat":36.214820215510855,"lng":28.116222906463367,"url":"https://maps.app.goo.gl/whsyEjKzT1J9MqBz8?g_st=ipc","address":"Mezedopwleio To steki, Αρχάγγελος 851 02","categoryIds":["greek-restaurants"],"categories":["Greek Restaurants"]},{"id":"greekRestaurants_17adb0f648d3","slug":"mama-sofia-17ad","kind":"restaurant","name":"Μαμά Σοφία","lat":36.4441876301452,"lng":28.223517806980094,"url":"https://maps.app.goo.gl/X3ifevtVb6h2atUp6?g_st=ipc","address":"Οδός Ορφέως 28, Παλιά Πόλη, 28 Orfeos Street, Old Town, Rhodes/Rodos 851 00","categoryIds":["greek-restaurants"],"categories":["Greek Restaurants"]},{"id":"greekRestaurants_e1d962fd92af","slug":"the-secret-garden-e1d9","kind":"restaurant","name":"The Secret Garden","lat":36.6134620115941,"lng":27.843177878598354,"url":"https://maps.app.goo.gl/iCJQmYZ3TwTJuSur5?g_st=ipc","address":"ΑΛHΘIΝΗ,, Σύμη 856 00","categoryIds":["greek-restaurants"],"categories":["Greek Restaurants"]},{"id":"greekRestaurants_383ecd48feeb","slug":"taverna-parthenon-383e","kind":"restaurant","name":"Taverna Parthenon","lat":35.740676874043125,"lng":27.173051859916296,"url":"https://maps.app.goo.gl/HtArNGuwhu5Fggqw5?g_st=ipc","address":"Όλυμπος 857 00","categoryIds":["greek-restaurants"],"categories":["Greek Restaurants"]},{"id":"greekRestaurants_7677d65516af","slug":"taverna-olympos-7677","kind":"restaurant","name":"Taverna Olympos","lat":35.7393931429838,"lng":27.173927270519656,"url":"https://maps.app.goo.gl/kp6UyKBReeeXMq2i7?g_st=ipc","address":"Unnamed Road, Όλυμπος 857 00","categoryIds":["greek-restaurants"],"categories":["Greek Restaurants"]}],"nearby":[{"id":"greekRestaurants_8df912cf9d5d","slug":"sergio-s-old-times-restaurant-8df9","kind":"restaurant","name":"Sergio's Old Times Restaurant","lat":36.02217841916997,"lng":27.923644393349136,"url":"https://maps.app.goo.gl/WcoB83v33EWF8Thz8?g_st=ipc","address":"Επαρ.Οδ. Πυλώνας-Κατταβιάς 10, Γεννάδι 851 09","categoryIds":["greek-restaurants"],"categories":["Greek Restaurants"],"distanceKm":10.983199889642233},{"id":"greekRestaurants_8fa1ab96ff3b","slug":"estiatorio-paragka-8fa1","kind":"restaurant","name":"Εστιατόριο Παράγκα","lat":36.26098242565237,"lng":27.96998024225855,"url":"https://maps.app.goo.gl/rr6G3z1rwAh5ZVjW6?g_st=ipc","address":"Επαρ.Οδ. Απόλλωνα 13, Απόλλωνα 851 06","categoryIds":["greek-restaurants"],"categories":["Greek Restaurants"],"distanceKm":21.06394867229078},{"id":"greekRestaurants_a94a8469fcf3","slug":"mavrikos-a94a","kind":"restaurant","name":"Mavrikos","lat":36.09247847091618,"lng":28.08475093214934,"url":"https://maps.app.goo.gl/RT2NNoy2A6WNhV5d8?g_st=ipc","address":"Λίνδος 851 07","categoryIds":["greek-restaurants"],"categories":["Greek Restaurants"],"distanceKm":21.33337879669278},{"id":"municipalities_f23b3fb563b4","slug":"lindos-f23b","kind":"municipality","name":"Λίνδος","lat":36.0914,"lng":28.085,"region":"Ρόδος","name_en":"Lindos","region_en":"Rhodes","distanceKm":21.360551970096925},{"id":"municipalities_1ff64765be31","slug":"chalki-1ff6","kind":"municipality","name":"Χάλκη","lat":36.2167,"lng":27.6167,"aliases":["Χαλκη"],"region":"Δωδεκάνησα","name_en":"Halki","region_en":"Dodecanese","distanceKm":24.48138237881525},{"id":"fishTavernasRestaurants_5c524a0645d5","slug":"taverna-to-steki-5c52","kind":"restaurant","name":"Taverna To Steki","lat":36.21481289800798,"lng":28.116223331846093,"url":"https://maps.app.goo.gl/uGAqX7jPtUdH564r6?g_st=ipc","address":"Mezedopwleio To steki, Archaggelos 851 02","categoryIds":["fish-tavernas"],"categories":["Fish Tavernas"],"distanceKm":27.328581434801524},{"id":"greekRestaurants_091086b3e4f0","slug":"taverna-to-steki-0910","kind":"restaurant","name":"Taverna To Steki","lat":36.214820215510855,"lng":28.116222906463367,"url":"https://maps.app.goo.gl/whsyEjKzT1J9MqBz8?g_st=ipc","address":"Mezedopwleio To steki, Αρχάγγελος 851 02","categoryIds":["greek-restaurants"],"categories":["Greek Restaurants"],"distanceKm":27.32892879874912},{"id":"familyFriendly_79cc8da6366f","slug":"butterflies-valley-79cc","kind":"restaurant","name":"Butterflies Valley","lat":36.33937370008562,"lng":28.059689128523214,"url":"https://maps.app.goo.gl/VV66xLTvU3w6LKzy9?g_st=ipc","address":"Επάνω Καλαμωνας 851 06","categoryIds":["family-friendly"],"categories":["Kid Friendly Locations"],"distanceKm":32.77824156936802}],"sameRegion":[],"mentionedGuides":[],"canonicalSlug":"to-limeri-toy-listi-e3e7","isCanonicalEntity":true,"enrichment":{"summary_en":"Το Λημέρι του Ληστή is a curated restaurant in Προφίλια 851 09 in the Greek Restaurants collection. It is connected to 0 nearby Googlementor picks to help travelers build a stronger local route.","summary_el":"Το Λημέρι του Ληστή είναι ένα επιλεγμένο σημείο φαγητού στην περιοχή Προφίλια 851 09 και ανήκει στη συλλογή Greek Restaurants. Συνδέεται με 0 κοντινές προτάσεις του Googlementor για πιο ολοκληρωμένη εμπειρία.","vibe_tags":["curated"],"best_for":["first-time visitors","food lovers"],"visit_moments":["lunch stop","dinner stop"],"practical_note":"Address and direct map link are available for easy turn-by-turn access.","nearby_walkable_count":0,"nearby_count_2km":0,"confidence":0.9}},"__N_SSG":true}