{"pageProps":{"entity":{"id":"coffeeBrunchRestaurants_1e75db395902","slug":"to-loyvro-1e75","kind":"restaurant","name":"Το Λούβρο","lat":37.970011751193255,"lng":23.742186500606625,"url":"https://maps.app.goo.gl/YkKoXGLhpNyAx3V76?g_st=ipc","address":"Ερατοσθένους 6, Αθήνα 116 35","categoryIds":["coffee-brunch"],"categories":["Coffee & Brunch Spots"]},"sameCategory":[{"id":"coffeeBrunchRestaurants_d264f60c48b5","slug":"kekkos-traditional-cafe-pastry-d264","kind":"restaurant","name":"Κekkos Traditional Cafe & Pastry","lat":37.97039127677511,"lng":23.74203472592943,"url":"https://maps.app.goo.gl/2kmhegcNKQWPm1QD6?g_st=ipc","address":"Ερατοσθένους 7, Αθήνα 116 35","categoryIds":["coffee-brunch"],"categories":["Coffee & Brunch Spots"]},{"id":"coffeeBrunchRestaurants_b00f4e81c5ad","slug":"4m-rule-of-4m-b00f","kind":"restaurant","name":"4m (Rule of 4m)","lat":37.9710035656136,"lng":23.742348180047202,"url":"https://maps.app.goo.gl/iznGffRGqEfUmUVL9?g_st=ipc","address":"Αγίου Σπυρίδωνος 5, Αθήνα 116 35","categoryIds":["coffee-brunch"],"categories":["Coffee & Brunch Spots"]},{"id":"coffeeBrunchRestaurants_512abfbcd215","slug":"monokeros-bakery-512a","kind":"restaurant","name":"Monokeros Bakery","lat":37.96998792256903,"lng":23.745206716967704,"url":"https://maps.app.goo.gl/vPfqSycBZPnB31CG6?g_st=ipc","address":"Φαίδρου 4, Αθήνα 116 35","categoryIds":["coffee-brunch"],"categories":["Coffee & Brunch Spots"]},{"id":"coffeeBrunchRestaurants_baef4762247d","slug":"chelsea-hotel-baef","kind":"restaurant","name":"Chelsea Hotel","lat":37.96781479364914,"lng":23.743723733421092,"url":"https://maps.app.goo.gl/biMezA2mUN6mNc886?g_st=ipc","address":"Αρχιμήδους, Πρόκλου και, Αθήνα 116 35","categoryIds":["coffee-brunch"],"categories":["Coffee & Brunch Spots"]},{"id":"coffeeBrunchRestaurants_f1796bb2ea7c","slug":"plegma-coffee-living-f179","kind":"restaurant","name":"Plegma Coffee & Living","lat":37.96746994485961,"lng":23.74467734312101,"url":"https://maps.app.goo.gl/CJbmBuxNwPN6MCH98?g_st=ipc","address":"Plegma Coffee & Living","categoryIds":["coffee-brunch"],"categories":["Coffee & Brunch Spots"]},{"id":"coffeeBrunchRestaurants_818fcc5b16a1","slug":"zappa-athens-at-aigli-818f","kind":"restaurant","name":"Zappa Athens at Aigli","lat":37.97088612834781,"lng":23.737468844228125,"url":"https://maps.app.goo.gl/mA58YYFj25woNwrd6?g_st=ic","address":"Zappeion Garden, Athina 105 57","categoryIds":["coffee-brunch"],"categories":["Coffee & Brunch Spots"]},{"id":"coffeeBrunchRestaurants_6e5370c63d00","slug":"moden-6e53","kind":"restaurant","name":"Moden","lat":37.971223973274974,"lng":23.748242971172175,"url":"https://maps.app.goo.gl/LCSd8nHPjaUEMAGx8?g_st=ipc","address":"Αμασείας 6 &, Πρατίνου 53, Αθήνα 116 34","categoryIds":["coffee-brunch"],"categories":["Coffee & Brunch Spots"]},{"id":"coffeeBrunchRestaurants_c55d3c25167d","slug":"batard-c55d","kind":"restaurant","name":"Batard","lat":37.963759332679615,"lng":23.742734753718384,"url":"https://maps.app.goo.gl/jWyFQMPwKd4tru356?g_st=ic","address":"Pirronos 23, Athina 116 36","categoryIds":["coffee-brunch"],"categories":["Coffee & Brunch Spots"]}],"nearby":[{"id":"coffeeBrunchRestaurants_d264f60c48b5","slug":"kekkos-traditional-cafe-pastry-d264","kind":"restaurant","name":"Κekkos Traditional Cafe & Pastry","lat":37.97039127677511,"lng":23.74203472592943,"url":"https://maps.app.goo.gl/2kmhegcNKQWPm1QD6?g_st=ipc","address":"Ερατοσθένους 7, Αθήνα 116 35","categoryIds":["coffee-brunch"],"categories":["Coffee & Brunch Spots"],"distanceKm":0.044248800869325026},{"id":"italianRestaurants_67b7b653e959","slug":"cupola-67b7","kind":"restaurant","name":"Cupola","lat":37.97044661658537,"lng":23.742232273257617,"url":"https://maps.app.goo.gl/mFVjH2gTLzicYaVJA?g_st=ipc","address":"Ευφοριωνος 13, Αθήνα 116 35","categoryIds":["italian"],"categories":["Italian Restaurants"],"distanceKm":0.0485210071300514},{"id":"burgersRestaurants_7a76471a6430","slug":"nob-burger-7a76","kind":"restaurant","name":"nob.burger","lat":37.97058357459842,"lng":23.741857084173848,"url":"https://maps.app.goo.gl/7ty7gMmfJYVeTM5H9?g_st=ipc","address":"Ερατοσθένους 3, Αθήνα 116 35","categoryIds":["burgers"],"categories":["Burger Spots"],"distanceKm":0.06983362542253924},{"id":"coffeeBrunchRestaurants_b00f4e81c5ad","slug":"4m-rule-of-4m-b00f","kind":"restaurant","name":"4m (Rule of 4m)","lat":37.9710035656136,"lng":23.742348180047202,"url":"https://maps.app.goo.gl/iznGffRGqEfUmUVL9?g_st=ipc","address":"Αγίου Σπυρίδωνος 5, Αθήνα 116 35","categoryIds":["coffee-brunch"],"categories":["Coffee & Brunch Spots"],"distanceKm":0.11119164454287414},{"id":"luxuryDiningRestaurants_ee54b28fe034","slug":"amen-gastronomic-ee54","kind":"restaurant","name":"Amen Gastronomic","lat":37.970762115684614,"lng":23.743270249717987,"url":"https://maps.app.goo.gl/K2pf3xsJBhwfdAmR8?g_st=ipc","address":"Ηρώνδα 8, Αθήνα 116 35","categoryIds":["luxury-dining"],"categories":["Luxury Dining"],"distanceKm":0.1264380673040541},{"id":"mustSeeAttractions_3fcc6eb77276","slug":"panathinaiko-stadio-3fcc","kind":"restaurant","name":"Παναθηναϊκό Στάδιο","lat":37.96833218533537,"lng":23.741113035876687,"url":"https://maps.app.goo.gl/EoVCRRTzjoVCkEm18?g_st=ipc","address":"Λεωφ. Βασιλέως Κωνσταντίνου, Αθήνα 116 35","categoryIds":["attractions"],"categories":["Must-See Attractions"],"distanceKm":0.20912608009684538},{"id":"greekRestaurants_52e671578a6f","slug":"karavitis-52e6","kind":"restaurant","name":"Καραβίτης","lat":37.97158436368886,"lng":23.743633373686446,"url":"https://maps.app.goo.gl/8qs2pU39Ev8Bi4Gu6","address":"Παυσανίου 4, Αθήνα 116 35","categoryIds":["greek-restaurants"],"categories":["Greek Restaurants"],"distanceKm":0.21601859743954613},{"id":"italianRestaurants_858265b3f822","slug":"cosa-nostra-fresca-pasta-pagrati-8582","kind":"restaurant","name":"Cosa Nostra Fresca Pasta Pagrati","lat":37.96783594678004,"lng":23.743332676630974,"url":"https://maps.app.goo.gl/CdMX5E6yxNBbvoYs8?g_st=ipc","address":"Αρχιμήδους 8, Αθήνα 116 35","categoryIds":["italian","vegetarian"],"categories":["Italian Restaurants","Vegetarian Friendly Restaurants"],"distanceKm":0.26197167472140254}],"sameRegion":[],"mentionedGuides":[],"canonicalSlug":"to-loyvro-1e75","isCanonicalEntity":true,"enrichment":{"summary_en":"Το Λούβρο is a curated restaurant in Αθήνα 116 35 in the Coffee & Brunch Spots collection. It is connected to 70 nearby Googlementor picks to help travelers build a stronger local route.","summary_el":"Το Λούβρο είναι ένα επιλεγμένο σημείο φαγητού στην περιοχή Αθήνα 116 35 και ανήκει στη συλλογή Coffee & Brunch Spots. Συνδέεται με 70 κοντινές προτάσεις του Googlementor για πιο ολοκληρωμένη εμπειρία.","vibe_tags":["curated","daytime-favorite"],"best_for":["first-time visitors","food lovers"],"visit_moments":["early morning","late brunch"],"practical_note":"Address and direct map link are available for easy turn-by-turn access.","nearby_walkable_count":70,"nearby_count_2km":585,"confidence":0.98}},"__N_SSG":true}