{"pageProps":{"entity":{"id":"greekRestaurants_0e26d4a47188","slug":"to-steki-0e26","kind":"restaurant","name":"Το Στέκι","lat":40.572585888519654,"lng":22.955645778588657,"url":"https://maps.app.goo.gl/1rTE4MnvZB8TLm2j8?g_st=ipc","address":"Κουντουριώτου 16, Καλαμαριά 551 32","categoryIds":["greek-restaurants"],"categories":["Greek Restaurants"]},"sameCategory":[{"id":"greekRestaurants_effaa488563e","slug":"nea-klimataria-effa","kind":"restaurant","name":"Νέα Κληματαριά","lat":40.58891669010003,"lng":22.944876147959,"url":"https://maps.app.goo.gl/RWo1fZbyn2z8MGaa9?g_st=ipc","address":"Θεμιστοκλή Σοφούλη 97, Θεσσαλονίκη 551 31","categoryIds":["greek-restaurants"],"categories":["Greek Restaurants"]},{"id":"greekRestaurants_d5512fead26c","slug":"kronos-para-thin-alos-d551","kind":"restaurant","name":"Κρόνος παρά θίν αλός","lat":40.59022357622001,"lng":22.9465897334504,"url":"https://maps.app.goo.gl/yBbugZp5EmUQT27x7?g_st=ipc","address":"Θεμιστοκλή Σοφούλη 77, Θεσσαλονίκη 551 31","categoryIds":["greek-restaurants"],"categories":["Greek Restaurants"]},{"id":"greekRestaurants_11bcbb15df27","slug":"chalaro-11bc","kind":"restaurant","name":"Χάλαρο","lat":40.59065020365281,"lng":22.947310711779775,"url":"https://maps.app.goo.gl/FknwoH4DjWTtgiZc8?g_st=ipc","address":"Θεμιστοκλή Σοφούλη 75, Θεσσαλονίκη 551 31","categoryIds":["greek-restaurants"],"categories":["Greek Restaurants"]},{"id":"greekRestaurants_a5b4656768b4","slug":"emporikon-a5b4","kind":"restaurant","name":"Εμπορικόν","lat":40.59154248489415,"lng":22.963270056520066,"url":"https://maps.app.goo.gl/1BGYAM6C7rUnMDot8?g_st=ipc","address":"Αιγαίου 2, Θεσσαλονίκη 542 48","categoryIds":["greek-restaurants"],"categories":["Greek Restaurants"]},{"id":"greekRestaurants_d690428e2039","slug":"nea-diagonios-d690","kind":"restaurant","name":"Nea Diagonios","lat":40.59234555425419,"lng":22.94797192954155,"url":"https://maps.app.goo.gl/TtmMpqEMxkewPb8G9?g_st=ipc","address":"Themistokli Sofouli 64Α, Thessaloniki 546 55","categoryIds":["greek-restaurants"],"categories":["Greek Restaurants"]},{"id":"greekRestaurants_e11b69a9f4fc","slug":"koronis-e11b","kind":"restaurant","name":"Κορωνίς","lat":40.59688587335896,"lng":22.955410845086725,"url":"https://maps.app.goo.gl/Kyh1q1o7596jHSuu9?g_st=ipc","address":"Θεμιστοκλή Σοφούλη 4, Θεσσαλονίκη 546 46","categoryIds":["greek-restaurants"],"categories":["Greek Restaurants"]},{"id":"greekRestaurants_caf46d3ae170","slug":"mpachtses-caf4","kind":"restaurant","name":"Μπαχτσές","lat":40.59735406643829,"lng":22.956242795320843,"url":"https://maps.app.goo.gl/24benajDUQutZUA78?g_st=ipc","address":"Λεωφ. Βασιλίσσης Όλγας 211, Θεσσαλονίκη 546 46","categoryIds":["greek-restaurants"],"categories":["Greek Restaurants"]},{"id":"greekRestaurants_5420cd09afd9","slug":"taverna-kronos-5420","kind":"restaurant","name":"Ταβέρνα Κρόνος","lat":40.59744980216976,"lng":22.955600566420387,"url":"https://maps.app.goo.gl/GJFXXJsfLXcf12tg7?g_st=ipc","address":"Β.Όλγας 178, & Γ. Βαφοπούλου 30, Θεσσαλονίκη 546 46","categoryIds":["greek-restaurants"],"categories":["Greek Restaurants"]}],"nearby":[{"id":"cheapEatsRestaurants_3a3bde48c733","slug":"thess-gyro-3a3b","kind":"restaurant","name":"Thess...Gyro","lat":40.57305742887387,"lng":22.955729191150056,"url":"https://maps.app.goo.gl/UxFcV7SWYu9feyef9?g_st=ipc","address":"Smirnis 14, Kalamaria 551 32","categoryIds":["cheap-eats"],"categories":["Gyros & Cheap Eats"],"distanceKm":0.05290408820701972},{"id":"fishTavernasRestaurants_470d39921896","slug":"hamodrakas-seafood-restaurant-470d","kind":"restaurant","name":"Hamodrakas - Seafood Restaurant","lat":40.571711946022305,"lng":22.95231475803018,"url":"https://maps.app.goo.gl/6TCCV8GEPKaHee5b6?g_st=ipc","address":"Μ. Γαγύλη 13, Παραλία, Kalamaria 551 32","categoryIds":["fish-tavernas"],"categories":["Fish Tavernas"],"distanceKm":0.29765568083285443},{"id":"cheapEatsRestaurants_62516fc5ff91","slug":"theologos-fast-food-6251","kind":"restaurant","name":"Theologos Fast Food","lat":40.56936513403147,"lng":22.960477178944696,"url":"https://maps.app.goo.gl/ivkmYsPpBSwDCJHG7?g_st=ipc","address":"18, Aidiniou 14, Kalamaria 551 32","categoryIds":["cheap-eats"],"categories":["Gyros & Cheap Eats"],"distanceKm":0.5429420570814055},{"id":"fishTavernasRestaurants_e98c62e6ec54","slug":"en-plo-e98c","kind":"restaurant","name":"En Plo","lat":40.57398660392286,"lng":22.949456391166105,"url":"https://maps.app.goo.gl/veiyM1VvYLvbo86r8?g_st=ipc","address":"Nik. Plastira 14Β, Kalamaria 551 32","categoryIds":["fish-tavernas"],"categories":["Fish Tavernas"],"distanceKm":0.5454702429404117},{"id":"fishTavernasRestaurants_36204a46aece","slug":"to-karnagio-3620","kind":"restaurant","name":"Το Καρνάγιο","lat":40.574881874460935,"lng":22.94956377176227,"url":"https://maps.app.goo.gl/pPBVRQW1crZFz6ho8?g_st=ipc","address":"Agiou Nikolaou 4, Thessaloniki 551 32","categoryIds":["fish-tavernas"],"categories":["Fish Tavernas"],"distanceKm":0.5736327019590136},{"id":"fishTavernasRestaurants_8519dfc7e5a0","slug":"prigkipas-8519","kind":"restaurant","name":"Prigkipas","lat":40.56870307397198,"lng":22.96042239278236,"url":"https://maps.app.goo.gl/CftYQWb7WS78EL267?g_st=ipc","address":"Chanion 8, Kalamaria 551 32","categoryIds":["fish-tavernas"],"categories":["Fish Tavernas"],"distanceKm":0.5909159055052486},{"id":"fishTavernasRestaurants_696f7178604d","slug":"petros-ouzo-tavern-696f","kind":"restaurant","name":"\"Petros\" Ouzo Tavern","lat":40.5758568701644,"lng":22.94955610306511,"url":"https://maps.app.goo.gl/zWRjvQW7U7jg2RVz9?g_st=ipc","address":"Evelpidou 12, Kalamaria 551 32","categoryIds":["fish-tavernas"],"categories":["Fish Tavernas"],"distanceKm":0.6299421456237176},{"id":"fishTavernasRestaurants_d3195d3c5fff","slug":"arodo-d319","kind":"restaurant","name":"Aródo","lat":40.566822399097624,"lng":22.957889078590952,"url":"https://maps.app.goo.gl/1PTePSM62TKyXYyd9?g_st=ipc","address":"Thetidos 25, Θεσσαλονίκη 551 32","categoryIds":["fish-tavernas"],"categories":["Fish Tavernas"],"distanceKm":0.6682951977482395}],"sameRegion":[],"mentionedGuides":[{"slug":"american-college-of-greece-agia-paraskevi-guide-el","title":"American College of Greece: Οδηγός Αγίας Παρασκευής"},{"slug":"american-college-of-greece-agia-paraskevi-guide","title":"American College of Greece: Welcome to Agia Paraskevi"}],"canonicalSlug":"to-steki-0e26","isCanonicalEntity":true,"enrichment":{"summary_en":"Το Στέκι is a curated restaurant in Καλαμαριά 551 32 in the Greek Restaurants collection. It is connected to 11 nearby Googlementor picks to help travelers build a stronger local route.","summary_el":"Το Στέκι είναι ένα επιλεγμένο σημείο φαγητού στην περιοχή Καλαμαριά 551 32 και ανήκει στη συλλογή Greek Restaurants. Συνδέεται με 11 κοντινές προτάσεις του Googlementor για πιο ολοκληρωμένη εμπειρία.","vibe_tags":["curated"],"best_for":["first-time visitors","food lovers"],"visit_moments":["lunch stop","dinner stop"],"practical_note":"Address and direct map link are available for easy turn-by-turn access.","nearby_walkable_count":11,"nearby_count_2km":23,"confidence":0.98}},"__N_SSG":true}