{"pageProps":{"entity":{"id":"coffeeBrunchRestaurants_7f4487a3dbe7","slug":"to-tapsaki-7f44","kind":"restaurant","name":"ΤΟ ΤΑΨΑΚΙ","lat":38.01602416062038,"lng":23.69208574474452,"url":"https://maps.app.goo.gl/1RLYBjPgBMgH7a6F8?g_st=ipc","address":"Λεωφ. Παναγή Τσαλδάρη 95, Περιστέρι 121 34","categoryIds":["coffee-brunch"],"categories":["Coffee & Brunch Spots"]},"sameCategory":[{"id":"coffeeBrunchRestaurants_6a62e770d50a","slug":"mind-the-cup-6a62","kind":"restaurant","name":"Mind The Cup","lat":38.01157944836187,"lng":23.693274104432696,"url":"https://maps.app.goo.gl/ztF6fFTkc58DpW1r6?g_st=ipc","address":"Αιμιλίου Βεάκη 29, Περιστέρι 121 34","categoryIds":["coffee-brunch","vegetarian"],"categories":["Coffee & Brunch Spots","Vegetarian Friendly Restaurants"]},{"id":"coffeeBrunchRestaurants_c560ff32aef8","slug":"sempre-coffee-cocktail-bar-c560","kind":"restaurant","name":"sempre coffee & cocktail bar","lat":38.01143610501892,"lng":23.691242502233425,"url":"https://maps.app.goo.gl/AJY2nLTvRqUqFGG26?g_st=ipc","address":"Σαρανταπόρου 51, Περιστέρι 121 34","categoryIds":["coffee-brunch"],"categories":["Coffee & Brunch Spots"]},{"id":"coffeeBrunchRestaurants_1af20f440d3d","slug":"farin-moya-farin-moua-1af2","kind":"restaurant","name":"Φαρίν Μουά (Farin Moua)","lat":38.01222147430599,"lng":23.696769307184784,"url":"https://maps.app.goo.gl/JTr1zxCGMeDfbPnm6?g_st=ipc","address":"Ερυθραίας 2, Περιστέρι 121 34","categoryIds":["coffee-brunch"],"categories":["Coffee & Brunch Spots"]},{"id":"coffeeBrunchRestaurants_d973150da438","slug":"godmama-s-yard-d973","kind":"restaurant","name":"Godmama's Yard","lat":38.01041883422101,"lng":23.693182201934864,"url":"https://maps.app.goo.gl/eq6S1VVqt14LtEJ1A?g_st=ipc","address":"Βασ. Αλεξάνδρου 98, Περιστέρι 121 34","categoryIds":["coffee-brunch"],"categories":["Coffee & Brunch Spots"]},{"id":"coffeeBrunchRestaurants_311880d8c64b","slug":"the-roosters-3118","kind":"restaurant","name":"The Roosters","lat":38.01136673827295,"lng":23.697881523081808,"url":"https://maps.app.goo.gl/4RrZxNGRywBkjvdY7?g_st=ipc","address":"25ης Μαρτίου 7, Περιστέρι 121 32","categoryIds":["coffee-brunch"],"categories":["Coffee & Brunch Spots"]},{"id":"coffeeBrunchRestaurants_ebe61501db3c","slug":"anemologio-enallaktiko-kafe-ebe6","kind":"restaurant","name":"Ανεμολόγιο εναλλακτικό καφέ","lat":38.01553415279337,"lng":23.680397259584772,"url":"https://maps.app.goo.gl/CdGAWQcCNoqhMaoLA?g_st=ipc","address":"Πελοπίδα 106, Περιστέρι 121 35","categoryIds":["coffee-brunch","greek-restaurants"],"categories":["Coffee & Brunch Spots","Greek Restaurants"]},{"id":"coffeeBrunchRestaurants_a657f6b8a354","slug":"lovely-days-a657","kind":"restaurant","name":"Lovely Days","lat":38.00529768504346,"lng":23.695116340010305,"url":"https://maps.app.goo.gl/J9ALB8U7qzvJ4FHB6?g_st=ipc","address":"Σοφοκλή Βενιζέλου 42, Κολοκοτρώνη 35, Περιστέρι 121 31","categoryIds":["coffee-brunch"],"categories":["Coffee & Brunch Spots"]},{"id":"coffeeBrunchRestaurants_56346e942815","slug":"qahwa-roastery-5634","kind":"restaurant","name":"Qahwa Roastery","lat":38.00443805181344,"lng":23.67683735104457,"url":"https://maps.app.goo.gl/iwKrvWdDuhAmB8YHA?g_st=ipc","address":"Αγίου Σπυρίδωνος 48, Αιγάλεω 122 43","categoryIds":["coffee-brunch"],"categories":["Coffee & Brunch Spots"]}],"nearby":[{"id":"dessertsRestaurants_0bd970e0964c","slug":"galaktopoleio-stamoy-0bd9","kind":"restaurant","name":"Γαλακτοπωλείο ΣΤΑΜΟΥ","lat":38.01935756256588,"lng":23.693353122137157,"url":"https://maps.app.goo.gl/edSgLeEb2PdXqjbp6?g_st=ipc","address":"Θηβών 240, Περιστέρι 121 34","categoryIds":["desserts"],"categories":["Dessert Shops"],"distanceKm":0.38692803611594506},{"id":"burgersRestaurants_61f30a1a8896","slug":"arch-beer-house-61f3","kind":"restaurant","name":"Arch Beer House","lat":38.013998175642,"lng":23.688328178434592,"url":"https://maps.app.goo.gl/ESAdNAhkQW7WvLqWA?g_st=ipc","address":"Εθ. Αντιστάσεως 91, Περιστέρι 121 34","categoryIds":["burgers","greek-restaurants"],"categories":["Burger Spots","Greek Restaurants"],"distanceKm":0.3988870970067701},{"id":"dessertsRestaurants_fe0eaa42452f","slug":"iceroll-peristeri-fe0e","kind":"restaurant","name":"Iceroll Peristeri","lat":38.01176430122643,"lng":23.693145391813818,"url":"https://maps.app.goo.gl/vjP8tAUnWK58Uq5x7?g_st=ipc","address":"Αιμιλίου Βεάκη 46, Περιστέρι 121 34","categoryIds":["desserts"],"categories":["Dessert Shops"],"distanceKm":0.48268570118187276},{"id":"italianRestaurants_1b88f38100c7","slug":"the-italians-peristeri-1b88","kind":"restaurant","name":"The italians_peristeri","lat":38.01175840681134,"lng":23.693124439008372,"url":"https://maps.app.goo.gl/EPn5hzC47NSHkek9A?g_st=ipc","address":"Αιμιλίου Βεάκη 46, Περιστέρι 121 34","categoryIds":["italian"],"categories":["Italian Restaurants"],"distanceKm":0.48297971330596395},{"id":"cheapEatsRestaurants_64ecfbc2f3f4","slug":"mayro-alati-64ec","kind":"restaurant","name":"Μαύρο Αλάτι","lat":38.011756038342455,"lng":23.693312637532987,"url":"https://maps.app.goo.gl/WBopamZ7xeysedvt5?g_st=ipc","address":"Αιμιλίου Βεάκη 44, Περιστέρι 121 34","categoryIds":["cheap-eats"],"categories":["Gyros & Cheap Eats"],"distanceKm":0.4866124904756135},{"id":"italianRestaurants_b8dec0e1044a","slug":"makaroynes-exceptional-cuisine-b8de","kind":"restaurant","name":"Μακαρούνες (exceptional cuisine)","lat":38.01172277822911,"lng":23.691017826226332,"url":"https://maps.app.goo.gl/h2o6228dtCcx8xr98?g_st=ipc","address":"Αιμιλίου Βεάκη 70, Περιστέρι 121 34","categoryIds":["italian"],"categories":["Italian Restaurants"],"distanceKm":0.4873560536459804},{"id":"burgersRestaurants_d4b7de9746f1","slug":"butcher-s-burger-peristeri-steak-house-d4b7","kind":"restaurant","name":"Butcher's Burger Peristeri & Steak House","lat":38.01156289236995,"lng":23.69228404120557,"url":"https://maps.app.goo.gl/HZTQZzXmyYMQ3mzX9?g_st=ipc","address":"Αιμιλίου Βεάκη 41, Περιστέρι 121 34","categoryIds":["burgers"],"categories":["Burger Spots"],"distanceKm":0.49637448039760385},{"id":"greekRestaurants_e84451b3cebc","slug":"taverna-psistaria-o-thomas-apo-to-1980-e844","kind":"restaurant","name":"Ταβέρνα - Ψησταριά ο Θωμάς απο το 1980","lat":38.015942140522725,"lng":23.686390666199237,"url":"https://maps.app.goo.gl/ZYNUbquE3yHM5E837","address":"Χαλκοκονδύλη 39, Περιστέρι 121 35","categoryIds":["greek-restaurants"],"categories":["Greek Restaurants"],"distanceKm":0.4989932910030358}],"sameRegion":[],"mentionedGuides":[],"canonicalSlug":"to-tapsaki-7f44","isCanonicalEntity":true,"enrichment":{"summary_en":"ΤΟ ΤΑΨΑΚΙ is a curated restaurant in Περιστέρι 121 34 in the Coffee & Brunch Spots collection. It is connected to 27 nearby Googlementor picks to help travelers build a stronger local route.","summary_el":"ΤΟ ΤΑΨΑΚΙ είναι ένα επιλεγμένο σημείο φαγητού στην περιοχή Περιστέρι 121 34 και ανήκει στη συλλογή Coffee & Brunch Spots. Συνδέεται με 27 κοντινές προτάσεις του Googlementor για πιο ολοκληρωμένη εμπειρία.","vibe_tags":["curated","daytime-favorite"],"best_for":["first-time visitors","food lovers"],"visit_moments":["early morning","late brunch"],"practical_note":"Address and direct map link are available for easy turn-by-turn access.","nearby_walkable_count":27,"nearby_count_2km":55,"confidence":0.98}},"__N_SSG":true}