{"pageProps":{"entity":{"id":"cheapEatsRestaurants_0371c77b2517","slug":"tsiknaboom-0371","kind":"restaurant","name":"TsiknaBoom","lat":37.97906604032225,"lng":23.726418827071747,"url":"https://maps.app.goo.gl/DxnAjbtDdfK3oFbr9?g_st=ipc","address":"Παλλάδος 2-4, Αθήνα 105 54","categoryIds":["cheap-eats"],"categories":["Gyros & Cheap Eats"]},"sameCategory":[{"id":"cheapEatsRestaurants_16ba629709d2","slug":"just-pita-16ba","kind":"restaurant","name":"Just Pita","lat":37.97840949020096,"lng":23.726739666799467,"url":"https://maps.app.goo.gl/hyeDVXAzDsSq1RQz5?g_st=ipc","address":"Αθηνάς 18, Αθήνα 105 51","categoryIds":["cheap-eats"],"categories":["Gyros & Cheap Eats"]},{"id":"cheapEatsRestaurants_24f0cfa0516a","slug":"ringo-kalamaki-pub-24f0","kind":"restaurant","name":"RINGO Kalamaki Pub","lat":37.978249435688795,"lng":23.72590325237898,"url":"https://maps.app.goo.gl/EvDBZN3YG2DfzNcdA?g_st=ipc","address":"Πρωτογένους 8, Αθήνα 105 54","categoryIds":["cheap-eats"],"categories":["Gyros & Cheap Eats"]},{"id":"cheapEatsRestaurants_eaf8d8c0d190","slug":"bouloukos-kebab-eaf8","kind":"restaurant","name":"Bouloukos Kebab","lat":37.980172161906935,"lng":23.72690266572384,"url":"https://maps.app.goo.gl/eUePB41Ppi2PT7NL7?g_st=ipc","address":"Αθηνάς 53, Αθήνα 105 52","categoryIds":["cheap-eats"],"categories":["Gyros & Cheap Eats"]},{"id":"cheapEatsRestaurants_0155944d18e6","slug":"feyrouz-athens-0155","kind":"restaurant","name":"Feyrouz_Athens","lat":37.97815189918129,"lng":23.727647148068286,"url":"https://maps.app.goo.gl/vF2fcE6pnayp7atp8?g_st=ipc","address":"Καρόρη 23 και, Αγάθωνος 1, Αθήνα 105 51","categoryIds":["cheap-eats","vegetarian"],"categories":["Gyros & Cheap Eats","Vegetarian Friendly Restaurants"]},{"id":"cheapEatsRestaurants_72f8dec93abe","slug":"i-volvi-72f8","kind":"restaurant","name":"Η Βόλβη","lat":37.97981742118138,"lng":23.72787228689906,"url":"https://maps.app.goo.gl/x2HbvpDyfiYLua7z6?g_st=ipc","address":"Ευριπίδου 24-26, Αθήνα 105 51","categoryIds":["cheap-eats"],"categories":["Gyros & Cheap Eats"]},{"id":"cheapEatsRestaurants_753d5449336c","slug":"la-pizzetta-753d","kind":"restaurant","name":"La Pizzetta","lat":37.97847520528142,"lng":23.728112025622647,"url":"https://maps.app.goo.gl/K4gKpgJyy7hobcQQ6?g_st=ipc","address":"Αιόλου 56, Αθήνα 105 60","categoryIds":["cheap-eats"],"categories":["Gyros & Cheap Eats"]},{"id":"cheapEatsRestaurants_97e6c85445da","slug":"tsiken-the-van-97e6","kind":"restaurant","name":"ΤΣΙΚΕΝ The Van","lat":37.97797456722786,"lng":23.725133314287408,"url":"https://maps.app.goo.gl/QK18bYTh1b11fJt97?g_st=ipc","address":"Μιαούλη 19, Αθήνα 105 54","categoryIds":["cheap-eats"],"categories":["Gyros & Cheap Eats"]},{"id":"cheapEatsRestaurants_73b2f6130df6","slug":"groovy-ham-73b2","kind":"restaurant","name":"Groovy Ham","lat":37.978434992498535,"lng":23.728303604469694,"url":"https://maps.app.goo.gl/bFq352ScX4ijnYoH8?g_st=ipc","address":"Μιλτιάδου 22, Αθήνα 105 60","categoryIds":["cheap-eats"],"categories":["Gyros & Cheap Eats"]}],"nearby":[{"id":"fishTavernasRestaurants_258b48244975","slug":"linoy-soympasis-kai-sia-258b","kind":"restaurant","name":"ΛΙΝΟΥ ΣΟΥΜΠΑΣΗΣ ΚΑΙ ΣΙΑ","lat":37.97931845245544,"lng":23.725978511536088,"url":"https://maps.app.goo.gl/K7omqvkBiNsvXTkW8?g_st=ipc","address":"Μελανθίου 2, Αθήνα 105 54 &, Καλαμίδα 9, Αθήνα 105 54","categoryIds":["fish-tavernas"],"categories":["Fish Tavernas"],"distanceKm":0.04771943214293652},{"id":"fishTavernasRestaurants_4ce059d48e50","slug":"lsandsia-4ce0","kind":"restaurant","name":"lsandsia","lat":37.97936959687578,"lng":23.725957904871184,"url":"https://maps.app.goo.gl/VGsVN7MnXG9J2joA7?g_st=ipc","address":"Μελανθίου 2, Αθήνα 105 54","categoryIds":["fish-tavernas"],"categories":["Fish Tavernas"],"distanceKm":0.05264396331404491},{"id":"cheapEatsRestaurants_16ba629709d2","slug":"just-pita-16ba","kind":"restaurant","name":"Just Pita","lat":37.97840949020096,"lng":23.726739666799467,"url":"https://maps.app.goo.gl/hyeDVXAzDsSq1RQz5?g_st=ipc","address":"Αθηνάς 18, Αθήνα 105 51","categoryIds":["cheap-eats"],"categories":["Gyros & Cheap Eats"],"distanceKm":0.07823380474704007},{"id":"dessertsRestaurants_d96257796e81","slug":"kokkion-monastiraki-d962","kind":"restaurant","name":"Kokkion Μοναστηράκι","lat":37.97829626511462,"lng":23.72638522814765,"url":"https://maps.app.goo.gl/FfAWG58apt6AFDPU7?g_st=ipc","address":"Πρωτογένους 2, Αθήνα 105 54","categoryIds":["desserts"],"categories":["Dessert Shops"],"distanceKm":0.08564574198206756},{"id":"greekRestaurants_0880507319bf","slug":"estiatorio-ayli-0880","kind":"restaurant","name":"Εστιατόριο Αυλή","lat":37.97971984965389,"lng":23.72579553971612,"url":"https://maps.app.goo.gl/91VrWaADuuDQ9qeWA","address":"Αγ. Δημητρίου 12, Αθήνα 105 54","categoryIds":["greek-restaurants"],"categories":["Greek Restaurants"],"distanceKm":0.0909379778041716},{"id":"coffeeBrunchRestaurants_efaa63d4fa10","slug":"dope-efaa","kind":"restaurant","name":"Dope","lat":37.97832305246442,"lng":23.72690477526337,"url":"https://maps.app.goo.gl/JomysUEbYVtYn2KN6?g_st=ipc","address":"Βύσσης 25, Αθήνα 105 51","categoryIds":["coffee-brunch"],"categories":["Coffee & Brunch Spots"],"distanceKm":0.09294947303437037},{"id":"cheapEatsRestaurants_24f0cfa0516a","slug":"ringo-kalamaki-pub-24f0","kind":"restaurant","name":"RINGO Kalamaki Pub","lat":37.978249435688795,"lng":23.72590325237898,"url":"https://maps.app.goo.gl/EvDBZN3YG2DfzNcdA?g_st=ipc","address":"Πρωτογένους 8, Αθήνα 105 54","categoryIds":["cheap-eats"],"categories":["Gyros & Cheap Eats"],"distanceKm":0.10142545941560169},{"id":"dessertsRestaurants_195d87455c89","slug":"ta-serbetia-stou-psyrri-195d","kind":"restaurant","name":"Ta Serbetia stou Psyrri","lat":37.97876489928662,"lng":23.725063077362762,"url":"https://maps.app.goo.gl/t2M6Ma6B3LXC2PSo6?g_st=ipc","address":"105 54, Eschilou 3, Athina 105 54","categoryIds":["desserts"],"categories":["Dessert Shops"],"distanceKm":0.12345661553656749}],"sameRegion":[],"mentionedGuides":[],"canonicalSlug":"tsiknaboom-0371","isCanonicalEntity":true,"enrichment":{"summary_en":"TsiknaBoom is a curated restaurant in Αθήνα 105 54 in the Gyros & Cheap Eats collection. It is connected to 292 nearby Googlementor picks to help travelers build a stronger local route.","summary_el":"TsiknaBoom είναι ένα επιλεγμένο σημείο φαγητού στην περιοχή Αθήνα 105 54 και ανήκει στη συλλογή Gyros & Cheap Eats. Συνδέεται με 292 κοντινές προτάσεις του Googlementor για πιο ολοκληρωμένη εμπειρία.","vibe_tags":["curated","budget-friendly"],"best_for":["first-time visitors","food lovers","budget travelers"],"visit_moments":["lunch stop","dinner stop"],"practical_note":"Address and direct map link are available for easy turn-by-turn access.","nearby_walkable_count":292,"nearby_count_2km":625,"confidence":0.98}},"__N_SSG":true}