{"pageProps":{"entity":{"id":"mustSeeAttractions_7e14ccbc774d","slug":"voyli-ton-ellinon-7e14","kind":"restaurant","name":"Βουλή των Ελλήνων","lat":37.97534017568183,"lng":23.73691601580171,"url":"https://maps.app.goo.gl/unRrdoEdMtGJhBhX8?g_st=ipc","address":"Μέγαρο, Βουλής, Αθήνα 100 21","categoryIds":["attractions"],"categories":["Must-See Attractions"]},"sameCategory":[{"id":"mustSeeAttractions_40f48472fa4a","slug":"monument-to-the-unknown-soldier-40f4","kind":"restaurant","name":"Monument to the Unknown Soldier","lat":37.97535428174513,"lng":23.736259428820603,"url":"https://maps.app.goo.gl/RRXmkZ72CeNufyB66?g_st=ipc","address":"Leof. Vasilisis Amalias 133, Athina 105 57","categoryIds":["attractions"],"categories":["Must-See Attractions"]},{"id":"mustSeeAttractions_5ecb5990c6e7","slug":"syntagma-square-5ecb","kind":"restaurant","name":"Syntagma Square","lat":37.97554970639471,"lng":23.734713366778323,"url":"https://maps.app.goo.gl/W5joNY37bu7NJ8Hz8?g_st=ipc","address":"Pl. Sintagmatos, Athina 105 63","categoryIds":["attractions"],"categories":["Must-See Attractions"]},{"id":"mustSeeAttractions_67d5b49dcf96","slug":"votaniko-moyseio-ethnikoy-kipoy-67d5","kind":"restaurant","name":"Βοτανικό Μουσείο Εθνικού Κήπου","lat":37.97408914636613,"lng":23.7389299048779,"url":"https://maps.app.goo.gl/jXVzy7hmkNKGbif26?g_st=ipc","address":"Λεωφ. Βασιλίσσης Σοφίας, Αθήνα 105 57","categoryIds":["attractions"],"categories":["Must-See Attractions"]},{"id":"familyFriendly_97da3f56afb5","slug":"ethnikos-kipos-97da","kind":"restaurant","name":"Εθνικός Κήπος","lat":37.97258568206085,"lng":23.73743382176546,"url":"https://maps.app.goo.gl/MCnnH77ndto6n5WT8?g_st=ipc","address":"Αθήνα 105 57","categoryIds":["family-friendly","attractions"],"categories":["Kid Friendly Locations","Must-See Attractions"]},{"id":"mustSeeAttractions_4a961e3001a5","slug":"moyseio-mpenaki-ellinikoy-politismoy-benaki-museum-of-greek-culture-4a96","kind":"restaurant","name":"Μουσείο Μπενάκη Ελληνικού Πολιτισμού | Benaki Museum of Greek Culture","lat":37.97595332142378,"lng":23.740446335275582,"url":"https://maps.app.goo.gl/tPkYqHsHmRpbKSaX9?g_st=ipc","address":"Koumpari 1, Athina 106 74","categoryIds":["attractions"],"categories":["Must-See Attractions"]},{"id":"mustSeeAttractions_a63ab05582ba","slug":"zappeio-megaro-a63a","kind":"restaurant","name":"Ζάππειο Μέγαρο","lat":37.971521700592604,"lng":23.73672254708253,"url":"https://maps.app.goo.gl/Hb78YQFedU1ZBjDY7?g_st=ipc","address":"Λεωφ. Βασιλίσσης Όλγας, Αθήνα 105 57","categoryIds":["attractions"],"categories":["Must-See Attractions"]},{"id":"mustSeeAttractions_7df9738c0c83","slug":"romaika-loytra-zappeioy-7df9","kind":"restaurant","name":"Ρωμαϊκά Λουτρά Ζαππείου","lat":37.97157046328902,"lng":23.73377918203135,"url":"https://maps.app.goo.gl/umvyXLD9iKw3FVBTA?g_st=ipc","address":"Λεωφ. Βασιλίσσης Αμαλίας 405, Αθήνα 105 57","categoryIds":["attractions"],"categories":["Must-See Attractions"]},{"id":"mustSeeAttractions_ad424ca48b94","slug":"kipoi-zappeioy-ad42","kind":"restaurant","name":"Κήποι Ζαππείου","lat":37.97023042997274,"lng":23.73586719386634,"url":"https://maps.app.goo.gl/5RjMWARRwZPM2Kdw6?g_st=ipc","address":"Λεωφ. Βασιλίσσης Όλγας 1, Αθήνα 105 57","categoryIds":["attractions"],"categories":["Must-See Attractions"]}],"nearby":[{"id":"mustSeeAttractions_40f48472fa4a","slug":"monument-to-the-unknown-soldier-40f4","kind":"restaurant","name":"Monument to the Unknown Soldier","lat":37.97535428174513,"lng":23.736259428820603,"url":"https://maps.app.goo.gl/RRXmkZ72CeNufyB66?g_st=ipc","address":"Leof. Vasilisis Amalias 133, Athina 105 57","categoryIds":["attractions"],"categories":["Must-See Attractions"],"distanceKm":0.05757269386049057},{"id":"rooftopLoungesRestaurants_c34049f74a4c","slug":"gb-roof-garden-restaurant-bar-c340","kind":"restaurant","name":"GB Roof Garden Restaurant & Bar","lat":37.97622491152129,"lng":23.73551130501855,"url":"https://maps.app.goo.gl/dd7gZSbVftPp5h3y8?g_st=ipc","address":"GB Roof Garden Restaurant & Bar","categoryIds":["rooftop-lounges"],"categories":["Rooftop Lounges"],"distanceKm":0.1576010890781793},{"id":"luxuryDiningRestaurants_0523e221d253","slug":"gb-roof-garden-restaurant-bar-0523","kind":"restaurant","name":"GB Roof Garden Restaurant & Bar","lat":37.97622612223311,"lng":23.735512001439584,"url":"https://maps.app.goo.gl/VcZAREtQXac8Kb7L8?g_st=ipc","address":"Γεωρ. Α' 1, Αθήνα 105 64","categoryIds":["luxury-dining"],"categories":["Luxury Dining"],"distanceKm":0.15763750010051797},{"id":"luxuryDiningRestaurants_bd5ed00d450e","slug":"the-winter-garden-bd5e","kind":"restaurant","name":"The Winter Garden","lat":37.97623725810017,"lng":23.735438816517487,"url":"https://maps.app.goo.gl/jhibZwcpc2dwd9vw9?g_st=ipc","address":"Γεωρ. Α' 1, Αθήνα 105 64","categoryIds":["luxury-dining"],"categories":["Luxury Dining"],"distanceKm":0.16344751628684112},{"id":"luxuryDiningRestaurants_7703e92f7675","slug":"alexander-s-cigar-lounge-hotel-grande-bretagne-7703","kind":"restaurant","name":"Alexander's Cigar Lounge - Hotel Grande Bretagne","lat":37.9765761269288,"lng":23.735530035440927,"url":"https://maps.app.goo.gl/ATToqJxfAUoZ5G9K9?g_st=ipc","address":"Ξενοδοχείο Μεγάλη Βρεταννία, Αθήνα 105 64","categoryIds":["luxury-dining"],"categories":["Luxury Dining"],"distanceKm":0.18342738816702095},{"id":"municipalities_877c3bc81df5","slug":"syntagma-877c","kind":"municipality","name":"Σύνταγμα","lat":37.9755,"lng":23.7348,"region":"Κέντρο Αθήνας","name_en":"Syntagma","region_en":"Athens Center","distanceKm":0.18632282786470983},{"id":"luxuryDiningRestaurants_1c82eb719373","slug":"mappemonde-restaurant-bar-lounge-1c82","kind":"restaurant","name":"MAPPEMONDE RESTAURANT BAR-LOUNGE","lat":37.97696364697298,"lng":23.73616989138591,"url":"https://maps.app.goo.gl/WYq3Lbdn3q9HxutG9?g_st=ipc","address":"4 Eleftheriou Venizelou Avenue and, Κριεζώτου 2, Αθήνα 106 71","categoryIds":["luxury-dining","rooftop-lounges"],"categories":["Luxury Dining","Rooftop Lounges"],"distanceKm":0.19200288571987617},{"id":"mustSeeAttractions_5ecb5990c6e7","slug":"syntagma-square-5ecb","kind":"restaurant","name":"Syntagma Square","lat":37.97554970639471,"lng":23.734713366778323,"url":"https://maps.app.goo.gl/W5joNY37bu7NJ8Hz8?g_st=ipc","address":"Pl. Sintagmatos, Athina 105 63","categoryIds":["attractions"],"categories":["Must-See Attractions"],"distanceKm":0.19446760785316125}],"sameRegion":[],"mentionedGuides":[],"canonicalSlug":"voyli-ton-ellinon-7e14","isCanonicalEntity":true,"enrichment":{"summary_en":"Βουλή των Ελλήνων is a curated restaurant in Αθήνα 100 21 in the Must-See Attractions collection. It is connected to 225 nearby Googlementor picks to help travelers build a stronger local route.","summary_el":"Βουλή των Ελλήνων είναι ένα επιλεγμένο σημείο φαγητού στην περιοχή Αθήνα 100 21 και ανήκει στη συλλογή Must-See Attractions. Συνδέεται με 225 κοντινές προτάσεις του Googlementor για πιο ολοκληρωμένη εμπειρία.","vibe_tags":["curated"],"best_for":["first-time visitors","food lovers"],"visit_moments":["lunch stop","dinner stop"],"practical_note":"Address and direct map link are available for easy turn-by-turn access.","nearby_walkable_count":225,"nearby_count_2km":641,"confidence":0.98}},"__N_SSG":true}