{"pageProps":{"entity":{"id":"mustSeeAttractions_4e1c093b1a30","slug":"vyzantino-kai-christianiko-moyseio-4e1c","kind":"restaurant","name":"Βυζαντινό και Χριστιανικό Μουσείο","lat":37.9753760157153,"lng":23.744611863575788,"url":"https://maps.app.goo.gl/jffFuAXc3Vq1DSsD8?g_st=ipc","address":"Λεωφ. Βασιλίσσης Σοφίας 22, Αθήνα 106 75","categoryIds":["attractions"],"categories":["Must-See Attractions"]},"sameCategory":[{"id":"mustSeeAttractions_4a961e3001a5","slug":"moyseio-mpenaki-ellinikoy-politismoy-benaki-museum-of-greek-culture-4a96","kind":"restaurant","name":"Μουσείο Μπενάκη Ελληνικού Πολιτισμού | Benaki Museum of Greek Culture","lat":37.97595332142378,"lng":23.740446335275582,"url":"https://maps.app.goo.gl/tPkYqHsHmRpbKSaX9?g_st=ipc","address":"Koumpari 1, Athina 106 74","categoryIds":["attractions"],"categories":["Must-See Attractions"]},{"id":"mustSeeAttractions_67d5b49dcf96","slug":"votaniko-moyseio-ethnikoy-kipoy-67d5","kind":"restaurant","name":"Βοτανικό Μουσείο Εθνικού Κήπου","lat":37.97408914636613,"lng":23.7389299048779,"url":"https://maps.app.goo.gl/jXVzy7hmkNKGbif26?g_st=ipc","address":"Λεωφ. Βασιλίσσης Σοφίας, Αθήνα 105 57","categoryIds":["attractions"],"categories":["Must-See Attractions"]},{"id":"mustSeeAttractions_7e14ccbc774d","slug":"voyli-ton-ellinon-7e14","kind":"restaurant","name":"Βουλή των Ελλήνων","lat":37.97534017568183,"lng":23.73691601580171,"url":"https://maps.app.goo.gl/unRrdoEdMtGJhBhX8?g_st=ipc","address":"Μέγαρο, Βουλής, Αθήνα 100 21","categoryIds":["attractions"],"categories":["Must-See Attractions"]},{"id":"familyFriendly_97da3f56afb5","slug":"ethnikos-kipos-97da","kind":"restaurant","name":"Εθνικός Κήπος","lat":37.97258568206085,"lng":23.73743382176546,"url":"https://maps.app.goo.gl/MCnnH77ndto6n5WT8?g_st=ipc","address":"Αθήνα 105 57","categoryIds":["family-friendly","attractions"],"categories":["Kid Friendly Locations","Must-See Attractions"]},{"id":"mustSeeAttractions_40f48472fa4a","slug":"monument-to-the-unknown-soldier-40f4","kind":"restaurant","name":"Monument to the Unknown Soldier","lat":37.97535428174513,"lng":23.736259428820603,"url":"https://maps.app.goo.gl/RRXmkZ72CeNufyB66?g_st=ipc","address":"Leof. Vasilisis Amalias 133, Athina 105 57","categoryIds":["attractions"],"categories":["Must-See Attractions"]},{"id":"monasteriesChurches_caa9124a394d","slug":"ieros-naos-agion-isidoron-lykavittoy-caa9","kind":"restaurant","name":"Ιερός Ναός Αγίων Ισιδώρων Λυκαβηττού","lat":37.982296617522,"lng":23.742795127887568,"url":"https://maps.app.goo.gl/vi4b8bvA5jdYKcqf9?g_st=ipc","address":"Μονοπατι Λυκαβηττου, Αθήνα 114 71","categoryIds":["monasteries-churches","attractions"],"categories":["Monasteries & Spiritual Sites","Must-See Attractions"]},{"id":"mustSeeAttractions_a63ab05582ba","slug":"zappeio-megaro-a63a","kind":"restaurant","name":"Ζάππειο Μέγαρο","lat":37.971521700592604,"lng":23.73672254708253,"url":"https://maps.app.goo.gl/Hb78YQFedU1ZBjDY7?g_st=ipc","address":"Λεωφ. Βασιλίσσης Όλγας, Αθήνα 105 57","categoryIds":["attractions"],"categories":["Must-See Attractions"]},{"id":"mustSeeAttractions_3fcc6eb77276","slug":"panathinaiko-stadio-3fcc","kind":"restaurant","name":"Παναθηναϊκό Στάδιο","lat":37.96833218533537,"lng":23.741113035876687,"url":"https://maps.app.goo.gl/EoVCRRTzjoVCkEm18?g_st=ipc","address":"Λεωφ. Βασιλέως Κωνσταντίνου, Αθήνα 116 35","categoryIds":["attractions"],"categories":["Must-See Attractions"]}],"nearby":[{"id":"municipalities_0cae2c00b932","slug":"kolonaki-0cae","kind":"municipality","name":"Κολωνάκι","lat":37.9769,"lng":23.7436,"aliases":["Kolonaki"],"region":"Κέντρο Αθήνας","name_en":"Kolonaki","region_en":"Athens Center","distanceKm":0.19126573945459605},{"id":"coffeeBrunchRestaurants_218e6a31a50d","slug":"poco-a-poco-218e","kind":"restaurant","name":"Poco a poco","lat":37.977055798633465,"lng":23.743703400457175,"url":"https://maps.app.goo.gl/hkFGzq8fmpCWam4f8?g_st=ipc","address":"Loukianou 13, Athina 106 75","categoryIds":["coffee-brunch"],"categories":["Coffee & Brunch Spots"],"distanceKm":0.20304831038578933},{"id":"italianRestaurants_0a253e52c51e","slug":"gorlomi-0a25","kind":"restaurant","name":"Gorlomi","lat":37.97728908184003,"lng":23.74514067416134,"url":"https://maps.app.goo.gl/XB7Fy2Zdva4f5Hrv6?g_st=ipc","address":"Πλουτάρχου 9, Αθήνα 106 75","categoryIds":["italian","luxury-dining"],"categories":["Italian Restaurants","Luxury Dining"],"distanceKm":0.21771444109149254},{"id":"familyFriendly_40c293d69cb0","slug":"elliniko-paidiko-moyseio-40c2","kind":"restaurant","name":"Ελληνικό Παιδικό Μουσείο","lat":37.97343665476228,"lng":23.744227584570496,"url":"https://maps.app.goo.gl/wiMy56MxapPr4udz6?g_st=ipc","address":"Βασ. Γεωργίου B 19, Αθήνα 106 75","categoryIds":["family-friendly"],"categories":["Kid Friendly Locations"],"distanceKm":0.21826185947439572},{"id":"coffeeBrunchRestaurants_0ab06e0868e5","slug":"me-kolonaki-0ab0","kind":"restaurant","name":"me kolonaki","lat":37.9765612906505,"lng":23.742423758521817,"url":"https://maps.app.goo.gl/LxVhS9ugcHWgEPFa7?g_st=ipc","address":"Καψάλη 10, Αθήνα 106 74","categoryIds":["coffee-brunch"],"categories":["Coffee & Brunch Spots"],"distanceKm":0.23271013049741707},{"id":"coffeeBrunchRestaurants_f6e68f133ff0","slug":"chez-michel-f6e6","kind":"restaurant","name":"Chez Michel","lat":37.976675534882084,"lng":23.742456621704683,"url":"https://maps.app.goo.gl/XTb8dAWevvMWgsTW9?g_st=ic","address":"Irodotou 15, Athina 106 74","categoryIds":["coffee-brunch"],"categories":["Coffee & Brunch Spots"],"distanceKm":0.23783867785474117},{"id":"dessertsRestaurants_adae00fa679c","slug":"cake-kolonaki-adae","kind":"restaurant","name":"CAKE Kolonaki","lat":37.97679932249832,"lng":23.7424790611418,"url":"https://maps.app.goo.gl/ga6C3Z87HsSYfMGx5?g_st=ipc","address":"Ηροδότου 15, Αθήνα 106 74","categoryIds":["desserts"],"categories":["Dessert Shops"],"distanceKm":0.24493948001853777},{"id":"italianRestaurants_5bb1f8760120","slug":"brunello-5bb1","kind":"restaurant","name":"Brunello","lat":37.97774328484756,"lng":23.74346729703624,"url":"https://maps.app.goo.gl/71Ffa4D3sz17HHuJ7?g_st=ipc","address":"Λουκιανού 21b, Αθήνα 106 75","categoryIds":["italian"],"categories":["Italian Restaurants"],"distanceKm":0.2816978611509321}],"sameRegion":[],"mentionedGuides":[],"canonicalSlug":"vyzantino-kai-christianiko-moyseio-4e1c","isCanonicalEntity":true,"enrichment":{"summary_en":"Βυζαντινό και Χριστιανικό Μουσείο is a curated restaurant in Αθήνα 106 75 in the Must-See Attractions collection. It is connected to 79 nearby Googlementor picks to help travelers build a stronger local route.","summary_el":"Βυζαντινό και Χριστιανικό Μουσείο είναι ένα επιλεγμένο σημείο φαγητού στην περιοχή Αθήνα 106 75 και ανήκει στη συλλογή Must-See Attractions. Συνδέεται με 79 κοντινές προτάσεις του Googlementor για πιο ολοκληρωμένη εμπειρία.","vibe_tags":["curated"],"best_for":["first-time visitors","food lovers"],"visit_moments":["lunch stop","dinner stop"],"practical_note":"Address and direct map link are available for easy turn-by-turn access.","nearby_walkable_count":79,"nearby_count_2km":585,"confidence":0.98}},"__N_SSG":true}