{"pageProps":{"entity":{"id":"dessertsRestaurants_265283fa47ed","slug":"zacharoplasteio-ta-gioylia-2652","kind":"restaurant","name":"Ζαχαροπλαστείο Τα Γιούλια","lat":38.04320708683717,"lng":23.75268041981327,"url":"https://maps.app.goo.gl/yT8dXGYHeqfAeL4K8?g_st=ipc","address":"Μεσολογγίου 24, Νέα Ιωνία 142 31","categoryIds":["desserts"],"categories":["Dessert Shops"]},"sameCategory":[{"id":"dessertsRestaurants_4ba5b007aaee","slug":"san-zachari-4ba5","kind":"restaurant","name":"Σαν Ζάχαρη","lat":38.0467822413905,"lng":23.750604774962436,"url":"https://maps.app.goo.gl/hEf4BAiafjzg3vVT6?g_st=ipc","address":"Ελ. Βενιζέλου 119, Νέα Ιωνία 142 31","categoryIds":["desserts"],"categories":["Dessert Shops"]},{"id":"dessertsRestaurants_f7f9c93c456d","slug":"zacharoplasteio-ta-gioylia-f7f9","kind":"restaurant","name":"Ζαχαροπλαστείο Τα Γιούλια","lat":38.04173959626081,"lng":23.76335652551234,"url":"https://maps.app.goo.gl/7AogHoPypPVPFN8p7?g_st=ipc","address":"Αλέκου Παναγούλη 74, Νέα Ιωνία 141 21","categoryIds":["desserts"],"categories":["Dessert Shops"]},{"id":"dessertsRestaurants_b154c59ad342","slug":"zacharoplasteio-ta-gioylia-b154","kind":"restaurant","name":"Ζαχαροπλαστείο Τα Γιούλια","lat":38.03375679792758,"lng":23.760132906851105,"url":"https://maps.app.goo.gl/c3VhnGmj4UK6Mp8j6?g_st=ipc","address":"Αναγεννήσεως 49-51, Νέα Ιωνία 142 33","categoryIds":["desserts"],"categories":["Dessert Shops"]},{"id":"dessertsRestaurants_ee67f4c4f773","slug":"galaktopoleio-stamoy-ee67","kind":"restaurant","name":"Γαλακτοπωλείο ΣΤΑΜΟΥ","lat":38.050308447326216,"lng":23.764543130470138,"url":"https://maps.app.goo.gl/ct5eAdJBTvtvp5Kb6?g_st=ipc","address":"Λεωφ. Ηρακλείου 388, Ηράκλειο 141 22","categoryIds":["desserts"],"categories":["Dessert Shops"]},{"id":"dessertsRestaurants_f5dcbd5d6956","slug":"tillas-f5dc","kind":"restaurant","name":"ΤΙΛΛΑΣ","lat":38.03389726212368,"lng":23.738299411081684,"url":"https://maps.app.goo.gl/KvFWhV1Ew2To6kLKA?g_st=ipc","address":"Αγίας Τριάδος 2, Νέα Φιλαδέλφεια Αττικής 143 41","categoryIds":["desserts"],"categories":["Dessert Shops"]},{"id":"dessertsRestaurants_72c80ba8b348","slug":"galaktopoleio-stamoy-72c8","kind":"restaurant","name":"Γαλακτοπωλείο ΣΤΑΜΟΥ","lat":38.03443491475164,"lng":23.737764183814345,"url":"https://maps.app.goo.gl/37pG5QPiULEUHnjT8?g_st=ipc","address":"Λεωφ. Δεκελείας 87, Δήμος Νέας Φιλαδέλφειας - Νέας Χαλκηδόνας 143 41","categoryIds":["desserts"],"categories":["Dessert Shops"]},{"id":"coffeeBrunchRestaurants_9257bf81b3ff","slug":"fairytale-to-paramythopoleio-tis-n-filadelfeias-9257","kind":"restaurant","name":"Fairytale – Το Παραμυθοπωλείο της Ν. Φιλαδέλφειας","lat":38.03555224332492,"lng":23.73629276954315,"url":"https://maps.app.goo.gl/GoWf19SFoVJNYBHP9?g_st=ipc","address":"Νικ. Τρυρια 48, Νέα Φιλαδέλφεια Αττικής 143 41","categoryIds":["coffee-brunch","desserts"],"categories":["Coffee & Brunch Spots","Dessert Shops"]},{"id":"dessertsRestaurants_278027c93e69","slug":"zacharoplasteio-syntrivani-2780","kind":"restaurant","name":"Ζαχαροπλαστείο Συντριβάνι","lat":38.031171993923905,"lng":23.736947011882947,"url":"https://maps.app.goo.gl/qd2j8WUJHdAta1mY9?g_st=ipc","address":"Ειρήνης 4, Νέα Φιλαδέλφεια Αττικής 143 41","categoryIds":["desserts"],"categories":["Dessert Shops"]}],"nearby":[{"id":"cheapEatsRestaurants_59fb21ba5f98","slug":"hobos-street-grill-59fb","kind":"restaurant","name":"Hobos Street Grill","lat":38.04249747641086,"lng":23.753515339761147,"url":"https://maps.app.goo.gl/YHJtEHPvQRVXwD3F7?g_st=ipc","address":"Λεωφ. Ηρακλείου 254, Νέα Ιωνία 142 31","categoryIds":["cheap-eats"],"categories":["Gyros & Cheap Eats"],"distanceKm":0.10757254165730064},{"id":"coffeeBrunchRestaurants_e705f1112f3d","slug":"dimitra-goynaridi-e705","kind":"restaurant","name":"Δήμητρα Γουναρίδη","lat":38.04165697380787,"lng":23.75123284178688,"url":"https://maps.app.goo.gl/b5dp6jq3caW91FoHA?g_st=ipc","address":"Ευαγγελικής Σχολής 5, Νέα Ιωνία 142 31","categoryIds":["coffee-brunch"],"categories":["Coffee & Brunch Spots"],"distanceKm":0.21396160408965248},{"id":"dessertsRestaurants_4ba5b007aaee","slug":"san-zachari-4ba5","kind":"restaurant","name":"Σαν Ζάχαρη","lat":38.0467822413905,"lng":23.750604774962436,"url":"https://maps.app.goo.gl/hEf4BAiafjzg3vVT6?g_st=ipc","address":"Ελ. Βενιζέλου 119, Νέα Ιωνία 142 31","categoryIds":["desserts"],"categories":["Dessert Shops"],"distanceKm":0.4371210124691542},{"id":"coffeeBrunchRestaurants_a5983b685dbd","slug":"to-peinirli-tis-neas-ionias-a598","kind":"restaurant","name":"To Peinirli tis Neas Ionias","lat":38.039553570278855,"lng":23.75782693390007,"url":"https://maps.app.goo.gl/Dgayt5WtWZw7apFh8?g_st=ic","address":"Ramnountos 76, Nea Ionia 142 34","categoryIds":["coffee-brunch"],"categories":["Coffee & Brunch Spots"],"distanceKm":0.6067695085271553},{"id":"familyFriendly_9c22759cd93a","slug":"alsos-neas-filadelfeias-9c22","kind":"restaurant","name":"Άλσος Νέας Φιλαδέλφειας","lat":38.042763651734646,"lng":23.744714870891837,"url":"https://maps.app.goo.gl/xdffZruJ9uqfJ5wx8?g_st=ipc","address":"Λεωφ. Δεκελείας 152, Αθήνα 143 42","categoryIds":["family-friendly"],"categories":["Kid Friendly Locations"],"distanceKm":0.6992949025584607},{"id":"greekRestaurants_dbfa615cdf88","slug":"mparmpalias-soyvlaki-kempap-dbfa","kind":"restaurant","name":"Μπαρμπαλιάς Σουβλάκι Κεμπάπ","lat":38.04986386180613,"lng":23.749800777909947,"url":"https://maps.app.goo.gl/1KoD7wRkjTyAQA5aA","address":"Ελ. Βενιζέλου 146, Νέα Ιωνία 142 31","categoryIds":["greek-restaurants"],"categories":["Greek Restaurants"],"distanceKm":0.7819726151545886},{"id":"greekRestaurants_977106c0152b","slug":"familokal-fagadiko-9771","kind":"restaurant","name":"Φαμιλόκαλ Φαγάδικο","lat":38.045110031748486,"lng":23.742897004373283,"url":"https://maps.app.goo.gl/cQhPg66yiWYq8LYP6","address":"Στρατάρχου Αλεξάνδρου Παπάγου 12, Νέα Φιλαδέλφεια Αττικής 143 42","categoryIds":["greek-restaurants"],"categories":["Greek Restaurants"],"distanceKm":0.882477434671614},{"id":"municipalities_a312b31dd129","slug":"nea-ionia-a312","kind":"municipality","name":"Νέα Ιωνία","lat":38.0357,"lng":23.7573,"aliases":["Nea Ionia","Νεα Ιωνια"],"region":"Βόρεια Προάστια","name_en":"Nea Ionia","region_en":"Northern Suburbs","distanceKm":0.9276197887022759}],"sameRegion":[],"mentionedGuides":[],"canonicalSlug":"zacharoplasteio-ta-gioylia-2652","isCanonicalEntity":true,"enrichment":{"summary_en":"Ζαχαροπλαστείο Τα Γιούλια is a curated restaurant in Νέα Ιωνία 142 31 in the Dessert Shops collection. It is connected to 6 nearby Googlementor picks to help travelers build a stronger local route.","summary_el":"Ζαχαροπλαστείο Τα Γιούλια είναι ένα επιλεγμένο σημείο φαγητού στην περιοχή Νέα Ιωνία 142 31 και ανήκει στη συλλογή Dessert Shops. Συνδέεται με 6 κοντινές προτάσεις του Googlementor για πιο ολοκληρωμένη εμπειρία.","vibe_tags":["curated","sweet-stop"],"best_for":["first-time visitors","food lovers"],"visit_moments":["afternoon break","after dinner"],"practical_note":"Address and direct map link are available for easy turn-by-turn access.","nearby_walkable_count":6,"nearby_count_2km":42,"confidence":0.98}},"__N_SSG":true}