{"pageProps":{"payload":{"area":{"id":"municipalities_f73663b8f738","name":"Αττική","nameEn":"Attiki","region":"Κέντρο Αθήνας","regionEn":"Athens Center","lat":37.9958,"lng":23.7292,"urlSlug":"attiki","aliases":["Αττική","Attiki","Αττική Athens Center","Attiki Athens Center","Αττικη","Victoria","attiki-f736","attiki"]},"category":{"id":"greek-restaurants","name":"Greek Restaurants","urlSlug":"greek-restaurants","aliases":["greek-restaurants","Greek Restaurants"]},"entities":[{"entity":{"id":"greekRestaurants_bfb413275b7f","slug":"kyveli-bfb4","kind":"restaurant","name":"Κυβέλη","lat":37.99805749284101,"lng":23.73519064835316,"url":"https://maps.app.goo.gl/GZkR3yG4uYF9Asep6","address":"Επτανήσου 15, Αθήνα 112 57","categoryIds":["greek-restaurants"],"categories":["Greek Restaurants"]},"distanceKm":0.5818704695299529},{"entity":{"id":"greekRestaurants_013c7ee68bf7","slug":"to-rini-013c","kind":"restaurant","name":"Το Ρίνι","lat":37.99027878775376,"lng":23.732870988899485,"url":"https://maps.app.goo.gl/RRByVB3HqZfDcnkK7","address":"Ρεθύμνου 8, Αθήνα 106 82","categoryIds":["greek-restaurants"],"categories":["Greek Restaurants"]},"distanceKm":0.6931069926017476},{"entity":{"id":"greekRestaurants_fc8301cd2394","slug":"geystiki-gonia-fc83","kind":"restaurant","name":"Γευστική Γωνιά","lat":37.9895544491858,"lng":23.722717045952898,"url":"https://maps.app.goo.gl/AkzhbzV5JgMPNbyh8","address":"Ψαρών 45, Αθήνα 104 38","categoryIds":["greek-restaurants"],"categories":["Greek Restaurants"]},"distanceKm":0.8972424248070605},{"entity":{"id":"greekRestaurants_7620f2ece9a6","slug":"mpompyras-7620","kind":"restaurant","name":"Μπόμπυρας","lat":38.00484148971816,"lng":23.732856919000913,"url":"https://maps.app.goo.gl/9Ay3zpP2cfdFbPpw8","address":"Ευπαλίνου 21, Αθήνα 112 53","categoryIds":["greek-restaurants"],"categories":["Greek Restaurants"]},"distanceKm":1.0551959697475108},{"entity":{"id":"greekRestaurants_0cec67514103","slug":"ama-lachei-0cec","kind":"restaurant","name":"Άμα Λάχει","lat":37.9881200037971,"lng":23.737007621122938,"url":"https://maps.app.goo.gl/94C3hp4xbRp1fKYt7","address":"Καλλιδρομίου 69, Αθήνα 106 83","categoryIds":["greek-restaurants"],"categories":["Greek Restaurants"]},"distanceKm":1.0942607197356458},{"entity":{"id":"greekRestaurants_eec032d0bea1","slug":"atitamos-eec0","kind":"restaurant","name":"Ατίταμος","lat":37.98622715652684,"lng":23.73236663557607,"url":"https://maps.app.goo.gl/VfeckYbAHrSRw3Qo8","address":"Καποδιστρίου 2, Αθήνα 106 83","categoryIds":["greek-restaurants"],"categories":["Greek Restaurants"]},"distanceKm":1.1000297456698356},{"entity":{"id":"greekRestaurants_5d1d35aa177d","slug":"gioysoyroym-5d1d","kind":"restaurant","name":"Γιουσουρούμ","lat":37.98634442442922,"lng":23.733413179378076,"url":"https://maps.app.goo.gl/jh9iV3W2AMUY6Pev5","address":"Σουλτάνη 11, Αθήνα 106 82","categoryIds":["greek-restaurants"],"categories":["Greek Restaurants"]},"distanceKm":1.114355126551974},{"entity":{"id":"greekRestaurants_f9f686e79eab","slug":"o-mpakalogatos-f9f6","kind":"restaurant","name":"Ο Μπακαλόγατος","lat":38.00187471148547,"lng":23.740181411434346,"url":"https://maps.app.goo.gl/981vRQxbrAtrVwL46","address":"Φωκίωνος Νέγρη 72, Αθήνα 113 61","categoryIds":["greek-restaurants"],"categories":["Greek Restaurants"]},"distanceKm":1.1756571913503218},{"entity":{"id":"greekRestaurants_56884a3a4523","slug":"i-kriti-pl-kaniggos-5688","kind":"restaurant","name":"Η Κρήτη, πλ. Κανιγγος","lat":37.985209028957776,"lng":23.730887169410018,"url":"https://maps.app.goo.gl/QasSnVbzBbfxtArw5","address":"Βερανζέρου 5, Αθήνα 106 77","categoryIds":["greek-restaurants"],"categories":["Greek Restaurants"]},"distanceKm":1.1869073554997052},{"entity":{"id":"greekRestaurants_3fdb385cf32e","slug":"dylan-3fdb","kind":"restaurant","name":"Dylan","lat":38.004029735437285,"lng":23.737919535339657,"url":"https://maps.app.goo.gl/BnADd9od1HHo98uB7?g_st=ipc","address":"Agias Zonis 38, Athina 113 64","categoryIds":["greek-restaurants"],"categories":["Greek Restaurants"]},"distanceKm":1.192124224557226},{"entity":{"id":"greekRestaurants_82fedd8f5eb8","slug":"aylak-politiki-kouzina-82fe","kind":"restaurant","name":"Aylak Politiki Kouzina","lat":37.986296240543886,"lng":23.73577500465613,"url":"https://maps.app.goo.gl/8H5UM5CTNGhY6tCz8","address":"Εμμανουήλ Μπενάκη 73, Αθήνα 106 81","categoryIds":["greek-restaurants"],"categories":["Greek Restaurants"]},"distanceKm":1.2036436837194946},{"entity":{"id":"greekRestaurants_399d4f103d60","slug":"pakoymel-399d","kind":"restaurant","name":"Pακουμελ","lat":37.98611213872367,"lng":23.7356153825947,"url":"https://maps.app.goo.gl/ES9bhy4RguonMm8G8","address":"Εμμανουήλ Μπενάκη 71, Αθήνα 106 81","categoryIds":["greek-restaurants"],"categories":["Greek Restaurants"]},"distanceKm":1.215121613560535},{"entity":{"id":"greekRestaurants_47b0ee0c8d13","slug":"mi-la-re-47b0","kind":"restaurant","name":"Μι λα ρε","lat":37.99704423560871,"lng":23.74315138793718,"url":"https://maps.app.goo.gl/mURYyiemhV3PvXjDA","address":"Ευελπίδων 87, Αθήνα 113 62","categoryIds":["greek-restaurants"],"categories":["Greek Restaurants"]},"distanceKm":1.2303230737882311},{"entity":{"id":"greekRestaurants_3eb28aec894c","slug":"ayli-geysi-poleion-3eb2","kind":"restaurant","name":"Αυλη Γευση-πωλείον","lat":37.98655857103421,"lng":23.737630934967044,"url":"https://maps.app.goo.gl/BGHehjaYVZctQ5Mv6","address":"Μεθώνης 43, Αθήνα 106 81","categoryIds":["greek-restaurants"],"categories":["Greek Restaurants"]},"distanceKm":1.2656354029257948},{"entity":{"id":"greekRestaurants_be06a546e935","slug":"giantes-be06","kind":"restaurant","name":"Γιάντες","lat":37.98561482975353,"lng":23.735926375159003,"url":"https://maps.app.goo.gl/LuGL5j7KgtCFWxmA8","address":"Βαλτετσίου 44, Αθήνα 106 81","categoryIds":["greek-restaurants"],"categories":["Greek Restaurants"]},"distanceKm":1.2767562322898056},{"entity":{"id":"greekRestaurants_e2f8a1a4ded7","slug":"katsarola-e2f8","kind":"restaurant","name":"Κατσαρόλα","lat":37.98993156504118,"lng":23.741864128657266,"url":"https://maps.app.goo.gl/R5o9th6YAJUun6xp6","address":"Λεωφ. Αλεξάνδρας 74, Αθήνα 114 73","categoryIds":["greek-restaurants"],"categories":["Greek Restaurants"]},"distanceKm":1.2874034959671528},{"entity":{"id":"greekRestaurants_2a6cdbb60ef0","slug":"balkan-restaurant-2a6c","kind":"restaurant","name":"Balkan Restaurant","lat":37.985310593490546,"lng":23.722959936018757,"url":"https://maps.app.goo.gl/CKhBpbV2aiz5Bpov8","address":"Ακομινάτου 13, Αθήνα 104 37","categoryIds":["greek-restaurants"],"categories":["Greek Restaurants"]},"distanceKm":1.2881974305472543},{"entity":{"id":"greekRestaurants_6dfb86c3c849","slug":"lontza-tis-geitonias-6dfb","kind":"restaurant","name":"Λόντζα της Γειτονιάς","lat":37.98528728518512,"lng":23.737900936097155,"url":"https://maps.app.goo.gl/KuXHrJwbKRvdajxz5","address":"Χαρ. Τρικούπη 76, Αθήνα 106 80","categoryIds":["greek-restaurants"],"categories":["Greek Restaurants"]},"distanceKm":1.3956622019094331},{"entity":{"id":"greekRestaurants_280ac53a773c","slug":"mironi-restaurant-greek-kitchen-280a","kind":"restaurant","name":"MIRONI Restaurant - Greek Kitchen","lat":37.98465016325456,"lng":23.72140702973958,"url":"https://maps.app.goo.gl/5WVbqoo2mBUmdX2z6?g_st=ipc","address":"Meg. Alexandrou 7, Athina 104 37","categoryIds":["greek-restaurants"],"categories":["Greek Restaurants"]},"distanceKm":1.4154555534177573},{"entity":{"id":"greekRestaurants_83a0250938d4","slug":"taverna-ton-filon-83a0","kind":"restaurant","name":"Ταβέρνα των Φίλων","lat":37.99014835512761,"lng":23.713340464618646,"url":"https://maps.app.goo.gl/CyUaWUVM84i2Ym18A","address":"Άργους 66, Αθήνα 104 41","categoryIds":["greek-restaurants"],"categories":["Greek Restaurants"]},"distanceKm":1.525269088937543},{"entity":{"id":"greekRestaurants_8c5628ce57f7","slug":"seychelles-8c56","kind":"restaurant","name":"Σεϋχέλλες","lat":37.9823149491854,"lng":23.720253813195804,"url":"https://maps.app.goo.gl/iUj8NxtUsYKhihFV9","address":"Κεραμεικού 49, Αθήνα 104 36","categoryIds":["greek-restaurants"],"categories":["Greek Restaurants"]},"distanceKm":1.692062278557409},{"entity":{"id":"greekRestaurants_9d442e3cec12","slug":"diporto-9d44","kind":"restaurant","name":"Δίπορτο","lat":37.9807615601589,"lng":23.725828141444957,"url":"https://maps.app.goo.gl/5PAR192kZJY8s4Hs8","address":"Sokratous 9 &, Θεάτρου 2, Αθήνα 105 52","categoryIds":["greek-restaurants"],"categories":["Greek Restaurants"]},"distanceKm":1.6981067287023959},{"entity":{"id":"greekRestaurants_6dad5c0e5b55","slug":"to-aygo-toy-kokkora-6dad","kind":"restaurant","name":"Το Αυγό Του Κόκκορα","lat":37.98270365301358,"lng":23.719206888648312,"url":"https://maps.app.goo.gl/iKbPmGsQDpnYazKs9","address":"Λεωνίδου 46, Αθήνα 104 36","categoryIds":["greek-restaurants"],"categories":["Greek Restaurants"]},"distanceKm":1.6992937046529653},{"entity":{"id":"greekRestaurants_321ca0fca170","slug":"tis-theatroy-to-steki-321c","kind":"restaurant","name":"Της Θεάτρου το στέκι","lat":37.98069925682147,"lng":23.725498847688122,"url":"https://maps.app.goo.gl/7FMPKRwpazujA2C27","address":"Θεάτρου 7, Αθήνα 105 52","categoryIds":["greek-restaurants"],"categories":["Greek Restaurants"]},"distanceKm":1.7101672041673734},{"entity":{"id":"greekRestaurants_584137dc4866","slug":"taverna-klimataria-5841","kind":"restaurant","name":"Ταβέρνα Κληματαριά","lat":37.980637024107224,"lng":23.724630625441396,"url":"https://maps.app.goo.gl/2CMQFJheG9EgM5p99","address":"Πλ. Θεάτρου 2, Αθήνα 105 52","categoryIds":["greek-restaurants"],"categories":["Greek Restaurants"]},"distanceKm":1.7329477318843087},{"entity":{"id":"greekRestaurants_c16ca9f65dbe","slug":"oinomageireio-i-ipeiros-c16c","kind":"restaurant","name":"Οινομαγειρείο Η Ήπειρος","lat":37.980081996854445,"lng":23.728018952835075,"url":"https://maps.app.goo.gl/Ksa1sT3W1xvTwody6","address":"Φιλοποίμενος 4, Αθήνα 105 51","categoryIds":["greek-restaurants"],"categories":["Greek Restaurants"]},"distanceKm":1.7508243033771909},{"entity":{"id":"greekRestaurants_f27a17153226","slug":"ta-karamanlidika-toy-fani-f27a","kind":"restaurant","name":"Τα Καραμανλίδικα του Φάνη","lat":37.98022746553766,"lng":23.7256348821809,"url":"https://maps.app.goo.gl/3bDZ8oASnXexFDgS7","address":"Ευριπίδου 52, Αθήνα 105 52","categoryIds":["greek-restaurants"],"categories":["Greek Restaurants"]},"distanceKm":1.7595481233162662},{"entity":{"id":"greekRestaurants_0880507319bf","slug":"estiatorio-ayli-0880","kind":"restaurant","name":"Εστιατόριο Αυλή","lat":37.97971984965389,"lng":23.72579553971612,"url":"https://maps.app.goo.gl/91VrWaADuuDQ9qeWA","address":"Αγ. Δημητρίου 12, Αθήνα 105 54","categoryIds":["greek-restaurants"],"categories":["Greek Restaurants"]},"distanceKm":1.812752855756023},{"entity":{"id":"greekRestaurants_cf4d36c85e78","slug":"paradosiaki-taverna-o-spanos-cf4d","kind":"restaurant","name":"Παραδοσιακή Ταβέρνα ο Σπανός","lat":38.01128559769368,"lng":23.722291820236695,"url":"https://maps.app.goo.gl/M1LDEQBwqFbK8g7Y6","address":"Αριστείδου Οικονόμου 12, Αθήνα 104 45","categoryIds":["greek-restaurants"],"categories":["Greek Restaurants"]},"distanceKm":1.8252062399308733},{"entity":{"id":"greekRestaurants_0010dafcf3e9","slug":"manari-taverna-0010","kind":"restaurant","name":"Manári Taverna","lat":37.97931896525327,"lng":23.72965489387422,"url":"https://maps.app.goo.gl/o8x2B33WaG8QRBXq8","address":"Πλ. Αγίων Θεοδώρων 3, Αθήνα 105 61","categoryIds":["greek-restaurants"],"categories":["Greek Restaurants"]},"distanceKm":1.833041011381154}],"counts":{"totalEntities":4118,"totalInArea":799,"totalInCategory":779,"totalCategoryArea":97},"relatedCategories":[{"categoryId":"coffee-brunch","categorySlug":"brunch","categoryName":"Coffee & Brunch Spots","count":117,"passesThreshold":true},{"categoryId":"cheap-eats","categorySlug":"cheap-eats","categoryName":"Gyros & Cheap Eats","count":105,"passesThreshold":true},{"categoryId":"desserts","categorySlug":"desserts","categoryName":"Dessert Shops","count":84,"passesThreshold":true},{"categoryId":"luxury-dining","categorySlug":"luxury-dining","categoryName":"Luxury Dining","count":68,"passesThreshold":true},{"categoryId":"vegetarian","categorySlug":"vegetarian","categoryName":"Vegetarian Friendly Restaurants","count":67,"passesThreshold":true},{"categoryId":"rooftop-lounges","categorySlug":"rooftops","categoryName":"Rooftop Lounges","count":53,"passesThreshold":true},{"categoryId":"italian","categorySlug":"italian","categoryName":"Italian Restaurants","count":43,"passesThreshold":true},{"categoryId":"attractions","categorySlug":"attractions","categoryName":"Must-See Attractions","count":43,"passesThreshold":true},{"categoryId":"burgers","categorySlug":"burgers","categoryName":"Burger Spots","count":37,"passesThreshold":true},{"categoryId":"asian","categorySlug":"asian-restaurants","categoryName":"Asian Restaurants","count":36,"passesThreshold":true}],"relatedAreas":[{"areaId":"municipalities_877c3bc81df5","areaName":"Σύνταγμα","areaSlug":"syntagma","count":104,"nearestDistanceKm":0.25065315412584166},{"areaId":"municipalities_d7e1aaaed4f9","areaName":"Μοναστηράκι","areaSlug":"monastiraki","count":102,"nearestDistanceKm":0.11018896540685234},{"areaId":"municipalities_616efd2a0d9b","areaName":"Κουκάκι","areaSlug":"koykaki","count":102,"nearestDistanceKm":0.1192546213730499},{"areaId":"municipalities_0cae2c00b932","areaName":"Κολωνάκι","areaSlug":"kolonaki","count":102,"nearestDistanceKm":0.2699072412087797},{"areaId":"municipalities_2bcfcb8b899f","areaName":"Ψυρρή","areaSlug":"psyrri","count":101,"nearestDistanceKm":0.07774951180130882},{"areaId":"municipalities_5bc013791cf8","areaName":"Πλάκα","areaSlug":"plaka","count":100,"nearestDistanceKm":0.012491754607387504},{"areaId":"municipalities_2f324ee27306","areaName":"Εξάρχεια","areaSlug":"exarcheia","count":100,"nearestDistanceKm":0.18646577481015641},{"areaId":"municipalities_4149fa79e27b","areaName":"Ακρόπολη","areaSlug":"akropoli","count":100,"nearestDistanceKm":0.3588617537950929},{"areaId":"municipalities_7e1691d5f08d","areaName":"Μεταξουργείο","areaSlug":"metaxoyrgeio","count":98,"nearestDistanceKm":0.05816078489896007},{"areaId":"municipalities_b85b54408d92","areaName":"Θησείο","areaSlug":"thiseio","count":97,"nearestDistanceKm":0.1468570728458221}],"passesThreshold":true}},"__N_SSG":true}