{"pageProps":{"entity":{"id":"mustSeeAttractions_e57cfb521268","slug":"archaeological-site-of-philippi-e57c","kind":"restaurant","name":"Archaeological Site of Philippi","lat":41.012686338997746,"lng":24.287678993251607,"url":"https://maps.app.goo.gl/1Uc3YFqdrM7dERMj7?g_st=ipc","address":"EO Dramas Kavalas, Filippi 640 03","categoryIds":["attractions"],"categories":["Must-See Attractions"]},"sameCategory":[{"id":"mustSeeAttractions_d9c422353054","slug":"aggitis-river-cave-d9c4","kind":"restaurant","name":"Aggitis River cave","lat":41.21974670515024,"lng":23.89452873558432,"url":"https://maps.app.goo.gl/qtxP37nP5GgrXXV27?g_st=ipc","address":"Πηγές, Aggitis 662 00","categoryIds":["attractions"],"categories":["Must-See Attractions"]},{"id":"mustSeeAttractions_7469acb1186c","slug":"agio-oros-7469","kind":"restaurant","name":"Agio Oros","lat":40.32543105494457,"lng":23.97840678393634,"url":"https://maps.app.goo.gl/wXzMsUCGyGcDfoW59?g_st=ipc","address":"Ouranoupoli 630 75","categoryIds":["attractions"],"categories":["Must-See Attractions"]},{"id":"mustSeeAttractions_65d915b7d5f2","slug":"kerkini-lake-national-park-65d9","kind":"restaurant","name":"Kerkini Lake National Park","lat":41.25929416088564,"lng":23.140424657676153,"url":"https://maps.app.goo.gl/QX4xRZw5TEGCF4oj7?g_st=ipc","address":"Κερκίνη, 620 55","categoryIds":["attractions"],"categories":["Must-See Attractions"]},{"id":"mustSeeAttractions_d05b087a8840","slug":"heptapyrgion-of-thessaloniki-d05b","kind":"restaurant","name":"Heptapyrgion of Thessaloniki","lat":40.64405781477335,"lng":22.96178016442897,"url":"https://maps.app.goo.gl/1s8aj4cc3MbpvaGq9?g_st=ipc","address":"Επταπύργιο, Eptapirgiou 40, Thessaloniki 546 34","categoryIds":["attractions"],"categories":["Must-See Attractions"]},{"id":"mustSeeAttractions_72fd08699c11","slug":"thessaloniki-acropolis-72fd","kind":"restaurant","name":"Thessaloniki Acropolis","lat":40.644004048967396,"lng":22.961770870557544,"url":"https://maps.app.goo.gl/Pj3FuXA7LeypGUARA?g_st=ipc","address":"Eptapirgiou 130, Thessaloniki 546 34","categoryIds":["attractions"],"categories":["Must-See Attractions"]},{"id":"mustSeeAttractions_aab957c1e5d6","slug":"ataturk-museum-of-thessaloniki-aab9","kind":"restaurant","name":"Ataturk Museum of Thessaloniki","lat":40.63574901751839,"lng":22.954355092076376,"url":"https://maps.app.goo.gl/RFapK1M21jxWogbVA?g_st=ipc","address":"Apostolou Pavlou 17, Thessaloniki 546 34","categoryIds":["attractions"],"categories":["Must-See Attractions"]},{"id":"mustSeeAttractions_6c182d5c56d9","slug":"arch-of-galerius-6c18","kind":"restaurant","name":"Arch of Galerius","lat":40.6322250425038,"lng":22.95175086035539,"url":"https://maps.app.goo.gl/VHhyUKPZMLXo4AeBA?g_st=ipc","address":"Egnatia 144, Thessaloniki 546 22","categoryIds":["attractions"],"categories":["Must-See Attractions"]},{"id":"mustSeeAttractions_7edc1e3f8f0e","slug":"holy-church-of-saint-demetrius-7edc","kind":"restaurant","name":"Holy Church of Saint Demetrius","lat":40.638898161361496,"lng":22.947614216085658,"url":"https://maps.app.goo.gl/f1z5P772ZL438rrB9?g_st=ipc","address":"Ag. Dimitriou 81-83, Thessaloniki 546 33","categoryIds":["attractions"],"categories":["Must-See Attractions"]}],"nearby":[{"id":"coffeeBrunchRestaurants_1e661ed95ce8","slug":"river-cafe-1e66","kind":"restaurant","name":"River Cafe","lat":41.06113826137017,"lng":24.26515962969056,"url":"https://maps.app.goo.gl/MD2gmED1xtQRvMJS6?g_st=ipc","address":"Άνω Κεφαλάρι 660 32","categoryIds":["coffee-brunch"],"categories":["Coffee & Brunch Spots"],"distanceKm":5.7090932858967705},{"id":"wineriesVineyards_554af4e222d0","slug":"oenogenesis-s-a-554a","kind":"restaurant","name":"OENOGENESIS S.A.","lat":41.11655968127127,"lng":24.244269125370955,"url":"https://maps.app.goo.gl/bnEeezvifVHw7rFq7?g_st=ipc","address":"Επί επαρχιακής οδού Δοξάτο-Αδριανή, Adriani 661 00","categoryIds":["wineries-vineyards"],"categories":["Wineries & Vineyards"],"distanceKm":12.109992109352405},{"id":"wineriesVineyards_0cdfcd6ce302","slug":"nico-lazaridi-chateau-nico-lazaridi-oinopoieio-nikoy-lazaridi-0cdf","kind":"restaurant","name":"NICO LAZARIDI Château Nico Lazaridi - Οινοποιείο Νίκου Λαζαρίδη","lat":41.129507803067504,"lng":24.279792635578804,"url":"https://maps.app.goo.gl/WKD1nyVBu5sjxUqV8?g_st=ipc","address":"Κοινότητα Αγοράς, Δράμα, Agora 660 32","categoryIds":["wineries-vineyards"],"categories":["Wineries & Vineyards"],"distanceKm":13.006766362645982},{"id":"municipalities_48180ac7ab6a","slug":"kavala-4818","kind":"municipality","name":"Καβάλα","lat":40.937,"lng":24.406,"region":"Κεντρική Μακεδονία","name_en":"Kavala","region_en":"Central Macedonia","distanceKm":13.019133918663977},{"id":"coffeeBrunchRestaurants_3f658622b548","slug":"sklaris-3f65","kind":"restaurant","name":"Sklaris","lat":40.972805070668926,"lng":24.140591861373508,"url":"https://maps.app.goo.gl/1UACMfNmgegpjXm16?g_st=ipc","address":"Serron 17, Ag. Christoforos 640 01","categoryIds":["coffee-brunch"],"categories":["Coffee & Brunch Spots"],"distanceKm":13.11723835023658},{"id":"dessertsRestaurants_429ae1be11cf","slug":"evangelou-confectionary-429a","kind":"restaurant","name":"Evangelou Confectionary","lat":40.93760506506312,"lng":24.410866727456785,"url":"https://maps.app.goo.gl/RP9XvJeTKjnB3SyW7?g_st=ipc","address":"P. Mela 6, Kavala 653 02","categoryIds":["desserts"],"categories":["Dessert Shops"],"distanceKm":13.291078278501924},{"id":"wineriesVineyards_a9a7cc1f9625","slug":"estates-costa-lazaridi-drama-a9a7","kind":"restaurant","name":"Estates Costa Lazaridi Drama","lat":41.13086312258315,"lng":24.259959410750362,"url":"https://maps.app.goo.gl/Kw5f3uTchrYrtq7G7?g_st=ipc","address":"Epar.Od. Platamona - Adrianis 47, Adriani 661 00","categoryIds":["wineries-vineyards"],"categories":["Wineries & Vineyards"],"distanceKm":13.344528362846242},{"id":"dessertsRestaurants_63113ea4bb9d","slug":"ntinos-patisserie-6311","kind":"restaurant","name":"Ntinos Patisserie","lat":40.93677597847986,"lng":24.41089117085129,"url":"https://maps.app.goo.gl/k1igYo9JRosLStDy7?g_st=ipc","address":"El. Venizelou 25, Kavala 653 02","categoryIds":["desserts"],"categories":["Dessert Shops"],"distanceKm":13.350819510947343}],"sameRegion":[],"mentionedGuides":[]},"__N_SSG":true}