{"pageProps":{"entity":{"id":"coffeeBrunchRestaurants_224b4f18bc1d","slug":"metoxi-cafe-224b","kind":"restaurant","name":"Metoxi Cafe","lat":36.84261561910303,"lng":27.207757730254055,"url":"https://maps.app.goo.gl/xLPQPWyVrDszRuA8A?g_st=ipc","address":"Κως ζια, Lagoudi Zia 853 00","categoryIds":["coffee-brunch"],"categories":["Coffee & Brunch Spots"]},"sameCategory":[{"id":"coffeeBrunchRestaurants_d1e128561b78","slug":"mylos-beach-bar-kos-d1e1","kind":"restaurant","name":"Mylos Beach Bar Kos","lat":36.910338645379476,"lng":27.282292405147036,"url":"https://maps.app.goo.gl/6uVUCsAW9roKZ7jd6?g_st=ipc","address":"Akti Zouroudi, Kos 853 00","categoryIds":["coffee-brunch"],"categories":["Coffee & Brunch Spots"]},{"id":"coffeeBrunchRestaurants_6c5cf7a87a7e","slug":"ammos-beach-cocktail-bar-kos-6c5c","kind":"restaurant","name":"Ammos Beach Cocktail Bar Kos","lat":36.87331617313251,"lng":27.35149999959042,"url":"https://maps.app.goo.gl/AMMGdvJMkRwqCrFP6?g_st=ipc","address":"Psalidi, Kos 853 00","categoryIds":["coffee-brunch"],"categories":["Coffee & Brunch Spots"]},{"id":"coffeeBrunchRestaurants_2788ef940f49","slug":"lovly-bar-2788","kind":"restaurant","name":"Lovly Bar","lat":36.8298552621884,"lng":27.052523615328724,"url":"https://maps.app.goo.gl/tqo3zEFB2jssR8Md9?g_st=ipc","address":"Mastihari","categoryIds":["coffee-brunch"],"categories":["Coffee & Brunch Spots"]},{"id":"coffeeBrunchRestaurants_a3547d8efbea","slug":"kolokytha-a354","kind":"restaurant","name":"Kolokytha","lat":36.54726990012019,"lng":26.353646413648903,"url":"https://maps.app.goo.gl/6FaxgMCjdWj9EPA48?g_st=ipc","address":"Unnamed Rd, Astipalea 859 00","categoryIds":["coffee-brunch"],"categories":["Coffee & Brunch Spots"]},{"id":"coffeeBrunchRestaurants_81babb19d554","slug":"anax-brunch-all-day-bar-81ba","kind":"restaurant","name":"Anax - Brunch & All day bar","lat":36.54881053562097,"lng":26.352767048461835,"url":"https://maps.app.goo.gl/Fog59qRdXL1VwbPKA?g_st=ipc","address":"Island, Astipalea 859 00","categoryIds":["coffee-brunch"],"categories":["Coffee & Brunch Spots"]},{"id":"coffeeBrunchRestaurants_64018e74309c","slug":"meltemi-6401","kind":"restaurant","name":"Meltemi","lat":36.545359250189506,"lng":26.352356416685993,"url":"https://maps.app.goo.gl/nFrvN47758pZXWzT8?g_st=ipc","address":"Astypalaia 859 00","categoryIds":["coffee-brunch"],"categories":["Coffee & Brunch Spots"]},{"id":"coffeeBrunchRestaurants_e533a6bcb85f","slug":"naval-cafe-bar-restaurant-e533","kind":"restaurant","name":"NAVAL Cafe Bar Restaurant","lat":36.43323816273261,"lng":28.237832164715215,"url":"https://maps.app.goo.gl/LEtJZTyLhqkrZEGE7?g_st=ipc","address":"Rhodes","categoryIds":["coffee-brunch"],"categories":["Coffee & Brunch Spots"]},{"id":"coffeeBrunchRestaurants_fa8dbaffc7b9","slug":"pergalidi-fa8d","kind":"restaurant","name":"Pergalídi","lat":36.9063101851879,"lng":25.998609552916683,"url":"https://maps.app.goo.gl/JbLEpGNTnyAChWqY7?g_st=ipc","address":"Lagada 840 08","categoryIds":["coffee-brunch"],"categories":["Coffee & Brunch Spots"]}],"nearby":[{"id":"greekRestaurants_b918155cc589","slug":"taverna-zia-b918","kind":"restaurant","name":"Ταβέρνα Ζιά","lat":36.84395435587276,"lng":27.204103754260537,"url":"https://maps.app.goo.gl/s7wipUzwGwhGaAfw7?g_st=ipc","address":"Λαγουδι Ζία 853 00","categoryIds":["greek-restaurants"],"categories":["Greek Restaurants"],"distanceKm":0.35761150594600805},{"id":"greekRestaurants_8485c6e3a6b4","slug":"olympia-zia-8485","kind":"restaurant","name":"Olympia Zia","lat":36.846359220438664,"lng":27.20601879367517,"url":"https://maps.app.goo.gl/R49wPJn6AyfTkV788?g_st=ipc","address":"Λαγουδι Ζία 853 00","categoryIds":["greek-restaurants"],"categories":["Greek Restaurants"],"distanceKm":0.4440999876939021},{"id":"greekRestaurants_7709915bb0d1","slug":"oromedon-7709","kind":"restaurant","name":"Ωρομέδων","lat":36.84611734603098,"lng":27.20392445508704,"url":"https://maps.app.goo.gl/mZnsac8ZMBoCsgqg6?g_st=ipc","address":"Επαρ.Οδ. Ζιπάριου-Ασφενδιού, Λαγουδι Ζία 853 00","categoryIds":["greek-restaurants"],"categories":["Greek Restaurants"],"distanceKm":0.5176543095476623},{"id":"municipalities_7277cdde3ccf","slug":"zia-7277","kind":"municipality","name":"Ζιά","lat":36.8285,"lng":27.2144,"region":"Κως","name_en":"Zia","region_en":"Kos","distanceKm":1.6772114370279652},{"id":"dessertsRestaurants_bbd3b3b571f4","slug":"special-zipari-bbd3","kind":"restaurant","name":"Special Zipari","lat":36.87693633011065,"lng":27.208733925340766,"url":"https://maps.app.goo.gl/y1ujiW8koq2bhg1NA?g_st=ipc","address":"Zipari 853 00","categoryIds":["desserts"],"categories":["Dessert Shops"],"distanceKm":3.81727706521301},{"id":"municipalities_3aeefc631d3e","slug":"peykakia-3aee","kind":"municipality","name":"Πευκάκια","lat":36.858,"lng":27.265,"region":"Κως","name_en":"Pefkakia","region_en":"Kos","distanceKm":5.3729453489319825},{"id":"mustSeeAttractions_ef451c3fb153","slug":"asclepieion-at-kos-ef45","kind":"restaurant","name":"Asclepieion at Kos","lat":36.87634063821304,"lng":27.25929156442587,"url":"https://maps.app.goo.gl/KY1PY5mwkiEPn6JS6?g_st=ipc","address":"Kos 853 00","categoryIds":["attractions"],"categories":["Must-See Attractions"],"distanceKm":5.923164348652014},{"id":"fishTavernasRestaurants_1d3fc9d83bcf","slug":"anemos-restaurant-1d3f","kind":"restaurant","name":"Anemos Restaurant","lat":36.78756037978204,"lng":27.14925448197459,"url":"https://maps.app.goo.gl/ETfcRkUohCySZ7987?g_st=ipc","address":"Kardamaina 853 02","categoryIds":["fish-tavernas"],"categories":["Fish Tavernas"],"distanceKm":8.037404643755005}],"sameRegion":[],"mentionedGuides":[]},"__N_SSG":true}