{"pageProps":{"entity":{"id":"fishTavernasRestaurants_bee964d3fc5b","slug":"akrogiali-bee9","kind":"restaurant","name":"ΑΚΡΟΓΙΑΛΙ","lat":37.71656419364308,"lng":23.94570181232825,"url":"https://maps.app.goo.gl/zRnJu32Cpbu5tH579?g_st=ipc","address":"Λεωφ. Αθηνών Σουνίου 5, Παλαιά Φώκαια 190 13","categoryIds":["fish-tavernas"],"categories":["Fish Tavernas"]},"sameCategory":[{"id":"fishTavernasRestaurants_c23b79f3de18","slug":"taverna-antigoni-c23b","kind":"restaurant","name":"Ταβερνα Αντιγόνη","lat":37.69076965870636,"lng":23.94467815593701,"url":"https://maps.app.goo.gl/HmragYkeYQJ2VW7G6?g_st=ipc","address":"Μακροδημητραίων, Θυμάρι 190 13","categoryIds":["fish-tavernas"],"categories":["Fish Tavernas"]},{"id":"fishTavernasRestaurants_57dd1c9928eb","slug":"theodoros-eleni-57dd","kind":"restaurant","name":"Θεόδωρος & Ελένη","lat":37.66821016175742,"lng":23.995505349183023,"url":"https://maps.app.goo.gl/5HLB654RHJNN8sJg6?g_st=ipc","address":"Λεωφ. Λεγραινών, Λαυρεωτική 195 00","categoryIds":["fish-tavernas"],"categories":["Fish Tavernas"]},{"id":"fishTavernasRestaurants_250ac79e5fa5","slug":"marida-soynio-250a","kind":"restaurant","name":"Μαρίδα Σούνιο","lat":37.663243704417745,"lng":24.000465853725956,"url":"https://maps.app.goo.gl/8emqMV9UqAiZvW9q9?g_st=ipc","address":"64,5 χλμ. παραλιακη Αθηνων-Σουνίου, Λεγραινα, Σούνιο 195 00","categoryIds":["fish-tavernas"],"categories":["Fish Tavernas"]},{"id":"fishTavernasRestaurants_3d3979b06e71","slug":"taverna-stamatis-3d39","kind":"restaurant","name":"Ταβέρνα Σταμάτης","lat":37.662782663333054,"lng":24.004791713992123,"url":"https://maps.app.goo.gl/gJf1KcE3sZPjDyz8A?g_st=ipc","address":"Λεωφόρος Αθηνών Σουνίου,Εσπερίδες, Σούνιο 195 00","categoryIds":["fish-tavernas"],"categories":["Fish Tavernas"]},{"id":"fishTavernasRestaurants_01155b02f60d","slug":"kyra-popi-taverna-0115","kind":"restaurant","name":"Κυρά Πόπη Ταβέρνα","lat":37.78165801312647,"lng":23.89057104630703,"url":"https://maps.app.goo.gl/inr16Vqi6f4XARj86?g_st=ipc","address":"40.5, Λεωφ. Αθηνών Σουνίου, Καλύβια Θορικού 190 10","categoryIds":["fish-tavernas"],"categories":["Fish Tavernas"]},{"id":"fishTavernasRestaurants_06b05ccb28e3","slug":"o-foros-psarotaverna-06b0","kind":"restaurant","name":"Ο Φόρος Ψαροταβέρνα","lat":37.730230476020374,"lng":24.052869189449837,"url":"https://maps.app.goo.gl/3QEEjs3jdS92q1p9A?g_st=ipc","address":"Θορικό 195 00","categoryIds":["fish-tavernas"],"categories":["Fish Tavernas"]},{"id":"fishTavernasRestaurants_c99168937472","slug":"rerras-c991","kind":"restaurant","name":"Ρέρρας","lat":37.714742366222666,"lng":24.055779972024514,"url":"https://maps.app.goo.gl/vTuWH4xsgnxg1ctN7?g_st=ipc","address":"Κων/νου Πλειώνη, Ανδρέα Αλεξάνδρου και, Λαύριο 195 00","categoryIds":["fish-tavernas"],"categories":["Fish Tavernas"]},{"id":"fishTavernasRestaurants_747917a1e974","slug":"agkyra-7479","kind":"restaurant","name":"Άγκυρα","lat":37.714457783213085,"lng":24.05577913623349,"url":"https://maps.app.goo.gl/FXSCcGp2kJVSweSb7?g_st=ipc","address":"Ψαραγορά Λαύριο 3, Ανδρέα Αλεξάνδρου, Λαύριο 195 00","categoryIds":["fish-tavernas"],"categories":["Fish Tavernas"]}],"nearby":[{"id":"municipalities_0d14e9726ecb","slug":"anavyssos-0d14","kind":"municipality","name":"Ανάβυσσος","lat":37.7339,"lng":23.9355,"region":"Νότια Αττική","name_en":"Anavyssos","region_en":"South Attica","distanceKm":2.126242444024596},{"id":"fishTavernasRestaurants_c23b79f3de18","slug":"taverna-antigoni-c23b","kind":"restaurant","name":"Ταβερνα Αντιγόνη","lat":37.69076965870636,"lng":23.94467815593701,"url":"https://maps.app.goo.gl/HmragYkeYQJ2VW7G6?g_st=ipc","address":"Μακροδημητραίων, Θυμάρι 190 13","categoryIds":["fish-tavernas"],"categories":["Fish Tavernas"],"distanceKm":2.869634881952506},{"id":"coffeeBrunchRestaurants_e72432c365d7","slug":"nisos-cafe-bar-e724","kind":"restaurant","name":"Nisos Café Bar","lat":37.71981320719648,"lng":23.912954314854076,"url":"https://maps.app.goo.gl/c8xgWYxc6QFikVut9?g_st=ipc","address":"Λεωφ. Αθηνών Σουνίου 48 5, Ανάβυσσος 190 13","categoryIds":["coffee-brunch"],"categories":["Coffee & Brunch Spots"],"distanceKm":2.90298696967406},{"id":"familyFriendly_18bddf615bf3","slug":"anima-club-18bd","kind":"restaurant","name":"Anima Club","lat":37.74050273423326,"lng":23.921750567749367,"url":"https://maps.app.goo.gl/iMm9xyAzQoQ2dUJU9?g_st=ipc","address":"Υακίνθου Str, Ανάβυσσος 190 13","categoryIds":["family-friendly"],"categories":["Kid Friendly Locations"],"distanceKm":3.3944691313589797},{"id":"fishTavernasRestaurants_57dd1c9928eb","slug":"theodoros-eleni-57dd","kind":"restaurant","name":"Θεόδωρος & Ελένη","lat":37.66821016175742,"lng":23.995505349183023,"url":"https://maps.app.goo.gl/5HLB654RHJNN8sJg6?g_st=ipc","address":"Λεωφ. Λεγραινών, Λαυρεωτική 195 00","categoryIds":["fish-tavernas"],"categories":["Fish Tavernas"],"distanceKm":6.936320100283235},{"id":"wineriesVineyards_fb04a0d726bd","slug":"oinopoieio-prifti-fb04","kind":"restaurant","name":"Οινοποιείο Πρίφτη","lat":37.742934639668164,"lng":24.024928046003534,"url":"https://maps.app.goo.gl/s9SpDZV9kTGdK3aE6?g_st=ipc","address":"Μαρκάτι 190 01","categoryIds":["wineries-vineyards"],"categories":["Wineries & Vineyards"],"distanceKm":7.559405164509507},{"id":"fishTavernasRestaurants_250ac79e5fa5","slug":"marida-soynio-250a","kind":"restaurant","name":"Μαρίδα Σούνιο","lat":37.663243704417745,"lng":24.000465853725956,"url":"https://maps.app.goo.gl/8emqMV9UqAiZvW9q9?g_st=ipc","address":"64,5 χλμ. παραλιακη Αθηνων-Σουνίου, Λεγραινα, Σούνιο 195 00","categoryIds":["fish-tavernas"],"categories":["Fish Tavernas"],"distanceKm":7.6402537159728166},{"id":"fishTavernasRestaurants_3d3979b06e71","slug":"taverna-stamatis-3d39","kind":"restaurant","name":"Ταβέρνα Σταμάτης","lat":37.662782663333054,"lng":24.004791713992123,"url":"https://maps.app.goo.gl/gJf1KcE3sZPjDyz8A?g_st=ipc","address":"Λεωφόρος Αθηνών Σουνίου,Εσπερίδες, Σούνιο 195 00","categoryIds":["fish-tavernas"],"categories":["Fish Tavernas"],"distanceKm":7.924489166644428}],"sameRegion":[],"mentionedGuides":[]},"__N_SSG":true}