{"pageProps":{"entity":{"id":"italianRestaurants_99d6d6ea615c","slug":"alio-99d6","kind":"restaurant","name":"ALIO","lat":38.02380840827294,"lng":23.79252131680721,"url":"https://maps.app.goo.gl/pCWntKXiEkk3VBdj8?g_st=ipc","address":"Βασιλέως Γεωργίου 34, Χαλάνδρι 152 33","categoryIds":["italian"],"categories":["Italian Restaurants"]},"sameCategory":[{"id":"italianRestaurants_5125cdfe0b5a","slug":"portofino-pizza-xalandri-5125","kind":"restaurant","name":"Portofino Pizza Xalandri","lat":38.0247038627797,"lng":23.797586721157028,"url":"https://maps.app.goo.gl/D9rRduThcXn2ff1i8?g_st=ipc","address":"Γρ. Γυφτοπούλου 23, Χαλάνδρι 152 33","categoryIds":["italian"],"categories":["Italian Restaurants"]},{"id":"italianRestaurants_0499cd7a1aa6","slug":"totonno-pizzeria-0499","kind":"restaurant","name":"Totonno Pizzeria","lat":38.0207813740758,"lng":23.7979881651798,"url":"https://maps.app.goo.gl/nUn81XsFVAHwxcV18?g_st=ipc","address":"Καλογρέζης 1, Χαλάνδρι 152 32","categoryIds":["italian"],"categories":["Italian Restaurants"]},{"id":"italianRestaurants_449a551f4dc8","slug":"come-a-casa-449a","kind":"restaurant","name":"Come A Casa","lat":38.020170312119056,"lng":23.798225694950606,"url":"https://maps.app.goo.gl/Go53VnWKyGjFvBK38?g_st=ipc","address":"Καραολη Δημήτριου 17, Χαλάνδρι 152 32","categoryIds":["italian"],"categories":["Italian Restaurants"]},{"id":"italianRestaurants_6b466717928c","slug":"lollo-s-atene-6b46","kind":"restaurant","name":"Lollo's Atene","lat":38.01753697922701,"lng":23.795618164928833,"url":"https://maps.app.goo.gl/1D9mpaGYtG23tshYA?g_st=ipc","address":"Εθ. Αντιστάσεως 3α, Χαλάνδρι 152 32","categoryIds":["italian"],"categories":["Italian Restaurants"]},{"id":"italianRestaurants_08976c540f77","slug":"alpino-cucina-italiana-0897","kind":"restaurant","name":"Alpino Cucina Italiana","lat":38.017273062811554,"lng":23.796958155707255,"url":"https://maps.app.goo.gl/vifqCWxK1J8ZiiCu7?g_st=ipc","address":"Παπανικολή 66, Χαλάνδρι 152 32","categoryIds":["italian"],"categories":["Italian Restaurants"]},{"id":"italianRestaurants_9ab88b8b6007","slug":"innamorata-9ab8","kind":"restaurant","name":"Innamorata","lat":38.01461502802222,"lng":23.785308731358,"url":"https://maps.app.goo.gl/6pHzTzWoidEixrLw8?g_st=ipc","address":"Likourgou 5Α, Chalandri 152 31","categoryIds":["italian"],"categories":["Italian Restaurants"]},{"id":"italianRestaurants_6c7a694e9681","slug":"kentrina-6c7a","kind":"restaurant","name":"Kentrina","lat":38.013966629254554,"lng":23.786077267676728,"url":"https://maps.app.goo.gl/3jtSyfSCsogG92777?g_st=ipc","address":"Likourgou, Chalandri 152 31","categoryIds":["italian"],"categories":["Italian Restaurants"]},{"id":"italianRestaurants_f7f3095a84cf","slug":"marika-f7f3","kind":"restaurant","name":"Μαρίκα","lat":38.01804412743968,"lng":23.809906247881305,"url":"https://maps.app.goo.gl/osUqCcuWwvgZPCpT6?g_st=ipc","address":"Αγίας Παρασκευής 109, Χαλάνδρι 152 34","categoryIds":["italian"],"categories":["Italian Restaurants"]}],"nearby":[{"id":"greekRestaurants_f482326498f3","slug":"taverna-michalis-f482","kind":"restaurant","name":"Ταβέρνα Μιχάλης","lat":38.024972399350155,"lng":23.792694033579224,"url":"https://maps.app.goo.gl/o1rWWp4p742jj85G7?g_st=ipc","address":"Βαλαωρίτου 20, Χαλάνδρι 152 33","categoryIds":["greek-restaurants"],"categories":["Greek Restaurants"],"distanceKm":0.1303111009193962},{"id":"luxuryDiningRestaurants_0a7040f4978e","slug":"botrini-s-restaurant-athens-0a70","kind":"restaurant","name":"Botrini's Restaurant Athens","lat":38.02321116531418,"lng":23.793992884008055,"url":"https://maps.app.goo.gl/9QeJrtg4uVD3LnL38?g_st=ipc","address":"Λεωφ. Βασιλέως Γεωργίου B 24, Χαλάνδρι 152 33","categoryIds":["luxury-dining"],"categories":["Luxury Dining"],"distanceKm":0.14500321775623276},{"id":"coffeeBrunchRestaurants_13c765a56547","slug":"gardenista-13c7","kind":"restaurant","name":"Gardenista","lat":38.022288294318166,"lng":23.791808518147295,"url":"https://maps.app.goo.gl/Ae2mzr6PphQKvoxT8?g_st=ipc","address":"Παπανικολή 18, Χαλάνδρι 152 32","categoryIds":["coffee-brunch"],"categories":["Coffee & Brunch Spots"],"distanceKm":0.1801923010984823},{"id":"greekRestaurants_22195ee291a7","slug":"i-parea-tis-fanis-2219","kind":"restaurant","name":"Η παρέα της Φανής","lat":38.02610478288273,"lng":23.79313013557708,"url":"https://maps.app.goo.gl/BaPBtWqbaacn9oDc6?g_st=ipc","address":"Καρέλλα 20, Χαλάνδρι 152 33","categoryIds":["greek-restaurants"],"categories":["Greek Restaurants"],"distanceKm":0.26085451129250664},{"id":"greekRestaurants_c76d4019c4d8","slug":"mparmpalias-c76d","kind":"restaurant","name":"Μπαρμπαλιάς","lat":38.02244991899446,"lng":23.7965243912459,"url":"https://maps.app.goo.gl/G25mEs6QontzWR8o6?g_st=ipc","address":"Λεωφ. Βασιλέως Γεωργίου B 6, Χαλάνδρι 152 33","categoryIds":["greek-restaurants"],"categories":["Greek Restaurants"],"distanceKm":0.38180312219602824},{"id":"cheapEatsRestaurants_d9e484914294","slug":"mparmpalias-d9e4","kind":"restaurant","name":"Μπαρμπαλιάς","lat":38.022224299572,"lng":23.79656538042495,"url":"https://maps.app.goo.gl/LeEZCDs2GRC6YKuT7?g_st=ipc","address":"Λεωφ. Βασιλέως Γεωργίου B 6, Χαλάνδρι 152 33","categoryIds":["cheap-eats"],"categories":["Gyros & Cheap Eats"],"distanceKm":0.39561805147550994},{"id":"asianRestaurants_509760bf71d6","slug":"oishi-sushi-bar-5097","kind":"restaurant","name":"OISHI SUSHI BAR","lat":38.02268166865243,"lng":23.7974397280377,"url":"https://maps.app.goo.gl/NXeqhq8bkraS8SxK8?g_st=ipc","address":"Ζαλοκώστα 3, Χαλάνδρι 152 33","categoryIds":["asian"],"categories":["Asian Restaurants"],"distanceKm":0.4486758878097687},{"id":"italianRestaurants_5125cdfe0b5a","slug":"portofino-pizza-xalandri-5125","kind":"restaurant","name":"Portofino Pizza Xalandri","lat":38.0247038627797,"lng":23.797586721157028,"url":"https://maps.app.goo.gl/D9rRduThcXn2ff1i8?g_st=ipc","address":"Γρ. Γυφτοπούλου 23, Χαλάνδρι 152 33","categoryIds":["italian"],"categories":["Italian Restaurants"],"distanceKm":0.4547330541850542}],"sameRegion":[],"mentionedGuides":[{"slug":"american-college-of-greece-agia-paraskevi-guide-el","title":"American College of Greece: Καλώς ήρθατε στην Αγία Παρασκευή"},{"slug":"american-college-of-greece-agia-paraskevi-guide","title":"American College of Greece: Welcome to Agia Paraskevi"}]},"__N_SSG":true}