{"pageProps":{"entity":{"id":"coffeeBrunchRestaurants_84cd01d24fd5","slug":"alkyoni-cafe-84cd","kind":"restaurant","name":"Αλκυόνη Cafe","lat":38.37005085250784,"lng":26.135181501058845,"url":"https://maps.app.goo.gl/iSBXdhHpi1DBgMea7?g_st=ipc","address":"Μικκιάδων 6, Chios 821 31","categoryIds":["coffee-brunch"],"categories":["Coffee & Brunch Spots"]},"sameCategory":[{"id":"coffeeBrunchRestaurants_9312a9a8b653","slug":"historic-lounge-bar-9312","kind":"restaurant","name":"Historic lounge bar","lat":39.07222186010532,"lng":26.58938683579369,"url":"https://maps.app.goo.gl/eSiPfaS2cFYBfyQS9?g_st=ipc","address":"Νεάπολη 811 00","categoryIds":["coffee-brunch"],"categories":["Coffee & Brunch Spots"]},{"id":"coffeeBrunchRestaurants_d86c8a19693a","slug":"kloyki-klouki-d86c","kind":"restaurant","name":"Κλούκι (Klouki)","lat":37.58260089712488,"lng":25.191149960754956,"url":"https://maps.app.goo.gl/GBkSRUkYZhjgkkFo9?g_st=ipc","address":"Φαλατάδος 842 00","categoryIds":["coffee-brunch"],"categories":["Coffee & Brunch Spots"]},{"id":"coffeeBrunchRestaurants_1dd5e3fc998c","slug":"kafe-nai-1dd5","kind":"restaurant","name":"καφέ-ναι","lat":37.59217889938765,"lng":25.17817299063689,"url":"https://maps.app.goo.gl/fceHF61HD8ctgCdK7?g_st=ipc","address":"Unnamed Road, Volakas 842 00","categoryIds":["coffee-brunch"],"categories":["Coffee & Brunch Spots"]},{"id":"coffeeBrunchRestaurants_75655a70677b","slug":"krok-mesie-all-day-bistrot-proino-brunch-sto-chorio-7565","kind":"restaurant","name":"Κροκ Μεσιέ | All day Bistrot {Πρωινό & Brunch στο χωριό}","lat":37.58939959185263,"lng":25.160526432646503,"url":"https://maps.app.goo.gl/PWyPVsJkGM6y8EdR9?g_st=ipc","address":"Epar.Od. Tripotamou-Kallonis, Krokos 842 00","categoryIds":["coffee-brunch"],"categories":["Coffee & Brunch Spots"]},{"id":"coffeeBrunchRestaurants_7d7ce290df83","slug":"dalu-7d7c","kind":"restaurant","name":"Dalu","lat":37.44946196330255,"lng":25.332037598705416,"url":"https://maps.app.goo.gl/qaooHUUn5SotjYdJA?g_st=ipc","address":"Dalu, Mikonos 846 00","categoryIds":["coffee-brunch"],"categories":["Coffee & Brunch Spots"]},{"id":"coffeeBrunchRestaurants_f9e9f62cb460","slug":"el-burro-mykonos-f9e9","kind":"restaurant","name":"El Burro Mykonos","lat":37.44164494565894,"lng":25.3350374340187,"url":"https://maps.app.goo.gl/mFrsGY4rfvzHZgy28?g_st=ipc","address":"37°26'30.4\"N 25°20'06.2\"E, Mikonos 846 00","categoryIds":["coffee-brunch"],"categories":["Coffee & Brunch Spots"]},{"id":"coffeeBrunchRestaurants_ccfcae3739b1","slug":"the-liberty-breakfast-room-ccfc","kind":"restaurant","name":"The Liberty Breakfast Room","lat":37.44002249548534,"lng":25.33319976309242,"url":"https://maps.app.goo.gl/ytWHokwwmW4y1Baq5?g_st=ipc","address":"the liberty breakfast room, Mikonos 846 00","categoryIds":["coffee-brunch"],"categories":["Coffee & Brunch Spots"]},{"id":"coffeeBrunchRestaurants_305022a62a4f","slug":"to-davelaki-3050","kind":"restaurant","name":"To Davelaki","lat":37.43471134705592,"lng":25.340570140407053,"url":"https://maps.app.goo.gl/s3ATMeRgiCtC4BjXA?g_st=ic","address":"Unnamed Road, Mikonos 846 00","categoryIds":["coffee-brunch"],"categories":["Coffee & Brunch Spots"]}],"nearby":[{"id":"dessertsRestaurants_f094b277adf8","slug":"kanellos-loykoymades-f094","kind":"restaurant","name":"Κανέλλος Λουκουμάδες","lat":38.36957058310483,"lng":26.13638358929807,"url":"https://maps.app.goo.gl/srbHuTvaX8jLCjTu8?g_st=ipc","address":"Dimogerontias 18, Chios 821 00","categoryIds":["desserts"],"categories":["Dessert Shops"],"distanceKm":0.11761949400801756},{"id":"dessertsRestaurants_7a1982c7d429","slug":"loykoymades-manaras-7a19","kind":"restaurant","name":"Λουκουμάδες Μανάρας","lat":38.370567413138176,"lng":26.136572614570674,"url":"https://maps.app.goo.gl/48s1ijnKaWWrDfMs6?g_st=ipc","address":"ΑΡΧΕΡΜΟΥ 2, Chios 821 00","categoryIds":["desserts"],"categories":["Dessert Shops"],"distanceKm":0.13418981606102914},{"id":"greekRestaurants_437a6329ce3a","slug":"apeiron-437a","kind":"restaurant","name":"άπειρον","lat":38.37248748285311,"lng":26.1363285174503,"url":"https://maps.app.goo.gl/as3TadMcj5gJAt8FA?g_st=ipc","address":"plateia frouriou, Χίος 821 00","categoryIds":["greek-restaurants"],"categories":["Greek Restaurants"],"distanceKm":0.288804018431073},{"id":"municipalities_4af77743f0e9","slug":"chios-4af7","kind":"municipality","name":"Χίος","lat":38.367,"lng":26.135,"aliases":["Χιος","Xios"],"region":"Βόρειο Αιγαίο","name_en":"Chios","region_en":"North Aegean","distanceKm":0.33960815101459557},{"id":"greekRestaurants_86d6a21808bc","slug":"vradypoys-86d6","kind":"restaurant","name":"Βραδύπους","lat":38.37324337746431,"lng":26.136661867700386,"url":"https://maps.app.goo.gl/o5gyBtpX5GcBxyRj6?g_st=ipc","address":"Αγίου Γεωργίου Φρουρίου 18, Χίος 821 00","categoryIds":["greek-restaurants"],"categories":["Greek Restaurants"],"distanceKm":0.3777229263962539},{"id":"fishTavernasRestaurants_bb093a6e7c1a","slug":"ouzeri-the-mills-bb09","kind":"restaurant","name":"Ouzeri The Mills","lat":38.38206090575411,"lng":26.137518038647382,"url":"https://maps.app.goo.gl/PmLKrE9T1eDy9JUy7?g_st=ipc","address":"Kalouta 113, Chios 821 00","categoryIds":["fish-tavernas"],"categories":["Fish Tavernas"],"distanceKm":1.3508999935277395},{"id":"fishTavernasRestaurants_1d7493d3eb33","slug":"mouria-taverna-vrontados-chios-1d74","kind":"restaurant","name":"Mouria Taverna, Vrontados, Chios","lat":38.41467488328915,"lng":26.13506103413844,"url":"https://maps.app.goo.gl/EvoRNfkp6kGNwvRZ9?g_st=ipc","address":"Κωστή Λω 2, Vrontados 82150","categoryIds":["fish-tavernas"],"categories":["Fish Tavernas"],"distanceKm":4.9619769365344695},{"id":"fishTavernasRestaurants_89132bf37771","slug":"pantoukios-8913","kind":"restaurant","name":"Pantoukios","lat":38.46363263361025,"lng":26.135082897089756,"url":"https://maps.app.goo.gl/kLJEBwW1UwPjBLb57?g_st=ipc","address":"Παντουκιός 821 00","categoryIds":["fish-tavernas"],"categories":["Fish Tavernas"],"distanceKm":10.40582283097796}],"sameRegion":[],"mentionedGuides":[]},"__N_SSG":true}