{"pageProps":{"entity":{"id":"italianRestaurants_c3995e275001","slug":"amvix-c399","kind":"restaurant","name":"Amvix","lat":37.44099934175907,"lng":24.940807847227685,"url":"https://maps.app.goo.gl/pvyKHGGD2fbgASCE8?g_st=ipc","address":"Akti Papagoi 26, Ermoupoli 841 00","categoryIds":["italian"],"categories":["Italian Restaurants"]},"sameCategory":[{"id":"italianRestaurants_ef50c7962b4c","slug":"napule-tinos-restaurant-ef50","kind":"restaurant","name":"Napule Tinos Restaurant","lat":37.561247297622636,"lng":25.19153362351099,"url":"https://maps.app.goo.gl/KMmm7YcXtzQmk7Zh8?g_st=ipc","address":"Τριαντάρος 842 00","categoryIds":["italian"],"categories":["Italian Restaurants"]},{"id":"italianRestaurants_519a6524c076","slug":"farina-cucina-italiana-ornos-beach-519a","kind":"restaurant","name":"Farina Cucina Italiana Ornos Beach","lat":37.423083029478946,"lng":25.323628340986495,"url":"https://maps.app.goo.gl/M9VCoMv93LnDJZyTA?g_st=ipc","address":"Beach, Ornos 846 00","categoryIds":["italian"],"categories":["Italian Restaurants"]},{"id":"italianRestaurants_3ea0826fab26","slug":"casa-di-giorgio-mykonos-3ea0","kind":"restaurant","name":"Casa di Giorgio Mykonos","lat":37.44560651190884,"lng":25.326934720051547,"url":"https://maps.app.goo.gl/Cf4S8nv5DHQYNzkR7?g_st=ipc","address":"Mitropoleos 1, Hora 846 00","categoryIds":["italian"],"categories":["Italian Restaurants"]},{"id":"italianRestaurants_abc3cc5c720d","slug":"d-angelo-abc3","kind":"restaurant","name":"D'Angelo","lat":37.44362332101064,"lng":25.32719398144958,"url":"https://maps.app.goo.gl/AvAZtykcYFB85kTp6?g_st=ipc","address":"Axioti, Mikonos 846 00","categoryIds":["italian"],"categories":["Italian Restaurants"]},{"id":"italianRestaurants_26298b2afd51","slug":"sistina-mykonos-2629","kind":"restaurant","name":"Sistina Mykonos","lat":37.42270720054724,"lng":25.33392940009779,"url":"https://maps.app.goo.gl/jbVQZaFoXT3nCmEQ6?g_st=ipc","address":"Platis Gialos, Mikonos 846 00","categoryIds":["italian"],"categories":["Italian Restaurants"]},{"id":"italianRestaurants_2fd6901849b7","slug":"cardamomo-2fd6","kind":"restaurant","name":"Cardamomo","lat":37.4446572877169,"lng":25.396868169763824,"url":"https://maps.app.goo.gl/sh5TMZCTCw3tQKQP9?g_st=ipc","address":"Unnamed Road, Ano Mera 846 00","categoryIds":["italian"],"categories":["Italian Restaurants"]},{"id":"italianRestaurants_aef2b7848975","slug":"impasto-aef2","kind":"restaurant","name":"Impasto","lat":37.081621983659346,"lng":25.14571923250388,"url":"https://maps.app.goo.gl/Hzvu5t3VhUBHB7JC7?g_st=ipc","address":"Paros 844 00","categoryIds":["italian"],"categories":["Italian Restaurants"]},{"id":"italianRestaurants_b7cf983e2771","slug":"casa-giacomo-paros-b7cf","kind":"restaurant","name":"Casa Giacomo Paros","lat":37.12454320720165,"lng":25.238458349168585,"url":"https://maps.app.goo.gl/Ciaf8V2SrHA91Eqw7?g_st=ipc","address":"Little Venice, Naousa 844 01","categoryIds":["italian"],"categories":["Italian Restaurants"]}],"nearby":[{"id":"greekRestaurants_ca82ecc0469e","slug":"to-tsipoyradiko-tis-myrsinis-ca82","kind":"restaurant","name":"Το Τσιπουράδικο της Μυρσίνης","lat":37.4418414585908,"lng":24.9417843089367,"url":"https://maps.app.goo.gl/iYVQf35areJL729h8?g_st=ipc","address":"Ακτή Παπάγου 6, Ερμούπολη 841 00","categoryIds":["greek-restaurants"],"categories":["Greek Restaurants"],"distanceKm":0.12727957882195703},{"id":"greekRestaurants_bd91fcd5ea24","slug":"laoytari-bd91","kind":"restaurant","name":"Λαουτάρι","lat":37.440095347477,"lng":24.93954086077632,"url":"https://maps.app.goo.gl/hg1f12ccy5BRDtoR9?g_st=ipc","address":"Θερμοπυλών 18, Ερμούπολη 841 00","categoryIds":["greek-restaurants"],"categories":["Greek Restaurants"],"distanceKm":0.15038786877449845},{"id":"dessertsRestaurants_4f049383a360","slug":"athymaritis-4f04","kind":"restaurant","name":"Αθυμαρίτης","lat":37.44304285674758,"lng":24.942058155197838,"url":"https://maps.app.goo.gl/QqZKei5CzCtJaWFv7?g_st=ipc","address":"ΚΕΑΣ, Επτανήσου 2, ΚΑΙ 841 00","categoryIds":["desserts"],"categories":["Dessert Shops"],"distanceKm":0.25262102585806717},{"id":"coffeeBrunchRestaurants_ec0f2731baff","slug":"epta-syros-island-ec0f","kind":"restaurant","name":"Epta - Syros Island","lat":37.443982055478656,"lng":24.941782056394448,"url":"https://maps.app.goo.gl/67zZLni25BkifsZy6?g_st=ipc","address":"Peloponnisou 7, Ermoupoli 841 00","categoryIds":["coffee-brunch"],"categories":["Coffee & Brunch Spots"],"distanceKm":0.3426331109728893},{"id":"municipalities_10c41fed1584","slug":"syros-10c4","kind":"municipality","name":"Σύρος","lat":37.4442,"lng":24.9428,"aliases":["Syros","Siros","Σύρα","Συρος","Συρο"],"region":"Κυκλάδες","name_en":"Syros","region_en":"Cyclades","distanceKm":0.3969825973395452},{"id":"coffeeBrunchRestaurants_9e14262d126e","slug":"artisti-prozymi-9e14","kind":"restaurant","name":"Artisti Προζύμι","lat":37.44450469447684,"lng":24.94200878171083,"url":"https://maps.app.goo.gl/zBtgvSEn5xc7LXJYA?g_st=ipc","address":"Ermoupoli 841 00","categoryIds":["coffee-brunch"],"categories":["Coffee & Brunch Spots"],"distanceKm":0.40393998062584874},{"id":"coffeeBrunchRestaurants_5149b6e62713","slug":"nuru-casual-dine-bar-5149","kind":"restaurant","name":"NURU Casual Dine Bar","lat":37.44349077641299,"lng":24.94447380869693,"url":"https://maps.app.goo.gl/MAU2ryGQrQMcWyvh7?g_st=ipc","address":"Coast Petrou Ralli, Ermoupoli 841 00","categoryIds":["coffee-brunch"],"categories":["Coffee & Brunch Spots"],"distanceKm":0.4260251200651237},{"id":"dessertsRestaurants_a081a0be0db3","slug":"so-in-d-cjdh-a081","kind":"restaurant","name":"So in d cjdh","lat":37.4444390329241,"lng":24.943371459609835,"url":"https://maps.app.goo.gl/kDu69AUHWaiUN8MD9?g_st=ipc","address":"Γεωρ. Γεννηματά, Ερμούπολη 841 00","categoryIds":["desserts"],"categories":["Dessert Shops"],"distanceKm":0.44442329179614165}],"sameRegion":[],"mentionedGuides":[]},"__N_SSG":true}