{"pageProps":{"entity":{"id":"fishTavernasRestaurants_700d8feb6ab1","slug":"andromeda-restaurant-700d","kind":"restaurant","name":"Andromeda Restaurant","lat":39.79259047776619,"lng":19.8046234596079,"url":"https://maps.app.goo.gl/jMHKwGmxZZd6mhuh8?g_st=ipc","address":"Άγιος Στέφανος επίσκεψης, Acharavi 491 00","categoryIds":["fish-tavernas"],"categories":["Fish Tavernas"]},"sameCategory":[{"id":"fishTavernasRestaurants_60db33e5dbf6","slug":"ionion-fish-restaurant-60db","kind":"restaurant","name":"Ionion Fish Restaurant","lat":39.39885130705451,"lng":20.25621796602664,"url":"https://maps.app.goo.gl/UjAp1padEHJ7Q3nQ7?g_st=ipc","address":"Mega Ammos, Sivota 461 00","categoryIds":["fish-tavernas"],"categories":["Fish Tavernas"]},{"id":"fishTavernasRestaurants_7810838c2d0c","slug":"psaropoula-7810","kind":"restaurant","name":"Psaropoúla","lat":38.82126467879608,"lng":20.655911390455394,"url":"https://maps.app.goo.gl/64Q772kGwY6K6Mps8?g_st=ipc","address":"Τσουκαλαδες, Tsoukalades Λευκαδα, Lefkada 311 00","categoryIds":["fish-tavernas"],"categories":["Fish Tavernas"]},{"id":"fishTavernasRestaurants_1f52f6889767","slug":"ta-kanioria-tavern-1f52","kind":"restaurant","name":"Ta Kanioria Tavern","lat":38.79179727346099,"lng":20.720165771019264,"url":"https://maps.app.goo.gl/EbWqYiGwVkKbLu5h6?g_st=ipc","address":"Λυγιά 311 00","categoryIds":["fish-tavernas"],"categories":["Fish Tavernas"]},{"id":"fishTavernasRestaurants_8c846286bb7f","slug":"hippocampus-restaurant-8c84","kind":"restaurant","name":"Hippocampus Restaurant","lat":38.68645020644706,"lng":20.712029545342183,"url":"https://maps.app.goo.gl/dycgkVizrbH5BJsH7?g_st=ipc","address":"Γενί 311 00","categoryIds":["fish-tavernas"],"categories":["Fish Tavernas"]},{"id":"fishTavernasRestaurants_deef9d161177","slug":"tavern-zolithros-deef","kind":"restaurant","name":"Tavern Zolithros","lat":38.63883302731558,"lng":20.699578514278645,"url":"https://maps.app.goo.gl/tsdwoX24ZG7uLKB6A?g_st=ipc","address":"Epar.Od. Porou, Lefkada 311 00","categoryIds":["fish-tavernas"],"categories":["Fish Tavernas"]},{"id":"fishTavernasRestaurants_da16f2b84772","slug":"errikos-fish-tavern-da16","kind":"restaurant","name":"Errikos Fish Tavern","lat":38.66357210962554,"lng":20.783477705259653,"url":"https://maps.app.goo.gl/Exf4TBgcUy5RfeRQA?g_st=ipc","address":"Meganisi 310 83","categoryIds":["fish-tavernas"],"categories":["Fish Tavernas"]},{"id":"fishTavernasRestaurants_2ef1060ceab9","slug":"kalyva-tou-psara-2ef1","kind":"restaurant","name":"Kalyva tou Psara","lat":38.30990002692816,"lng":20.4759773849458,"url":"https://maps.app.goo.gl/usLMqjcjtFy6fTWd6?g_st=ipc","address":"Unnamed Rd, Zola 281 00","categoryIds":["fish-tavernas"],"categories":["Fish Tavernas"]},{"id":"fishTavernasRestaurants_7b6b6c02756b","slug":"blue-sea-restaurant-7b6b","kind":"restaurant","name":"Blue Sea Restaurant","lat":38.06482061618168,"lng":20.749944356791246,"url":"https://maps.app.goo.gl/w2imtD4bnSK6jDox6?g_st=ipc","address":"Κάτω Κατελειός 280 86","categoryIds":["fish-tavernas"],"categories":["Fish Tavernas"]}],"nearby":[{"id":"luxuryDiningRestaurants_c23fed298e67","slug":"etrusco-c23f","kind":"restaurant","name":"Etrusco","lat":39.6891414540143,"lng":19.834904657627558,"url":"https://maps.app.goo.gl/x3VsqPUTtkawiKFC7?g_st=ipc","address":"Κάτω Κορακιάνα 490 83","categoryIds":["luxury-dining"],"categories":["Luxury Dining"],"distanceKm":11.790789236261297},{"id":"coffeeBrunchRestaurants_207254fa5966","slug":"bakalokafenio-michalas-kostas-2072","kind":"restaurant","name":"Bakalokafenio - Michalas Kostas","lat":39.681013717064104,"lng":19.71063796584377,"url":"https://maps.app.goo.gl/YrUQcKuXeVaBkqFR7?g_st=ipc","address":"Lakones 490 83","categoryIds":["coffee-brunch"],"categories":["Coffee & Brunch Spots"],"distanceKm":14.782182256021972},{"id":"municipalities_3976b9119f68","slug":"palaiokastritsa-3976","kind":"municipality","name":"Παλαιοκαστρίτσα","lat":39.6778,"lng":19.7139,"aliases":["Παλαιοκαστριτσα","Palaiokastritsa"],"region":"Ιόνιο","name_en":"Paleokastritsa","region_en":"Ionian Islands","distanceKm":14.936703054861661},{"id":"coffeeBrunchRestaurants_8ce44b297b18","slug":"la-grotta-bar-8ce4","kind":"restaurant","name":"La Grotta Bar","lat":39.67381089427264,"lng":19.718606911052376,"url":"https://maps.app.goo.gl/HyZmnveaEpuiN62j8?g_st=ipc","address":"La Grotta Bay, Paleokastritsa 490 83","categoryIds":["coffee-brunch"],"categories":["Coffee & Brunch Spots"],"distanceKm":15.11772906841801},{"id":"coffeeBrunchRestaurants_aa7bbba77011","slug":"dolce-cafe-aa7b","kind":"restaurant","name":"Dolce Café","lat":39.68046834433433,"lng":19.703113468558957,"url":"https://maps.app.goo.gl/uW2pukpfg5XpBrAM9?g_st=ipc","address":"Lakones 490 83","categoryIds":["coffee-brunch"],"categories":["Coffee & Brunch Spots"],"distanceKm":15.191355501811058},{"id":"familyFriendly_e515147a29e0","slug":"aqualand-e515","kind":"restaurant","name":"Aqualand","lat":39.61697908099727,"lng":19.837429719404867,"url":"https://maps.app.goo.gl/NQ1AwXiEg5oZQg359?g_st=ipc","address":"Agios Ioannis 491 00","categoryIds":["family-friendly"],"categories":["Kid Friendly Locations"],"distanceKm":19.72774342450801},{"id":"luxuryDiningRestaurants_447de7bad692","slug":"venetian-well-447d","kind":"restaurant","name":"Venetian Well","lat":39.62641881073211,"lng":19.921842707953036,"url":"https://maps.app.goo.gl/HLnA6MPvVh9foYtK6?g_st=ipc","address":"Πλατεια Λίλη Δεσύλλα 1, Kerkira 491 00","categoryIds":["luxury-dining"],"categories":["Luxury Dining"],"distanceKm":21.022817021887167},{"id":"greekRestaurants_9f5022be5281","slug":"to-tavernaki-tis-marinas-9f50","kind":"restaurant","name":"Το Ταβερνάκι της Μαρίνας","lat":39.62492333562477,"lng":19.9188396620582,"url":"https://maps.app.goo.gl/zBELB5QbZJL4Jsk99?g_st=ipc","address":"Βελισσαρίου 35, Κέρκυρα 491 00","categoryIds":["greek-restaurants"],"categories":["Greek Restaurants"],"distanceKm":21.048708320926014}],"sameRegion":[],"mentionedGuides":[]},"__N_SSG":true}