{"pageProps":{"entity":{"id":"italianRestaurants_a85b9e4df417","slug":"brigante-syntagma-a85b","kind":"restaurant","name":"Brigante (Σύνταγμα)","lat":37.97426577787846,"lng":23.734179177201504,"url":"https://maps.app.goo.gl/RmErpGj8TndJSV9v7?g_st=ipc","address":"Ξενοφώντος 6, Αθήνα 105 57","categoryIds":["italian"],"categories":["Italian Restaurants"]},"sameCategory":[{"id":"italianRestaurants_8dc12f0e929e","slug":"ovio-8dc1","kind":"restaurant","name":"OVIO","lat":37.974772406489194,"lng":23.732726038133688,"url":"https://maps.app.goo.gl/YsVGa9MzZPoFLxFs9?g_st=ipc","address":"Απόλλωνος 4, Αθήνα 105 57","categoryIds":["italian"],"categories":["Italian Restaurants"]},{"id":"italianRestaurants_4213a3098622","slug":"ami-italian-bistrot-4213","kind":"restaurant","name":"Ami Italian Bistrot","lat":37.97469248298705,"lng":23.732316050865755,"url":"https://maps.app.goo.gl/ddcDFfjhHBSTkLzH8?g_st=ipc","address":"Βουλής, Απόλλωνος &, Αθήνα 105 57","categoryIds":["italian"],"categories":["Italian Restaurants"]},{"id":"italianRestaurants_ef8284fad678","slug":"v1935-roof-garden-ef82","kind":"restaurant","name":"V1935 Roof Garden","lat":37.974997891356715,"lng":23.732428069404467,"url":"https://maps.app.goo.gl/TKodgxdpAuijQZCk7?g_st=ipc","address":"Βουλής 29, Αθήνα 105 57","categoryIds":["italian"],"categories":["Italian Restaurants"]},{"id":"italianRestaurants_ecac45aa4447","slug":"2h-restaurant-ecac","kind":"restaurant","name":"\"+2H Restaurant\"","lat":37.97531452405919,"lng":23.73121660311007,"url":"https://maps.app.goo.gl/gjaqkvxWUZYGRAXB9?g_st=ipc","address":"Rooftop of ERGON Bakehouse, Μητροπόλεως 27, Αθήνα 105 57","categoryIds":["italian"],"categories":["Italian Restaurants"]},{"id":"italianRestaurants_41ab3f71a154","slug":"aliola-s-ermou-41ab","kind":"restaurant","name":"Aliola’s Ermou","lat":37.97633249966058,"lng":23.7318293724108,"url":"https://maps.app.goo.gl/4FHfDnNt7PhJxhxK6?g_st=ipc","address":"Ερμού 18 &, Διομείας 2, Αθήνα 105 63","categoryIds":["italian"],"categories":["Italian Restaurants"]},{"id":"italianRestaurants_e7c94ca15e1b","slug":"granello-pizza-italiana-e7c9","kind":"restaurant","name":"Granello - Pizza Italiana","lat":37.97667761548528,"lng":23.73173801660532,"url":"https://maps.app.goo.gl/nkhWXfUCf8UqXp5W9?g_st=ipc","address":"Περικλέους 18, Αθήνα 105 62","categoryIds":["italian"],"categories":["Italian Restaurants"]},{"id":"italianRestaurants_15f54ac83ec4","slug":"gloria-gati-15f5","kind":"restaurant","name":"Gloria Gati","lat":37.97802514944533,"lng":23.731662994218254,"url":"https://maps.app.goo.gl/VyAef5tB1eVm8LECA?g_st=ipc","address":"Πλ. Αγίου Γεωργίου Καρύτση 6, Αθήνα 105 61","categoryIds":["italian"],"categories":["Italian Restaurants"]},{"id":"italianRestaurants_c9470358a12d","slug":"la-pasteria-c947","kind":"restaurant","name":"La Pasteria","lat":37.97832911911956,"lng":23.73614187652223,"url":"https://maps.app.goo.gl/4tmrg1wVrWp5rgjx6?g_st=ipc","address":"Βαλαωρίτου 15, Αθήνα 106 71","categoryIds":["italian"],"categories":["Italian Restaurants"]}],"nearby":[{"id":"asianRestaurants_50c893ba0bac","slug":"ikura-sushi-korean-food-50c8","kind":"restaurant","name":"IKURA Sushi - Korean food","lat":37.97430159758245,"lng":23.73415791767136,"url":"https://maps.app.goo.gl/rG3Ram1UiVYEUuFt9?g_st=ipc","address":"Φιλελλήνων 7, Αθήνα 105 57","categoryIds":["asian"],"categories":["Asian Restaurants"],"distanceKm":0.00439733724888485},{"id":"cheapEatsRestaurants_a8812958586b","slug":"soyvlaki-o-kostas-1950-syntagma-a881","kind":"restaurant","name":"Σουβλάκι Ο Κώστας 1950 συνταγμα","lat":37.97431166724141,"lng":23.734074792444165,"url":"https://maps.app.goo.gl/FGrKA3NWxxuCNCKSA?g_st=ipc","address":"Φιλελλήνων 7, Αθήνα 105 57","categoryIds":["cheap-eats"],"categories":["Gyros & Cheap Eats"],"distanceKm":0.010476355118102295},{"id":"asianRestaurants_43504a2d050f","slug":"shiraki-athens-4350","kind":"restaurant","name":"Shiraki Athens","lat":37.97450335727445,"lng":23.733167658895514,"url":"https://maps.app.goo.gl/WStEy7p33ZAzDLCY7?g_st=ipc","address":"Νίκης 17, Αθήνα 105 57","categoryIds":["asian"],"categories":["Asian Restaurants"],"distanceKm":0.09251497631624754},{"id":"asianRestaurants_8d5a854c9f57","slug":"koi-sushi-bar-8d5a","kind":"restaurant","name":"Koi Sushi Bar","lat":37.9746059285853,"lng":23.73317074110448,"url":"https://maps.app.goo.gl/cap6URyugQKPXeA47?g_st=ipc","address":"Νίκης 15, Αθήνα 105 57","categoryIds":["asian"],"categories":["Asian Restaurants"],"distanceKm":0.09614502806720256},{"id":"coffeeBrunchRestaurants_72ee5296056d","slug":"holy-llama-72ee","kind":"restaurant","name":"Holy Llama","lat":37.97397500358649,"lng":23.73312528899751,"url":"https://maps.app.goo.gl/5KzgeBBfEf77x8sL7?g_st=ipc","address":"Nikis, Syntagma 23, Αθήνα 105 57","categoryIds":["coffee-brunch"],"categories":["Coffee & Brunch Spots"],"distanceKm":0.09787209990469391},{"id":"vegetarianRestaurants_4c1ab480871b","slug":"holy-llama-4c1a","kind":"restaurant","name":"Holy Llama","lat":37.97396404211014,"lng":23.73311973333826,"url":"https://maps.app.goo.gl/YFcMYw6afMUaqBMC9?g_st=ipc","address":"Nikis, Syntagma 23, Αθήνα 105 57","categoryIds":["vegetarian"],"categories":["Vegetarian Friendly Restaurants"],"distanceKm":0.09873935661962367},{"id":"coffeeBrunchRestaurants_f0eff25de691","slug":"amandine-s-bagels-f0ef","kind":"restaurant","name":"Amandine's Bagels","lat":37.97477039083452,"lng":23.73321799541619,"url":"https://maps.app.goo.gl/spidgemnNTyMgFML7?g_st=ipc","address":"Νίκης 13, Αθήνα 105 57","categoryIds":["coffee-brunch"],"categories":["Coffee & Brunch Spots"],"distanceKm":0.10122527564121593},{"id":"luxuryDiningRestaurants_ea67b94ccce5","slug":"art-lounge-rooftop-ea67","kind":"restaurant","name":"Art Lounge Rooftop","lat":37.97343240978713,"lng":23.73349750420062,"url":"https://maps.app.goo.gl/ou4XFAAMpTQ3uTaeA?g_st=ipc","address":"Ναυάρχου Νικοδήμου 1, Αθήνα 105 57","categoryIds":["luxury-dining"],"categories":["Luxury Dining"],"distanceKm":0.11026002139738776}],"sameRegion":[],"mentionedGuides":[{"slug":"athens-airport-to-city-guide-el","title":"Πώς να Πάτε από το Αεροδρόμιο της Αθήνας στο Κέντρο"},{"slug":"athens-airport-to-city-guide","title":"Getting From Athens Airport to the City Center"},{"slug":"athens-hop-on-hop-off-guide-el","title":"Οδηγός για τα Hop-On-Hop-Off Λεωφορεία της Αθήνας"},{"slug":"athens-hop-on-hop-off-guide","title":"Ultimate Guide to Athens Hop-On-Hop-Off Bus Tours"},{"slug":"athens-layover-6-hours-guide-el","title":"Πώς να Περάσετε 6 Ώρες Αναμονής στο Αεροδρόμιο της Αθήνας"},{"slug":"athens-layover-6-hours-guide","title":"How to Spend a 6 Hour Layover in Athens"},{"slug":"best-greek-souvenirs-athens-el","title":"Τα Καλύτερα Ελληνικά Σουβενίρ στην Αθήνα: Αυθεντικές Μάρκες, Τοπικά Προϊόντα και Πού να τα Βρείτε"},{"slug":"best-greek-souvenirs-athens","title":"Best Greek Souvenirs to Buy in Athens: Authentic Brands, Local Products and Where to Find Them"}]},"__N_SSG":true}