{"pageProps":{"entity":{"id":"italianRestaurants_2fd6901849b7","slug":"cardamomo-2fd6","kind":"restaurant","name":"Cardamomo","lat":37.4446572877169,"lng":25.396868169763824,"url":"https://maps.app.goo.gl/sh5TMZCTCw3tQKQP9?g_st=ipc","address":"Unnamed Road, Ano Mera 846 00","categoryIds":["italian"],"categories":["Italian Restaurants"]},"sameCategory":[{"id":"italianRestaurants_26298b2afd51","slug":"sistina-mykonos-2629","kind":"restaurant","name":"Sistina Mykonos","lat":37.42270720054724,"lng":25.33392940009779,"url":"https://maps.app.goo.gl/jbVQZaFoXT3nCmEQ6?g_st=ipc","address":"Platis Gialos, Mikonos 846 00","categoryIds":["italian"],"categories":["Italian Restaurants"]},{"id":"italianRestaurants_abc3cc5c720d","slug":"d-angelo-abc3","kind":"restaurant","name":"D'Angelo","lat":37.44362332101064,"lng":25.32719398144958,"url":"https://maps.app.goo.gl/AvAZtykcYFB85kTp6?g_st=ipc","address":"Axioti, Mikonos 846 00","categoryIds":["italian"],"categories":["Italian Restaurants"]},{"id":"italianRestaurants_3ea0826fab26","slug":"casa-di-giorgio-mykonos-3ea0","kind":"restaurant","name":"Casa di Giorgio Mykonos","lat":37.44560651190884,"lng":25.326934720051547,"url":"https://maps.app.goo.gl/Cf4S8nv5DHQYNzkR7?g_st=ipc","address":"Mitropoleos 1, Hora 846 00","categoryIds":["italian"],"categories":["Italian Restaurants"]},{"id":"italianRestaurants_519a6524c076","slug":"farina-cucina-italiana-ornos-beach-519a","kind":"restaurant","name":"Farina Cucina Italiana Ornos Beach","lat":37.423083029478946,"lng":25.323628340986495,"url":"https://maps.app.goo.gl/M9VCoMv93LnDJZyTA?g_st=ipc","address":"Beach, Ornos 846 00","categoryIds":["italian"],"categories":["Italian Restaurants"]},{"id":"italianRestaurants_ef50c7962b4c","slug":"napule-tinos-restaurant-ef50","kind":"restaurant","name":"Napule Tinos Restaurant","lat":37.561247297622636,"lng":25.19153362351099,"url":"https://maps.app.goo.gl/KMmm7YcXtzQmk7Zh8?g_st=ipc","address":"Τριαντάρος 842 00","categoryIds":["italian"],"categories":["Italian Restaurants"]},{"id":"italianRestaurants_7d6f32d35713","slug":"dal-professore-naxos-7d6f","kind":"restaurant","name":"Dal Professore Naxos","lat":37.10347764120069,"lng":25.374650593867482,"url":"https://maps.app.goo.gl/GLP6dYmT8CK2v8Rk9?g_st=ipc","address":"Sea front - Naxos town Naxos Town, 843 00","categoryIds":["italian"],"categories":["Italian Restaurants"]},{"id":"italianRestaurants_81fb3a3e7792","slug":"etere-ristorante-spritzeria-81fb","kind":"restaurant","name":"ETERE Ristorante•Spritzeria","lat":37.10293986337665,"lng":25.375171669884853,"url":"https://maps.app.goo.gl/hwE3v2eAEfeWwtVD6?g_st=ipc","address":"Σχοινούσας, Kiprou &, Naxos 843 00","categoryIds":["italian"],"categories":["Italian Restaurants"]},{"id":"italianRestaurants_b7cf983e2771","slug":"casa-giacomo-paros-b7cf","kind":"restaurant","name":"Casa Giacomo Paros","lat":37.12454320720165,"lng":25.238458349168585,"url":"https://maps.app.goo.gl/Ciaf8V2SrHA91Eqw7?g_st=ipc","address":"Little Venice, Naousa 844 01","categoryIds":["italian"],"categories":["Italian Restaurants"]}],"nearby":[{"id":"fishTavernasRestaurants_07e9864c5c78","slug":"tsaf-07e9","kind":"restaurant","name":"Tsaf","lat":37.44718665279816,"lng":25.39108104189754,"url":"https://maps.app.goo.gl/kJps23htN4HRkisa6?g_st=ipc","address":"Πλατεία Ανω μερας, Ano Mera 846 00","categoryIds":["fish-tavernas"],"categories":["Fish Tavernas"],"distanceKm":0.5831924488480201},{"id":"greekRestaurants_38ad3b7a8b6d","slug":"oti-apomeine-38ad","kind":"restaurant","name":"Οτι Απόμεινε","lat":37.44787622617612,"lng":25.39114702118571,"url":"https://maps.app.goo.gl/FKEVGaJFP958nDfq6?g_st=ipc","address":"Άνω Μερά 846 00","categoryIds":["greek-restaurants"],"categories":["Greek Restaurants"],"distanceKm":0.6190347635306985},{"id":"mexicanRestaurants_ef3256c8f86b","slug":"appaloosa-bar-restaurant-ef32","kind":"restaurant","name":"Appaloosa Bar Restaurant","lat":37.45234589794245,"lng":25.38409135881813,"url":"https://maps.app.goo.gl/x9fF3ksZjKbckcRR9?g_st=ipc","address":"Άνω Μερά 846 00","categoryIds":["mexican"],"categories":["Mexican Restaurants"],"distanceKm":1.4153047072626774},{"id":"greekRestaurants_f7c457ab18f6","slug":"rizes-mykonos-folkore-farmstead-f7c4","kind":"restaurant","name":"RIZES Mykonos - Folkore Farmstead","lat":37.45817265669343,"lng":25.40349643556608,"url":"https://maps.app.goo.gl/PJSn3dijenQzfVKcA?g_st=ipc","address":"Maou, Άνω Μερά 846 00","categoryIds":["greek-restaurants"],"categories":["Greek Restaurants"],"distanceKm":1.6127236023318823},{"id":"fishTavernasRestaurants_25699dc17efe","slug":"spilia-mykonos-seaside-restaurant-2569","kind":"restaurant","name":"Spilia Mykonos Seaside Restaurant","lat":37.4346532807744,"lng":25.419253772230018,"url":"https://maps.app.goo.gl/WjiGf9HWCLVQssrK7?g_st=ipc","address":"Καλαφάτη 846 00","categoryIds":["fish-tavernas"],"categories":["Fish Tavernas"],"distanceKm":2.2679308137875203},{"id":"luxuryDiningRestaurants_5ef997af0ffb","slug":"spilia-mykonos-seaside-restaurant-5ef9","kind":"restaurant","name":"Spilia Mykonos Seaside Restaurant","lat":37.43465682282159,"lng":25.419256442099208,"url":"https://maps.app.goo.gl/wBvne3NHDcjfz27V8?g_st=ipc","address":"Καλαφάτη 846 00","categoryIds":["luxury-dining"],"categories":["Luxury Dining"],"distanceKm":2.2679430522246213},{"id":"luxuryDiningRestaurants_68f1019ed7a6","slug":"cabbanes-mykonos-68f1","kind":"restaurant","name":"Cabbanes Mykonos","lat":37.42267215380325,"lng":25.39444539705876,"url":"https://maps.app.goo.gl/dn2BSTCZPyK4NYU26?g_st=ipc","address":"Elia Beach, Mikonos 846 00","categoryIds":["luxury-dining"],"categories":["Luxury Dining"],"distanceKm":2.453977059440008},{"id":"luxuryDiningRestaurants_8d846343f376","slug":"alemagou-8d84","kind":"restaurant","name":"Alemagou","lat":37.4646482904714,"lng":25.380862426799272,"url":"https://maps.app.goo.gl/CFqVN5ZTnDi5b6gYA?g_st=ipc","address":"Greece, Mikonos","categoryIds":["luxury-dining"],"categories":["Luxury Dining"],"distanceKm":2.6338896100689704}],"sameRegion":[],"mentionedGuides":[]},"__N_SSG":true}