{"pageProps":{"entity":{"id":"cheapEatsRestaurants_5338053c1323","slug":"cocoretsi-5338","kind":"restaurant","name":"Cocoretsi","lat":37.984933091622935,"lng":23.73142125517845,"url":"https://maps.app.goo.gl/sz7bawT1imNu9L696?g_st=ipc","address":"Ακαδημίας 95, Αθήνα 106 77","categoryIds":["cheap-eats"],"categories":["Gyros & Cheap Eats"]},"sameCategory":[{"id":"cheapEatsRestaurants_7a147c673f5b","slug":"soyvlaki-i-leivadia-7a14","kind":"restaurant","name":"Σουβλάκι Η Λειβαδιά","lat":37.984552486382015,"lng":23.7305119942548,"url":"https://maps.app.goo.gl/DMoZEUMYCkZLa2k59?g_st=ipc","address":"Κάνιγγος 2-4, Αθήνα 106 77","categoryIds":["cheap-eats"],"categories":["Gyros & Cheap Eats"]},{"id":"cheapEatsRestaurants_cab7e72e3b11","slug":"psitopoleion-giorgos-manos-cab7","kind":"restaurant","name":"Ψητοπωλείον Γιώργος - Μάνος","lat":37.9855993281782,"lng":23.733208439532696,"url":"https://maps.app.goo.gl/jYKrRJuSFDD632N47?g_st=ipc","address":"Θεμιστοκλέους 39, Αθήνα 106 77","categoryIds":["cheap-eats"],"categories":["Gyros & Cheap Eats"]},{"id":"cheapEatsRestaurants_0f0ae09c0d4e","slug":"guerilla-chef-burgers-0f0a","kind":"restaurant","name":"Guerilla Chef Burgers","lat":37.98671993993366,"lng":23.731787435580728,"url":"https://maps.app.goo.gl/K2QVLnm9vHS1E3cF9?g_st=ipc","address":"37.98671993993366, 23.731787435580728","categoryIds":["cheap-eats"],"categories":["Gyros & Cheap Eats"]},{"id":"cheapEatsRestaurants_724c8ca91031","slug":"mangal-724c","kind":"restaurant","name":"Mangal","lat":37.98648075392058,"lng":23.733903117356245,"url":"https://maps.app.goo.gl/fZ3o2N67Ya2WA1aQA?g_st=ipc","address":"Σολωμού 12, Αθήνα 106 83","categoryIds":["cheap-eats"],"categories":["Gyros & Cheap Eats"]},{"id":"cheapEatsRestaurants_6b9bfc66a8e4","slug":"lacantina-streetfood-6b9b","kind":"restaurant","name":"Lacantina streetfood","lat":37.98418112510836,"lng":23.734735469259256,"url":"https://maps.app.goo.gl/in5jozRVDDW97jJc8?g_st=ipc","address":"Ζωοδόχου Πηγής 24, Αθήνα 106 81","categoryIds":["cheap-eats"],"categories":["Gyros & Cheap Eats"]},{"id":"cheapEatsRestaurants_f678b7a854d0","slug":"prigkipas-f678","kind":"restaurant","name":"Πρiγκιπας","lat":37.98367685276512,"lng":23.73451397788728,"url":"https://maps.app.goo.gl/v9CtcwcCChGuLbxQ7?g_st=ipc","address":"Χαρ. Τρικούπη 23, Αθήνα 106 81","categoryIds":["cheap-eats"],"categories":["Gyros & Cheap Eats"]},{"id":"cheapEatsRestaurants_cda079c65f38","slug":"lorda-cda0","kind":"restaurant","name":"Λόρδα","lat":37.986574816164286,"lng":23.734456878858524,"url":"https://maps.app.goo.gl/nBaQ33jw6JEZQp7X9?g_st=ipc","address":"Σπύρου Τρικούπη 3, Αθήνα 106 83","categoryIds":["cheap-eats"],"categories":["Gyros & Cheap Eats"]},{"id":"cheapEatsRestaurants_bbf053953e0b","slug":"leyteris-o-politis-ap-to-1951-bbf0","kind":"restaurant","name":"Λευτέρης ο Πολίτης (Απ'το 1951)","lat":37.98519549438972,"lng":23.72733221380902,"url":"https://maps.app.goo.gl/ChqL23bz9HeKVK9L8?g_st=ipc","address":"Σατωβριάνδου 20, Αθήνα 104 32","categoryIds":["cheap-eats"],"categories":["Gyros & Cheap Eats"]}],"nearby":[{"id":"vegetarianRestaurants_90f93033da7a","slug":"up-kyttariki-threpsi-90f9","kind":"restaurant","name":"UP - Κυτταρική Θρέψη","lat":37.984784636631375,"lng":23.731547822244607,"url":"https://maps.app.goo.gl/GaPAS9YHhNwunuDSA?g_st=ipc","address":"Ακαδημίας 91 &, Themistokleous, Athina 106 77","categoryIds":["vegetarian"],"categories":["Vegetarian Friendly Restaurants"],"distanceKm":0.01988813919382273},{"id":"greekRestaurants_56884a3a4523","slug":"i-kriti-pl-kaniggos-5688","kind":"restaurant","name":"Η Κρήτη, πλ. Κανιγγος","lat":37.985209028957776,"lng":23.730887169410018,"url":"https://maps.app.goo.gl/QasSnVbzBbfxtArw5","address":"Βερανζέρου 5, Αθήνα 106 77","categoryIds":["greek-restaurants"],"categories":["Greek Restaurants"],"distanceKm":0.05596774909477106},{"id":"fishTavernasRestaurants_94c27f69eb82","slug":"trata-94c2","kind":"restaurant","name":"ΤΡΑΤΑ","lat":37.9842462216536,"lng":23.73093735061636,"url":"https://maps.app.goo.gl/hterjoYbDhkZzWVF7?g_st=ipc","address":"Νικηταρά, Αθήνα 106 78","categoryIds":["fish-tavernas"],"categories":["Fish Tavernas"],"distanceKm":0.0873611436590686},{"id":"cheapEatsRestaurants_7a147c673f5b","slug":"soyvlaki-i-leivadia-7a14","kind":"restaurant","name":"Σουβλάκι Η Λειβαδιά","lat":37.984552486382015,"lng":23.7305119942548,"url":"https://maps.app.goo.gl/DMoZEUMYCkZLa2k59?g_st=ipc","address":"Κάνιγγος 2-4, Αθήνα 106 77","categoryIds":["cheap-eats"],"categories":["Gyros & Cheap Eats"],"distanceKm":0.09022951256067785},{"id":"fishTavernasRestaurants_9e5577c171da","slug":"i-stoa-allios-9e55","kind":"restaurant","name":"Η Στοά Αλλιώς","lat":37.984455169051934,"lng":23.73057480489291,"url":"https://maps.app.goo.gl/SAabW9ijLcFRSozJ6?g_st=ipc","address":"Γαμβέτα 14, Αθήνα 106 77","categoryIds":["fish-tavernas"],"categories":["Fish Tavernas"],"distanceKm":0.09125443169834958},{"id":"fishTavernasRestaurants_f3208ead9a15","slug":"oyzeri-i-lesvos-f320","kind":"restaurant","name":"Ουζερί Η Λέσβος","lat":37.98449752332163,"lng":23.73299796536249,"url":"https://maps.app.goo.gl/zGLD1EQEqkqawMvG7?g_st=ipc","address":"Εμμανουήλ Μπενάκη 38, Αθήνα 106 78","categoryIds":["fish-tavernas"],"categories":["Fish Tavernas"],"distanceKm":0.14642651154082165},{"id":"coffeeBrunchRestaurants_ea5204c1a6d8","slug":"boken-athens-ea52","kind":"restaurant","name":"Boken Athens","lat":37.98455750232933,"lng":23.733083600431524,"url":"https://maps.app.goo.gl/L42dwqLWL7TpGc5a8?g_st=ipc","address":"Εμμανουήλ Μπενάκη 40, Αθήνα 106 78","categoryIds":["coffee-brunch"],"categories":["Coffee & Brunch Spots"],"distanceKm":0.15155748203186378},{"id":"coffeeBrunchRestaurants_728ff1b5d2a5","slug":"motiv-728f","kind":"restaurant","name":"MOTIV","lat":37.98356771821389,"lng":23.731211011656264,"url":"https://maps.app.goo.gl/cfAQd1ZN4MrBL9T99?g_st=ipc","address":"Εμμανουήλ Μπενάκη 20, Αθήνα 106 78","categoryIds":["coffee-brunch"],"categories":["Coffee & Brunch Spots"],"distanceKm":0.15293665730600547}],"sameRegion":[],"mentionedGuides":[]},"__N_SSG":true}