{"pageProps":{"entity":{"id":"wineriesVineyards_9cc28a86a508","slug":"diamantakis-winery-9cc2","kind":"restaurant","name":"Diamantakis Winery","lat":35.2119508828581,"lng":24.992812450943003,"url":"https://maps.app.goo.gl/bkHHKGBiuNPqDqhr9?g_st=ipc","address":"Kato Asites 700 13","categoryIds":["wineries-vineyards"],"categories":["Wineries & Vineyards"]},"sameCategory":[{"id":"wineriesVineyards_e898beacf16d","slug":"silva-daskalaki-winery-biodynamic-farming-e898","kind":"restaurant","name":"Silva Daskalaki Winery \"Biodynamic Farming\"","lat":35.208912270144424,"lng":25.03603983983806,"url":"https://maps.app.goo.gl/gpuUdyMFAFSDGWhB9?g_st=ipc","address":"Σίβα Ηρακλείου Κρήτης, Siva 700 11","categoryIds":["wineries-vineyards"],"categories":["Wineries & Vineyards"]},{"id":"wineriesVineyards_ed7776ab576e","slug":"douloufakis-winery-ed77","kind":"restaurant","name":"Douloufakis Winery","lat":35.21501780162754,"lng":25.04946643361547,"url":"https://maps.app.goo.gl/zMTfnAQij9XWewT4A?g_st=ipc","address":"Dafnes 700 11","categoryIds":["wineries-vineyards"],"categories":["Wineries & Vineyards"]},{"id":"wineriesVineyards_3fd2d09d6af1","slug":"amargiotakis-winery-3fd2","kind":"restaurant","name":"Amargiotakis Winery","lat":35.22052725096867,"lng":25.053509018560035,"url":"https://maps.app.goo.gl/w8PhqDhLwSHfYsK37?g_st=ipc","address":"Dafnes 700 11","categoryIds":["wineries-vineyards"],"categories":["Wineries & Vineyards"]},{"id":"wineriesVineyards_e1a29dba58c6","slug":"alexakis-s-a-alexakis-winery-e1a2","kind":"restaurant","name":"Alexakis S.A. - Alexakis Winery","lat":35.30223283392354,"lng":25.115833737445403,"url":"https://maps.app.goo.gl/yJ2MV2fN5rdteunH9?g_st=ipc","address":"104-106 Irinis & Filias, Peridi Metohi Heraklion Crete 715 00","categoryIds":["wineries-vineyards"],"categories":["Wineries & Vineyards"]},{"id":"wineriesVineyards_677336f8e41e","slug":"zacharioudakis-winery-6773","kind":"restaurant","name":"Zacharioudakis Winery","lat":35.077704088524044,"lng":24.941456893238932,"url":"https://maps.app.goo.gl/3MnhGaPvjLYbnZLf9?g_st=ipc","address":"Πλούτη 704 00","categoryIds":["wineries-vineyards"],"categories":["Wineries & Vineyards"]},{"id":"wineriesVineyards_b64a808a6747","slug":"titakis-wines-fabrika-wine-experience-b64a","kind":"restaurant","name":"Titakis Wines - Fabrika Wine Experience","lat":35.233323447258094,"lng":25.184146411319137,"url":"https://maps.app.goo.gl/2HrLkExRymtYSkLw8?g_st=ipc","address":"Κουνάβοι 701 00","categoryIds":["wineries-vineyards"],"categories":["Wineries & Vineyards"]},{"id":"wineriesVineyards_e2a27a918d4b","slug":"garakis-winery-e2a2","kind":"restaurant","name":"Garakis Winery","lat":35.23427724214697,"lng":25.19140759248994,"url":"https://maps.app.goo.gl/xe7Pzf6GWRjSnDGJ8?g_st=ipc","address":"Unnamed Road, Epano Archanes 701 00","categoryIds":["wineries-vineyards"],"categories":["Wineries & Vineyards"]},{"id":"wineriesVineyards_65b893a10fe8","slug":"digenakis-winery-65b8","kind":"restaurant","name":"Digenakis Winery","lat":35.20463323509506,"lng":25.193086290366207,"url":"https://maps.app.goo.gl/pUbzJ3zkVU4WZQWt5?g_st=ipc","address":"Epar.Od. Kallonis - Gdochia, Arkalochori 701 00","categoryIds":["wineries-vineyards"],"categories":["Wineries & Vineyards"]}],"nearby":[{"id":"wineriesVineyards_e898beacf16d","slug":"silva-daskalaki-winery-biodynamic-farming-e898","kind":"restaurant","name":"Silva Daskalaki Winery \"Biodynamic Farming\"","lat":35.208912270144424,"lng":25.03603983983806,"url":"https://maps.app.goo.gl/gpuUdyMFAFSDGWhB9?g_st=ipc","address":"Σίβα Ηρακλείου Κρήτης, Siva 700 11","categoryIds":["wineries-vineyards"],"categories":["Wineries & Vineyards"],"distanceKm":3.9417461398450184},{"id":"wineriesVineyards_ed7776ab576e","slug":"douloufakis-winery-ed77","kind":"restaurant","name":"Douloufakis Winery","lat":35.21501780162754,"lng":25.04946643361547,"url":"https://maps.app.goo.gl/zMTfnAQij9XWewT4A?g_st=ipc","address":"Dafnes 700 11","categoryIds":["wineries-vineyards"],"categories":["Wineries & Vineyards"],"distanceKm":5.158145779094971},{"id":"wineriesVineyards_3fd2d09d6af1","slug":"amargiotakis-winery-3fd2","kind":"restaurant","name":"Amargiotakis Winery","lat":35.22052725096867,"lng":25.053509018560035,"url":"https://maps.app.goo.gl/w8PhqDhLwSHfYsK37?g_st=ipc","address":"Dafnes 700 11","categoryIds":["wineries-vineyards"],"categories":["Wineries & Vineyards"],"distanceKm":5.595791185362048},{"id":"greekRestaurants_f24ffdee3a33","slug":"i-taverna-toy-gianni-sto-kyparissi-f24f","kind":"restaurant","name":"Η ταβέρνα του Γιάννη στο Κυπαρίσσι","lat":35.19205483334649,"lng":25.077800899282035,"url":"https://maps.app.goo.gl/VdRwFKm52QBw7CuU8?g_st=ipc","address":"Κυπαρίσσι, Κυπάρισσος 715 00","categoryIds":["greek-restaurants"],"categories":["Greek Restaurants"],"distanceKm":8.032724982122081},{"id":"municipalities_88475eea1332","slug":"anogeia-8847","kind":"municipality","name":"Ανώγεια","lat":35.294,"lng":24.884,"region":"Κεντρική Κρήτη","name_en":"Anogeia","region_en":"Central Crete","distanceKm":13.448478271108048},{"id":"municipalities_1719bd717428","slug":"malevizi-1719","kind":"municipality","name":"Μαλεβίζι","lat":35.333,"lng":25.033,"region":"Κεντρική Κρήτη","name_en":"Malevizi","region_en":"Central Crete","distanceKm":13.945708267595023},{"id":"wineriesVineyards_e1a29dba58c6","slug":"alexakis-s-a-alexakis-winery-e1a2","kind":"restaurant","name":"Alexakis S.A. - Alexakis Winery","lat":35.30223283392354,"lng":25.115833737445403,"url":"https://maps.app.goo.gl/yJ2MV2fN5rdteunH9?g_st=ipc","address":"104-106 Irinis & Filias, Peridi Metohi Heraklion Crete 715 00","categoryIds":["wineries-vineyards"],"categories":["Wineries & Vineyards"],"distanceKm":15.01836929452681},{"id":"municipalities_28f34c2c61ff","slug":"archanes-asteroysia-28f3","kind":"municipality","name":"Αρχάνες - Αστερούσια","lat":35.166,"lng":25.15,"region":"Κεντρική Κρήτη","name_en":"Archanes - Asterousia","region_en":"Central Crete","distanceKm":15.170703027169283}],"sameRegion":[],"mentionedGuides":[]},"__N_SSG":true}