{"pageProps":{"entity":{"id":"coffeeBrunchRestaurants_efaa63d4fa10","slug":"dope-efaa","kind":"restaurant","name":"Dope","lat":37.97832305246442,"lng":23.72690477526337,"url":"https://maps.app.goo.gl/JomysUEbYVtYn2KN6?g_st=ipc","address":"Βύσσης 25, Αθήνα 105 51","categoryIds":["coffee-brunch"],"categories":["Coffee & Brunch Spots"]},"sameCategory":[{"id":"coffeeBrunchRestaurants_1535869ba0db","slug":"bookbar-by-kaktos-1535","kind":"restaurant","name":"BOOKBAR by Kaktos","lat":37.97778372453625,"lng":23.727694162578636,"url":"https://maps.app.goo.gl/nkivf4z4Dxrwg4Su6?g_st=ipc","address":"Αιόλου 39, Αθήνα 105 51","categoryIds":["coffee-brunch"],"categories":["Coffee & Brunch Spots"]},{"id":"coffeeBrunchRestaurants_0ae149633aed","slug":"folk-0ae1","kind":"restaurant","name":"Folk.","lat":37.97880874771429,"lng":23.72797999271096,"url":"https://maps.app.goo.gl/6T8xDeGdNhWe15Wy8?g_st=ipc","address":"Βύσσης 2, Αθήνα 105 51","categoryIds":["coffee-brunch"],"categories":["Coffee & Brunch Spots"]},{"id":"coffeeBrunchRestaurants_8d3de33104cf","slug":"the-brunch-factory-8d3d","kind":"restaurant","name":"The Brunch Factory","lat":37.977341602927304,"lng":23.726205472467996,"url":"https://maps.app.goo.gl/CB8h73sPXUiPQmTu7?g_st=ipc","address":"Αθηνάς 11, Αθήνα 105 54","categoryIds":["coffee-brunch"],"categories":["Coffee & Brunch Spots"]},{"id":"coffeeBrunchRestaurants_42325721148a","slug":"proof-nanobakery-4232","kind":"restaurant","name":"Proof Nanobakery","lat":37.97713063610252,"lng":23.72693618230377,"url":"https://maps.app.goo.gl/5N9VVMFGHUvfL6ec9?g_st=ipc","address":"Αγίας Ειρήνης 8, Αθήνα 105 51","categoryIds":["coffee-brunch"],"categories":["Coffee & Brunch Spots"]},{"id":"coffeeBrunchRestaurants_dda6cb75ebfa","slug":"snob-athens-luxury-rooms-espresso-gastro-bar-dda6","kind":"restaurant","name":"SNOB Athens Luxury Rooms & Espresso Gastro Bar","lat":37.97706349386115,"lng":23.726726410113187,"url":"https://maps.app.goo.gl/Z7rJpaKMWG44Coit8?g_st=ipc","address":"Αγίας Ειρήνης 17, Αθήνα 105 51","categoryIds":["coffee-brunch"],"categories":["Coffee & Brunch Spots"]},{"id":"coffeeBrunchRestaurants_89fa6586b876","slug":"naked-athens-89fa","kind":"restaurant","name":"Naked Athens","lat":37.977383627962844,"lng":23.728247966730684,"url":"https://maps.app.goo.gl/hTG8NPLsUHzhqPFg6?g_st=ipc","address":"Πλ. Αγίας Ειρήνης 2, Αθήνα 105 60","categoryIds":["coffee-brunch"],"categories":["Coffee & Brunch Spots"]},{"id":"coffeeBrunchRestaurants_377e5b2b94af","slug":"hyper-astro-bar-377e","kind":"restaurant","name":"Hyper Astro Bar","lat":37.976752074692875,"lng":23.726360654614314,"url":"https://maps.app.goo.gl/fFtwoCRNKsTccdUb7?g_st=ipc","address":"Ερμού 78, & Αθηνάς 2, Αθήνα 105 51","categoryIds":["coffee-brunch"],"categories":["Coffee & Brunch Spots"]},{"id":"coffeeBrunchRestaurants_10001909d6f1","slug":"attic-urban-rooftop-1000","kind":"restaurant","name":"Attic Urban Rooftop","lat":37.97687145726863,"lng":23.725410732994586,"url":"https://maps.app.goo.gl/9Zyy977FxxHx9dgc9?g_st=ipc","address":"Ερμού 86, Αθήνα 105 54","categoryIds":["coffee-brunch"],"categories":["Coffee & Brunch Spots"]}],"nearby":[{"id":"cheapEatsRestaurants_16ba629709d2","slug":"just-pita-16ba","kind":"restaurant","name":"Just Pita","lat":37.97840949020096,"lng":23.726739666799467,"url":"https://maps.app.goo.gl/hyeDVXAzDsSq1RQz5?g_st=ipc","address":"Αθηνάς 18, Αθήνα 105 51","categoryIds":["cheap-eats"],"categories":["Gyros & Cheap Eats"],"distanceKm":0.017372535353973338},{"id":"dessertsRestaurants_d96257796e81","slug":"kokkion-monastiraki-d962","kind":"restaurant","name":"Kokkion Μοναστηράκι","lat":37.97829626511462,"lng":23.72638522814765,"url":"https://maps.app.goo.gl/FfAWG58apt6AFDPU7?g_st=ipc","address":"Πρωτογένους 2, Αθήνα 105 54","categoryIds":["desserts"],"categories":["Dessert Shops"],"distanceKm":0.04563494508052317},{"id":"burgersRestaurants_e836c8590f61","slug":"one-burger-e836","kind":"restaurant","name":"ONE BURGER","lat":37.97831689957045,"lng":23.72749322677574,"url":"https://maps.app.goo.gl/ntrNb7xRjJ6JvZ9AA?g_st=ic","address":"One Burger, Agathonos 7, Greece 105 51","categoryIds":["burgers"],"categories":["Burger Spots"],"distanceKm":0.05158154499911823},{"id":"burgersRestaurants_d55e3b1fc4f6","slug":"one-burger-d55e","kind":"restaurant","name":"ONE BURGER","lat":37.97831953861062,"lng":23.727493287060057,"url":"https://maps.app.goo.gl/N76y7HGoU6TuZHcW8?g_st=ipc","address":"Αγάθωνος 7, Αθήνα 105 51","categoryIds":["burgers"],"categories":["Burger Spots"],"distanceKm":0.05158377013246391},{"id":"vegetarianRestaurants_e4171a750969","slug":"feyrouz-athens-e417","kind":"restaurant","name":"Feyrouz_Athens","lat":37.97815368375059,"lng":23.72764654408699,"url":"https://maps.app.goo.gl/cceYxANJTPRNHFuB6?g_st=ipc","address":"Καρόρη 23 και, Αγάθωνος 1, Αθήνα 105 51","categoryIds":["vegetarian"],"categories":["Vegetarian Friendly Restaurants"],"distanceKm":0.06768787475663907},{"id":"cheapEatsRestaurants_0155944d18e6","slug":"feyrouz-athens-0155","kind":"restaurant","name":"Feyrouz_Athens","lat":37.97815189918129,"lng":23.727647148068286,"url":"https://maps.app.goo.gl/vF2fcE6pnayp7atp8?g_st=ipc","address":"Καρόρη 23 και, Αγάθωνος 1, Αθήνα 105 51","categoryIds":["cheap-eats"],"categories":["Gyros & Cheap Eats"],"distanceKm":0.06779416254939259},{"id":"cheapEatsRestaurants_24f0cfa0516a","slug":"ringo-kalamaki-pub-24f0","kind":"restaurant","name":"RINGO Kalamaki Pub","lat":37.978249435688795,"lng":23.72590325237898,"url":"https://maps.app.goo.gl/EvDBZN3YG2DfzNcdA?g_st=ipc","address":"Πρωτογένους 8, Αθήνα 105 54","categoryIds":["cheap-eats"],"categories":["Gyros & Cheap Eats"],"distanceKm":0.08816305763568391},{"id":"coffeeBrunchRestaurants_1535869ba0db","slug":"bookbar-by-kaktos-1535","kind":"restaurant","name":"BOOKBAR by Kaktos","lat":37.97778372453625,"lng":23.727694162578636,"url":"https://maps.app.goo.gl/nkivf4z4Dxrwg4Su6?g_st=ipc","address":"Αιόλου 39, Αθήνα 105 51","categoryIds":["coffee-brunch"],"categories":["Coffee & Brunch Spots"],"distanceKm":0.09156191812815638}],"sameRegion":[],"mentionedGuides":[]},"__N_SSG":true}