{"pageProps":{"entity":{"id":"familyFriendly_01303988a2f8","slug":"epayli-polychoros-0130","kind":"restaurant","name":"ΕΠΑΥΛΗ ΠΟΛΥΧΩΡΟΣ","lat":40.75395960844959,"lng":23.38058073371101,"url":"https://maps.app.goo.gl/JZgqDi5s61t76JMo6?g_st=ic","address":"Askos 570 16","categoryIds":["family-friendly"],"categories":["Kid Friendly Locations"]},"sameCategory":[{"id":"familyFriendly_5e59e0204835","slug":"platanorama-5e59","kind":"restaurant","name":"Platanórama","lat":40.58774137724462,"lng":23.252726275052023,"url":"https://maps.app.goo.gl/aNsGddhwQVLYuHvq9?g_st=ipc","address":"8χλμ. Γερακαρου-Ζαγκλιβερι, Zagkliveri 570 12","categoryIds":["family-friendly"],"categories":["Kid Friendly Locations"]},{"id":"familyFriendly_681712a05721","slug":"ichnilatis-oneiron-ktima-klimentini-6817","kind":"restaurant","name":"Ιχνηλάτης Ονείρων - Κτήμα Κλημεντινη","lat":40.67362926471837,"lng":23.088737171472587,"url":"https://maps.app.goo.gl/zejLUTjQA5bbDHBb6?g_st=ipc","address":"EO Thessalonikis Kavalas, Volvi 572 00","categoryIds":["family-friendly"],"categories":["Kid Friendly Locations"]},{"id":"familyFriendly_dda24e69f0c9","slug":"ktima-chaideytos-dda2","kind":"restaurant","name":"Κτήμα Χαϊδευτός","lat":40.70742578041207,"lng":23.04278762334095,"url":"https://maps.app.goo.gl/4acWduunHuC2yzqCA?g_st=ipc","address":"Kavallari 572 00","categoryIds":["family-friendly"],"categories":["Kid Friendly Locations"]},{"id":"familyFriendly_bde356affb96","slug":"pony-park-bde3","kind":"restaurant","name":"Pony park","lat":40.771648089590926,"lng":22.997360084589175,"url":"https://maps.app.goo.gl/g2acMrTmNxKzTfi17?g_st=ic","address":"14χλμ ΠΕΟ, EO Thessalonikis Serron, Oreokastro 572 00","categoryIds":["family-friendly"],"categories":["Kid Friendly Locations"]},{"id":"familyFriendly_b6a37bf1af44","slug":"platanakia-natura-b6a3","kind":"restaurant","name":"Platanakia Natura","lat":40.59354583506236,"lng":23.05309273408505,"url":"https://maps.app.goo.gl/6g3bBu8datKxsCYq7?g_st=ipc","address":"St Paraskevopoulou, Panorama 552 36","categoryIds":["family-friendly"],"categories":["Kid Friendly Locations"]},{"id":"familyFriendly_fddc2b47a16c","slug":"family-sports-club-fddc","kind":"restaurant","name":"Family Sports Club","lat":40.655661119206584,"lng":22.9951268038431,"url":"https://maps.app.goo.gl/P3RfiqzgWLJwu2HN6?g_st=ipc","address":"Tositsa 18, Thessaloniki 570 10","categoryIds":["family-friendly"],"categories":["Kid Friendly Locations"]},{"id":"familyFriendly_4e467d7db3ce","slug":"perivallontiko-parko-dervenioy-4e46","kind":"restaurant","name":"Περιβαλλοντικό Πάρκο Δερβενίου","lat":40.7144477049586,"lng":22.966013369993284,"url":"https://maps.app.goo.gl/12YHRaQcoWEy1dcC6?g_st=ipc","address":"Mygdonia 545 00","categoryIds":["family-friendly"],"categories":["Kid Friendly Locations"]},{"id":"familyFriendly_e11e3c30b5f9","slug":"trees-trees-e11e","kind":"restaurant","name":"Trees Trees","lat":40.60274841786202,"lng":23.00941473830645,"url":"https://maps.app.goo.gl/NStAQS6bJYjXPSMi8?g_st=ipc","address":"Ανατολής, Elaionon και, Pilea 555 35","categoryIds":["family-friendly"],"categories":["Kid Friendly Locations"]}],"nearby":[{"id":"municipalities_18794d3463a2","slug":"volvi-1879","kind":"municipality","name":"Βόλβη","lat":40.717,"lng":23.45,"region":"Ανατολική Θεσσαλονίκη","name_en":"Volvi","region_en":"East Thessaloniki","distanceKm":7.1484472590506885},{"id":"greekRestaurants_ae6b9f3cdd77","slug":"taverna-ta-exochika-ae6b","kind":"restaurant","name":"Ταβέρνα «Τα Εξοχικά»","lat":40.81542149937407,"lng":23.349363819390646,"url":"https://maps.app.goo.gl/MR7CAP2fhLx332ST8?g_st=ipc","address":"Char. Trikoupi 54, Sochos 570 02","categoryIds":["greek-restaurants"],"categories":["Greek Restaurants"],"distanceKm":7.322207409804729},{"id":"greekRestaurants_af725842a012","slug":"taverna-archontiko-af72","kind":"restaurant","name":"Ταβέρνα Αρχοντικό","lat":40.818007816524684,"lng":23.354663476501784,"url":"https://maps.app.goo.gl/q4X4vNVZnrQYZiyw9?g_st=ipc","address":"Σοχός, 570 02","categoryIds":["greek-restaurants"],"categories":["Greek Restaurants"],"distanceKm":7.448607588393165},{"id":"greekRestaurants_17cef827b899","slug":"taverna-to-dasaki-17ce","kind":"restaurant","name":"Ταβερνα «Το Δασάκι»","lat":40.80638459339834,"lng":23.15458647220637,"url":"https://maps.app.goo.gl/cAQYorK6aGGwHnMc7?g_st=ipc","address":"Πέντε Βρύσες 572 00","categoryIds":["greek-restaurants"],"categories":["Greek Restaurants"],"distanceKm":19.901413858169214},{"id":"greekRestaurants_94eb03121644","slug":"taverna-samlis-94eb","kind":"restaurant","name":"Ταβέρνα Σαμλής","lat":40.756202298461545,"lng":23.127784841351406,"url":"https://maps.app.goo.gl/cevX5dogkFtBYM156?g_st=ipc","address":"Μαρκ. Μπότσαρη 4, Kolchiko 572 00","categoryIds":["greek-restaurants"],"categories":["Greek Restaurants"],"distanceKm":21.294689993031053},{"id":"familyFriendly_5e59e0204835","slug":"platanorama-5e59","kind":"restaurant","name":"Platanórama","lat":40.58774137724462,"lng":23.252726275052023,"url":"https://maps.app.goo.gl/aNsGddhwQVLYuHvq9?g_st=ipc","address":"8χλμ. Γερακαρου-Ζαγκλιβερι, Zagkliveri 570 12","categoryIds":["family-friendly"],"categories":["Kid Friendly Locations"],"distanceKm":21.39810234190535},{"id":"familyFriendly_681712a05721","slug":"ichnilatis-oneiron-ktima-klimentini-6817","kind":"restaurant","name":"Ιχνηλάτης Ονείρων - Κτήμα Κλημεντινη","lat":40.67362926471837,"lng":23.088737171472587,"url":"https://maps.app.goo.gl/zejLUTjQA5bbDHBb6?g_st=ipc","address":"EO Thessalonikis Kavalas, Volvi 572 00","categoryIds":["family-friendly"],"categories":["Kid Friendly Locations"],"distanceKm":26.16913275834116},{"id":"municipalities_e6545e4b650e","slug":"lagkadas-e654","kind":"municipality","name":"Λαγκαδάς","lat":40.75,"lng":23.0667,"region":"Περιαστική Ζώνη","name_en":"Lagadás","region_en":"Suburban Zone","distanceKm":26.44335589578991}],"sameRegion":[],"mentionedGuides":[]},"__N_SSG":true}