{"pageProps":{"entity":{"id":"municipalities_6af6e7b2b379","slug":"eretria-6af6","kind":"municipality","name":"Ερέτρια","lat":38.39,"lng":23.8,"region":"Στερεά Ελλάδα","name_en":"Eretria","region_en":"Central Greece"},"sameCategory":[],"nearby":[{"id":"fishTavernasRestaurants_63c1df7c960e","slug":"remetzo-63c1","kind":"restaurant","name":"Ρεμέτζο","lat":38.39112282038602,"lng":23.797236892149673,"url":"https://maps.app.goo.gl/oqv397oz79KFz6w69?g_st=ipc","address":"Λεωφ. Αρχαίου Θεάτρου 42, Ερέτρια 340 08","categoryIds":["fish-tavernas"],"categories":["Fish Tavernas"],"distanceKm":0.27125717268922894},{"id":"wineriesVineyards_387acae649dd","slug":"lykos-winery-387a","kind":"restaurant","name":"Lykos Winery","lat":38.40318852137616,"lng":23.75129901619749,"url":"https://maps.app.goo.gl/N8pQEWcDemQKLK6N6?g_st=ipc","address":"ΜΑΛΑΚΩΝΤΑΣ 0, Eretria 340 08","categoryIds":["wineries-vineyards"],"categories":["Wineries & Vineyards"],"distanceKm":4.490357462833494},{"id":"fishTavernasRestaurants_89f946397ea9","slug":"to-limanaki-tis-amarynthoy-89f9","kind":"restaurant","name":"Το Λιμανάκι Της Αμαρύνθου","lat":38.391630088057546,"lng":23.87976016192821,"url":"https://maps.app.goo.gl/123Yma2QRjswTuuD9?g_st=ipc","address":"Μιαούλη, Αμάρυνθος 340 06","categoryIds":["fish-tavernas"],"categories":["Fish Tavernas"],"distanceKm":6.953764328752774},{"id":"fishTavernasRestaurants_21394a13a305","slug":"gorgona-di-stefano-amarythos-oyzeri-psarotaverna-2139","kind":"restaurant","name":"Gorgona Di Stefano Amarythos Oυζερι Psarotaverna","lat":38.391896520308414,"lng":23.883711972578777,"url":"https://maps.app.goo.gl/Q3hYqnNSaAEfk5UH8?g_st=ipc","address":"Κων/νου Καραμανλή 2, Αμάρυνθος 340 06","categoryIds":["fish-tavernas"],"categories":["Fish Tavernas"],"distanceKm":7.2988505905213374},{"id":"municipalities_a230abd1223f","slug":"oropos-a230","kind":"municipality","name":"Ωρωπός","lat":38.3,"lng":23.7833,"region":"Ανατολικά Προάστια","name_en":"Oropos","region_en":"Eastern Suburbs","distanceKm":10.112961790600894},{"id":"greekRestaurants_fb8150b1b5bf","slug":"taverna-o-litsas-fb81","kind":"restaurant","name":"Ταβέρνα Ο Λίτσας","lat":38.2808566827325,"lng":23.792798463384955,"url":"https://maps.app.goo.gl/DPJMb7ZiPi9MTzov7","address":"Λεωφ. Αθηνών Ωρωπού, Μήλεσι Αττικής 190 11","categoryIds":["greek-restaurants"],"categories":["Greek Restaurants"],"distanceKm":12.152426845889565},{"id":"greekRestaurants_ec2a8b2c83d9","slug":"koytoyki-pame-stoy-nikola-ec2a","kind":"restaurant","name":"Κουτουκι Παμε στου Νικολα","lat":38.43629094885433,"lng":23.630485450987354,"url":"https://maps.app.goo.gl/MKQYaTiNZDJ9y8cf9?g_st=ipc","address":"Αγίου Αλεξάνδρου, Χαλκίδα 341 00","categoryIds":["greek-restaurants"],"categories":["Greek Restaurants"],"distanceKm":15.64053323841901},{"id":"fishTavernasRestaurants_4cf95cf3a3a2","slug":"to-koytoyki-toy-perikli-4cf9","kind":"restaurant","name":"Το κουτούκι του Περικλή","lat":38.43468667088763,"lng":23.62151189556845,"url":"https://maps.app.goo.gl/nQGXrzboUPgm58NX9?g_st=ipc","address":"Νέα Λάμψακος 341 00","categoryIds":["fish-tavernas"],"categories":["Fish Tavernas"],"distanceKm":16.325827736040818}],"sameRegion":[{"id":"municipalities_1d4b51456d77","slug":"karpenisi-1d4b","kind":"municipality","name":"Καρπενήσι","lat":38.9167,"lng":21.7833,"region":"Στερεά Ελλάδα","name_en":"Karpenisi","region_en":"Central Greece"},{"id":"municipalities_2a5550d7f6f9","slug":"kamena-voyrla-2a55","kind":"municipality","name":"Καμένα Βούρλα","lat":38.7833,"lng":22.7833,"region":"Στερεά Ελλάδα","name_en":"Kamena Vourla","region_en":"Central Greece"},{"id":"municipalities_30068cb262bd","slug":"istiaia-3006","kind":"municipality","name":"Ιστιαία","lat":38.95,"lng":23.15,"aliases":["Ιστιαίων"],"region":"Στερεά Ελλάδα","name_en":"Istiaia","region_en":"Central Greece"},{"id":"municipalities_658c27b3c4d6","slug":"galaxeidi-658c","kind":"municipality","name":"Γαλαξείδι","lat":38.3769,"lng":22.3889,"aliases":["Γαλαξειδι","Galaxeidi"],"region":"Στερεά Ελλάδα","name_en":"Galaxidi","region_en":"Central Greece"},{"id":"municipalities_a3f2108a0447","slug":"livadeia-a3f2","kind":"municipality","name":"Λιβαδειά","lat":38.435,"lng":22.875,"aliases":["Livadia"],"region":"Στερεά Ελλάδα","name_en":"Livadeia","region_en":"Central Greece"},{"id":"municipalities_a7ebe9625d32","slug":"aliartos-a7eb","kind":"municipality","name":"Αλίαρτος","lat":38.3833,"lng":23.1,"region":"Στερεά Ελλάδα","name_en":"Aliartos","region_en":"Central Greece"},{"id":"municipalities_b881ef8f885c","slug":"atalanti-b881","kind":"municipality","name":"Αταλάντη","lat":38.65,"lng":23.0833,"region":"Στερεά Ελλάδα","name_en":"Atalanti","region_en":"Central Greece"},{"id":"municipalities_c0997f05bd92","slug":"lamia-c099","kind":"municipality","name":"Λαμία","lat":38.9,"lng":22.4333,"region":"Στερεά Ελλάδα","name_en":"Lamia","region_en":"Central Greece"}],"mentionedGuides":[]},"__N_SSG":true}