{"pageProps":{"entity":{"id":"fishTavernasRestaurants_8e7680f38e05","slug":"esperos-ichthys-psarotaverna-8e76","kind":"restaurant","name":"Έσπερος ΙΧΘΥΣ Ψαροταβέρνα","lat":38.13318899935724,"lng":22.423103842089304,"url":"https://maps.app.goo.gl/vF6q9SxKr2jVHXpy7?g_st=ipc","address":"Derveni 200 09","categoryIds":["fish-tavernas"],"categories":["Fish Tavernas"]},"sameCategory":[{"id":"fishTavernasRestaurants_bedd9566b385","slug":"thealos-thealos-bedd","kind":"restaurant","name":"Θέαλος - Thealos","lat":37.94991846803997,"lng":22.83722013675207,"url":"https://maps.app.goo.gl/Aaq7XhnhCgZUhsH29?g_st=ipc","address":"Unnamed Rd, Kato Assos 200 06","categoryIds":["fish-tavernas"],"categories":["Fish Tavernas"]},{"id":"fishTavernasRestaurants_1987f39aed70","slug":"petrokaravo-kostas-doschoris-1987","kind":"restaurant","name":"Πετροκάραβο Κώστας Δόσχορης","lat":38.05084603587256,"lng":22.892852891023853,"url":"https://maps.app.goo.gl/mPqqGc7qF5ff2aPP9?g_st=ipc","address":"Κορινθιακός κόλπος Στέρνα, Loutraki Perachora 203 00","categoryIds":["fish-tavernas"],"categories":["Fish Tavernas"]},{"id":"fishTavernasRestaurants_f33d801592a8","slug":"fanis-f33d","kind":"restaurant","name":"Φάνης","lat":37.93929883889628,"lng":22.920388237170222,"url":"https://maps.app.goo.gl/fTiUsZtuT7FzXx5m8?g_st=ipc","address":"Γεωρ. Παπανδρέου 87, Κόρινθος 201 00","categoryIds":["fish-tavernas"],"categories":["Fish Tavernas"]},{"id":"fishTavernasRestaurants_ec6fbfb939ca","slug":"oyzeri-o-giannis-ec6f","kind":"restaurant","name":"Ουζερί ο Γιάννης","lat":37.97847865950633,"lng":22.976754663547947,"url":"https://maps.app.goo.gl/9WDCt3PAuTfMs7ke8?g_st=ipc","address":"Γεωρ. Λέκκα 3, Λουτράκι 203 00","categoryIds":["fish-tavernas"],"categories":["Fish Tavernas"]},{"id":"fishTavernasRestaurants_f1a82ca58a60","slug":"paolo-nikos-restaurant-f1a8","kind":"restaurant","name":"Paolo Nikos Restaurant","lat":37.97387325898538,"lng":22.97577321461108,"url":"https://maps.app.goo.gl/55rvgJM2cg2quvQr9?g_st=ipc","address":"Ποσειδώνος, Λουτράκι 203 00","categoryIds":["fish-tavernas"],"categories":["Fish Tavernas"]},{"id":"fishTavernasRestaurants_280f68f1857d","slug":"kavos-280f","kind":"restaurant","name":"Κάβος","lat":37.9019948722367,"lng":23.01292994879006,"url":"https://maps.app.goo.gl/PptKq3WRsYvpTsqu5?g_st=ipc","address":"Ίσθμια 201 00","categoryIds":["fish-tavernas"],"categories":["Fish Tavernas"]},{"id":"fishTavernasRestaurants_08b5ab011888","slug":"almyriki-08b5","kind":"restaurant","name":"ΑΛΜΥΡΙΚΙ","lat":37.852743518617515,"lng":23.00215185401227,"url":"https://maps.app.goo.gl/hdAPtt1dSNxNigaPA?g_st=ipc","address":"R2X3+G5, Epar.Od. Moni Taxiarchon - Kato Almiri, Kato Almiri 201 00","categoryIds":["fish-tavernas"],"categories":["Fish Tavernas"]},{"id":"fishTavernasRestaurants_701e88cdc0f1","slug":"moyrtas-psarotaverna-701e","kind":"restaurant","name":"Μουρτάς Ψαροταβέρνα","lat":38.19791064176577,"lng":21.696505177930376,"url":"https://maps.app.goo.gl/SyckXnzEqa1w9FPR9?g_st=ipc","address":"Palea EO Patras Pyrgou 35-45, Paralia 265 00","categoryIds":["fish-tavernas"],"categories":["Fish Tavernas"]}],"nearby":[{"id":"familyFriendly_32cb5d544c31","slug":"area-synest-32cb","kind":"restaurant","name":"Area Synest","lat":38.06576851291907,"lng":22.340295581454182,"url":"https://maps.app.goo.gl/o23ir2rREaRUFiwK9?g_st=ipc","address":"Epar.Od. Agorianis-Koronias, Sinevro 250 10","categoryIds":["family-friendly"],"categories":["Kid Friendly Locations"],"distanceKm":10.426279138243912},{"id":"greekRestaurants_3eb1dd9f3c34","slug":"taverna-aggeliki-3eb1","kind":"restaurant","name":"Ταβέρνα Αγγελική","lat":38.06658415392425,"lng":22.338919570518915,"url":"https://maps.app.goo.gl/WLaC7Mj54zxdUu1s6?g_st=ipc","address":"Σινεβρό 250 10","categoryIds":["greek-restaurants"],"categories":["Greek Restaurants"],"distanceKm":10.445788623781722},{"id":"familyFriendly_81af9329fc37","slug":"kentro-eleytheris-ippasias-81af","kind":"restaurant","name":"Κεντρο Ελεύθερης Ιππασίας","lat":38.01371091852879,"lng":22.49660964449245,"url":"https://maps.app.goo.gl/Jk42DbsK7YsoCuVL6?g_st=ipc","address":"Epar.Od. Xilokastrou - Trikalon - Mannas, Ξυλόκαστρο 204 00","categoryIds":["family-friendly"],"categories":["Kid Friendly Locations"],"distanceKm":14.761477791845323},{"id":"greekRestaurants_6e1edbbc32a8","slug":"pinakoti-taverna-karagiorgas-giorgos-trikala-6e1e","kind":"restaurant","name":"ΠΙΝΑΚΩΤΗ - ΤΑΒΕΡΝΑ - ΚΑΡΑΓΙΩΡΓΑΣ ΓΙΩΡΓΟΣ - ΤΡΙΚΑΛΑ","lat":38.004187278321304,"lng":22.477741138877853,"url":"https://maps.app.goo.gl/8P84uhf2Yr8DKThH6?g_st=ipc","address":"Μεσαία Τρίκαλα Κορινθίας, Τρίκαλα Κορινθίας 204 00","categoryIds":["greek-restaurants"],"categories":["Greek Restaurants"],"distanceKm":15.120744736177846},{"id":"greekRestaurants_835a2fadf39b","slug":"oti-kalo-trikala-korinthias-835a","kind":"restaurant","name":"Ότι Καλό Τρίκαλα Κορινθίας","lat":38.00119259116245,"lng":22.476512941008874,"url":"https://maps.app.goo.gl/aMf3djkW1SnkD1iHA?g_st=ipc","address":"Μεσαία Συνοικία, Άνω Τρίκαλα 204 00","categoryIds":["greek-restaurants"],"categories":["Greek Restaurants"],"distanceKm":15.404055022556008},{"id":"greekRestaurants_0ed04ce88e4f","slug":"opos-palia-0ed0","kind":"restaurant","name":"Όπως Παλιά","lat":37.99779308645516,"lng":22.469905216572432,"url":"https://maps.app.goo.gl/2NRqYruuAnhXjJdA6?g_st=ipc","address":"Μέση Συνοικία Τρικάλων 204 00","categoryIds":["greek-restaurants"],"categories":["Greek Restaurants"],"distanceKm":15.60289287479443},{"id":"greekRestaurants_65157136702c","slug":"psitosynantisi-6515","kind":"restaurant","name":"ΨΗΤΟσυνάντηση","lat":37.99548753109514,"lng":22.468480126219713,"url":"https://maps.app.goo.gl/5CaRxHJhbSNeKFiP7?g_st=ipc","address":"Επαρ.Οδ. Ξυλόκαστρου - Τρικάλων - Μάννας, Μέση Συνοικία Τρικάλων 204 00","categoryIds":["greek-restaurants"],"categories":["Greek Restaurants"],"distanceKm":15.818630906803369},{"id":"greekRestaurants_eebc58d0b57c","slug":"to-chani-toy-chania-eebc","kind":"restaurant","name":"Το Χάνι του Χανιά","lat":37.989969507417065,"lng":22.466125395415034,"url":"https://maps.app.goo.gl/dDmXsZAdKbWgFjjT6?g_st=ipc","address":"Άνω Τρίκαλα, 204 00","categoryIds":["greek-restaurants"],"categories":["Greek Restaurants"],"distanceKm":16.364629013842983}],"sameRegion":[],"mentionedGuides":[]},"__N_SSG":true}