{"pageProps":{"entity":{"id":"greekRestaurants_977106c0152b","slug":"familokal-fagadiko-9771","kind":"restaurant","name":"Φαμιλόκαλ Φαγάδικο","lat":38.045110031748486,"lng":23.742897004373283,"url":"https://maps.app.goo.gl/cQhPg66yiWYq8LYP6","address":"Στρατάρχου Αλεξάνδρου Παπάγου 12, Νέα Φιλαδέλφεια Αττικής 143 42","categoryIds":["greek-restaurants"],"categories":["Greek Restaurants"]},"sameCategory":[{"id":"greekRestaurants_32d9fbbeb9ef","slug":"to-karagatsi-32d9","kind":"restaurant","name":"Το Καραγάτσι","lat":38.039818289814335,"lng":23.738940522044075,"url":"https://maps.app.goo.gl/8aQhSfNrT1Z9qqEm7","address":"Αγίου Ιωάννου 1, Νέα Φιλαδέλφεια Αττικής 143 42","categoryIds":["greek-restaurants"],"categories":["Greek Restaurants"]},{"id":"greekRestaurants_dbfa615cdf88","slug":"mparmpalias-soyvlaki-kempap-dbfa","kind":"restaurant","name":"Μπαρμπαλιάς Σουβλάκι Κεμπάπ","lat":38.04986386180613,"lng":23.749800777909947,"url":"https://maps.app.goo.gl/1KoD7wRkjTyAQA5aA","address":"Ελ. Βενιζέλου 146, Νέα Ιωνία 142 31","categoryIds":["greek-restaurants"],"categories":["Greek Restaurants"]},{"id":"greekRestaurants_9c1516b8d16d","slug":"mister-loykidelis-9c15","kind":"restaurant","name":"Μίστερ Λουκιδέλης","lat":38.03885909725717,"lng":23.736070793481,"url":"https://maps.app.goo.gl/CMKSzphqRyS8ewpNA","address":"Γεωρ. Παπανδρέου 81, Νέα Φιλαδέλφεια Αττικής 143 41","categoryIds":["greek-restaurants"],"categories":["Greek Restaurants"]},{"id":"greekRestaurants_65b8685c50a4","slug":"gidi-65b8","kind":"restaurant","name":"Γίδι","lat":38.052246918082005,"lng":23.750952362138648,"url":"https://maps.app.goo.gl/hMR86s9rhghZRxgi8","address":"Τατοΐου 17, Μεταμόρφωση 144 51","categoryIds":["greek-restaurants"],"categories":["Greek Restaurants"]},{"id":"greekRestaurants_f2cb76696412","slug":"melisses-f2cb","kind":"restaurant","name":"Μέλισσες","lat":38.03614200079934,"lng":23.736207405528564,"url":"https://maps.app.goo.gl/Drq2Vavwjh6HDMKf9","address":"Νικ. Τρυρια 39, Νέα Φιλαδέλφεια Αττικής 143 41","categoryIds":["greek-restaurants"],"categories":["Greek Restaurants"]},{"id":"greekRestaurants_4afe4ac40aa7","slug":"piatsa-mezedaki-4afe","kind":"restaurant","name":"Πιάτσα Μεζεδάκι","lat":38.03382490224538,"lng":23.74027260435793,"url":"https://maps.app.goo.gl/NQUdrufxEoMofvYP9","address":"Ιωνίας 35 και, Προύσης 15, Νέα Φιλαδέλφεια Αττικής 143 41","categoryIds":["greek-restaurants"],"categories":["Greek Restaurants"]},{"id":"greekRestaurants_0ed6080d2409","slug":"barbalias-souvlaki-kebab-0ed6","kind":"restaurant","name":"Barbalias Souvlaki Kebab","lat":38.03360892002319,"lng":23.73962850589863,"url":"https://maps.app.goo.gl/Aubws2U5mv9vwN7i7?g_st=ipc","address":"Smyrnis 23, Nea Filadelfia 143 41","categoryIds":["greek-restaurants"],"categories":["Greek Restaurants"]},{"id":"greekRestaurants_ff1c24351a74","slug":"mparmpa-alexis-ff1c","kind":"restaurant","name":"Μπάρμπα Αλέξης","lat":38.03352855482005,"lng":23.731362347180447,"url":"https://maps.app.goo.gl/qgjaSL92MEaYTNnP8","address":"Σαλαμίνος 70, Νέα Χαλκηδόνα 143 43","categoryIds":["greek-restaurants"],"categories":["Greek Restaurants"]}],"nearby":[{"id":"familyFriendly_9c22759cd93a","slug":"alsos-neas-filadelfeias-9c22","kind":"restaurant","name":"Άλσος Νέας Φιλαδέλφειας","lat":38.042763651734646,"lng":23.744714870891837,"url":"https://maps.app.goo.gl/xdffZruJ9uqfJ5wx8?g_st=ipc","address":"Λεωφ. Δεκελείας 152, Αθήνα 143 42","categoryIds":["family-friendly"],"categories":["Kid Friendly Locations"],"distanceKm":0.30563623004177015},{"id":"greekRestaurants_32d9fbbeb9ef","slug":"to-karagatsi-32d9","kind":"restaurant","name":"Το Καραγάτσι","lat":38.039818289814335,"lng":23.738940522044075,"url":"https://maps.app.goo.gl/8aQhSfNrT1Z9qqEm7","address":"Αγίου Ιωάννου 1, Νέα Φιλαδέλφεια Αττικής 143 42","categoryIds":["greek-restaurants"],"categories":["Greek Restaurants"],"distanceKm":0.6828458856740125},{"id":"dessertsRestaurants_4ba5b007aaee","slug":"san-zachari-4ba5","kind":"restaurant","name":"Σαν Ζάχαρη","lat":38.0467822413905,"lng":23.750604774962436,"url":"https://maps.app.goo.gl/hEf4BAiafjzg3vVT6?g_st=ipc","address":"Ελ. Βενιζέλου 119, Νέα Ιωνία 142 31","categoryIds":["desserts"],"categories":["Dessert Shops"],"distanceKm":0.7000969836041085},{"id":"greekRestaurants_dbfa615cdf88","slug":"mparmpalias-soyvlaki-kempap-dbfa","kind":"restaurant","name":"Μπαρμπαλιάς Σουβλάκι Κεμπάπ","lat":38.04986386180613,"lng":23.749800777909947,"url":"https://maps.app.goo.gl/1KoD7wRkjTyAQA5aA","address":"Ελ. Βενιζέλου 146, Νέα Ιωνία 142 31","categoryIds":["greek-restaurants"],"categories":["Greek Restaurants"],"distanceKm":0.8030464893761879},{"id":"coffeeBrunchRestaurants_e705f1112f3d","slug":"dimitra-goynaridi-e705","kind":"restaurant","name":"Δήμητρα Γουναρίδη","lat":38.04165697380787,"lng":23.75123284178688,"url":"https://maps.app.goo.gl/b5dp6jq3caW91FoHA?g_st=ipc","address":"Ευαγγελικής Σχολής 5, Νέα Ιωνία 142 31","categoryIds":["coffee-brunch"],"categories":["Coffee & Brunch Spots"],"distanceKm":0.8247992345065073},{"id":"coffeeBrunchRestaurants_51893d66518d","slug":"mimosa-neighborhood-bistrot-5189","kind":"restaurant","name":"mimosa neighborhood bistrot","lat":38.03853139699867,"lng":23.737753049309227,"url":"https://maps.app.goo.gl/KBvxE1xtgNdKgvxY8?g_st=ipc","address":"Efesou, Μουδανιών &, Νέα Φιλαδέλφεια Αττικής 143 41","categoryIds":["coffee-brunch"],"categories":["Coffee & Brunch Spots"],"distanceKm":0.8590877751395134},{"id":"dessertsRestaurants_265283fa47ed","slug":"zacharoplasteio-ta-gioylia-2652","kind":"restaurant","name":"Ζαχαροπλαστείο Τα Γιούλια","lat":38.04320708683717,"lng":23.75268041981327,"url":"https://maps.app.goo.gl/yT8dXGYHeqfAeL4K8?g_st=ipc","address":"Μεσολογγίου 24, Νέα Ιωνία 142 31","categoryIds":["desserts"],"categories":["Dessert Shops"],"distanceKm":0.882477434671614},{"id":"greekRestaurants_9c1516b8d16d","slug":"mister-loykidelis-9c15","kind":"restaurant","name":"Μίστερ Λουκιδέλης","lat":38.03885909725717,"lng":23.736070793481,"url":"https://maps.app.goo.gl/CMKSzphqRyS8ewpNA","address":"Γεωρ. Παπανδρέου 81, Νέα Φιλαδέλφεια Αττικής 143 41","categoryIds":["greek-restaurants"],"categories":["Greek Restaurants"],"distanceKm":0.9167754250799232}],"sameRegion":[],"mentionedGuides":[]},"__N_SSG":true}