{"pageProps":{"entity":{"id":"municipalities_aea600bb9138","slug":"farsala-aea6","kind":"municipality","name":"Φάρσαλα","lat":39.3,"lng":22.3833,"region":"Θεσσαλία","name_en":"Farsala","region_en":"Thessaly"},"sameCategory":[],"nearby":[{"id":"municipalities_d6cca0ebc16b","slug":"almyros-d6cc","kind":"municipality","name":"Αλμυρός","lat":39.1833,"lng":22.75,"region":"Θεσσαλία","name_en":"Almyros","region_en":"Thessaly","distanceKm":34.141865149465794},{"id":"municipalities_20d3dae1213c","slug":"larisa-20d3","kind":"municipality","name":"Λάρισα","lat":39.64,"lng":22.42,"aliases":["Larissa","Λάρισσα","Λαρισα"],"region":"Θεσσαλία","name_en":"Larissa","region_en":"Thessaly","distanceKm":37.937295555208934},{"id":"italianRestaurants_f83f25bf777f","slug":"nonna-rossa-f83f","kind":"restaurant","name":"Nonna Rossa","lat":39.64111484868426,"lng":22.41428751769153,"url":"https://maps.app.goo.gl/ETYecXBUFzQCRmS47?g_st=ipc","address":"Skilosofou 9, Larisa 412 21","categoryIds":["italian"],"categories":["Italian Restaurants"],"distanceKm":38.023388022827646},{"id":"dessertsRestaurants_edd942eb31a3","slug":"rook-s-pastry-lab-edd9","kind":"restaurant","name":"Rook's Pastry Lab","lat":39.36032541859575,"lng":21.926312209067312,"url":"https://maps.app.goo.gl/Qok4Wd3kZZnJC6xv9?g_st=ipc","address":"Γαμβέτα, Dim. Lappa 12 - 16, Karditsa 431 00","categoryIds":["desserts"],"categories":["Dessert Shops"],"distanceKm":39.873756367391934},{"id":"greekRestaurants_f88fbdc09081","slug":"to-steki-tis-kyra-giotas-f88f","kind":"restaurant","name":"Το Στέκι της κυρά-Γιώτας","lat":39.36534714315086,"lng":21.924680476750858,"url":"https://maps.app.goo.gl/XZUagAaBAvFdAFhr7?g_st=ipc","address":"Ιεζεκιήλ 19, Καρδίτσα 431 00","categoryIds":["greek-restaurants"],"categories":["Greek Restaurants"],"distanceKm":40.108103923598215},{"id":"municipalities_719868db1f0f","slug":"karditsa-7198","kind":"municipality","name":"Καρδίτσα","lat":39.3667,"lng":21.9167,"region":"Θεσσαλία","name_en":"Karditsa","region_en":"Thessaly","distanceKm":40.80999785906266},{"id":"municipalities_c0997f05bd92","slug":"lamia-c099","kind":"municipality","name":"Λαμία","lat":38.9,"lng":22.4333,"region":"Στερεά Ελλάδα","name_en":"Lamia","region_en":"Central Greece","distanceKm":44.68674975593193},{"id":"greekRestaurants_44313e05387d","slug":"taverna-kolotoympas-4431","kind":"restaurant","name":"ΤΑΒΕΡΝΑ ΚΟΛΟΤΟΥΜΠΑΣ","lat":38.948136760370524,"lng":22.12087723534036,"url":"https://maps.app.goo.gl/eFnVpp6dgkxtbvyg8?g_st=ipc","address":"ΤΣΟΥΚΑΛΑ8, Makrakomi 350 11","categoryIds":["greek-restaurants"],"categories":["Greek Restaurants"],"distanceKm":45.2022405487396}],"sameRegion":[{"id":"municipalities_15e687326170","slug":"kastraki-15e6","kind":"municipality","name":"Καστράκι","lat":39.7156,"lng":21.6303,"aliases":["Καστρακι"],"region":"Θεσσαλία","name_en":"Kastraki","region_en":"Thessaly"},{"id":"municipalities_20d3dae1213c","slug":"larisa-20d3","kind":"municipality","name":"Λάρισα","lat":39.64,"lng":22.42,"aliases":["Larissa","Λάρισσα","Λαρισα"],"region":"Θεσσαλία","name_en":"Larissa","region_en":"Thessaly"},{"id":"municipalities_2909a9376e1f","slug":"pilio-2909","kind":"municipality","name":"Πήλιο","lat":39.4167,"lng":23.0833,"aliases":["Πηλιο"],"region":"Θεσσαλία","name_en":"Pelion","region_en":"Thessaly"},{"id":"municipalities_3345708eb61e","slug":"portaria-3345","kind":"municipality","name":"Πορταριά","lat":39.3931,"lng":23.0681,"aliases":["Πορταρια"],"region":"Θεσσαλία","name_en":"Portaria","region_en":"Thessaly"},{"id":"municipalities_3598a91927f2","slug":"makrinitsa-3598","kind":"municipality","name":"Μακρινίτσα","lat":39.3858,"lng":23.0556,"aliases":["Μακρινιτσα","Balcony of Pelion"],"region":"Θεσσαλία","name_en":"Makrinitsa","region_en":"Thessaly"},{"id":"municipalities_50332bb56229","slug":"elassona-5033","kind":"municipality","name":"Ελασσόνα","lat":39.89,"lng":22.19,"region":"Θεσσαλία","name_en":"Elassona","region_en":"Thessaly"},{"id":"municipalities_5a21ee6d3ece","slug":"skopelos-5a21","kind":"municipality","name":"Σκόπελος","lat":39.121,"lng":23.725,"region":"Θεσσαλία","name_en":"Skopelos","region_en":"Thessaly"},{"id":"municipalities_719868db1f0f","slug":"karditsa-7198","kind":"municipality","name":"Καρδίτσα","lat":39.3667,"lng":21.9167,"region":"Θεσσαλία","name_en":"Karditsa","region_en":"Thessaly"}],"mentionedGuides":[]},"__N_SSG":true}