{"pageProps":{"entity":{"id":"dessertsRestaurants_d95b7562195c","slug":"fasolas-gastrokafeneio-d95b","kind":"restaurant","name":"Fasolas Gastrokafeneio","lat":37.05047818826614,"lng":25.497802541590467,"url":"https://maps.app.goo.gl/BMT18eHqusic7eRN8?g_st=ipc","address":"Filoti 843 02","categoryIds":["desserts"],"categories":["Dessert Shops"]},"sameCategory":[{"id":"dessertsRestaurants_cc34d8a19c1a","slug":"caffe-greco-cc34","kind":"restaurant","name":"Caffe Greco","lat":37.0628393807371,"lng":25.48217786098,"url":"https://maps.app.goo.gl/LEeuqgamRoLhRLwm7?g_st=ipc","address":"Χαλκείο 843 02","categoryIds":["desserts"],"categories":["Dessert Shops"]},{"id":"dessertsRestaurants_eb323a6e2ce5","slug":"aktaion-eb32","kind":"restaurant","name":"Aktaíon","lat":37.10978039540428,"lng":25.383810454464182,"url":"https://maps.app.goo.gl/2DJ9CavskAENKDWQ6?g_st=ipc","address":"Naxou, Krinides 843 00","categoryIds":["desserts"],"categories":["Dessert Shops"]},{"id":"dessertsRestaurants_fb9eb4b1bad8","slug":"chou-chouro-fb9e","kind":"restaurant","name":"Chou-Chouro","lat":37.10481340685538,"lng":25.376412266991043,"url":"https://maps.app.goo.gl/Phd5ZDeXAdM1ZXne8?g_st=ipc","address":"Castle Area, Naxos 843 00","categoryIds":["desserts"],"categories":["Dessert Shops"]},{"id":"dessertsRestaurants_394832dca619","slug":"waffle-house-3948","kind":"restaurant","name":"Waffle House","lat":37.10467061317303,"lng":25.375709513413007,"url":"https://maps.app.goo.gl/HYZR2GPUwwpWpFCz6?g_st=ipc","address":"Naxos 843 00","categoryIds":["desserts"],"categories":["Dessert Shops"]},{"id":"dessertsRestaurants_c2d46d4f052a","slug":"aktaion-pastry-ice-cream-downtown-c2d4","kind":"restaurant","name":"Aktaion Pastry & Ice Cream | Downtown","lat":37.105490385586045,"lng":25.375549550238706,"url":"https://maps.app.goo.gl/WWUz17HUPNByCsTf9?g_st=ipc","address":"Π. Πρωτοπαπαδάκη, Naxos 843 00","categoryIds":["desserts"],"categories":["Dessert Shops"]},{"id":"dessertsRestaurants_3d1262fd2666","slug":"fystiki-gelato-3d12","kind":"restaurant","name":"Fystiki Gelato","lat":36.93198529080786,"lng":25.599118541452043,"url":"https://maps.app.goo.gl/SRnK7VZPNJJSVHfq6?g_st=ipc","address":"Κουφονησίων, Koufonisi 843 00","categoryIds":["desserts"],"categories":["Dessert Shops"]},{"id":"dessertsRestaurants_8e6cc5f0cd66","slug":"xilofournos-8e6c","kind":"restaurant","name":"Xilofournos","lat":37.08496749131104,"lng":25.244272132832048,"url":"https://maps.app.goo.gl/rAbxWJidxPCZz1CF9?g_st=ipc","address":"Epar.Od. Naoussas-Marpissas, Paros 844 01","categoryIds":["desserts"],"categories":["Dessert Shops"]},{"id":"dessertsRestaurants_29b6b55e1474","slug":"batistas-bakery-29b6","kind":"restaurant","name":"Batistas Bakery","lat":37.12004600596808,"lng":25.241091128823886,"url":"https://maps.app.goo.gl/WzK8QW7pCKsm8q7M6?g_st=ipc","address":"Naousa 844 01","categoryIds":["desserts"],"categories":["Dessert Shops"]}],"nearby":[{"id":"coffeeBrunchRestaurants_409a1c00e009","slug":"fasolas-gastrokafeneio-409a","kind":"restaurant","name":"Fasolas Gastrokafeneio","lat":37.05047829842748,"lng":25.497802752574465,"url":"https://maps.app.goo.gl/s28qFqLPN9on9SZy8?g_st=ipc","address":"Filoti 843 02","categoryIds":["coffee-brunch"],"categories":["Coffee & Brunch Spots"],"distanceKm":0.00002237473780299782},{"id":"greekRestaurants_1c5a5710b282","slug":"amvrosia-1c5a","kind":"restaurant","name":"Αμβροσία","lat":37.05198027328874,"lng":25.498122685244876,"url":"https://maps.app.goo.gl/hServvR8erYFDEW79?g_st=ipc","address":"Επαρ.Οδ. Δαμαριώνα-Δανακού, Φιλότι 843 02","categoryIds":["greek-restaurants"],"categories":["Greek Restaurants"],"distanceKm":0.1694233638478592},{"id":"coffeeBrunchRestaurants_adc2f257af84","slug":"platanos-cafe-restaurant-adc2","kind":"restaurant","name":"Platanos Cafe Restaurant","lat":37.0520184479865,"lng":25.4980988789785,"url":"https://maps.app.goo.gl/GftgqDRmHM6GREdg9?g_st=ipc","address":"Epar.Od. Naxou-Apiranthou, Filoti 843 02","categoryIds":["coffee-brunch"],"categories":["Coffee & Brunch Spots"],"distanceKm":0.173276345037408},{"id":"fishTavernasRestaurants_11936c86acd1","slug":"antamoma-delicuisine-1193","kind":"restaurant","name":"Antamoma DeliCuisine","lat":37.05815377728116,"lng":25.5110845454022,"url":"https://maps.app.goo.gl/vfCEnss3wGtRVEwf8?g_st=ipc","address":"Ai Giannis, Apirathos 843 00","categoryIds":["fish-tavernas"],"categories":["Fish Tavernas"],"distanceKm":1.4552204295573479},{"id":"greekRestaurants_acfd3167ad8f","slug":"antamoma-naxian-cuisine-mylos-360-cafe-sunset-bar-acfd","kind":"restaurant","name":"Antamoma Naxian Cuisine- Mylos 360 Café Sunset Bar","lat":37.05816092044301,"lng":25.511084670521964,"url":"https://maps.app.goo.gl/VGafeMQpVB4NtiKo8?g_st=ipc","address":"Ai Giannis, Απείραθος 843 00","categoryIds":["greek-restaurants"],"categories":["Greek Restaurants"],"distanceKm":1.455695364041328},{"id":"coffeeBrunchRestaurants_c49fc6ae7fef","slug":"rotonda-cafe-bar-restaurant-in-naxos-c49f","kind":"restaurant","name":"Rotonda - Cafe Bar Restaurant in Naxos","lat":37.05872571074158,"lng":25.510854348333638,"url":"https://maps.app.goo.gl/CVfadsvfxt5JGHVb8?g_st=ipc","address":"ai giannis, Apirathos 843 00","categoryIds":["coffee-brunch"],"categories":["Coffee & Brunch Spots"],"distanceKm":1.4773355047211911},{"id":"coffeeBrunchRestaurants_a1d642828b23","slug":"halki-cafe-bistro-a1d6","kind":"restaurant","name":"Halki Cafe Bistro","lat":37.0642321945567,"lng":25.484940977880758,"url":"https://maps.app.goo.gl/EM1dP9kHW3eWkooMA?g_st=ipc","address":"Epar.Od. Naxou-Apiranthou, Chalkio 843 00","categoryIds":["coffee-brunch"],"categories":["Coffee & Brunch Spots"],"distanceKm":1.9082854523000163},{"id":"italianRestaurants_4f96313e6daa","slug":"mitos-arternative-bar-4f96","kind":"restaurant","name":"Mitos ARTernative BAR","lat":37.06317254380818,"lng":25.48274579484659,"url":"https://maps.app.goo.gl/jstAML7uYBqEdQYq6?g_st=ipc","address":"Χαλκείο 843 02","categoryIds":["italian"],"categories":["Italian Restaurants"],"distanceKm":1.943614624934339}],"sameRegion":[],"mentionedGuides":[]},"__N_SSG":true}