{"pageProps":{"entity":{"id":"dessertsRestaurants_d34c7b1101fe","slug":"gellissimo-biscoto-brunch-coffee-thessaloniki-d34c","kind":"restaurant","name":"Gellissimo Biscoto | Brunch • Coffee | Thessaloniki","lat":40.63140057893351,"lng":22.942411089115478,"url":"https://maps.app.goo.gl/hKBcrUZHdy4zfWBD6?g_st=ipc","address":"Proxenou Koromila 8, Thessaloniki 546 23","categoryIds":["desserts"],"categories":["Dessert Shops"]},"sameCategory":[{"id":"dessertsRestaurants_9a44dfef37c2","slug":"softie-9a44","kind":"restaurant","name":"Softie","lat":40.63175293928538,"lng":22.94216885639287,"url":"https://maps.app.goo.gl/wypmiNMsE5au37Mr7?g_st=ic","address":"Proxenou Koromila 5, Thessaloniki 546 23","categoryIds":["desserts"],"categories":["Dessert Shops"]},{"id":"dessertsRestaurants_a6a41ba19f78","slug":"exereton-a6a4","kind":"restaurant","name":"Exereton","lat":40.63128878529408,"lng":22.94431478557479,"url":"https://maps.app.goo.gl/gScJKVggjQfTPnLP8?g_st=ipc","address":"Mitropoleos 69, Thessaloniki 546 23","categoryIds":["desserts"],"categories":["Dessert Shops"]},{"id":"dessertsRestaurants_fa6b1cda2935","slug":"terkenlis-fa6b","kind":"restaurant","name":"Terkenlis","lat":40.63318101509439,"lng":22.941941930979123,"url":"https://maps.app.goo.gl/x8RmTioRat9tbKBd8?g_st=ipc","address":"Tsimiski 30, Thessaloniki 546 36","categoryIds":["desserts"],"categories":["Dessert Shops"]},{"id":"dessertsRestaurants_79ecf778d058","slug":"trigona-elenidis-kentro-79ec","kind":"restaurant","name":"Trigona Elenidis (Κέντρο)","lat":40.631364775002,"lng":22.945577888917885,"url":"https://maps.app.goo.gl/vemhynL6jAV74wkZA?g_st=ipc","address":"Iktinou 1, Thessaloniki 546 22","categoryIds":["desserts"],"categories":["Dessert Shops"]},{"id":"dessertsRestaurants_d0ca7ccef948","slug":"choureal-choux-profiterole-d0ca","kind":"restaurant","name":"Choureál | Choux & Profiterole","lat":40.63128497514692,"lng":22.94642870495605,"url":"https://maps.app.goo.gl/a3ZWXrDCAGuMcPwA6?g_st=ipc","address":"Paleon Patron Germanou 9, Thessaloniki 546 22","categoryIds":["desserts"],"categories":["Dessert Shops"]},{"id":"dessertsRestaurants_3b2fc988e719","slug":"cookie-man-3b2f","kind":"restaurant","name":"Cookie Man","lat":40.632757475000446,"lng":22.946181479303316,"url":"https://maps.app.goo.gl/WDjY5yJNSF5kSpkeA?g_st=ipc","address":"Makenzi King 8, Thessaloniki 546 22","categoryIds":["desserts"],"categories":["Dessert Shops"]},{"id":"dessertsRestaurants_7c2b277fb20b","slug":"sweet-garden-7c2b","kind":"restaurant","name":"Sweet garden","lat":40.63410476799262,"lng":22.94497199045663,"url":"https://maps.app.goo.gl/bB7Rqx6yTjnB1W5m8?g_st=ipc","address":"Ermou 69, Thessaloniki 546 23","categoryIds":["desserts"],"categories":["Dessert Shops"]},{"id":"dessertsRestaurants_9d2a4d7ae9ae","slug":"hatzifotiou-9d2a","kind":"restaurant","name":"Hatzifotiou","lat":40.632118329149435,"lng":22.94703754885986,"url":"https://maps.app.goo.gl/65SPRQQN5mowAwhw8?g_st=ipc","address":"P. Mela 37, Thessaloniki 546 22","categoryIds":["desserts"],"categories":["Dessert Shops"]}],"nearby":[{"id":"coffeeBrunchRestaurants_7d9521648c08","slug":"gellissimo-biscoto-brunch-coffee-thessaloniki-7d95","kind":"restaurant","name":"Gellissimo Biscoto | Brunch • Coffee | Thessaloniki","lat":40.63140115464137,"lng":22.942410197737622,"url":"https://maps.app.goo.gl/wcnUMwvELMBCafND6?g_st=ipc","address":"Proxenou Koromila 8, Thessaloniki 546 23","categoryIds":["coffee-brunch"],"categories":["Coffee & Brunch Spots"],"distanceKm":0.00009877365935869663},{"id":"cheapEatsRestaurants_c606c6424912","slug":"cong-vietasian-street-food-c606","kind":"restaurant","name":"Cong | Vietasian Street Food","lat":40.63147206727124,"lng":22.942501320363125,"url":"https://maps.app.goo.gl/gyhw2UWMtxWKgMui6?g_st=ipc","address":"Proxenou Koromila 9, Thessaloniki 546 23","categoryIds":["cheap-eats"],"categories":["Gyros & Cheap Eats"],"distanceKm":0.01100761668041887},{"id":"coffeeBrunchRestaurants_5c966e24d1c8","slug":"pantheon-bar-5c96","kind":"restaurant","name":"Pantheon Bar","lat":40.631470349652666,"lng":22.942304739075517,"url":"https://maps.app.goo.gl/9EzJNfobuDEBDMXt9?g_st=ipc","address":"Proxenou Koromila 8, Thessaloniki 546 23","categoryIds":["coffee-brunch"],"categories":["Coffee & Brunch Spots"],"distanceKm":0.011863068822012322},{"id":"italianRestaurants_cb35e3b45188","slug":"margherita-cb35","kind":"restaurant","name":"MARGHERITA","lat":40.631390383048206,"lng":22.94264327325537,"url":"https://maps.app.goo.gl/TiNtp5tDGN6Eji5d9?g_st=ipc","address":"Proxenou Koromila 11, Thessaloniki 546 23","categoryIds":["italian"],"categories":["Italian Restaurants"],"distanceKm":0.019626201233941962},{"id":"coffeeBrunchRestaurants_987872bb6308","slug":"country-breadery-9878","kind":"restaurant","name":"COUNTRY BREADERY","lat":40.63135416254277,"lng":22.942765966640508,"url":"https://maps.app.goo.gl/xymcn1s9hE8P57deA?g_st=ipc","address":"Proxenou Koromila 13, Thessaloniki 546 23","categoryIds":["coffee-brunch"],"categories":["Coffee & Brunch Spots"],"distanceKm":0.030388724596249552},{"id":"coffeeBrunchRestaurants_3b150a298ebf","slug":"tribeca-3b15","kind":"restaurant","name":"Tribeca","lat":40.631124138525365,"lng":22.9420760162127,"url":"https://maps.app.goo.gl/mW7fQGRSkeQqkwf8A?g_st=ipc","address":"Leof. Nikis 21, Thessaloniki 546 23","categoryIds":["coffee-brunch"],"categories":["Coffee & Brunch Spots"],"distanceKm":0.041766068879742935},{"id":"dessertsRestaurants_9a44dfef37c2","slug":"softie-9a44","kind":"restaurant","name":"Softie","lat":40.63175293928538,"lng":22.94216885639287,"url":"https://maps.app.goo.gl/wypmiNMsE5au37Mr7?g_st=ic","address":"Proxenou Koromila 5, Thessaloniki 546 23","categoryIds":["desserts"],"categories":["Dessert Shops"],"distanceKm":0.044192472507288666},{"id":"cheapEatsRestaurants_284a6ef1dfeb","slug":"the-last-slice-284a","kind":"restaurant","name":"The Last Slice","lat":40.63188753569458,"lng":22.94190837965703,"url":"https://maps.app.goo.gl/iyZQfPWo4E2pskqX8?g_st=ipc","address":"Proxenou Koromila 1, Thessaloniki 546 23","categoryIds":["cheap-eats"],"categories":["Gyros & Cheap Eats"],"distanceKm":0.06878629877092171}],"sameRegion":[],"mentionedGuides":[{"slug":"greek-bakeries-brunch-coffee-guide-el","title":"Ελληνική Αρτοποιία, Brunch & Κουλτούρα Καφέ"},{"slug":"greek-bakeries-brunch-coffee-guide","title":"Greek Bakeries, Brunch & Coffee Culture"},{"slug":"tap-water-safe-greece-el","title":"Είναι Ασφαλές να Πίνετε Νερό Βρύσης στην Ελλάδα;"},{"slug":"tap-water-safe-greece","title":"Is Tap Water Safe to Drink in Greece?"},{"slug":"traveling-to-greece-on-a-budget-el","title":"Ταξιδι στην Ελλαδα με μικρο budget"},{"slug":"traveling-to-greece-on-a-budget","title":"Traveling to Greece on a Budget"}]},"__N_SSG":true}