{"pageProps":{"entity":{"id":"familyFriendly_507eebfc1228","slug":"happy-play-507e","kind":"restaurant","name":"Happy Play","lat":40.58463538696909,"lng":22.98516339267734,"url":"https://maps.app.goo.gl/KdBGSDP4JgtkbeQQ7?g_st=ipc","address":"Ioanninon Rd 9-11, Pilea 555 35","categoryIds":["family-friendly"],"categories":["Kid Friendly Locations"]},"sameCategory":[{"id":"familyFriendly_49ab59220094","slug":"love-sports-club-49ab","kind":"restaurant","name":"Love Sports Club","lat":40.576783631024576,"lng":22.994808120184832,"url":"https://maps.app.goo.gl/BJcVtK4p1mr7qG5B7?g_st=ipc","address":"Unnamed Road, Pilea Chortiatis 555 35","categoryIds":["family-friendly"],"categories":["Kid Friendly Locations"]},{"id":"familyFriendly_5fc832b90305","slug":"partyland-pylaia-playground-restaurant-events-5fc8","kind":"restaurant","name":"PARTYLAND ΠΥΛΑΙΑ | PLAYGROUND | RESTAURANT | EVENTS","lat":40.57242727995374,"lng":22.992912588988382,"url":"https://maps.app.goo.gl/hq2iSCHB7jfquAbeA?g_st=ic","address":"St.Kazantzidi 49, Pilea 555 36","categoryIds":["family-friendly"],"categories":["Kid Friendly Locations"]},{"id":"familyFriendly_b986941160fd","slug":"elaiorema-b986","kind":"restaurant","name":"Elaiorema","lat":40.60429462558645,"lng":22.984614393067023,"url":"https://maps.app.goo.gl/2QyvxSuh6SKLNY7X8?g_st=ic","address":"Pylaia 555 35","categoryIds":["family-friendly"],"categories":["Kid Friendly Locations"]},{"id":"familyFriendly_b51fd1ec3681","slug":"noesis-science-center-technology-museum-b51f","kind":"restaurant","name":"NOESIS Science Center & Technology Museum","lat":40.562055011158115,"lng":22.995596178260882,"url":"https://maps.app.goo.gl/r83VD4fLTaPtYU7R6?g_st=ipc","address":"Θεσσαλονίκης 6 χλμ, Thermi 570 01","categoryIds":["family-friendly"],"categories":["Kid Friendly Locations"]},{"id":"familyFriendly_e11e3c30b5f9","slug":"trees-trees-e11e","kind":"restaurant","name":"Trees Trees","lat":40.60274841786202,"lng":23.00941473830645,"url":"https://maps.app.goo.gl/NStAQS6bJYjXPSMi8?g_st=ipc","address":"Ανατολής, Elaionon και, Pilea 555 35","categoryIds":["family-friendly"],"categories":["Kid Friendly Locations"]},{"id":"familyFriendly_02cb9323697f","slug":"ergon-agora-east-02cb","kind":"restaurant","name":"ERGON Agora (East)","lat":40.55876788324677,"lng":22.976948972214135,"url":"https://maps.app.goo.gl/5okZMJqh76rUBbgm9?g_st=ipc","address":"Leof. Georgikis Scholis 50, Pilea Chortiatis 555 35","categoryIds":["family-friendly"],"categories":["Kid Friendly Locations"]},{"id":"familyFriendly_27bf58d1aae3","slug":"mediterranean-cosmos-27bf","kind":"restaurant","name":"Mediterranean Cosmos","lat":40.555729354394046,"lng":22.993377329551482,"url":"https://maps.app.goo.gl/hyNCGfBFcBtGJn7q9?g_st=ipc","address":"11ο χλμ εθνικής οδού, A/D Thessalonikis Neon Moudanion, Thessaloniki 570 01","categoryIds":["family-friendly"],"categories":["Kid Friendly Locations"]},{"id":"familyFriendly_15181c21c13f","slug":"magic-park-1518","kind":"restaurant","name":"Magic Park","lat":40.554442078448254,"lng":22.989769059470625,"url":"https://maps.app.goo.gl/b73PDCUhFyJQjo748?g_st=ipc","address":"Agias Anastasias 15, Thessaloniki 555 35","categoryIds":["family-friendly"],"categories":["Kid Friendly Locations"]}],"nearby":[{"id":"burgersRestaurants_c2797cbf1cc8","slug":"jacaranda-c279","kind":"restaurant","name":"Jacaranda","lat":40.583007556132294,"lng":22.982557958626895,"url":"https://maps.app.goo.gl/1GxBYUFXBeTUU8iq6?g_st=ipc","address":"Στέλιου Καζαντζίδη 24, Pilea 555 35","categoryIds":["burgers"],"categories":["Burger Spots"],"distanceKm":0.2849092326471803},{"id":"cheapEatsRestaurants_05faf629d467","slug":"jacaranda-05fa","kind":"restaurant","name":"Jacaranda","lat":40.583004580048126,"lng":22.98255759646119,"url":"https://maps.app.goo.gl/feYupefB1V32NxiX7?g_st=ipc","address":"Στέλιου Καζαντζίδη 24, Pilea 555 35","categoryIds":["cheap-eats"],"categories":["Gyros & Cheap Eats"],"distanceKm":0.2851431940756576},{"id":"cheapEatsRestaurants_0cc92ae6cc0a","slug":"jacaranda-0cc9","kind":"restaurant","name":"Jacaranda","lat":40.58300466355052,"lng":22.982557429553488,"url":"https://maps.app.goo.gl/DHgsKVMBHknJk7xq9?g_st=ipc","address":"Στέλιου Καζαντζίδη 24, Pilea 555 35","categoryIds":["cheap-eats"],"categories":["Gyros & Cheap Eats"],"distanceKm":0.28514816705277557},{"id":"burgersRestaurants_0e849e927ac2","slug":"jacaranda-0e84","kind":"restaurant","name":"Jacaranda","lat":40.583003675526406,"lng":22.982558353324826,"url":"https://maps.app.goo.gl/ya9CqK4xiDjFjhjH9?g_st=ic","address":"Στέλιου Καζαντζίδη 24, Pilea 555 35","categoryIds":["burgers"],"categories":["Burger Spots"],"distanceKm":0.28515785746103156},{"id":"municipalities_4a13189642f7","slug":"aggelochori-4a13","kind":"municipality","name":"Αγγελοχώρι","lat":40.5886,"lng":22.9875,"aliases":["Αγγελοχωρι"],"region":"Θεσσαλονίκη","name_en":"Angelochori","region_en":"Thessaloniki","distanceKm":0.48298696851752376},{"id":"burgersRestaurants_d89b00739d36","slug":"sinners-smash-burgers-d89b","kind":"restaurant","name":"Sinners Smash Burgers","lat":40.576089708999454,"lng":22.989358987182698,"url":"https://maps.app.goo.gl/Y2NDJtMWMoJrutpZ6?g_st=ipc","address":"Στέλιου Καζαντζίδη 31, Pilea 555 35","categoryIds":["burgers"],"categories":["Burger Spots"],"distanceKm":1.0141476349827965},{"id":"burgersRestaurants_b86427ec820e","slug":"sinners-smash-burgers-b864","kind":"restaurant","name":"Sinners Smash Burgers","lat":40.57608880508892,"lng":22.98935953763216,"url":"https://maps.app.goo.gl/Heh5zCdrerDYVGwPA?g_st=ic","address":"Στέλιου Καζαντζίδη 31, Pilea 555 35","categoryIds":["burgers"],"categories":["Burger Spots"],"distanceKm":1.0142580535595833},{"id":"cheapEatsRestaurants_e79fa54e3576","slug":"sinners-smash-burgers-e79f","kind":"restaurant","name":"Sinners Smash Burgers","lat":40.576087681457956,"lng":22.989359058851456,"url":"https://maps.app.goo.gl/cae1kAh8s933Ed8E6?g_st=ipc","address":"Στέλιου Καζαντζίδη 31, Pilea 555 35","categoryIds":["cheap-eats"],"categories":["Gyros & Cheap Eats"],"distanceKm":1.0143609984742303}],"sameRegion":[],"mentionedGuides":[]},"__N_SSG":true}