{"pageProps":{"entity":{"id":"cheapEatsRestaurants_b9105f39221f","slug":"holy-smoke-bbq-streetfood-b910","kind":"restaurant","name":"Holy Smoke BBQ Streetfood","lat":40.846113407445806,"lng":25.871107111584706,"url":"https://maps.app.goo.gl/3RSn2LjzUnKrQc289?g_st=ipc","address":"Eth. Antistaseos 136, Alexandroupoli 681 00","categoryIds":["cheap-eats"],"categories":["Gyros & Cheap Eats"]},"sameCategory":[{"id":"cheapEatsRestaurants_4b8e8b2c6c54","slug":"king-food-4b8e","kind":"restaurant","name":"King Food","lat":41.119343380363595,"lng":25.40306406826728,"url":"https://maps.app.goo.gl/YaQiwsqM5G144MKZ8?g_st=ipc","address":"Kilkis 12-14, Komotini 691 00","categoryIds":["cheap-eats"],"categories":["Gyros & Cheap Eats"]},{"id":"cheapEatsRestaurants_0aa863b3251a","slug":"vlassis-0aa8","kind":"restaurant","name":"Vlassis","lat":41.1944139413849,"lng":26.305196580284058,"url":"https://maps.app.goo.gl/Zz9LDsNcF9KHLgfX6?g_st=ipc","address":"Vasileos Georgiou, Soufli 684 00","categoryIds":["cheap-eats"],"categories":["Gyros & Cheap Eats"]},{"id":"cheapEatsRestaurants_777a89009202","slug":"o-gyros-tis-nikitis-777a","kind":"restaurant","name":"Ο Γύρος της Νικήτης","lat":40.21635208465205,"lng":23.666421853120887,"url":"https://maps.app.goo.gl/tK8o5vXTSUBvD7U3A?g_st=ipc","address":"Egialou, Nikiti 630 88","categoryIds":["cheap-eats"],"categories":["Gyros & Cheap Eats"]},{"id":"cheapEatsRestaurants_e78668bce22c","slug":"garry-s-e786","kind":"restaurant","name":"Garry's","lat":40.000628811076744,"lng":23.573772244228277,"url":"https://maps.app.goo.gl/AswmP29i78TmQa9F9?g_st=ipc","address":"plateia, Chaniotis 630 85","categoryIds":["cheap-eats"],"categories":["Gyros & Cheap Eats"]},{"id":"cheapEatsRestaurants_c1994e1056ff","slug":"andoni-s-gyros-feed-c199","kind":"restaurant","name":"Andoni's Gyros Feed","lat":40.07464288630586,"lng":23.448992983256165,"url":"https://maps.app.goo.gl/L8R286xrXF2isCzv6?g_st=ipc","address":"Καλλιθέα 630 77","categoryIds":["cheap-eats"],"categories":["Gyros & Cheap Eats"]},{"id":"cheapEatsRestaurants_530bf90a8d2b","slug":"lordon-530b","kind":"restaurant","name":"Lordon","lat":40.546997157219394,"lng":23.020384247436283,"url":"https://maps.app.goo.gl/3FBZX7roU6fjgkTS6?g_st=ipc","address":"Πλατεία Παραμάνα 18, Thermi 570 01","categoryIds":["cheap-eats"],"categories":["Gyros & Cheap Eats"]},{"id":"cheapEatsRestaurants_0353751e2b08","slug":"grn-thermi-0353","kind":"restaurant","name":"ΓΡΝ Θέρμη","lat":40.54741782851475,"lng":23.01948092443365,"url":"https://maps.app.goo.gl/uCq2bBxGLbG7MnvB6?g_st=ipc","address":"Agiou Nikolaou 30, Thermi 570 01","categoryIds":["cheap-eats"],"categories":["Gyros & Cheap Eats"]},{"id":"cheapEatsRestaurants_5ff919c79857","slug":"maestro-cantina-5ff9","kind":"restaurant","name":"Maestro Cantina","lat":40.539866600210786,"lng":23.020757982919235,"url":"https://maps.app.goo.gl/BCe5MC2HVtopgoEH7?g_st=ipc","address":"EO Thessalonikis Poligirou 32, Thermi 570 01","categoryIds":["cheap-eats"],"categories":["Gyros & Cheap Eats"]}],"nearby":[{"id":"burgersRestaurants_2c0faaef9d53","slug":"holy-smoke-bbq-streetfood-2c0f","kind":"restaurant","name":"Holy Smoke BBQ Streetfood","lat":40.846110747356505,"lng":25.87110606697465,"url":"https://maps.app.goo.gl/QRyzxeSuPPkZ7om56?g_st=ipc","address":"Eth. Antistaseos 136, Alexandroupoli 681 00","categoryIds":["burgers"],"categories":["Burger Spots"],"distanceKm":0.00030856371595293857},{"id":"municipalities_d9c8f1d08440","slug":"alexandroypoli-d9c8","kind":"municipality","name":"Αλεξανδρούπολη","lat":40.85,"lng":25.873,"region":"Ανατολική Μακεδονία και Θράκη","name_en":"Alexandroupoli","region_en":"Eastern Macedonia & Thrace","distanceKm":0.46056518825820303},{"id":"fishTavernasRestaurants_2332c66868ee","slug":"st-george-s-tavern-2332","kind":"restaurant","name":"St George's Tavern","lat":40.84895697847809,"lng":25.756806933273776,"url":"https://maps.app.goo.gl/Lq4bMhx6VUhzaNx37?g_st=ipc","address":"RQX4+HP, Makri 68150","categoryIds":["fish-tavernas"],"categories":["Fish Tavernas"],"distanceKm":9.619408360312312},{"id":"municipalities_6919fbdafc9e","slug":"samothraki-6919","kind":"municipality","name":"Σαμοθράκη","lat":40.556,"lng":25.526,"region":"Ανατολική Μακεδονία και Θράκη","name_en":"Samothraki","region_en":"Eastern Macedonia & Thrace","distanceKm":43.43969907639064},{"id":"municipalities_b35c4092fc93","slug":"komotini-b35c","kind":"municipality","name":"Κομοτηνή","lat":41.1236,"lng":25.412,"region":"Ανατολική Μακεδονία και Θράκη","name_en":"Komotini","region_en":"Eastern Macedonia & Thrace","distanceKm":49.36729263693335},{"id":"greekRestaurants_e8c6c63d9264","slug":"kapsoyli-e8c6","kind":"restaurant","name":"καψούλι","lat":41.116926466455745,"lng":25.401623976597524,"url":"https://maps.app.goo.gl/Z1dAApwmcfN1vv1z9?g_st=ipc","address":"Μαρώνειας 29, Κομοτηνή 691 32","categoryIds":["greek-restaurants"],"categories":["Greek Restaurants"],"distanceKm":49.59769026948608},{"id":"cheapEatsRestaurants_4b8e8b2c6c54","slug":"king-food-4b8e","kind":"restaurant","name":"King Food","lat":41.119343380363595,"lng":25.40306406826728,"url":"https://maps.app.goo.gl/YaQiwsqM5G144MKZ8?g_st=ipc","address":"Kilkis 12-14, Komotini 691 00","categoryIds":["cheap-eats"],"categories":["Gyros & Cheap Eats"],"distanceKm":49.66506323680875},{"id":"cheapEatsRestaurants_0aa863b3251a","slug":"vlassis-0aa8","kind":"restaurant","name":"Vlassis","lat":41.1944139413849,"lng":26.305196580284058,"url":"https://maps.app.goo.gl/Zz9LDsNcF9KHLgfX6?g_st=ipc","address":"Vasileos Georgiou, Soufli 684 00","categoryIds":["cheap-eats"],"categories":["Gyros & Cheap Eats"],"distanceKm":53.16178686950005}],"sameRegion":[],"mentionedGuides":[]},"__N_SSG":true}