{"pageProps":{"entity":{"id":"familyFriendly_681712a05721","slug":"ichnilatis-oneiron-ktima-klimentini-6817","kind":"restaurant","name":"Ιχνηλάτης Ονείρων - Κτήμα Κλημεντινη","lat":40.67362926471837,"lng":23.088737171472587,"url":"https://maps.app.goo.gl/zejLUTjQA5bbDHBb6?g_st=ipc","address":"EO Thessalonikis Kavalas, Volvi 572 00","categoryIds":["family-friendly"],"categories":["Kid Friendly Locations"]},"sameCategory":[{"id":"familyFriendly_dda24e69f0c9","slug":"ktima-chaideytos-dda2","kind":"restaurant","name":"Κτήμα Χαϊδευτός","lat":40.70742578041207,"lng":23.04278762334095,"url":"https://maps.app.goo.gl/4acWduunHuC2yzqCA?g_st=ipc","address":"Kavallari 572 00","categoryIds":["family-friendly"],"categories":["Kid Friendly Locations"]},{"id":"familyFriendly_fddc2b47a16c","slug":"family-sports-club-fddc","kind":"restaurant","name":"Family Sports Club","lat":40.655661119206584,"lng":22.9951268038431,"url":"https://maps.app.goo.gl/P3RfiqzgWLJwu2HN6?g_st=ipc","address":"Tositsa 18, Thessaloniki 570 10","categoryIds":["family-friendly"],"categories":["Kid Friendly Locations"]},{"id":"familyFriendly_b6a37bf1af44","slug":"platanakia-natura-b6a3","kind":"restaurant","name":"Platanakia Natura","lat":40.59354583506236,"lng":23.05309273408505,"url":"https://maps.app.goo.gl/6g3bBu8datKxsCYq7?g_st=ipc","address":"St Paraskevopoulou, Panorama 552 36","categoryIds":["family-friendly"],"categories":["Kid Friendly Locations"]},{"id":"familyFriendly_e11e3c30b5f9","slug":"trees-trees-e11e","kind":"restaurant","name":"Trees Trees","lat":40.60274841786202,"lng":23.00941473830645,"url":"https://maps.app.goo.gl/NStAQS6bJYjXPSMi8?g_st=ipc","address":"Ανατολής, Elaionon και, Pilea 555 35","categoryIds":["family-friendly"],"categories":["Kid Friendly Locations"]},{"id":"familyFriendly_4e467d7db3ce","slug":"perivallontiko-parko-dervenioy-4e46","kind":"restaurant","name":"Περιβαλλοντικό Πάρκο Δερβενίου","lat":40.7144477049586,"lng":22.966013369993284,"url":"https://maps.app.goo.gl/12YHRaQcoWEy1dcC6?g_st=ipc","address":"Mygdonia 545 00","categoryIds":["family-friendly"],"categories":["Kid Friendly Locations"]},{"id":"familyFriendly_b986941160fd","slug":"elaiorema-b986","kind":"restaurant","name":"Elaiorema","lat":40.60429462558645,"lng":22.984614393067023,"url":"https://maps.app.goo.gl/2QyvxSuh6SKLNY7X8?g_st=ic","address":"Pylaia 555 35","categoryIds":["family-friendly"],"categories":["Kid Friendly Locations"]},{"id":"familyFriendly_91fdc1b07999","slug":"parko-tzeni-karezi-91fd","kind":"restaurant","name":"Πάρκο Τζένη Καρέζη","lat":40.65858356268694,"lng":22.948886429553223,"url":"https://maps.app.goo.gl/GLfxf6LcGPn5DhUJA?g_st=ipc","address":"Polichni 565 32","categoryIds":["family-friendly"],"categories":["Kid Friendly Locations"]},{"id":"familyFriendly_06e3b0e7591a","slug":"hado-arena-toumpa-06e3","kind":"restaurant","name":"HADO ARENA TOUMPA","lat":40.61298475023653,"lng":22.966163361832432,"url":"https://maps.app.goo.gl/Y3M4X3SLfpUBctf88?g_st=ipc","address":"Kleanthous 25, Thessaloniki 544 53","categoryIds":["family-friendly"],"categories":["Kid Friendly Locations"]}],"nearby":[{"id":"familyFriendly_dda24e69f0c9","slug":"ktima-chaideytos-dda2","kind":"restaurant","name":"Κτήμα Χαϊδευτός","lat":40.70742578041207,"lng":23.04278762334095,"url":"https://maps.app.goo.gl/4acWduunHuC2yzqCA?g_st=ipc","address":"Kavallari 572 00","categoryIds":["family-friendly"],"categories":["Kid Friendly Locations"],"distanceKm":5.397355800040578},{"id":"greekRestaurants_af95cfb851a0","slug":"estiatorio-kioskia-af95","kind":"restaurant","name":"Εστιατόριο Κιόσκια","lat":40.61260152561618,"lng":23.099374680703214,"url":"https://maps.app.goo.gl/SBBbiTbf6AekkWeZ6?g_st=ipc","address":"Μαρτύρων 2ας Σεπτέμβρη 40, Χορτιάτης 570 10","categoryIds":["greek-restaurants"],"categories":["Greek Restaurants"],"distanceKm":6.845070400547378},{"id":"fishTavernasRestaurants_5a1acfab0629","slug":"tsouknida-5a1a","kind":"restaurant","name":"Tsouknída","lat":40.64197017301936,"lng":23.01608188028885,"url":"https://maps.app.goo.gl/xAJUBaZ5Hv4Rggaw9","address":"28is Oktovriou 0, Asvestochori 570 10","categoryIds":["fish-tavernas"],"categories":["Fish Tavernas"],"distanceKm":7.067852654369846},{"id":"greekRestaurants_a67af598b2d1","slug":"to-loukoumi-a67a","kind":"restaurant","name":"To Loukoumi","lat":40.65097171601764,"lng":22.998975430300302,"url":"https://maps.app.goo.gl/T4aEjoreJoEqYGcE7?g_st=ipc","address":"Leof. Papanikolaou 150, Pefka 570 10","categoryIds":["greek-restaurants"],"categories":["Greek Restaurants"],"distanceKm":7.97943206862852},{"id":"familyFriendly_fddc2b47a16c","slug":"family-sports-club-fddc","kind":"restaurant","name":"Family Sports Club","lat":40.655661119206584,"lng":22.9951268038431,"url":"https://maps.app.goo.gl/P3RfiqzgWLJwu2HN6?g_st=ipc","address":"Tositsa 18, Thessaloniki 570 10","categoryIds":["family-friendly"],"categories":["Kid Friendly Locations"],"distanceKm":8.14447369423068},{"id":"greekRestaurants_613ab2641dd9","slug":"taverna-5fi-613a","kind":"restaurant","name":"Ταβέρνα 5φί","lat":40.74907903716035,"lng":23.066364932799573,"url":"https://maps.app.goo.gl/3qh7CW8XVMvCgUAy9?g_st=ipc","address":"Σεραφειμ Τσακμάνη 35, Λαγκαδάς 572 00","categoryIds":["greek-restaurants"],"categories":["Greek Restaurants"],"distanceKm":8.598935237682882},{"id":"municipalities_e6545e4b650e","slug":"lagkadas-e654","kind":"municipality","name":"Λαγκαδάς","lat":40.75,"lng":23.0667,"region":"Περιαστική Ζώνη","name_en":"Lagadás","region_en":"Suburban Zone","distanceKm":8.692796976892},{"id":"municipalities_773b45e35a7d","slug":"peyka-773b","kind":"municipality","name":"Πεύκα","lat":40.663,"lng":22.985,"region":"Ανατολική Θεσσαλονίκη","name_en":"Pefka","region_en":"East Thessaloniki","distanceKm":8.828743812503346}],"sameRegion":[],"mentionedGuides":[]},"__N_SSG":true}