{"pageProps":{"entity":{"id":"municipalities_61eaea5bd3d9","slug":"ilisia-61ea","kind":"municipality","name":"Ιλίσια","lat":37.9789,"lng":23.7572,"region":"Κέντρο Αθήνας","name_en":"Ilisia","region_en":"Athens Center"},"sameCategory":[],"nearby":[{"id":"coffeeBrunchRestaurants_3c4532938684","slug":"tromero-paidi-3c45","kind":"restaurant","name":"Τρομερό παιδί","lat":37.979193977677895,"lng":23.756620823918542,"url":"https://maps.app.goo.gl/LhCE2aHEwVVToKhc6?g_st=ipc","address":"Παπαδιαμαντοπούλου 30, Αθήνα 115 28","categoryIds":["coffee-brunch"],"categories":["Coffee & Brunch Spots"],"distanceKm":0.06037793348345973},{"id":"coffeeBrunchRestaurants_0854c47f51bb","slug":"lot-51-0854","kind":"restaurant","name":"LOT 51","lat":37.97889236924369,"lng":23.75608261699221,"url":"https://maps.app.goo.gl/XPiz8gPX1disrJLV9?g_st=ipc","address":"Παπαδιαμαντοπούλου 24Β, Αθήνα 115 28","categoryIds":["coffee-brunch"],"categories":["Coffee & Brunch Spots"],"distanceKm":0.09794006965063749},{"id":"burgersRestaurants_01b4e6c2697b","slug":"smashtag-01b4","kind":"restaurant","name":"SmashTag","lat":37.97799517923772,"lng":23.75631086140523,"url":"https://maps.app.goo.gl/Yu7VLwDA42Wp7pZo8","address":"Michalakopoulou 68, Athina 115 28","categoryIds":["burgers"],"categories":["Burger Spots"],"distanceKm":0.12726358398755874},{"id":"burgersRestaurants_4f7bcdd337e0","slug":"smashtag-4f7b","kind":"restaurant","name":"SmashTag","lat":37.97795470114958,"lng":23.756263128218805,"url":"https://maps.app.goo.gl/pRV1Ja3nApcMjLDQ7?g_st=ic","address":"Michalakopoulou 68, Athina 115 28","categoryIds":["burgers"],"categories":["Burger Spots"],"distanceKm":0.1333850612915451},{"id":"greekRestaurants_f2230e55c586","slug":"o-platanos-f223","kind":"restaurant","name":"Ο Πλάτανος","lat":37.98012652047389,"lng":23.757043689219586,"url":"https://maps.app.goo.gl/GVj14ysF6cMr9ZoA6","address":"Σεβαστείας 6, Αθήνα 115 28","categoryIds":["greek-restaurants"],"categories":["Greek Restaurants"],"distanceKm":0.13706924797767062},{"id":"greekRestaurants_eb74ce369d8c","slug":"skalakia-eb74","kind":"restaurant","name":"Σκαλάκια","lat":37.97743768834,"lng":23.756590141442583,"url":"https://maps.app.goo.gl/awU151ZstgomSVZZ8","address":"Διονυσίου Αιγινήτου 32, Αθήνα 115 28","categoryIds":["greek-restaurants"],"categories":["Greek Restaurants"],"distanceKm":0.17116238021370078},{"id":"mustSeeAttractions_48ddcd3e9742","slug":"megaro-moysikis-athinon-48dd","kind":"restaurant","name":"Μέγαρο Μουσικής Αθηνών","lat":37.98113320826234,"lng":23.754226747419665,"url":"https://maps.app.goo.gl/fcKT8gTb8XfWLvDa7?g_st=ipc","address":"Βασιλίσσης Σοφίας, Πέτρου Κόκκαλη &, Αθήνα","categoryIds":["attractions"],"categories":["Must-See Attractions"],"distanceKm":0.3599633917069715},{"id":"asianRestaurants_11e9b056b89d","slug":"bulacan-halo-halo-11e9","kind":"restaurant","name":"Bulacan Halo-Halo","lat":37.98164028909841,"lng":23.759642721567413,"url":"https://maps.app.goo.gl/XM8Buphrtabi3YYC9?g_st=ipc","address":"Μιχαλακοπούλου 105, Αθήνα 115 27","categoryIds":["asian"],"categories":["Asian Restaurants"],"distanceKm":0.3724014657133708}],"sameRegion":[{"id":"municipalities_0889636ab7df","slug":"petralona-0889","kind":"municipality","name":"Πετράλωνα","lat":37.9656,"lng":23.7108,"region":"Κέντρο Αθήνας","name_en":"Petralona","region_en":"Athens Center"},{"id":"municipalities_0cae2c00b932","slug":"kolonaki-0cae","kind":"municipality","name":"Κολωνάκι","lat":37.9769,"lng":23.7436,"aliases":["Kolonaki"],"region":"Κέντρο Αθήνας","name_en":"Kolonaki","region_en":"Athens Center"},{"id":"municipalities_0eb5ad956816","slug":"neos-kosmos-0eb5","kind":"municipality","name":"Νέος Κόσμος","lat":37.9563,"lng":23.7289,"region":"Κέντρο Αθήνας","name_en":"Neos Kosmos","region_en":"Athens Center"},{"id":"municipalities_0fd1d03201a0","slug":"mets-0fd1","kind":"municipality","name":"Μετς","lat":37.9685,"lng":23.7453,"region":"Κέντρο Αθήνας","name_en":"Mets","region_en":"Athens Center"},{"id":"municipalities_1760d194c086","slug":"ampelokipoi-1760","kind":"municipality","name":"Αμπελόκηποι","lat":38.002,"lng":23.753,"aliases":["Ampelopoi","Ampelokipoi","Ampelokipi","Αμπελοκηποι","Αμπελοκηπι"],"region":"Κέντρο Αθήνας","name_en":"Ambelokipi","region_en":"Athens Center"},{"id":"municipalities_23828bbce235","slug":"patisia-2382","kind":"municipality","name":"Πατήσια","lat":38.0167,"lng":23.7333,"aliases":["Πατησια","Patissia"],"region":"Κέντρο Αθήνας","name_en":"Patisia","region_en":"Athens Center"},{"id":"municipalities_2bcfcb8b899f","slug":"psyrri-2bcf","kind":"municipality","name":"Ψυρρή","lat":37.9761,"lng":23.7246,"aliases":["Psirri","Psyrri"],"region":"Κέντρο Αθήνας","name_en":"Psyrri","region_en":"Athens Center"},{"id":"municipalities_2dbf77b73060","slug":"royf-2dbf","kind":"municipality","name":"Ρουφ","lat":37.9767,"lng":23.7074,"region":"Κέντρο Αθήνας","name_en":"Rouf","region_en":"Athens Center"}],"mentionedGuides":[]},"__N_SSG":true}