{"pageProps":{"entity":{"id":"coffeeBrunchRestaurants_cdd028e1f028","slug":"indianos-cdd0","kind":"restaurant","name":"Indianos","lat":38.07177701154969,"lng":23.99543112392712,"url":"https://maps.app.goo.gl/fQgSyiTZjMscc9UW9?g_st=ipc","address":"Μιαούλη 12, Νέα Μάκρη 190 05","categoryIds":["coffee-brunch"],"categories":["Coffee & Brunch Spots"]},"sameCategory":[{"id":"coffeeBrunchRestaurants_6aac58356d58","slug":"dimitris-kasimis-foyrnos-6aac","kind":"restaurant","name":"ΔΗΜΗΤΡΗΣ ΚΑΣΙΜΗΣ Φούρνος","lat":38.0797197655773,"lng":23.980827928192117,"url":"https://maps.app.goo.gl/HVgjvMDChspNvrjy7?g_st=ipc","address":"44 Marathonos Ave, Enanti DEI, Nea Makri, 19005","categoryIds":["coffee-brunch"],"categories":["Coffee & Brunch Spots"]},{"id":"coffeeBrunchRestaurants_7dfa5bb5c12c","slug":"argithea-7dfa","kind":"restaurant","name":"Αργιθέα","lat":38.15948282094037,"lng":23.95837767969574,"url":"https://maps.app.goo.gl/w98y2hBDroKUDcwZ7?g_st=ipc","address":"Λεωφ. Μαραθώνος 11, Μαραθώνας 190 07","categoryIds":["coffee-brunch"],"categories":["Coffee & Brunch Spots"]},{"id":"coffeeBrunchRestaurants_e7c71ac4865d","slug":"petrino-anthousa-e7c7","kind":"restaurant","name":"Petrino Anthousa","lat":38.02672241020409,"lng":23.873783158410454,"url":"https://maps.app.goo.gl/9BhYBbp4S79LCn6k9?g_st=ic","address":"Edipsou 2-6, Anthousa 153 49","categoryIds":["coffee-brunch"],"categories":["Coffee & Brunch Spots"]},{"id":"coffeeBrunchRestaurants_3667c08b817e","slug":"garazaki-3667","kind":"restaurant","name":"Garazaki","lat":38.00820112050225,"lng":23.859624038909082,"url":"https://maps.app.goo.gl/nhS7zheSxj71qxXFA?g_st=ipc","address":"Θεσσαλονίκης 33, Γέρακας 153 44","categoryIds":["coffee-brunch"],"categories":["Coffee & Brunch Spots"]},{"id":"coffeeBrunchRestaurants_a0c4a7f4af97","slug":"oi-pites-tis-giagias-eyridikis-a0c4","kind":"restaurant","name":"Οι πίτες της γιαγιάς Ευριδίκης","lat":38.03426712689994,"lng":23.833618598910473,"url":"https://maps.app.goo.gl/SZ38YLhtn9HgUGAZ9?g_st=ipc","address":"Κύπρου 25, Βριλήσσια 152 35","categoryIds":["coffee-brunch"],"categories":["Coffee & Brunch Spots"]},{"id":"coffeeBrunchRestaurants_4c5186ad6b82","slug":"the-roosters-vrilissia-4c51","kind":"restaurant","name":"The Roosters Vrilissia","lat":38.037656279094364,"lng":23.82632315275067,"url":"https://maps.app.goo.gl/Ujy91XzzUb5AuEK38?g_st=ipc","address":"Θέτιδος 1 &, Ομήρου 2, Βριλήσσια 152 38","categoryIds":["coffee-brunch"],"categories":["Coffee & Brunch Spots"]},{"id":"coffeeBrunchRestaurants_2322e1e847ee","slug":"natu-2322","kind":"restaurant","name":"NATU","lat":38.07417552050554,"lng":23.814760489983165,"url":"https://maps.app.goo.gl/wzJKDW9SrK9LDD9x8?g_st=ipc","address":"Λεβίδου 13, Κηφισιά 145 62","categoryIds":["coffee-brunch"],"categories":["Coffee & Brunch Spots"]},{"id":"coffeeBrunchRestaurants_6ad2753fc055","slug":"different-beast-6ad2","kind":"restaurant","name":"Different Beast","lat":38.072030542719524,"lng":23.814580386585376,"url":"https://maps.app.goo.gl/uz9Wpn9FMrG1tYuh9?g_st=ipc","address":"Κασσαβέτη 19, Αθήνα 145 61","categoryIds":["coffee-brunch"],"categories":["Coffee & Brunch Spots"]}],"nearby":[{"id":"fishTavernasRestaurants_d1fdd80a5c4e","slug":"akrogiali-d1fd","kind":"restaurant","name":"Ακρογιάλι","lat":38.07176023911009,"lng":23.99585573289976,"url":"https://maps.app.goo.gl/xsBV1faj5k58gwi47?g_st=ipc","address":"Μιαούλη 8, Νέα Μάκρη 190 05","categoryIds":["fish-tavernas"],"categories":["Fish Tavernas"],"distanceKm":0.03721574685470529},{"id":"familyFriendly_db07c7976a87","slug":"jumicar-db07","kind":"restaurant","name":"Jumicar","lat":38.07454902492717,"lng":23.982372514870235,"url":"https://maps.app.goo.gl/b5HKTfYuBC6WE3XP7?g_st=ipc","address":"Λεωφ. Μαραθώνος 1, Νέα Μάκρη 190 05","categoryIds":["family-friendly"],"categories":["Kid Friendly Locations"],"distanceKm":1.183917831284651},{"id":"dessertsRestaurants_5958ec3ad958","slug":"to-plesti-5958","kind":"restaurant","name":"Το Πλέστι","lat":38.06758002269708,"lng":23.98228118791333,"url":"https://maps.app.goo.gl/8uS8BHW1y7vuZtMn8?g_st=ipc","address":"Λεωφ. Μαραθώνος 31ο, Νέα Μάκρη 190 05","categoryIds":["desserts"],"categories":["Dessert Shops"],"distanceKm":1.2421408132942737},{"id":"coffeeBrunchRestaurants_6aac58356d58","slug":"dimitris-kasimis-foyrnos-6aac","kind":"restaurant","name":"ΔΗΜΗΤΡΗΣ ΚΑΣΙΜΗΣ Φούρνος","lat":38.0797197655773,"lng":23.980827928192117,"url":"https://maps.app.goo.gl/HVgjvMDChspNvrjy7?g_st=ipc","address":"44 Marathonos Ave, Enanti DEI, Nea Makri, 19005","categoryIds":["coffee-brunch"],"categories":["Coffee & Brunch Spots"],"distanceKm":1.5536907013244636},{"id":"municipalities_dba8e62f5c2c","slug":"nea-makri-dba8","kind":"municipality","name":"Νέα Μάκρη","lat":38.083,"lng":23.983,"aliases":["Nea Makri","Nea Makry"],"region":"Ανατολικά Προάστια","name_en":"Nea Makri","region_en":"Eastern Suburbs","distanceKm":1.6556910979757258},{"id":"italianRestaurants_2acf318486cb","slug":"toto-s-little-italy-2acf","kind":"restaurant","name":"Toto's Little Italy","lat":38.083162778426875,"lng":23.980726245351242,"url":"https://maps.app.goo.gl/oSFQmUYzAW2nsJ8z6?g_st=ipc","address":"Νικ. Πλαστήρα 29, Νέα Μάκρη 190 05","categoryIds":["italian"],"categories":["Italian Restaurants"],"distanceKm":1.8054181494578463},{"id":"greekRestaurants_e13d6a44e9be","slug":"stoy-ladokosta-e13d","kind":"restaurant","name":"Στου Λαδόκωστα","lat":38.08813666230261,"lng":23.982996365102682,"url":"https://maps.app.goo.gl/mXkB4S51cYRYxwCe8","address":"Λεωφ. Ποσειδώνος, Νέα Μάκρη 190 05","categoryIds":["greek-restaurants"],"categories":["Greek Restaurants"],"distanceKm":2.1198423013466483},{"id":"fishTavernasRestaurants_0b56e36ee289","slug":"trata-i-0b56","kind":"restaurant","name":"ΤΡΑΤΑ (Η)","lat":38.09030258735327,"lng":23.982252068927664,"url":"https://maps.app.goo.gl/4cT7yir2FyLEmVPB8?g_st=ipc","address":"Λεωφ. Ποσειδώνος 30, Νέα Μάκρη 190 05","categoryIds":["fish-tavernas"],"categories":["Fish Tavernas"],"distanceKm":2.3609268940725703}],"sameRegion":[],"mentionedGuides":[]},"__N_SSG":true}