{"pageProps":{"entity":{"id":"cheapEatsRestaurants_1230f3d55b53","slug":"ipeiros-1230","kind":"restaurant","name":"Ήπειρος","lat":37.99468309231883,"lng":23.753514780729763,"url":"https://maps.app.goo.gl/CVaNeQjy77ZiLrEv9?g_st=ipc","address":"Μπαταριά 23, Αθήνα 114 76","categoryIds":["cheap-eats"],"categories":["Gyros & Cheap Eats"]},"sameCategory":[{"id":"cheapEatsRestaurants_6a4147d64308","slug":"klassikon-6a41","kind":"restaurant","name":"Κλασσικόν","lat":37.99808496466343,"lng":23.757900577588526,"url":"https://maps.app.goo.gl/RXpLLpBphHc6FhZD9?g_st=ipc","address":"Μητροπέτροβα 32, Αθήνα 114 76","categoryIds":["cheap-eats"],"categories":["Gyros & Cheap Eats"]},{"id":"cheapEatsRestaurants_4873355e0fc6","slug":"delicious-pitta-queen-4873","kind":"restaurant","name":"Delicious Pitta Queen","lat":37.99092416121966,"lng":23.759496408597567,"url":"https://maps.app.goo.gl/1JBJ1wwqkW21Ww447?g_st=ipc","address":"Πανόρμου 36, Αθήνα 115 23","categoryIds":["cheap-eats"],"categories":["Gyros & Cheap Eats"]},{"id":"cheapEatsRestaurants_0022a0eff11e","slug":"koytroylis-0022","kind":"restaurant","name":"ΚΟΥΤΡΟΥΛΗΣ","lat":37.99585400563359,"lng":23.762177083127305,"url":"https://maps.app.goo.gl/xGhyT1vrgFSKodic9?g_st=ipc","address":"Βαρνακιώτη 4, Αθήνα 115 24","categoryIds":["cheap-eats"],"categories":["Gyros & Cheap Eats"]},{"id":"cheapEatsRestaurants_000769981d10","slug":"piatsa-tylichto-0007","kind":"restaurant","name":"Πιάτσα Τυλιχτό","lat":37.992812158549924,"lng":23.762955305614238,"url":"https://maps.app.goo.gl/99Gr2Rnp3uGrkmWWA?g_st=ipc","address":"Λαρίσης 33, Αθήνα 115 23","categoryIds":["cheap-eats"],"categories":["Gyros & Cheap Eats"]},{"id":"cheapEatsRestaurants_f3cf5026ad57","slug":"peinirli-ionias-f3cf","kind":"restaurant","name":"Πεϊνιρλί Ιωνίας","lat":37.98758471065417,"lng":23.75770179070527,"url":"https://maps.app.goo.gl/SXittnYdkLPeQRb17?g_st=ipc","address":"Πανόρμου 3, Αθήνα 115 22","categoryIds":["cheap-eats"],"categories":["Gyros & Cheap Eats"]},{"id":"cheapEatsRestaurants_0e996f9a4065","slug":"jackaroo-0e99","kind":"restaurant","name":"Jackaroo","lat":37.99342271258061,"lng":23.764131211857187,"url":"https://maps.app.goo.gl/VnT5HzaYL2NjnGd27?g_st=ipc","address":"Πανόρμου 109, Αθήνα 115 24","categoryIds":["cheap-eats"],"categories":["Gyros & Cheap Eats"]},{"id":"cheapEatsRestaurants_3ae9e374071b","slug":"street-wok-3ae9","kind":"restaurant","name":"Street Wok","lat":37.993336241687885,"lng":23.765654609990445,"url":"https://maps.app.goo.gl/Krey285b8JEL9p1P8?g_st=ipc","address":"Ampelokipi Menemeni, Πανόρμου 115Ζ, Αθήνα 115 24","categoryIds":["cheap-eats"],"categories":["Gyros & Cheap Eats"]},{"id":"cheapEatsRestaurants_4b2392e8f1da","slug":"peirasmos-4b23","kind":"restaurant","name":"ΠΕΙΡΑΣΜΟΣ","lat":38.00274661999109,"lng":23.744683791776005,"url":"https://maps.app.goo.gl/wXj4gGBY4uF6K2yW8?g_st=ipc","address":"Βελβενδού 20, Αθήνα 113 63","categoryIds":["cheap-eats"],"categories":["Gyros & Cheap Eats"]}],"nearby":[{"id":"greekRestaurants_442477ae20ac","slug":"axotis-4424","kind":"restaurant","name":"Αξώτης","lat":37.995836587823845,"lng":23.754896105548557,"url":"https://maps.app.goo.gl/ins2h5odAAUqFqf2A","address":"Παπαρσένη 15, Αθήνα 114 76","categoryIds":["greek-restaurants"],"categories":["Greek Restaurants"],"distanceKm":0.1763600159717548},{"id":"cheapEatsRestaurants_6a4147d64308","slug":"klassikon-6a41","kind":"restaurant","name":"Κλασσικόν","lat":37.99808496466343,"lng":23.757900577588526,"url":"https://maps.app.goo.gl/RXpLLpBphHc6FhZD9?g_st=ipc","address":"Μητροπέτροβα 32, Αθήνα 114 76","categoryIds":["cheap-eats"],"categories":["Gyros & Cheap Eats"],"distanceKm":0.5392464441711373},{"id":"cheapEatsRestaurants_4873355e0fc6","slug":"delicious-pitta-queen-4873","kind":"restaurant","name":"Delicious Pitta Queen","lat":37.99092416121966,"lng":23.759496408597567,"url":"https://maps.app.goo.gl/1JBJ1wwqkW21Ww447?g_st=ipc","address":"Πανόρμου 36, Αθήνα 115 23","categoryIds":["cheap-eats"],"categories":["Gyros & Cheap Eats"],"distanceKm":0.6704217436210209},{"id":"greekRestaurants_62053e521d7b","slug":"michalis-stoy-koytroyli-6205","kind":"restaurant","name":"Μιχάλης - Στου Κουτρούλη","lat":37.995178959519315,"lng":23.761505445987336,"url":"https://maps.app.goo.gl/7La7jhMdfnzvnDUN6","address":"Βαρίκα 8, Αθήνα 115 24","categoryIds":["greek-restaurants"],"categories":["Greek Restaurants"],"distanceKm":0.7023803893304826},{"id":"dessertsRestaurants_82392100ef3d","slug":"galaktopoleio-stamoy-8239","kind":"restaurant","name":"Γαλακτοπωλείο ΣΤΑΜΟΥ","lat":37.99247877904618,"lng":23.761668631710492,"url":"https://maps.app.goo.gl/118TMc1zY2E2HRzEA?g_st=ipc","address":"Πανόρμου 62, Αθήνα 115 23","categoryIds":["desserts"],"categories":["Dessert Shops"],"distanceKm":0.7553973978211802},{"id":"cheapEatsRestaurants_0022a0eff11e","slug":"koytroylis-0022","kind":"restaurant","name":"ΚΟΥΤΡΟΥΛΗΣ","lat":37.99585400563359,"lng":23.762177083127305,"url":"https://maps.app.goo.gl/xGhyT1vrgFSKodic9?g_st=ipc","address":"Βαρνακιώτη 4, Αθήνα 115 24","categoryIds":["cheap-eats"],"categories":["Gyros & Cheap Eats"],"distanceKm":0.7701495372564552},{"id":"dessertsRestaurants_55ea1e7f1b68","slug":"cremona-55ea","kind":"restaurant","name":"CREMONA","lat":37.999276434608944,"lng":23.746794928014506,"url":"https://maps.app.goo.gl/88H4UALJy3RpJMnJA?g_st=ipc","address":"58, Δοϊράνης 56, Αθήνα 113 63","categoryIds":["desserts"],"categories":["Dessert Shops"],"distanceKm":0.7794873538915374},{"id":"greekRestaurants_b44e1eb1d480","slug":"oinomageireio-to-trifylli-b44e","kind":"restaurant","name":"Οινομαγειρείο «Το Τριφύλλι»","lat":37.98741582684548,"lng":23.752997875166535,"url":"https://maps.app.goo.gl/ZaG4vxaqPUZoyUEH7","address":"Παναθηναϊκού 7, Αθήνα 115 21","categoryIds":["greek-restaurants"],"categories":["Greek Restaurants"],"distanceKm":0.8093516838326669}],"sameRegion":[],"mentionedGuides":[]},"__N_SSG":true}