{"pageProps":{"entity":{"id":"greekRestaurants_52e671578a6f","slug":"karavitis-52e6","kind":"restaurant","name":"Καραβίτης","lat":37.97158436368886,"lng":23.743633373686446,"url":"https://maps.app.goo.gl/8qs2pU39Ev8Bi4Gu6","address":"Παυσανίου 4, Αθήνα 116 35","categoryIds":["greek-restaurants"],"categories":["Greek Restaurants"]},"sameCategory":[{"id":"greekRestaurants_04415057069a","slug":"mayros-gatos-0441","kind":"restaurant","name":"Μαύρος Γάτος","lat":37.97162418889942,"lng":23.74471067108262,"url":"https://maps.app.goo.gl/aCqxbn2mAS63MWhA9","address":"Πολέμωνος 4, Αθήνα 116 35","categoryIds":["greek-restaurants"],"categories":["Greek Restaurants"]},{"id":"greekRestaurants_1ce7ef86a93e","slug":"vyrinis-1ce7","kind":"restaurant","name":"ΒΥΡΙΝΗΣ","lat":37.96743484356373,"lng":23.742810422529566,"url":"https://maps.app.goo.gl/1Xuvp6z7zeGEESxk7","address":"Αρχιμήδους 11, Αθήνα 116 35","categoryIds":["greek-restaurants"],"categories":["Greek Restaurants"]},{"id":"greekRestaurants_b892553ca459","slug":"i-dexameni-paradosiako-kafeneio-b892","kind":"restaurant","name":"Η Δεξαμενή| παραδοσιακό καφενείο","lat":37.97904976951895,"lng":23.7417447741282,"url":"https://maps.app.goo.gl/LtHtTEpZMdDdqe3S8","address":"Πλ. Δεξαμενής, Αθήνα 106 73","categoryIds":["greek-restaurants"],"categories":["Greek Restaurants"]},{"id":"greekRestaurants_1f74ff05ff24","slug":"estiatorio-filippoy-1f74","kind":"restaurant","name":"Εστιατόριο Φιλίππου","lat":37.979221094535326,"lng":23.744501065071557,"url":"https://maps.app.goo.gl/Zq4cnAxJ4Dx6qQUq8","address":"Ξενοκράτους 19, Αθήνα 106 75","categoryIds":["greek-restaurants"],"categories":["Greek Restaurants"]},{"id":"greekRestaurants_aecd56dedac2","slug":"agora-select-aecd","kind":"restaurant","name":"Agora Select","lat":37.97639030206746,"lng":23.751435246572814,"url":"https://maps.app.goo.gl/Emn145fBqqdH5XE6A","address":"Χατζηγιάννη Μέξη 8 και, Κων/νου Βεντήρη 9, Αθήνα 115 28","categoryIds":["greek-restaurants"],"categories":["Greek Restaurants"]},{"id":"greekRestaurants_7edc46b44623","slug":"5f-7edc","kind":"restaurant","name":"5Φ","lat":37.972863677998646,"lng":23.753932616513207,"url":"https://maps.app.goo.gl/ZMLzvJ9Vxp7NSoVNA","address":"Diocharous 31 &, Κλεισούρας, Αθήνα 161 21","categoryIds":["greek-restaurants"],"categories":["Greek Restaurants"]},{"id":"greekRestaurants_32eb2400b721","slug":"olympion-32eb","kind":"restaurant","name":"Ολύμπιον","lat":37.96661871653892,"lng":23.73449829017252,"url":"https://maps.app.goo.gl/ibRHUhwHzNffs1sC8","address":"Αναπαύσεως 9, Αθήνα 116 36","categoryIds":["greek-restaurants"],"categories":["Greek Restaurants"]},{"id":"greekRestaurants_3e896dd5b050","slug":"spit-jack-3e89","kind":"restaurant","name":"Spit Jack","lat":37.97409123224814,"lng":23.732567622429254,"url":"https://maps.app.goo.gl/WP3HmHeYBBcXxVPM6","address":"Σκούφου 10, Αθήνα 105 57","categoryIds":["greek-restaurants"],"categories":["Greek Restaurants"]}],"nearby":[{"id":"greekRestaurants_04415057069a","slug":"mayros-gatos-0441","kind":"restaurant","name":"Μαύρος Γάτος","lat":37.97162418889942,"lng":23.74471067108262,"url":"https://maps.app.goo.gl/aCqxbn2mAS63MWhA9","address":"Πολέμωνος 4, Αθήνα 116 35","categoryIds":["greek-restaurants"],"categories":["Greek Restaurants"],"distanceKm":0.09453612689174422},{"id":"luxuryDiningRestaurants_ee54b28fe034","slug":"amen-gastronomic-ee54","kind":"restaurant","name":"Amen Gastronomic","lat":37.970762115684614,"lng":23.743270249717987,"url":"https://maps.app.goo.gl/K2pf3xsJBhwfdAmR8?g_st=ipc","address":"Ηρώνδα 8, Αθήνα 116 35","categoryIds":["luxury-dining"],"categories":["Luxury Dining"],"distanceKm":0.09681211960762535},{"id":"luxuryDiningRestaurants_66b323f42981","slug":"akra-66b3","kind":"restaurant","name":"Ακρα","lat":37.97187166175863,"lng":23.745034148490227,"url":"https://maps.app.goo.gl/ZDppkuU7VyctpKx28?g_st=ipc","address":"Αμύντα 12, Αθήνα 116 35","categoryIds":["luxury-dining"],"categories":["Luxury Dining"],"distanceKm":0.1268748483197733},{"id":"coffeeBrunchRestaurants_b00f4e81c5ad","slug":"4m-rule-of-4m-b00f","kind":"restaurant","name":"4m (Rule of 4m)","lat":37.9710035656136,"lng":23.742348180047202,"url":"https://maps.app.goo.gl/iznGffRGqEfUmUVL9?g_st=ipc","address":"Αγίου Σπυρίδωνος 5, Αθήνα 116 35","categoryIds":["coffee-brunch"],"categories":["Coffee & Brunch Spots"],"distanceKm":0.12985475443402766},{"id":"vegetarianRestaurants_2f95eefcadc8","slug":"the-vegan-vandal-2f95","kind":"restaurant","name":"The Vegan Vandal","lat":37.971917764819835,"lng":23.745569639926703,"url":"https://maps.app.goo.gl/i8rVwiqPkua751nQ7?g_st=ipc","address":"Αμύντα 15, Αθήνα 116 35","categoryIds":["vegetarian"],"categories":["Vegetarian Friendly Restaurants"],"distanceKm":0.17372801088699102},{"id":"italianRestaurants_67b7b653e959","slug":"cupola-67b7","kind":"restaurant","name":"Cupola","lat":37.97044661658537,"lng":23.742232273257617,"url":"https://maps.app.goo.gl/mFVjH2gTLzicYaVJA?g_st=ipc","address":"Ευφοριωνος 13, Αθήνα 116 35","categoryIds":["italian"],"categories":["Italian Restaurants"],"distanceKm":0.1763212675219924},{"id":"burgersRestaurants_7a76471a6430","slug":"nob-burger-7a76","kind":"restaurant","name":"nob.burger","lat":37.97058357459842,"lng":23.741857084173848,"url":"https://maps.app.goo.gl/7ty7gMmfJYVeTM5H9?g_st=ipc","address":"Ερατοσθένους 3, Αθήνα 116 35","categoryIds":["burgers"],"categories":["Burger Spots"],"distanceKm":0.19138395844204945},{"id":"coffeeBrunchRestaurants_d264f60c48b5","slug":"kekkos-traditional-cafe-pastry-d264","kind":"restaurant","name":"Κekkos Traditional Cafe & Pastry","lat":37.97039127677511,"lng":23.74203472592943,"url":"https://maps.app.goo.gl/2kmhegcNKQWPm1QD6?g_st=ipc","address":"Ερατοσθένους 7, Αθήνα 116 35","categoryIds":["coffee-brunch"],"categories":["Coffee & Brunch Spots"],"distanceKm":0.19297001007823952}],"sameRegion":[],"mentionedGuides":[]},"__N_SSG":true}