{"pageProps":{"entity":{"id":"familyFriendly_81af9329fc37","slug":"kentro-eleytheris-ippasias-81af","kind":"restaurant","name":"Κεντρο Ελεύθερης Ιππασίας","lat":38.01371091852879,"lng":22.49660964449245,"url":"https://maps.app.goo.gl/Jk42DbsK7YsoCuVL6?g_st=ipc","address":"Epar.Od. Xilokastrou - Trikalon - Mannas, Ξυλόκαστρο 204 00","categoryIds":["family-friendly"],"categories":["Kid Friendly Locations"]},"sameCategory":[{"id":"familyFriendly_32cb5d544c31","slug":"area-synest-32cb","kind":"restaurant","name":"Area Synest","lat":38.06576851291907,"lng":22.340295581454182,"url":"https://maps.app.goo.gl/o23ir2rREaRUFiwK9?g_st=ipc","address":"Epar.Od. Agorianis-Koronias, Sinevro 250 10","categoryIds":["family-friendly"],"categories":["Kid Friendly Locations"]},{"id":"familyFriendly_9b2bda8df9e3","slug":"nymfes-9b2b","kind":"restaurant","name":"Νύμφες","lat":37.99541884225497,"lng":22.275355626093795,"url":"https://maps.app.goo.gl/V3SkPjW9XHfNjwvSA?g_st=ipc","address":"Ζαρούχλα - Φενεός, Zarouchla 250 06","categoryIds":["family-friendly"],"categories":["Kid Friendly Locations"]},{"id":"familyFriendly_52cd4997ee89","slug":"farma-ampelos-vochaikou-52cd","kind":"restaurant","name":"FARMA AMPELOS VOCHAIKOU","lat":37.932680344972496,"lng":22.771047365230917,"url":"https://maps.app.goo.gl/cQ3vrm4TKeMAyCsq6?g_st=ipc","address":"ΑΓΡΟΤΙΚΗ ΟΔΟΣ, Βοχαϊκό 200 06","categoryIds":["family-friendly"],"categories":["Kid Friendly Locations"]},{"id":"familyFriendly_f5a054e30c6e","slug":"cherryland-ktima-fokaeon-f5a0","kind":"restaurant","name":"CHERRYLAND - ΚΤΗΜΑ ΦΩΚΑΕΩΝ","lat":38.12752130997816,"lng":22.216601874987493,"url":"https://maps.app.goo.gl/Lr7uMbC7sLXRLEP9A?g_st=ipc","address":"Epar.Od. Pountas - Kalavriton, Kernitsa 250 03","categoryIds":["family-friendly"],"categories":["Kid Friendly Locations"]},{"id":"familyFriendly_382b225783e0","slug":"athloypoli-382b","kind":"restaurant","name":"Αθλούπολη","lat":37.92596676764985,"lng":22.950761882031436,"url":"https://maps.app.goo.gl/1hz4bXK4e1zKMcW19?g_st=ipc","address":"Θέση Μπαθαρίστρα, Δήμος Κορινθίων 201 00","categoryIds":["family-friendly"],"categories":["Kid Friendly Locations"]},{"id":"familyFriendly_8b9ba7b9f729","slug":"splash-waterpark-isthmos-8b9b","kind":"restaurant","name":"Splash Waterpark Isthmos","lat":37.92495583561113,"lng":22.991604427588854,"url":"https://maps.app.goo.gl/eqCZacM2mh9hh5mi8?g_st=ipc","address":"Ισθμού, Λουτράκι 203 00","categoryIds":["family-friendly"],"categories":["Kid Friendly Locations"]},{"id":"familyFriendly_adaa2f8a1e5a","slug":"vagonetto-adaa","kind":"restaurant","name":"Vagonetto","lat":38.63219190812368,"lng":22.37159554223315,"url":"https://maps.app.goo.gl/FxXNY1FFj7tEZcaq9?g_st=ipc","address":"51 km National Road Lamia-Amfissa, Amfissa 331 00","categoryIds":["family-friendly"],"categories":["Kid Friendly Locations"]},{"id":"familyFriendly_a59e646924f0","slug":"parko-arkopolis-a59e","kind":"restaurant","name":"Πάρκο ARKOPOLIS","lat":38.04423565223715,"lng":23.533199733095568,"url":"https://maps.app.goo.gl/x7x4Lu9B5vabrAyJ7?g_st=ipc","address":"Μαρίας Κιουρί, Ελευσίνα 192 00","categoryIds":["family-friendly"],"categories":["Kid Friendly Locations"]}],"nearby":[{"id":"greekRestaurants_6e1edbbc32a8","slug":"pinakoti-taverna-karagiorgas-giorgos-trikala-6e1e","kind":"restaurant","name":"ΠΙΝΑΚΩΤΗ - ΤΑΒΕΡΝΑ - ΚΑΡΑΓΙΩΡΓΑΣ ΓΙΩΡΓΟΣ - ΤΡΙΚΑΛΑ","lat":38.004187278321304,"lng":22.477741138877853,"url":"https://maps.app.goo.gl/8P84uhf2Yr8DKThH6?g_st=ipc","address":"Μεσαία Τρίκαλα Κορινθίας, Τρίκαλα Κορινθίας 204 00","categoryIds":["greek-restaurants"],"categories":["Greek Restaurants"],"distanceKm":1.9632143476246384},{"id":"greekRestaurants_835a2fadf39b","slug":"oti-kalo-trikala-korinthias-835a","kind":"restaurant","name":"Ότι Καλό Τρίκαλα Κορινθίας","lat":38.00119259116245,"lng":22.476512941008874,"url":"https://maps.app.goo.gl/aMf3djkW1SnkD1iHA?g_st=ipc","address":"Μεσαία Συνοικία, Άνω Τρίκαλα 204 00","categoryIds":["greek-restaurants"],"categories":["Greek Restaurants"],"distanceKm":2.2445122101202184},{"id":"greekRestaurants_0ed04ce88e4f","slug":"opos-palia-0ed0","kind":"restaurant","name":"Όπως Παλιά","lat":37.99779308645516,"lng":22.469905216572432,"url":"https://maps.app.goo.gl/2NRqYruuAnhXjJdA6?g_st=ipc","address":"Μέση Συνοικία Τρικάλων 204 00","categoryIds":["greek-restaurants"],"categories":["Greek Restaurants"],"distanceKm":2.9338009404301433},{"id":"greekRestaurants_65157136702c","slug":"psitosynantisi-6515","kind":"restaurant","name":"ΨΗΤΟσυνάντηση","lat":37.99548753109514,"lng":22.468480126219713,"url":"https://maps.app.goo.gl/5CaRxHJhbSNeKFiP7?g_st=ipc","address":"Επαρ.Οδ. Ξυλόκαστρου - Τρικάλων - Μάννας, Μέση Συνοικία Τρικάλων 204 00","categoryIds":["greek-restaurants"],"categories":["Greek Restaurants"],"distanceKm":3.190689636432764},{"id":"greekRestaurants_eebc58d0b57c","slug":"to-chani-toy-chania-eebc","kind":"restaurant","name":"Το Χάνι του Χανιά","lat":37.989969507417065,"lng":22.466125395415034,"url":"https://maps.app.goo.gl/dDmXsZAdKbWgFjjT6?g_st=ipc","address":"Άνω Τρίκαλα, 204 00","categoryIds":["greek-restaurants"],"categories":["Greek Restaurants"],"distanceKm":3.7554892039657863},{"id":"greekRestaurants_a175a16286e2","slug":"kafeneion-stoy-giannoy-a175","kind":"restaurant","name":"Καφενείον στου Γιαννου","lat":38.046932367246974,"lng":22.58624645586887,"url":"https://maps.app.goo.gl/n81icmGiqF55MhN98?g_st=ipc","address":"Επαρ.Οδ. Ξυλόκαστρου - Τρικάλων - Μάννας 98, Ρίζα 204 00","categoryIds":["greek-restaurants"],"categories":["Greek Restaurants"],"distanceKm":8.676631010113132},{"id":"municipalities_12398cf79798","slug":"xylokastro-eyrostini-1239","kind":"municipality","name":"Ξυλόκαστρο - Ευρωστίνη","lat":38.0833,"lng":22.6333,"region":"Κορινθία","name_en":"Xylokastro - Evrostini","region_en":"Corinthia","distanceKm":14.25268908170297},{"id":"fishTavernasRestaurants_8e7680f38e05","slug":"esperos-ichthys-psarotaverna-8e76","kind":"restaurant","name":"Έσπερος ΙΧΘΥΣ Ψαροταβέρνα","lat":38.13318899935724,"lng":22.423103842089304,"url":"https://maps.app.goo.gl/vF6q9SxKr2jVHXpy7?g_st=ipc","address":"Derveni 200 09","categoryIds":["fish-tavernas"],"categories":["Fish Tavernas"],"distanceKm":14.761477791845323}],"sameRegion":[],"mentionedGuides":[]},"__N_SSG":true}