{"pageProps":{"entity":{"id":"municipalities_ddb6cfae0477","slug":"kythnos-ddb6","kind":"municipality","name":"Κύθνος","lat":37.3833,"lng":24.4167,"region":"Κυκλάδες","name_en":"Kythnos","region_en":"Cyclades"},"sameCategory":[],"nearby":[{"id":"mustSeeAttractions_e7d3f595ce74","slug":"spilaio-katafyki-e7d3","kind":"restaurant","name":"Σπήλαιο Καταφύκι","lat":37.381809266398925,"lng":24.430137129464182,"url":"https://maps.app.goo.gl/ihjdRvavpYz6Jjd5A?g_st=ipc","address":"Δρυοπίδα 840 06","categoryIds":["attractions"],"categories":["Must-See Attractions"],"distanceKm":1.1987593496314708},{"id":"coffeeBrunchRestaurants_0b65408056cb","slug":"jagger-0b65","kind":"restaurant","name":"Jagger","lat":37.382500546041285,"lng":24.430664724576324,"url":"https://maps.app.goo.gl/1vCbzZRojT45SSX8A?g_st=ipc","address":"Dryopida 840 06","categoryIds":["coffee-brunch"],"categories":["Coffee & Brunch Spots"],"distanceKm":1.2370517902125244},{"id":"greekRestaurants_432f5403f78b","slug":"chartino-karavi-432f","kind":"restaurant","name":"ΧΑΡΤΙΝΟ ΚΑΡΑΒΙ","lat":37.382790599679765,"lng":24.431004817048752,"url":"https://maps.app.goo.gl/6a5xfQQ1xwApv9Eb7?g_st=ipc","address":"Δρυοπίδα 840 06","categoryIds":["greek-restaurants"],"categories":["Greek Restaurants"],"distanceKm":1.265168670325783},{"id":"coffeeBrunchRestaurants_b5b417f95cd1","slug":"maistrali-b5b4","kind":"restaurant","name":"Maistrali","lat":37.38947704282166,"lng":24.39834020618754,"url":"https://maps.app.goo.gl/P46Mc4PY3VqCeaVF8?g_st=ipc","address":"Merihas 840 06","categoryIds":["coffee-brunch"],"categories":["Coffee & Brunch Spots"],"distanceKm":1.7615318129430035},{"id":"greekRestaurants_cf9861d9b1ba","slug":"fourles-cf98","kind":"restaurant","name":"Fourles","lat":37.38863369970779,"lng":24.397655998320165,"url":"https://maps.app.goo.gl/m4rPqMjHikQUW4So9?g_st=ipc","address":"Λιμάνι Μέριχα ΚΥΘΝΟΣ, Μεριχας 840 06","categoryIds":["greek-restaurants"],"categories":["Greek Restaurants"],"distanceKm":1.784031255787214},{"id":"coffeeBrunchRestaurants_c2c74292ab30","slug":"hamsa-beach-bar-restaurant-c2c7","kind":"restaurant","name":"Hamsa Beach Bar - Restaurant","lat":37.39312552655256,"lng":24.3982581144625,"url":"https://maps.app.goo.gl/atz6NCMG1oEDawJu9?g_st=ipc","address":"Μαρτινακια Κυθνος, 840 06","categoryIds":["coffee-brunch"],"categories":["Coffee & Brunch Spots"],"distanceKm":1.9617184660197824},{"id":"dessertsRestaurants_1f27ca8b7f3d","slug":"gigil-1f27","kind":"restaurant","name":"gigil","lat":37.41243516402313,"lng":24.430965794947877,"url":"https://maps.app.goo.gl/g3BuCBsD757ceaUU6?g_st=ipc","address":"Κύθνος 840 06","categoryIds":["desserts"],"categories":["Dessert Shops"],"distanceKm":3.4761550486498236},{"id":"greekRestaurants_4500da731c6a","slug":"to-steki-toy-ntetzi-4500","kind":"restaurant","name":"Το Στέκι του Ντέτζη","lat":37.412472796893596,"lng":24.43096202247223,"url":"https://maps.app.goo.gl/s21k1zGHkiQiQg4s7?g_st=ipc","address":"Κύθνος 840 06","categoryIds":["greek-restaurants"],"categories":["Greek Restaurants"],"distanceKm":3.4799345206627055}],"sameRegion":[{"id":"municipalities_094e7414e11a","slug":"mykonos-094e","kind":"municipality","name":"Μύκονος","lat":37.4467,"lng":25.3289,"aliases":["Mikonos","Μύκονα","Μυκονος","Mykonos","Myconos"],"region":"Κυκλάδες","name_en":"Mykonos","region_en":"Cyclades"},{"id":"municipalities_10c41fed1584","slug":"syros-10c4","kind":"municipality","name":"Σύρος","lat":37.4442,"lng":24.9428,"aliases":["Syros","Siros","Σύρα","Συρος","Συρο"],"region":"Κυκλάδες","name_en":"Syros","region_en":"Cyclades"},{"id":"municipalities_27d97a869977","slug":"schoinoysa-27d9","kind":"municipality","name":"Σχοινούσα","lat":36.8667,"lng":25.5167,"region":"Κυκλάδες","name_en":"Schinoussa","region_en":"Cyclades"},{"id":"municipalities_3cbd90a19d63","slug":"andros-3cbd","kind":"municipality","name":"Άνδρος","lat":37.8333,"lng":24.9333,"region":"Κυκλάδες","name_en":"Andros","region_en":"Cyclades"},{"id":"municipalities_402e7912632b","slug":"serifos-402e","kind":"municipality","name":"Σέριφος","lat":37.1537,"lng":24.5197,"aliases":["Σεριφος"],"region":"Κυκλάδες","name_en":"Serifos","region_en":"Cyclades"},{"id":"municipalities_444e7b37bb5a","slug":"koyfonisi-444e","kind":"municipality","name":"Κουφονήσι","lat":36.9333,"lng":25.6,"region":"Κυκλάδες","name_en":"Koufonisia","region_en":"Cyclades"},{"id":"municipalities_56cba484379e","slug":"anafi-56cb","kind":"municipality","name":"Ανάφη","lat":36.35,"lng":25.7667,"region":"Κυκλάδες","name_en":"Anafi","region_en":"Cyclades"},{"id":"municipalities_5b32b43e93f7","slug":"santorini-5b32","kind":"municipality","name":"Σαντορίνη","lat":36.3932,"lng":25.4615,"aliases":["Thira","Thera","Santorin","Σαντορίνα","Σαντορινη","Θήρα","Θηρα"],"region":"Κυκλάδες","name_en":"Santorini","region_en":"Cyclades"}],"mentionedGuides":[]},"__N_SSG":true}