{"pageProps":{"entity":{"id":"dessertsRestaurants_01136de60da9","slug":"l-arte-del-gelato-0113","kind":"restaurant","name":"L’arte del gelato","lat":37.97826235491174,"lng":23.745310264522946,"url":"https://maps.app.goo.gl/EjfGShRdB64dNF5s7?g_st=ipc","address":"Πατριάρχου Ιωακείμ 48-50, Αθήνα 106 76","categoryIds":["desserts"],"categories":["Dessert Shops"]},"sameCategory":[{"id":"dessertsRestaurants_e77e22a5c2ea","slug":"patisserie-despina-e77e","kind":"restaurant","name":"Patisserie Despina","lat":37.97835834410638,"lng":23.74575820284903,"url":"https://maps.app.goo.gl/RjyUkSTj6TwcuZnn6?g_st=ipc","address":"Patriarchou Ioakim 56, Athina 106 76","categoryIds":["desserts"],"categories":["Dessert Shops"]},{"id":"dessertsRestaurants_7973f2614e8c","slug":"patisserie-despina-7973","kind":"restaurant","name":"Patisserie Despina","lat":37.97835746394538,"lng":23.745758729545067,"url":"https://maps.app.goo.gl/XHKFgkbY5UCwMxmd9?g_st=ipc","address":"Patriarchou Ioakim 56, Athina 106 76","categoryIds":["desserts"],"categories":["Dessert Shops"]},{"id":"dessertsRestaurants_806d25225898","slug":"patisserie-despina-806d","kind":"restaurant","name":"Patisserie Despina","lat":37.97835746394538,"lng":23.745758729545067,"url":"https://maps.app.goo.gl/XHKFgkbY5UCwMxmd9?g_st=ipc","address":"Patriarchou Ioakim 56, Athina 106 76","categoryIds":["desserts"],"categories":["Dessert Shops"]},{"id":"dessertsRestaurants_adae00fa679c","slug":"cake-kolonaki-adae","kind":"restaurant","name":"CAKE Kolonaki","lat":37.97679932249832,"lng":23.7424790611418,"url":"https://maps.app.goo.gl/ga6C3Z87HsSYfMGx5?g_st=ipc","address":"Ηροδότου 15, Αθήνα 106 74","categoryIds":["desserts"],"categories":["Dessert Shops"]},{"id":"dessertsRestaurants_96fe8f32b3e6","slug":"kora-96fe","kind":"restaurant","name":"KORA","lat":37.98015086678449,"lng":23.739699532790965,"url":"https://maps.app.goo.gl/UK3LPUGZqVW7TtoQ6?g_st=ipc","address":"Παναγιώτου Αναγνωστοπούλου 44, Αθήνα 106 73","categoryIds":["desserts"],"categories":["Dessert Shops"]},{"id":"dessertsRestaurants_a146fa72ad20","slug":"ohh-boy-a146","kind":"restaurant","name":"Ohh Boy","lat":37.97243442670494,"lng":23.745570951608226,"url":"https://maps.app.goo.gl/6UUhjHiN4qG6gyXg6?g_st=ipc","address":"Αρχελάου 32, Αθήνα 116 35","categoryIds":["desserts"],"categories":["Dessert Shops"]},{"id":"dessertsRestaurants_bfef81917506","slug":"grigoris-terkenlis-bfef","kind":"restaurant","name":"Γρηγόρης - Τερκενλής","lat":37.97862799242535,"lng":23.752935643354185,"url":"https://maps.app.goo.gl/4h9LfxEi587omUSM9?g_st=ipc","address":"Βασ. Σοφίας 64, Αθήνα 115 28","categoryIds":["desserts"],"categories":["Dessert Shops"]},{"id":"dessertsRestaurants_212bd4b3371e","slug":"desire-zacharoplasteio-212b","kind":"restaurant","name":"DESIRE Ζαχαροπλαστείο","lat":37.97875008220235,"lng":23.737643413526353,"url":"https://maps.app.goo.gl/622nuTbk44qURXdA9?g_st=ipc","address":"Δημοκρίτου 6, Αθήνα 106 71","categoryIds":["desserts"],"categories":["Dessert Shops"]}],"nearby":[{"id":"burgersRestaurants_349cb9dc8b75","slug":"smash-n-bun-349c","kind":"restaurant","name":"Smash'n Bun","lat":37.97817483675376,"lng":23.745292656199194,"url":"https://maps.app.goo.gl/4n21xowaSG1Zg8d79?g_st=ipc","address":"Πατριάρχου Ιωακείμ 48, Αθήνα 106 76","categoryIds":["burgers"],"categories":["Burger Spots"],"distanceKm":0.00985319645421547},{"id":"coffeeBrunchRestaurants_6c5755f458a3","slug":"vasilissa-melissa-athina-6c57","kind":"restaurant","name":"Βασίλισσα μέλισσα Αθήνα","lat":37.97835486257647,"lng":23.745084929463765,"url":"https://maps.app.goo.gl/gMvoN4EZdoGpDeZ47?g_st=ipc","address":"Πατριάρχου Ιωακείμ 45, Αθήνα 106 76","categoryIds":["coffee-brunch"],"categories":["Coffee & Brunch Spots"],"distanceKm":0.0222684775764134},{"id":"dessertsRestaurants_e77e22a5c2ea","slug":"patisserie-despina-e77e","kind":"restaurant","name":"Patisserie Despina","lat":37.97835834410638,"lng":23.74575820284903,"url":"https://maps.app.goo.gl/RjyUkSTj6TwcuZnn6?g_st=ipc","address":"Patriarchou Ioakim 56, Athina 106 76","categoryIds":["desserts"],"categories":["Dessert Shops"],"distanceKm":0.04068619984392818},{"id":"dessertsRestaurants_7973f2614e8c","slug":"patisserie-despina-7973","kind":"restaurant","name":"Patisserie Despina","lat":37.97835746394538,"lng":23.745758729545067,"url":"https://maps.app.goo.gl/XHKFgkbY5UCwMxmd9?g_st=ipc","address":"Patriarchou Ioakim 56, Athina 106 76","categoryIds":["desserts"],"categories":["Dessert Shops"],"distanceKm":0.040705212098212415},{"id":"dessertsRestaurants_806d25225898","slug":"patisserie-despina-806d","kind":"restaurant","name":"Patisserie Despina","lat":37.97835746394538,"lng":23.745758729545067,"url":"https://maps.app.goo.gl/XHKFgkbY5UCwMxmd9?g_st=ipc","address":"Patriarchou Ioakim 56, Athina 106 76","categoryIds":["desserts"],"categories":["Dessert Shops"],"distanceKm":0.040705212098212415},{"id":"italianRestaurants_468953c2e15e","slug":"malconi-s-italian-restaurant-4689","kind":"restaurant","name":"Malconi's Italian Restaurant","lat":37.9782776822669,"lng":23.744765633446125,"url":"https://maps.app.goo.gl/q6QEwwnvQiVfYob8A?g_st=ipc","address":"Patriarhou Ioakim 43 &, Πλουτάρχου 23, Αθήνα 106 75","categoryIds":["italian"],"categories":["Italian Restaurants"],"distanceKm":0.04776665091274157},{"id":"luxuryDiningRestaurants_78fcc80658ff","slug":"trattoria-capanna-78fc","kind":"restaurant","name":"Trattoria Capanna","lat":37.97861725628422,"lng":23.7449616800858,"url":"https://maps.app.goo.gl/VBn4DqpyECKgkc6z7?g_st=ipc","address":"Πλουτάρχου 38, Αθήνα 106 75","categoryIds":["luxury-dining"],"categories":["Luxury Dining"],"distanceKm":0.049908192576943636},{"id":"italianRestaurants_3be4af98c471","slug":"trattoria-capanna-3be4","kind":"restaurant","name":"Trattoria Capanna","lat":37.978619151360974,"lng":23.74496219249258,"url":"https://maps.app.goo.gl/TbrGKuznviUTnbH8A?g_st=ipc","address":"Πλουτάρχου 38, Αθήνα 106 75","categoryIds":["italian"],"categories":["Italian Restaurants"],"distanceKm":0.050047590656468306}],"sameRegion":[],"mentionedGuides":[]},"__N_SSG":true}