{"pageProps":{"entity":{"id":"coffeeBrunchRestaurants_aaacdfd97bc2","slug":"lemonis-bakery-aaac","kind":"restaurant","name":"Lemonis Bakery","lat":40.01696151934303,"lng":23.52512566073754,"url":"https://maps.app.goo.gl/xaGsvgZfv5mMRi2e6?g_st=ipc","address":"Polychrono 630 85","categoryIds":["coffee-brunch"],"categories":["Coffee & Brunch Spots"]},"sameCategory":[{"id":"coffeeBrunchRestaurants_b84b53e707eb","slug":"crystal-beach-bar-b84b","kind":"restaurant","name":"Crystal Beach Bar","lat":40.02336409343884,"lng":23.51395324156485,"url":"https://maps.app.goo.gl/Q863Q6e1e1985SvJ9?g_st=ipc","address":"Unnamed Road, Kassandra 630 85","categoryIds":["coffee-brunch"],"categories":["Coffee & Brunch Spots"]},{"id":"coffeeBrunchRestaurants_9b3f9081336d","slug":"amaya-beach-club-9b3f","kind":"restaurant","name":"Amaya Beach Club","lat":40.026446407870004,"lng":23.507188076460846,"url":"https://maps.app.goo.gl/DziL4jUhyUbQGmrNA?g_st=ipc","address":"2GG4+9J, Pallini 630 85","categoryIds":["coffee-brunch"],"categories":["Coffee & Brunch Spots"]},{"id":"coffeeBrunchRestaurants_65ba92d0cd82","slug":"golden-beach-near-paliouri-65ba","kind":"restaurant","name":"Golden Beach Near Paliouri","lat":40.00000157623716,"lng":23.566669631082956,"url":"https://maps.app.goo.gl/BuoQtJYMzAyirA8L6?g_st=ipc","address":"Pallini 630 85","categoryIds":["coffee-brunch"],"categories":["Coffee & Brunch Spots"]},{"id":"coffeeBrunchRestaurants_1ac37112f669","slug":"achinos-tuti-beach-halkidiki-1ac3","kind":"restaurant","name":"Achinos Tuti Beach Halkidiki","lat":39.999483989821414,"lng":23.582157727223603,"url":"https://maps.app.goo.gl/diBbGVkfHMvFE7VE7?g_st=ipc","address":"Nisos Beach, Chaniotis 630 85","categoryIds":["coffee-brunch"],"categories":["Coffee & Brunch Spots"]},{"id":"coffeeBrunchRestaurants_2451ebf0828a","slug":"agora-beach-greek-kouzina-beach-bar-2451","kind":"restaurant","name":"Agora Beach - Greek Kouzina & Beach Bar","lat":40.05004401134577,"lng":23.47152357517926,"url":"https://maps.app.goo.gl/cd42keBiiYDufY3k8?g_st=ipc","address":"Κρυοπηγη Χαλκιδική 630 77","categoryIds":["coffee-brunch"],"categories":["Coffee & Brunch Spots"]},{"id":"coffeeBrunchRestaurants_03429eb3012a","slug":"mamalouka-beach-bar-0342","kind":"restaurant","name":"Mamalouka Beach Bar","lat":39.99397355305258,"lng":23.600497598852627,"url":"https://maps.app.goo.gl/PoTnpjRujbpdssuq7?g_st=ipc","address":"Unnamed Road, Kassandra 630 85","categoryIds":["coffee-brunch"],"categories":["Coffee & Brunch Spots"]},{"id":"coffeeBrunchRestaurants_0fe0a5c9639e","slug":"canela-restaurant-by-blue-carpet-0fe0","kind":"restaurant","name":"Canela Restaurant by Blue Carpet","lat":39.99355871861254,"lng":23.60104135467034,"url":"https://maps.app.goo.gl/aPnsSZ9vtDLsCtCKA?g_st=ipc","address":"Παραλία, Pefkochori 630 85","categoryIds":["coffee-brunch"],"categories":["Coffee & Brunch Spots"]},{"id":"coffeeBrunchRestaurants_b9814a0d3d11","slug":"fiki-beach-bar-restaurant-b981","kind":"restaurant","name":"Fiki Beach Bar & Restaurant","lat":39.99215878950949,"lng":23.607017748480928,"url":"https://maps.app.goo.gl/nQhhBcx28bHKgifj6?g_st=ipc","address":"Pefkochori 630 85","categoryIds":["coffee-brunch"],"categories":["Coffee & Brunch Spots"]}],"nearby":[{"id":"municipalities_9110079bb855","slug":"polychrono-9110","kind":"municipality","name":"Πολύχρονο","lat":40.0153,"lng":23.5327,"region":"Χαλκιδική","name_en":"Polichrono","region_en":"Halkidiki","distanceKm":0.6709690048539172},{"id":"coffeeBrunchRestaurants_b84b53e707eb","slug":"crystal-beach-bar-b84b","kind":"restaurant","name":"Crystal Beach Bar","lat":40.02336409343884,"lng":23.51395324156485,"url":"https://maps.app.goo.gl/Q863Q6e1e1985SvJ9?g_st=ipc","address":"Unnamed Road, Kassandra 630 85","categoryIds":["coffee-brunch"],"categories":["Coffee & Brunch Spots"],"distanceKm":1.1882717071598181},{"id":"coffeeBrunchRestaurants_9b3f9081336d","slug":"amaya-beach-club-9b3f","kind":"restaurant","name":"Amaya Beach Club","lat":40.026446407870004,"lng":23.507188076460846,"url":"https://maps.app.goo.gl/DziL4jUhyUbQGmrNA?g_st=ipc","address":"2GG4+9J, Pallini 630 85","categoryIds":["coffee-brunch"],"categories":["Coffee & Brunch Spots"],"distanceKm":1.856182028972451},{"id":"coffeeBrunchRestaurants_65ba92d0cd82","slug":"golden-beach-near-paliouri-65ba","kind":"restaurant","name":"Golden Beach Near Paliouri","lat":40.00000157623716,"lng":23.566669631082956,"url":"https://maps.app.goo.gl/BuoQtJYMzAyirA8L6?g_st=ipc","address":"Pallini 630 85","categoryIds":["coffee-brunch"],"categories":["Coffee & Brunch Spots"],"distanceKm":4.009480868204153},{"id":"greekRestaurants_33e109e116ef","slug":"i-plateia-tis-anthoylas-33e1","kind":"restaurant","name":"Η Πλατεία της Ανθούλας","lat":40.03314783613042,"lng":23.477056436374422,"url":"https://maps.app.goo.gl/MZZAF1dJsdusePjd6?g_st=ipc","address":"Main road, Κρυοπηγή 630 77","categoryIds":["greek-restaurants"],"categories":["Greek Restaurants"],"distanceKm":4.471290168675861},{"id":"fishTavernasRestaurants_192fa7a5e6f3","slug":"trizoni-sea-treasures-192f","kind":"restaurant","name":"Trizoni Sea Treasures","lat":40.03314898834852,"lng":23.476924334583536,"url":"https://maps.app.goo.gl/TbVXDeBneUxZKZxp7?g_st=ipc","address":"Trizoni Sea Treasures, Kriopigi 630 77","categoryIds":["fish-tavernas"],"categories":["Fish Tavernas"],"distanceKm":4.481640672446985},{"id":"cheapEatsRestaurants_e78668bce22c","slug":"garry-s-e786","kind":"restaurant","name":"Garry's","lat":40.000628811076744,"lng":23.573772244228277,"url":"https://maps.app.goo.gl/AswmP29i78TmQa9F9?g_st=ipc","address":"plateia, Chaniotis 630 85","categoryIds":["cheap-eats"],"categories":["Gyros & Cheap Eats"],"distanceKm":4.523751997067187},{"id":"dessertsRestaurants_4d9f43af452c","slug":"patisserie-achlatis-4d9f","kind":"restaurant","name":"patisserie Achlatis","lat":40.0008948533071,"lng":23.574509488353804,"url":"https://maps.app.goo.gl/LLNEhXXp3PJCCKgu7?g_st=ipc","address":"Chaniotis 630 85","categoryIds":["desserts"],"categories":["Dessert Shops"],"distanceKm":4.569675846061926}],"sameRegion":[],"mentionedGuides":[]},"__N_SSG":true}