{"pageProps":{"entity":{"id":"italianRestaurants_26670e11b304","slug":"mercato-2667","kind":"restaurant","name":"Mercato","lat":37.804876583131545,"lng":23.768732488679262,"url":"https://maps.app.goo.gl/WygPaRiVJpzqrZBi8","address":"Apollonos 40, Vouliagmeni 166 71","categoryIds":["italian"],"categories":["Italian Restaurants"]},"sameCategory":[{"id":"italianRestaurants_1195b260712d","slug":"napul-e-italian-comfort-food-wine-1195","kind":"restaurant","name":"Napul'è Italian Comfort Food & Wine","lat":37.8271502092117,"lng":23.80408943661563,"url":"https://maps.app.goo.gl/7yzTG7SodJm8Ubug6?g_st=ipc","address":"Βασ. Κωνσταντίνου 43, Βάρη 166 72","categoryIds":["italian"],"categories":["Italian Restaurants"]},{"id":"italianRestaurants_19fa39b4b310","slug":"cicchetti-prosciutteria-spritzeria-19fa","kind":"restaurant","name":"Cicchetti Prosciutteria & Spritzeria","lat":37.859684523196464,"lng":23.75386502955931,"url":"https://maps.app.goo.gl/3jMcfyGkfYbxGbps9","address":"Fivis 11, Glifada 166 74","categoryIds":["italian"],"categories":["Italian Restaurants"]},{"id":"italianRestaurants_c1362c021208","slug":"itali-co-c136","kind":"restaurant","name":"ITALI.CO","lat":37.86253909414944,"lng":23.747999477664532,"url":"https://maps.app.goo.gl/pCnDdDLDMjkN2CGv6?g_st=ipc","address":"Ανδρέα Παπανδρέου 3, Γλυφάδα 166 75","categoryIds":["italian"],"categories":["Italian Restaurants"]},{"id":"italianRestaurants_dd5b148ca8d7","slug":"peccati-di-gola-dd5b","kind":"restaurant","name":"Peccati Di Gola","lat":37.86427445144013,"lng":23.751331713919253,"url":"https://maps.app.goo.gl/o1MzXXTU18xSPfb69?g_st=ipc","address":"Κύπρου 50, Γλυφάδα 166 75","categoryIds":["italian"],"categories":["Italian Restaurants"]},{"id":"italianRestaurants_976abd93ccc4","slug":"bella-vespa-976a","kind":"restaurant","name":"Bella Vespa","lat":37.867068220579014,"lng":23.747389427780124,"url":"https://maps.app.goo.gl/Num2iYLzYqax5s3c6?g_st=ipc","address":"Κύπρου 11, Γλυφάδα 166 75","categoryIds":["italian"],"categories":["Italian Restaurants"]},{"id":"italianRestaurants_18486d8f87b6","slug":"mamy-blue-pizza-napoletana-glyfada-1848","kind":"restaurant","name":"Mamy Blue - Pizza Napoletana Glyfada","lat":37.8796152626329,"lng":23.758507788324675,"url":"https://maps.app.goo.gl/Viv8JcHoZX8wKXaV9?g_st=ipc","address":"Ανδρέα Παπανδρέου 126, Γλυφάδα 165 61","categoryIds":["italian"],"categories":["Italian Restaurants"]},{"id":"italianRestaurants_73a45e6520a2","slug":"caton-l-anziano-73a4","kind":"restaurant","name":"Caton L'anziano","lat":37.90721241896495,"lng":23.748209011580894,"url":"https://maps.app.goo.gl/myFgmXovKb5x7zc9A?g_st=ipc","address":"Δωδεκανήσου 1, Αργυρούπολη 164 52","categoryIds":["italian"],"categories":["Italian Restaurants"]},{"id":"italianRestaurants_e0eab8c43067","slug":"il-tinello-athens-e0ea","kind":"restaurant","name":"Il Tinello Athens","lat":37.9164984895058,"lng":23.723486074483993,"url":"https://maps.app.goo.gl/BQxFwm6nKx3uhqa9A?g_st=ipc","address":"Κνωσού 54, Άλιμος 174 55","categoryIds":["italian"],"categories":["Italian Restaurants"]}],"nearby":[{"id":"luxuryDiningRestaurants_ae1b39199c57","slug":"mercato-ae1b","kind":"restaurant","name":"Mercato","lat":37.80487446390269,"lng":23.76873382977138,"url":"https://maps.app.goo.gl/fFD9yZrQ2kZ4LxTn9?g_st=ipc","address":"Apollonos 40, Vouliagmeni 166 71","categoryIds":["luxury-dining"],"categories":["Luxury Dining"],"distanceKm":0.00026346122883673747},{"id":"luxuryDiningRestaurants_574534b0d822","slug":"beefbar-athens-5745","kind":"restaurant","name":"Beefbar Athens","lat":37.80501795981881,"lng":23.770115727453245,"url":"https://maps.app.goo.gl/xvud7RHhQEFXiChq5?g_st=ipc","address":"Athens Αστήρ Πάλας, Βουλιαγμένη 166 71","categoryIds":["luxury-dining"],"categories":["Luxury Dining"],"distanceKm":0.12253748689402097},{"id":"luxuryDiningRestaurants_5ce4a2badf9b","slug":"pelagos-5ce4","kind":"restaurant","name":"Pelagos","lat":37.805275140067316,"lng":23.77164308843121,"url":"https://maps.app.goo.gl/QTPENP7kfSJRAMQTA?g_st=ipc","address":"Απόλλωνος 40, Βουλιαγμένη 166 71","categoryIds":["luxury-dining"],"categories":["Luxury Dining"],"distanceKm":0.2595232332472314},{"id":"luxuryDiningRestaurants_6dc5534d9406","slug":"taverna-37-6dc5","kind":"restaurant","name":"Taverna 37","lat":37.80595380281949,"lng":23.772585533663307,"url":"https://maps.app.goo.gl/xaizfkEuwTxWbciw7?g_st=ipc","address":"Απόλλωνος 40, Βουλιαγμένη 166 71","categoryIds":["luxury-dining"],"categories":["Luxury Dining"],"distanceKm":0.3590759577144724},{"id":"luxuryDiningRestaurants_c10da5caccee","slug":"matsuhisa-athens-c10d","kind":"restaurant","name":"Matsuhisa Athens","lat":37.80698321398831,"lng":23.772172298341644,"url":"https://maps.app.goo.gl/7ZfHDaS8XMMaED3P7?g_st=ipc","address":"40, Απόλλωνος street, Βουλιαγμένη 166 71","categoryIds":["luxury-dining"],"categories":["Luxury Dining"],"distanceKm":0.3823575943191553},{"id":"fishTavernasRestaurants_a752a7fe8192","slug":"matsuhisa-athens-a752","kind":"restaurant","name":"Matsuhisa Athens","lat":37.806991167366505,"lng":23.7721702530857,"url":"https://maps.app.goo.gl/kX1Hohg5k4FcqjgeA?g_st=ipc","address":"40, Απόλλωνος street, Βουλιαγμένη 166 71","categoryIds":["fish-tavernas"],"categories":["Fish Tavernas"],"distanceKm":0.38275822222545136},{"id":"coffeeBrunchRestaurants_8b66a0a4f338","slug":"moorings-8b66","kind":"restaurant","name":"Moorings","lat":37.80205351483022,"lng":23.772631066760855,"url":"https://maps.app.goo.gl/YdREkVBev1UQTkqh6?g_st=ipc","address":"Μαρινα Βουλιαγμενης, Βουλιαγμένη 166 71","categoryIds":["coffee-brunch"],"categories":["Coffee & Brunch Spots"],"distanceKm":0.4646057179692302},{"id":"luxuryDiningRestaurants_e85b7d2cb0e6","slug":"moorings-e85b","kind":"restaurant","name":"Moorings","lat":37.80205167123695,"lng":23.77263048977829,"url":"https://maps.app.goo.gl/oMKnEgoxXK8SmMSZ9?g_st=ipc","address":"Μαρινα Βουλιαγμενης, Βουλιαγμένη 166 71","categoryIds":["luxury-dining"],"categories":["Luxury Dining"],"distanceKm":0.4647068938521028}],"sameRegion":[],"mentionedGuides":[]},"__N_SSG":true}