{"pageProps":{"entity":{"id":"coffeeBrunchRestaurants_22ed699a380f","slug":"mosaic-milos-22ed","kind":"restaurant","name":"Mosaic Milos","lat":36.74431276131015,"lng":24.421917244173116,"url":"https://maps.app.goo.gl/5Mzweh8YnbTNhVaQ9?g_st=ipc","address":"Plaka 848 00","categoryIds":["coffee-brunch"],"categories":["Coffee & Brunch Spots"]},"sameCategory":[{"id":"coffeeBrunchRestaurants_bd7fc0151f49","slug":"fasolu-restaurant-beach-bar-bd7f","kind":"restaurant","name":"Fasolu Restaurant - Beach Bar","lat":36.941116049216255,"lng":24.753293392899685,"url":"https://maps.app.goo.gl/Lb3CYfu5rPNFtURu7?g_st=ipc","address":"Fassolou Beach, 840 03","categoryIds":["coffee-brunch"],"categories":["Coffee & Brunch Spots"]},{"id":"coffeeBrunchRestaurants_c3458e08944b","slug":"to-stavri-bakery-to-stayri-c345","kind":"restaurant","name":"To Stavri bakery (Το Σταυρί)","lat":36.97380305039157,"lng":24.72319061672324,"url":"https://maps.app.goo.gl/uYWL7LrV5mmCq24M8?g_st=ipc","address":"Epar.Od. Limani Kamaron-Artemonas, Apollonia 840 03","categoryIds":["coffee-brunch"],"categories":["Coffee & Brunch Spots"]},{"id":"coffeeBrunchRestaurants_efd5bd610439","slug":"threefolds-sifnos-efd5","kind":"restaurant","name":"Threefolds sifnos","lat":36.974665514362115,"lng":24.72381923558153,"url":"https://maps.app.goo.gl/PqpVut6E24nuqAUq6?g_st=ipc","address":"Απολλωνία 840 03","categoryIds":["coffee-brunch"],"categories":["Coffee & Brunch Spots"]},{"id":"coffeeBrunchRestaurants_afaf99ec8235","slug":"cafe-prago-afaf","kind":"restaurant","name":"Cafe Prago","lat":36.975461059633815,"lng":24.7240519346836,"url":"https://maps.app.goo.gl/isrdd8GJ3jpsZQ7W7?g_st=ipc","address":"Apollonias, Artemona 840 03","categoryIds":["coffee-brunch"],"categories":["Coffee & Brunch Spots"]},{"id":"coffeeBrunchRestaurants_71a1ad70f79c","slug":"pounta-71a1","kind":"restaurant","name":"Pounta","lat":36.62857034644093,"lng":24.920634222757425,"url":"https://maps.app.goo.gl/QSbpTWeVNhvVqhFt6?g_st=ipc","address":"Folegandros 840 11","categoryIds":["coffee-brunch"],"categories":["Coffee & Brunch Spots"]},{"id":"coffeeBrunchRestaurants_0b65408056cb","slug":"jagger-0b65","kind":"restaurant","name":"Jagger","lat":37.382500546041285,"lng":24.430664724576324,"url":"https://maps.app.goo.gl/1vCbzZRojT45SSX8A?g_st=ipc","address":"Dryopida 840 06","categoryIds":["coffee-brunch"],"categories":["Coffee & Brunch Spots"]},{"id":"coffeeBrunchRestaurants_b5b417f95cd1","slug":"maistrali-b5b4","kind":"restaurant","name":"Maistrali","lat":37.38947704282166,"lng":24.39834020618754,"url":"https://maps.app.goo.gl/P46Mc4PY3VqCeaVF8?g_st=ipc","address":"Merihas 840 06","categoryIds":["coffee-brunch"],"categories":["Coffee & Brunch Spots"]},{"id":"coffeeBrunchRestaurants_c2c74292ab30","slug":"hamsa-beach-bar-restaurant-c2c7","kind":"restaurant","name":"Hamsa Beach Bar - Restaurant","lat":37.39312552655256,"lng":24.3982581144625,"url":"https://maps.app.goo.gl/atz6NCMG1oEDawJu9?g_st=ipc","address":"Μαρτινακια Κυθνος, 840 06","categoryIds":["coffee-brunch"],"categories":["Coffee & Brunch Spots"]}],"nearby":[{"id":"rooftopLoungesRestaurants_55f4048d25e6","slug":"mosaic-milos-55f4","kind":"restaurant","name":"Mosaic Milos","lat":36.744311630154215,"lng":24.421917685649166,"url":"https://maps.app.goo.gl/w6QH5tCXxfavUiaSA?g_st=ipc","address":"Plaka 848 00","categoryIds":["rooftop-lounges"],"categories":["Rooftop Lounges"],"distanceKm":0.0001317864097531046},{"id":"municipalities_af26c33fb168","slug":"plaka-milos-af26","kind":"municipality","name":"Πλάκα Μήλος","lat":36.744,"lng":24.425,"region":"Μήλος","name_en":"Plaka Milos","region_en":"Milos","distanceKm":0.2768730018956418},{"id":"municipalities_e18b28aacc13","slug":"milos-e18b","kind":"municipality","name":"Μήλος","lat":36.7446,"lng":24.426,"aliases":["Μηλος"],"region":"Κυκλάδες","name_en":"Milos","region_en":"Cyclades","distanceKm":0.3651803060877814},{"id":"municipalities_89c635fb5cca","slug":"adamantas-89c6","kind":"municipality","name":"Αδάμαντας","lat":36.7236,"lng":24.4446,"region":"Μήλος","name_en":"Adamas","region_en":"Milos","distanceKm":3.064372202033588},{"id":"dessertsRestaurants_227e46360090","slug":"aggeliki-ice-cream-shop-227e","kind":"restaurant","name":"Aggeliki ice cream shop","lat":36.724956307095454,"lng":24.446679354720963,"url":"https://maps.app.goo.gl/Lr6pCYmiGibrxw1B7?g_st=ipc","address":"Greece, Adamas 848 00","categoryIds":["desserts"],"categories":["Dessert Shops"],"distanceKm":3.082496541645945},{"id":"luxuryDiningRestaurants_9f9cf29a5760","slug":"makris-milos-fine-dining-restaurant-9f9c","kind":"restaurant","name":"Makris Milos Fine Dining Restaurant","lat":36.744626545035004,"lng":24.481317634143164,"url":"https://maps.app.goo.gl/DyjWXnMeBVwqWcfy6?g_st=ipc","address":"Mytakas, Island 848 00","categoryIds":["luxury-dining"],"categories":["Luxury Dining"],"distanceKm":5.292795414034961},{"id":"municipalities_9168baac00c3","slug":"pollonia-9168","kind":"municipality","name":"Πολλώνια","lat":36.7534,"lng":24.5087,"region":"Μήλος","name_en":"Pollonia","region_en":"Milos","distanceKm":7.7978012835423165},{"id":"wineriesVineyards_946eb8e58cb0","slug":"kostantakis-winery-946e","kind":"restaurant","name":"Kostantakis Winery","lat":36.75755644321186,"lng":24.52676070016812,"url":"https://maps.app.goo.gl/6jEcs57aPdcQLmi17?g_st=ipc","address":"Πολλώνια 848 00","categoryIds":["wineries-vineyards"],"categories":["Wineries & Vineyards"],"distanceKm":9.456320961779646}],"sameRegion":[],"mentionedGuides":[{"slug":"choose-perfect-greek-island-el","title":"Πώς να Επιλέξετε το Τέλειο Ελληνικό Νησί για το Ταξίδι σας"},{"slug":"choose-perfect-greek-island","title":"How to Choose the Perfect Greek Island for Your Trip"}]},"__N_SSG":true}