{"pageProps":{"entity":{"id":"greekRestaurants_aa39dbadb1cc","slug":"mparmpa-mitsos-agios-dimitrios-aa39","kind":"restaurant","name":"Μπάρμπα-Μήτσος - Άγιος Δημήτριος","lat":37.92988893217819,"lng":23.71912670552918,"url":"https://maps.app.goo.gl/BYxu5opm4HvR37SN9","address":"Ιουστινιανού 11, Αγ. Δημήτριος Αττικής 173 41","categoryIds":["greek-restaurants"],"categories":["Greek Restaurants"]},"sameCategory":[{"id":"greekRestaurants_316cf3a477d7","slug":"taverna-o-notos-316c","kind":"restaurant","name":"Ταβέρνα ο Νότος","lat":37.93527346472632,"lng":23.722390326717125,"url":"https://maps.app.goo.gl/TEReWJLojKZEkJL38","address":"Μεταμορφώσεως 2, Αγ. Δημήτριος Αττικής 173 41","categoryIds":["greek-restaurants"],"categories":["Greek Restaurants"]},{"id":"greekRestaurants_ef1588581bbb","slug":"myrtia-ef15","kind":"restaurant","name":"Μυρτιά","lat":37.940920844377125,"lng":23.712738244892858,"url":"https://maps.app.goo.gl/QHjMpbFEFgtWLbA57","address":"Αϊδινίου 55, Νέα Σμύρνη 171 22","categoryIds":["greek-restaurants"],"categories":["Greek Restaurants"]},{"id":"greekRestaurants_eecb2ebbfdc2","slug":"gitema-eecb","kind":"restaurant","name":"Γήτεμα","lat":37.94107986247284,"lng":23.713131731866255,"url":"https://maps.app.goo.gl/S3ph9mpPrmbS64x3A","address":"Λεωφ. Ελ. Βενιζέλου 88, Νέα Σμύρνη 171 22","categoryIds":["greek-restaurants"],"categories":["Greek Restaurants"]},{"id":"greekRestaurants_6c6d00a6a4f4","slug":"remoytsiko-taverna-6c6d","kind":"restaurant","name":"Ρεμουτσικο Ταβέρνα","lat":37.93888185097854,"lng":23.730869105234564,"url":"https://maps.app.goo.gl/zELuRQBZCjzsqwux5","address":"Λεωφ. Αγίου Δημητρίου 120, Αγ. Δημήτριος Αττικής 173 41","categoryIds":["greek-restaurants"],"categories":["Greek Restaurants"]},{"id":"greekRestaurants_842cd50fd946","slug":"mpampis-taverna-842c","kind":"restaurant","name":"Μπάμπης Ταβέρνα","lat":37.93493015100239,"lng":23.70154955498321,"url":"https://maps.app.goo.gl/SyFUZSdaS3SB5Mm48","address":"Λεωφ. Αμφιθέας 73, Παλαιό Φάληρο 175 64","categoryIds":["greek-restaurants"],"categories":["Greek Restaurants"]},{"id":"greekRestaurants_30ac8464e0c3","slug":"kyr-aristos-30ac","kind":"restaurant","name":"Κυρ Αρίστος","lat":37.932597935183146,"lng":23.699203294233197,"url":"https://maps.app.goo.gl/EQaiuBpPZq633dxa7?g_st=ipc","address":"Zisimopoulou 96, Paleo Faliro 175 64","categoryIds":["greek-restaurants"],"categories":["Greek Restaurants"]},{"id":"greekRestaurants_797f42f3890a","slug":"o-proedros-alimos-797f","kind":"restaurant","name":"ο Πρόεδρος (Άλιμος)","lat":37.91296146943959,"lng":23.714111676638694,"url":"https://maps.app.goo.gl/NkEb3eW3PBdD3fTy7","address":"Άλιμος, Λεωφ. Καλαμακίου 26, Αθήνα 174 55","categoryIds":["greek-restaurants"],"categories":["Greek Restaurants"]},{"id":"greekRestaurants_e3992a60261a","slug":"kritikos-e399","kind":"restaurant","name":"Κρητικός","lat":37.94303304147985,"lng":23.704084169584778,"url":"https://maps.app.goo.gl/QgBcqGt9addfXPwL6","address":"Ραιδεστού 36, Νέα Σμύρνη 171 22","categoryIds":["greek-restaurants"],"categories":["Greek Restaurants"]}],"nearby":[{"id":"cheapEatsRestaurants_42b8119d471a","slug":"psitopoleio-o-vaggelis-to-cheiropoiito-42b8","kind":"restaurant","name":"Ψητοπωλείο «ο Βαγγέλης το χειροποίητο»","lat":37.928620979940305,"lng":23.71576237841132,"url":"https://maps.app.goo.gl/4wk6CtNQgSCn9j33A?g_st=ipc","address":"Χαλκίδος 26, Αγ. Δημήτριος Αττικής 173 41","categoryIds":["cheap-eats"],"categories":["Gyros & Cheap Eats"],"distanceKm":0.3270289471113062},{"id":"italianRestaurants_e396fe74ff9a","slug":"le-pizze-di-san-gennaro-e396","kind":"restaurant","name":"LE PIZZE DI SAN GENNARO","lat":37.93395718694605,"lng":23.71495698828565,"url":"https://maps.app.goo.gl/BW3pXFd1SVKpBcai6?g_st=ipc","address":"Ευξείνου Πόντου 172, Νέα Σμύρνη 171 23","categoryIds":["italian"],"categories":["Italian Restaurants"],"distanceKm":0.5817003879616625},{"id":"greekRestaurants_316cf3a477d7","slug":"taverna-o-notos-316c","kind":"restaurant","name":"Ταβέρνα ο Νότος","lat":37.93527346472632,"lng":23.722390326717125,"url":"https://maps.app.goo.gl/TEReWJLojKZEkJL38","address":"Μεταμορφώσεως 2, Αγ. Δημήτριος Αττικής 173 41","categoryIds":["greek-restaurants"],"categories":["Greek Restaurants"],"distanceKm":0.663632912965736},{"id":"familyFriendly_feb6b1cb5cd1","slug":"little-land-kids-play-feb6","kind":"restaurant","name":"Little Land - Kids Play","lat":37.930642671894525,"lng":23.710426716839976,"url":"https://maps.app.goo.gl/fZKSbKJMUaonK7vh9?g_st=ipc","address":"Λεωφ. Ελ. Βενιζέλου 235, Παλαιό Φάληρο 175 63","categoryIds":["family-friendly"],"categories":["Kid Friendly Locations"],"distanceKm":0.7676308016278697},{"id":"coffeeBrunchRestaurants_5db780e34d2a","slug":"braxton-5db7","kind":"restaurant","name":"Braxton","lat":37.92816326326879,"lng":23.728060610716135,"url":"https://maps.app.goo.gl/DjcEWh3JQVQokVoj7?g_st=ipc","address":"Πόντου 20, Αγ. Δημήτριος Αττικής 173 42","categoryIds":["coffee-brunch"],"categories":["Coffee & Brunch Spots"],"distanceKm":0.8067237782327746},{"id":"dessertsRestaurants_60d1fcac742b","slug":"galaktopoleio-stamoy-60d1","kind":"restaurant","name":"Γαλακτοπωλείο ΣΤΑΜΟΥ","lat":37.92337769116455,"lng":23.723512288009644,"url":"https://maps.app.goo.gl/bn7iuhhPxPAJJeX38?g_st=ipc","address":"Λεωφ. Αγίου Δημητρίου 305, Αγ. Δημήτριος Αττικής 173 42","categoryIds":["desserts"],"categories":["Dessert Shops"],"distanceKm":0.8198565459605874},{"id":"dessertsRestaurants_10984675e64e","slug":"loukou-mio-1098","kind":"restaurant","name":"Loukou Mio","lat":37.934456122337956,"lng":23.71152313800977,"url":"https://maps.app.goo.gl/uQM5VBZoTd8kzvPT9?g_st=ipc","address":"Λεωφ. Ελ. Βενιζέλου 195, Νέα Σμύρνη 171 23","categoryIds":["desserts"],"categories":["Dessert Shops"],"distanceKm":0.8382209531803629},{"id":"cheapEatsRestaurants_79cf2e094e26","slug":"vaggelis-to-gnisio-1965-79cf","kind":"restaurant","name":"Βάγγελης Το Γνήσιο 1965","lat":37.93578922990488,"lng":23.72968201403695,"url":"https://maps.app.goo.gl/8q5LESzz3ctiGx4S6?g_st=ipc","address":"Λεωφ. Αγίου Δημητρίου 163, Αγ. Δημήτριος Αττικής 173 43","categoryIds":["cheap-eats"],"categories":["Gyros & Cheap Eats"],"distanceKm":1.1346474989252457}],"sameRegion":[],"mentionedGuides":[]},"__N_SSG":true}