{"pageProps":{"entity":{"id":"greekRestaurants_d28823b9eec2","slug":"myrtia-peristeri-d288","kind":"restaurant","name":"Μυρτιά - Περιστέρι","lat":38.00643775276086,"lng":23.706964574646523,"url":"https://maps.app.goo.gl/ZmkpQ1J6yj1b1iUX6","address":"Αγίας Παρασκευής 24, Περιστέρι 121 32","categoryIds":["greek-restaurants"],"categories":["Greek Restaurants"]},"sameCategory":[{"id":"greekRestaurants_8f61506d1171","slug":"basegrill-athens-8f61","kind":"restaurant","name":"Basegrill Athens","lat":38.01200938597209,"lng":23.7082215195935,"url":"https://maps.app.goo.gl/4HcYYs1yQVdq1giy8","address":"Λεωφ. Κωνσταντινουπόλεως 64, Περιστέρι 121 33","categoryIds":["greek-restaurants"],"categories":["Greek Restaurants"]},{"id":"greekRestaurants_9c5c07b28afc","slug":"schinos-mpistro-9c5c","kind":"restaurant","name":"Σχίνος Μπιστρό","lat":38.01228323858559,"lng":23.703471319893453,"url":"https://maps.app.goo.gl/VEoaxecqRaF6Y2in8","address":"Μεγ. Αλεξάνδρου 88, Περιστέρι 121 32","categoryIds":["greek-restaurants"],"categories":["Greek Restaurants"]},{"id":"greekRestaurants_c4daeb8f4d66","slug":"malanos-c4da","kind":"restaurant","name":"Μαλανος","lat":38.0129537569984,"lng":23.7103246194612,"url":"https://maps.app.goo.gl/RHBwmAA2mvG3Eie58","address":"Ιωλκού 2, Περιστέρι 121 33","categoryIds":["greek-restaurants"],"categories":["Greek Restaurants"]},{"id":"greekRestaurants_66d5a57225f6","slug":"taverna-o-karagkiozis-66d5","kind":"restaurant","name":"Ταβέρνα Ο Καραγκιόζης","lat":38.01836729151931,"lng":23.702104419170855,"url":"https://maps.app.goo.gl/zhCvjvwCT9rbixAE6","address":"Τρώων 9, Bournazi 121 33","categoryIds":["greek-restaurants"],"categories":["Greek Restaurants"]},{"id":"greekRestaurants_cf4d36c85e78","slug":"paradosiaki-taverna-o-spanos-cf4d","kind":"restaurant","name":"Παραδοσιακή Ταβέρνα ο Σπανός","lat":38.01128559769368,"lng":23.722291820236695,"url":"https://maps.app.goo.gl/M1LDEQBwqFbK8g7Y6","address":"Αριστείδου Οικονόμου 12, Αθήνα 104 45","categoryIds":["greek-restaurants"],"categories":["Greek Restaurants"]},{"id":"greekRestaurants_6208e477b281","slug":"pappu-athens-6208","kind":"restaurant","name":"Pāppu Athens","lat":38.01046990272616,"lng":23.68965527636987,"url":"https://maps.app.goo.gl/QKrjcz5bwnJE9QXA6","address":"Μεσολογγίου 100, Περιστέρι 121 31","categoryIds":["greek-restaurants"],"categories":["Greek Restaurants"]},{"id":"greekRestaurants_894000c6e69f","slug":"arch-beer-house-8940","kind":"restaurant","name":"Arch Beer House","lat":38.01418942631727,"lng":23.68836608869776,"url":"https://maps.app.goo.gl/LiRMqJ6hgSpNtgJ99","address":"Εθ. Αντιστάσεως 91, Περιστέρι 121 34","categoryIds":["greek-restaurants"],"categories":["Greek Restaurants"]},{"id":"greekRestaurants_bad759859413","slug":"ta-skalakia-bad7","kind":"restaurant","name":"Τα Σκαλάκια","lat":37.98954880589726,"lng":23.709123253452237,"url":"https://maps.app.goo.gl/Dec4aP4V9Z2pEehcA","address":"Μαραθωνομάχων 57, Αθήνα 104 41","categoryIds":["greek-restaurants"],"categories":["Greek Restaurants"]}],"nearby":[{"id":"luxuryDiningRestaurants_0fe20ce95de7","slug":"travolta-athens-0fe2","kind":"restaurant","name":"Travolta Athens","lat":38.005280171628534,"lng":23.702492953168832,"url":"https://maps.app.goo.gl/SyrzTdSeaJcSZMj28?g_st=ipc","address":"Αγίου Παύλου 33, Περιστέρι 121 32","categoryIds":["luxury-dining"],"categories":["Luxury Dining"],"distanceKm":0.41238736620889604},{"id":"dessertsRestaurants_96d806e54fdc","slug":"zacharoplasteia-konstantinidis-96d8","kind":"restaurant","name":"ΖΑΧΑΡΟΠΛΑΣΤΕΙΑ ΚΩΝΣΤΑΝΤΙΝΙΔΗΣ","lat":38.00389002360962,"lng":23.70225603913556,"url":"https://maps.app.goo.gl/41mNPJi23HwsoihK8?g_st=ipc","address":"Εθνάρχου Μακαρίου 17, Περιστέρι 121 31","categoryIds":["desserts"],"categories":["Dessert Shops"],"distanceKm":0.500449807333632},{"id":"cheapEatsRestaurants_aa9fa501d8da","slug":"billy-s-sandwich-peristeri-billy-s-kantina-aa9f","kind":"restaurant","name":"Billy's sandwich Peristeri (Billy’s Kantina)","lat":38.00300791270127,"lng":23.702770148654015,"url":"https://maps.app.goo.gl/kQSFCYCMduFPwVhw9?g_st=ipc","address":"Π. Μελά 11, Περιστέρι 121 31","categoryIds":["cheap-eats"],"categories":["Gyros & Cheap Eats"],"distanceKm":0.5296322056115951},{"id":"dessertsRestaurants_d015844307c4","slug":"melissa-define-pastry-d015","kind":"restaurant","name":"Melissa Define Pastry","lat":38.005374786794874,"lng":23.70042813616108,"url":"https://maps.app.goo.gl/2dgPEnwHsxFhZdUv8?g_st=ipc","address":"Εθνάρχου Μακαρίου 43, Περιστέρι 121 31","categoryIds":["desserts"],"categories":["Dessert Shops"],"distanceKm":0.584764773768153},{"id":"municipalities_843525938864","slug":"sepolia-8435","kind":"municipality","name":"Σεπόλια","lat":38.0056,"lng":23.7139,"aliases":["Σεπολια"],"region":"Κέντρο Αθήνας","name_en":"Sepolia","region_en":"Athens Center","distanceKm":0.6147503396480728},{"id":"luxuryDiningRestaurants_1a544d3597a8","slug":"basegrill-athens-1a54","kind":"restaurant","name":"Basegrill Athens","lat":38.011892662985154,"lng":23.708178655362712,"url":"https://maps.app.goo.gl/Lw19R1SYRg5uJsbn9?g_st=ipc","address":"Λεωφ. Κωνσταντινουπόλεως 64, Περιστέρι 121 33","categoryIds":["luxury-dining"],"categories":["Luxury Dining"],"distanceKm":0.6158142111195792},{"id":"greekRestaurants_8f61506d1171","slug":"basegrill-athens-8f61","kind":"restaurant","name":"Basegrill Athens","lat":38.01200938597209,"lng":23.7082215195935,"url":"https://maps.app.goo.gl/4HcYYs1yQVdq1giy8","address":"Λεωφ. Κωνσταντινουπόλεως 64, Περιστέρι 121 33","categoryIds":["greek-restaurants"],"categories":["Greek Restaurants"],"distanceKm":0.6292484707810051},{"id":"cheapEatsRestaurants_27095ef62808","slug":"jackaroo-2709","kind":"restaurant","name":"Jackaroo","lat":38.0124039916799,"lng":23.705649430022987,"url":"https://maps.app.goo.gl/ZVfeByxQrS6SFYyH6?g_st=ipc","address":"Παρασκευοπούλου 45, Περιστέρι 121 35","categoryIds":["cheap-eats"],"categories":["Gyros & Cheap Eats"],"distanceKm":0.6733470116491626}],"sameRegion":[],"mentionedGuides":[]},"__N_SSG":true}