{"pageProps":{"entity":{"id":"coffeeBrunchRestaurants_7849cd86ff9a","slug":"myrtillo-7849","kind":"restaurant","name":"myrtillo","lat":38.33016504186232,"lng":20.54543331787743,"url":"https://maps.app.goo.gl/jceQN1dFVGYrVSaFA?g_st=ipc","address":"Divarata 280 81","categoryIds":["coffee-brunch"],"categories":["Coffee & Brunch Spots"]},"sameCategory":[{"id":"coffeeBrunchRestaurants_9057c09060eb","slug":"espresso-house-9057","kind":"restaurant","name":"Espresso house","lat":38.17163745193254,"lng":20.492476064422643,"url":"https://maps.app.goo.gl/yzerSoB1WzcjYnKq5?g_st=ipc","address":"Devosetou 15, Argostoli 281 00","categoryIds":["coffee-brunch"],"categories":["Coffee & Brunch Spots"]},{"id":"coffeeBrunchRestaurants_febf410e8642","slug":"costa-costa-beach-bar-febf","kind":"restaurant","name":"Costa Costa Beach Bar","lat":38.15380761963389,"lng":20.4824739703724,"url":"https://maps.app.goo.gl/TgFrHfc8nxYVBh9z7?g_st=ipc","address":"Lassi, Argostoli 281 00","categoryIds":["coffee-brunch"],"categories":["Coffee & Brunch Spots"]},{"id":"coffeeBrunchRestaurants_caa1d894f98a","slug":"kafepoleion-caa1","kind":"restaurant","name":"Kafepoleion","lat":38.14255916452544,"lng":20.54310186456745,"url":"https://maps.app.goo.gl/YKFX8hPovFNGt9pDA?g_st=ipc","address":"Κοκύλια, Kefalonia 281 00","categoryIds":["coffee-brunch"],"categories":["Coffee & Brunch Spots"]},{"id":"coffeeBrunchRestaurants_b203c212827d","slug":"remetzo-kafe-b203","kind":"restaurant","name":"Ρεμετζο καφέ","lat":38.14775445639953,"lng":20.7788036615171,"url":"https://maps.app.goo.gl/DJjkbdzn9Sg4yrHY7?g_st=ipc","address":"Metaxa, Kefalonia 280 82","categoryIds":["coffee-brunch"],"categories":["Coffee & Brunch Spots"]},{"id":"coffeeBrunchRestaurants_f69353dde3df","slug":"ammos-beach-bar-restaurant-kefalonia-f693","kind":"restaurant","name":"Ammos Beach Bar & Restaurant | Kefalonia","lat":38.08122535953636,"lng":20.800056619766497,"url":"https://maps.app.goo.gl/SxeeHeaBpXq8VgZe8?g_st=ipc","address":"Κεφαλληνίας, Skala 281 00","categoryIds":["coffee-brunch"],"categories":["Coffee & Brunch Spots"]},{"id":"coffeeBrunchRestaurants_819a67237a78","slug":"zimis-819a","kind":"restaurant","name":"Zimis","lat":38.83034594976957,"lng":20.704090375704506,"url":"https://maps.app.goo.gl/qftMEppMQDEhweUP7?g_st=ipc","address":"Efstathiou Zakka 12, Lefkada 311 00","categoryIds":["coffee-brunch"],"categories":["Coffee & Brunch Spots"]},{"id":"coffeeBrunchRestaurants_ebff8d600624","slug":"jenkins-lounge-eatery-ebff","kind":"restaurant","name":"Jenkins Lounge Eatery","lat":37.786543893628924,"lng":20.898568985854595,"url":"https://maps.app.goo.gl/1TG8uMAi1MTZQgiY8?g_st=ipc","address":"Psaron 3, Zakinthos 291 00","categoryIds":["coffee-brunch"],"categories":["Coffee & Brunch Spots"]},{"id":"coffeeBrunchRestaurants_4e218b55f113","slug":"madisons-kitchen-bar-4e21","kind":"restaurant","name":"Madisons Kitchen Bar","lat":37.78371523709895,"lng":20.898097278049377,"url":"https://maps.app.goo.gl/Anc3Yu4uRzD8XagR9?g_st=ipc","address":"Lomvardou 36, Zakinthos 291 00","categoryIds":["coffee-brunch"],"categories":["Coffee & Brunch Spots"]}],"nearby":[{"id":"greekRestaurants_10b7a0bbe499","slug":"alexandros-restaurant-grill-10b7","kind":"restaurant","name":"Alexandros Restaurant Grill","lat":38.331731624117374,"lng":20.546359556985937,"url":"https://maps.app.goo.gl/KNa3UfEKhAQwUwCPA?g_st=ipc","address":"Myrtos, Διβαράτα 280 81","categoryIds":["greek-restaurants"],"categories":["Greek Restaurants"],"distanceKm":0.19201979508283717},{"id":"greekRestaurants_40f2adbc511d","slug":"taverna-kafe-mpar-giorgos-40f2","kind":"restaurant","name":"Ταβέρνα Καφέ- Μπαρ Γιώργος","lat":38.3320186369205,"lng":20.546779123756146,"url":"https://maps.app.goo.gl/Sbn9UvprX6ZZEx9CA?g_st=ipc","address":"Διβαράτα 280 81","categoryIds":["greek-restaurants"],"categories":["Greek Restaurants"],"distanceKm":0.23719536324527465},{"id":"fishTavernasRestaurants_2ef1060ceab9","slug":"kalyva-tou-psara-2ef1","kind":"restaurant","name":"Kalyva tou Psara","lat":38.30990002692816,"lng":20.4759773849458,"url":"https://maps.app.goo.gl/usLMqjcjtFy6fTWd6?g_st=ipc","address":"Unnamed Rd, Zola 281 00","categoryIds":["fish-tavernas"],"categories":["Fish Tavernas"],"distanceKm":6.464704759229194},{"id":"greekRestaurants_391bc89b168d","slug":"stou-tsagkari-391b","kind":"restaurant","name":"Stou Tsagkari","lat":38.310551214172484,"lng":20.46925238713338,"url":"https://maps.app.goo.gl/eMh53CU5SjwcPttA6?g_st=ipc","address":"Zola 1, Ζολά 281 00","categoryIds":["greek-restaurants"],"categories":["Greek Restaurants"],"distanceKm":6.994630540376276},{"id":"mustSeeAttractions_5b0540533ca6","slug":"melissani-cave-5b05","kind":"restaurant","name":"Melissani Cave","lat":38.25698727901152,"lng":20.6235483284677,"url":"https://maps.app.goo.gl/DamgwWTndmBhKj5W9?g_st=ipc","address":"Σάμη 280 80","categoryIds":["attractions"],"categories":["Must-See Attractions"],"distanceKm":10.615292170284485},{"id":"greekRestaurants_74a64e97d094","slug":"alati-all-day-bar-restaurant-74a6","kind":"restaurant","name":"Alati All-Day Bar & Restaurant","lat":38.43970476008307,"lng":20.536535224973786,"url":"https://maps.app.goo.gl/qijnd11tiKx6sFE87?g_st=ipc","address":"Κεφαλονιά Παραλία Αλατιές, 280 84","categoryIds":["greek-restaurants"],"categories":["Greek Restaurants"],"distanceKm":12.204927613644863},{"id":"municipalities_51bdb5710c4f","slug":"ithaki-51bd","kind":"municipality","name":"Ιθάκη","lat":38.3667,"lng":20.7167,"region":"Ιόνιο","name_en":"Ithaki","region_en":"Ionian Islands","distanceKm":15.477941012008664},{"id":"greekRestaurants_552dd808e98a","slug":"palia-plaka-552d","kind":"restaurant","name":"Παλιά Πλάκα","lat":38.18548756443184,"lng":20.48462311862845,"url":"https://maps.app.goo.gl/natPFiwtavpA1LPe8?g_st=ipc","address":"Αγνής Μεταξά 2 Agnis, Μεταξά 2, Αργοστόλι 281 00","categoryIds":["greek-restaurants"],"categories":["Greek Restaurants"],"distanceKm":16.94095649709166}],"sameRegion":[],"mentionedGuides":[]},"__N_SSG":true}