{"pageProps":{"entity":{"id":"rooftopLoungesRestaurants_d731d137095c","slug":"nest-rooftop-monte-kastella-d731","kind":"restaurant","name":"ΝΕΣΤ Rooftop - Monte Kastella","lat":37.93966270446982,"lng":23.66158469266589,"url":"https://maps.app.goo.gl/ihEdPbBRkh4gUgkN8?g_st=ipc","address":"Λεωφ. Αλ. Παπαναστασίου 109, Πειραιάς 185 33","categoryIds":["rooftop-lounges"],"categories":["Rooftop Lounges"]},"sameCategory":[{"id":"rooftopLoungesRestaurants_70a332fffcc8","slug":"horizon-rooftop-of-senses-70a3","kind":"restaurant","name":"Horizon Rooftop Of Senses","lat":37.93866165468551,"lng":23.659642211558037,"url":"https://maps.app.goo.gl/viDajdxAvyspFBBt6?g_st=ipc","address":"Ακτή Κουμουνδούρου 24, Πειραιάς 185 33","categoryIds":["rooftop-lounges"],"categories":["Rooftop Lounges"]},{"id":"rooftopLoungesRestaurants_43009144e178","slug":"la-luna-see-the-view-4300","kind":"restaurant","name":"La Luna See The View","lat":37.94499432681891,"lng":23.62996124370496,"url":"https://maps.app.goo.gl/uPm46zTckTNqv3Qu9?g_st=ipc","address":"Παύλου, Κουντουριώτου 73, Δραπετσώνα 186 48","categoryIds":["rooftop-lounges"],"categories":["Rooftop Lounges"]},{"id":"rooftopLoungesRestaurants_8bd69f8e140f","slug":"sky-bar-360-8bd6","kind":"restaurant","name":"Sky Bar 360","lat":37.91880690173223,"lng":23.70114636675223,"url":"https://maps.app.goo.gl/TMX4yShbMaVX6rTHA?g_st=ipc","address":"Λεωφ. Ποσειδώνος 72, Παλαιό Φάληρο 175 62","categoryIds":["rooftop-lounges"],"categories":["Rooftop Lounges"]},{"id":"rooftopLoungesRestaurants_eff063b05a76","slug":"premiere-restaurant-eff0","kind":"restaurant","name":"Premiere Restaurant","lat":37.95933669311001,"lng":23.721893436588108,"url":"https://maps.app.goo.gl/xdoJybpRxJKYAgbKA?g_st=ipc","address":"Λεωφ. Ανδρέα Συγγρού 89-93, Αθήνα 117 45","categoryIds":["rooftop-lounges"],"categories":["Rooftop Lounges"]},{"id":"rooftopLoungesRestaurants_9f3b51889721","slug":"neoma-9f3b","kind":"restaurant","name":"Neoma","lat":37.96667210546055,"lng":23.72293271432969,"url":"https://maps.app.goo.gl/GwTqDERwqhw3c72o8?g_st=ipc","address":"Μουσών 13, Αθήνα 117 41","categoryIds":["rooftop-lounges"],"categories":["Rooftop Lounges"]},{"id":"rooftopLoungesRestaurants_f3813d39259f","slug":"thissio-view-rooftop-estiatorio-mpar-f381","kind":"restaurant","name":"THISSIO VIEW - Rooftop Εστιατόριο & Μπάρ","lat":37.974080279276336,"lng":23.719915035860108,"url":"https://maps.app.goo.gl/fQ8YQr8FRL5GzrPm7?g_st=ipc","address":"Αποστόλου Παύλου 25, Αθήνα 118 51","categoryIds":["rooftop-lounges"],"categories":["Rooftop Lounges"]},{"id":"rooftopLoungesRestaurants_f6776fb8dcd6","slug":"hill-athens-rooftop-restaurant-f677","kind":"restaurant","name":"Hill Athens Rooftop Restaurant","lat":37.97419365813568,"lng":23.719905442723636,"url":"https://maps.app.goo.gl/3QDHt2qN9bAbpZCo6?g_st=ipc","address":"Αποστόλου Παύλου 27, Αθήνα 118 51","categoryIds":["rooftop-lounges"],"categories":["Rooftop Lounges"]},{"id":"rooftopLoungesRestaurants_0166d74152d9","slug":"180-west-rooftop-lounge-restaurant-0166","kind":"restaurant","name":"180º West Rooftop Lounge Restaurant","lat":37.965774750504295,"lng":23.727676619784248,"url":"https://maps.app.goo.gl/B2UsgvhxQkuJx2dU7?g_st=ipc","address":"Φαλήρου 37-39, Αθήνα 117 42","categoryIds":["rooftop-lounges"],"categories":["Rooftop Lounges"]}],"nearby":[{"id":"luxuryDiningRestaurants_223cae9767cf","slug":"nest-rooftop-monte-kastella-223c","kind":"restaurant","name":"ΝΕΣΤ Rooftop - Monte Kastella","lat":37.93966255701075,"lng":23.661584217897186,"url":"https://maps.app.goo.gl/KrWjCjHhBZcKtAsU9?g_st=ipc","address":"Λεωφ. Αλ. Παπαναστασίου 109, Πειραιάς 185 33","categoryIds":["luxury-dining"],"categories":["Luxury Dining"],"distanceKm":0.00004474712910361799},{"id":"rooftopLoungesRestaurants_70a332fffcc8","slug":"horizon-rooftop-of-senses-70a3","kind":"restaurant","name":"Horizon Rooftop Of Senses","lat":37.93866165468551,"lng":23.659642211558037,"url":"https://maps.app.goo.gl/viDajdxAvyspFBBt6?g_st=ipc","address":"Ακτή Κουμουνδούρου 24, Πειραιάς 185 33","categoryIds":["rooftop-lounges"],"categories":["Rooftop Lounges"],"distanceKm":0.2034902816507882},{"id":"fishTavernasRestaurants_948960a20968","slug":"piscis-mikrolimano-9489","kind":"restaurant","name":"PISCIS (Mikrolimano)","lat":37.938490522505944,"lng":23.659032074228165,"url":"https://maps.app.goo.gl/MsZEdpRYJ8p1nqmj9?g_st=ipc","address":"Ακτή Κουμουνδούρου 30, Πειραιάς 185 33","categoryIds":["fish-tavernas"],"categories":["Fish Tavernas"],"distanceKm":0.2590346979219938},{"id":"fishTavernasRestaurants_2686f1888d4d","slug":"jimmy-s-fish-2686","kind":"restaurant","name":"Jimmy's Fish","lat":37.937411300998484,"lng":23.658441347658343,"url":"https://maps.app.goo.gl/14E3gTprwmDfYzgz9?g_st=ipc","address":"Ακτή Κουμουνδούρου 52, Πειραιάς 185 33","categoryIds":["fish-tavernas"],"categories":["Fish Tavernas"],"distanceKm":0.3723714897984494},{"id":"fishTavernasRestaurants_159bf25520a5","slug":"varoulko-seaside-restaurant-159b","kind":"restaurant","name":"Varoulko Seaside Restaurant","lat":37.93728962950612,"lng":23.658502308499486,"url":"https://maps.app.goo.gl/hXejEzhnCFuwNgQb8?g_st=ipc","address":"Ακτή Κουμουνδούρου 54, Πειραιάς 185 33","categoryIds":["fish-tavernas"],"categories":["Fish Tavernas"],"distanceKm":0.37775501553808133},{"id":"luxuryDiningRestaurants_e7d40d9dd881","slug":"varoulko-seaside-restaurant-e7d4","kind":"restaurant","name":"Varoulko Seaside Restaurant","lat":37.93728764717136,"lng":23.658501845885716,"url":"https://maps.app.goo.gl/rqEtmfcH3ZARtEsf7?g_st=ipc","address":"Ακτή Κουμουνδούρου 54, Πειραιάς 185 33","categoryIds":["luxury-dining"],"categories":["Luxury Dining"],"distanceKm":0.3779380452474952},{"id":"municipalities_786d04a0f1cf","slug":"mikrolimano-786d","kind":"municipality","name":"Μικρολίμανο","lat":37.9363,"lng":23.6609,"region":"Πειραιάς","name_en":"Mikrolimano","region_en":"Piraeus","distanceKm":0.3787061949457997},{"id":"asianRestaurants_ac2889417da3","slug":"noodle-bar-peiraias-ac28","kind":"restaurant","name":"Noodle Bar Πειραιάς","lat":37.937017849380595,"lng":23.658515861113596,"url":"https://maps.app.goo.gl/bPMm8AQFpLTWbzzb7?g_st=ipc","address":"Ακτή Κουμουνδούρου 60, Πειραιάς 185 34","categoryIds":["asian"],"categories":["Asian Restaurants"],"distanceKm":0.39864785480048753}],"sameRegion":[],"mentionedGuides":[]},"__N_SSG":true}