{"pageProps":{"entity":{"id":"cheapEatsRestaurants_f41f24c34bd1","slug":"o-christaras-f41f","kind":"restaurant","name":"Ο Χρηστάρας","lat":38.06513658858884,"lng":23.770452923606605,"url":"https://maps.app.goo.gl/73hetj8YZUmHBV4M7?g_st=ipc","address":"κ, Δεξαμενής, Θεοτοκοπούλου και, Μεταμόρφωση 144 52","categoryIds":["cheap-eats"],"categories":["Gyros & Cheap Eats"]},"sameCategory":[{"id":"cheapEatsRestaurants_a0695ebe74bb","slug":"to-teleion-a069","kind":"restaurant","name":"Το Τέλειον","lat":38.05891347949006,"lng":23.77665689156842,"url":"https://maps.app.goo.gl/Q3YXwLTyLfeVdVYX6?g_st=ipc","address":"Λεωφ. Πλαπούτα 20, Ηράκλειο 141 22","categoryIds":["cheap-eats"],"categories":["Gyros & Cheap Eats"]},{"id":"cheapEatsRestaurants_dac5582833c7","slug":"taliban-street-food-dac5","kind":"restaurant","name":"Taliban Street Food","lat":38.06195061055415,"lng":23.783033784917546,"url":"https://maps.app.goo.gl/4yeaKT2EdHHJPxdj7?g_st=ipc","address":"Λεωφ. Αμαρουσίου 29, Λυκόβρυση 141 23","categoryIds":["cheap-eats"],"categories":["Gyros & Cheap Eats"]},{"id":"cheapEatsRestaurants_5f9d5dd343a6","slug":"ypoyrgeio-geyseon-soyvlaki-psita-5f9d","kind":"restaurant","name":"ΥΠΟΥΡΓΕΙΟ ΓΕΥΣΕΩΝ-Σουβλάκι,Ψητά","lat":38.04303394507047,"lng":23.771779772357615,"url":"https://maps.app.goo.gl/LCrvDRPpRco2nVuF9?g_st=ipc","address":"Φιλοθέης 67, Ηράκλειο 141 21","categoryIds":["cheap-eats"],"categories":["Gyros & Cheap Eats"]},{"id":"cheapEatsRestaurants_f527d097e08b","slug":"mpampis-soyvlatzidiko-f527","kind":"restaurant","name":"Μπάμπης (Σουβλατζίδικο)","lat":38.07798891290964,"lng":23.794191207475013,"url":"https://maps.app.goo.gl/FPtnwFuAA6xGZThWA?g_st=ipc","address":"Γεωρ. Λύρα 5, Κηφισιά 145 64","categoryIds":["cheap-eats"],"categories":["Gyros & Cheap Eats"]},{"id":"cheapEatsRestaurants_f3077615404b","slug":"kantina-o-alekos-f307","kind":"restaurant","name":"Καντίνα \"ο Αλεκος\"","lat":38.04208740467577,"lng":23.77486464859004,"url":"https://maps.app.goo.gl/4oCtgVQEesHACQsu8?g_st=ipc","address":"Μαρίνου Αντύπα 47, Ηράκλειο 141 21","categoryIds":["cheap-eats"],"categories":["Gyros & Cheap Eats"]},{"id":"cheapEatsRestaurants_59fb21ba5f98","slug":"hobos-street-grill-59fb","kind":"restaurant","name":"Hobos Street Grill","lat":38.04249747641086,"lng":23.753515339761147,"url":"https://maps.app.goo.gl/YHJtEHPvQRVXwD3F7?g_st=ipc","address":"Λεωφ. Ηρακλείου 254, Νέα Ιωνία 142 31","categoryIds":["cheap-eats"],"categories":["Gyros & Cheap Eats"]},{"id":"cheapEatsRestaurants_7db196676e19","slug":"karaflas-7db1","kind":"restaurant","name":"Καράφλας","lat":38.07655628972639,"lng":23.739456286868005,"url":"https://maps.app.goo.gl/DzK7LaFGANeLebDQ7?g_st=ipc","address":"Φιλαδέλφειας 56-58, Αχαρνές 136 71","categoryIds":["cheap-eats"],"categories":["Gyros & Cheap Eats"]},{"id":"cheapEatsRestaurants_484ec346fe11","slug":"souzi-tros-street-food-484e","kind":"restaurant","name":"SOUZI TROS street food","lat":38.0550996125921,"lng":23.804743752516742,"url":"https://maps.app.goo.gl/Q2YtxKh8LosNGyHJ6?g_st=ipc","address":"Σπύρου Λέκκα 9, Μαρούσι 151 24","categoryIds":["cheap-eats"],"categories":["Gyros & Cheap Eats"]}],"nearby":[{"id":"dessertsRestaurants_35fad49944d3","slug":"oikogeneia-stayrati-35fa","kind":"restaurant","name":"Οικογένεια Σταυράτη","lat":38.064333617477246,"lng":23.775971928887216,"url":"https://maps.app.goo.gl/nFJr46bSggFggK8U6?g_st=ipc","address":"Λεωφ. Ηρακλείου 531, Ηράκλειο 141 22","categoryIds":["desserts"],"categories":["Dessert Shops"],"distanceKm":0.4913440855438661},{"id":"greekRestaurants_be5c399cb3b9","slug":"to-vietnam-be5c","kind":"restaurant","name":"Το Βιετνάμ","lat":38.0615311115762,"lng":23.764059030004713,"url":"https://maps.app.goo.gl/xC1aTbCCv97NuUkz6?g_st=ipc","address":"Agiou Konstantinou 18, Metamorfosi 144 52","categoryIds":["greek-restaurants"],"categories":["Greek Restaurants"],"distanceKm":0.6885260670547959},{"id":"cheapEatsRestaurants_a0695ebe74bb","slug":"to-teleion-a069","kind":"restaurant","name":"Το Τέλειον","lat":38.05891347949006,"lng":23.77665689156842,"url":"https://maps.app.goo.gl/Q3YXwLTyLfeVdVYX6?g_st=ipc","address":"Λεωφ. Πλαπούτα 20, Ηράκλειο 141 22","categoryIds":["cheap-eats"],"categories":["Gyros & Cheap Eats"],"distanceKm":0.8796843447067618},{"id":"familyFriendly_afe86b0c0ea7","slug":"game-project-afe8","kind":"restaurant","name":"GAME Project","lat":38.057383703991036,"lng":23.772780317559956,"url":"https://maps.app.goo.gl/XsjBK4zMnNMj3Syf6?g_st=ipc","address":"204, ELeftheriou Venizelou Str N, Αθήνα 141 22","categoryIds":["family-friendly"],"categories":["Kid Friendly Locations"],"distanceKm":0.8858349020234356},{"id":"dessertsRestaurants_91ba7ff0c788","slug":"galaktopoleio-stamoy-91ba","kind":"restaurant","name":"Γαλακτοπωλείο ΣΤΑΜΟΥ","lat":38.06327717225913,"lng":23.780942994591154,"url":"https://maps.app.goo.gl/rMwhBDoVuWArY4T36?g_st=ipc","address":"Λεωφ. Αμαρουσίου 29, Λυκόβρυση 141 23","categoryIds":["desserts"],"categories":["Dessert Shops"],"distanceKm":0.9413507500141955},{"id":"cheapEatsRestaurants_dac5582833c7","slug":"taliban-street-food-dac5","kind":"restaurant","name":"Taliban Street Food","lat":38.06195061055415,"lng":23.783033784917546,"url":"https://maps.app.goo.gl/4yeaKT2EdHHJPxdj7?g_st=ipc","address":"Λεωφ. Αμαρουσίου 29, Λυκόβρυση 141 23","categoryIds":["cheap-eats"],"categories":["Gyros & Cheap Eats"],"distanceKm":1.1569862133552637},{"id":"familyFriendly_814843d50658","slug":"k9-arena-8148","kind":"restaurant","name":"K9 Arena","lat":38.07105818937244,"lng":23.783776935008227,"url":"https://maps.app.goo.gl/x9xASynDZReucwX5A?g_st=ipc","address":"Χαλκίδος 15, Λυκόβρυση 141 23","categoryIds":["family-friendly"],"categories":["Kid Friendly Locations"],"distanceKm":1.3394226943856498},{"id":"municipalities_f5a6fd333493","slug":"metamorfosi-f5a6","kind":"municipality","name":"Μεταμόρφωση","lat":38.0612,"lng":23.7544,"aliases":["Metamorfosi","Metamorphosi","Μεταμορφωση"],"region":"Βόρεια Προάστια","name_en":"Metamorfosi","region_en":"Northern Suburbs","distanceKm":1.471980436745815}],"sameRegion":[],"mentionedGuides":[]},"__N_SSG":true}