{"pageProps":{"entity":{"id":"wineriesVineyards_8f6a786e4be3","slug":"oinopoiitiki-monemvasias-tsimpidi-8f6a","kind":"restaurant","name":"Οινοποιητική Μονεμβασιάς Τσιμπίδη","lat":36.733880178604224,"lng":22.96702817602069,"url":"https://maps.app.goo.gl/h6i2Vu1wSZVz67HD7?g_st=ipc","address":"Αγγελώνα 230 52","categoryIds":["wineries-vineyards"],"categories":["Wineries & Vineyards"]},"sameCategory":[{"id":"wineriesVineyards_aa1e572628a2","slug":"lacovino-winery-aa1e","kind":"restaurant","name":"Lacovino Winery","lat":36.85798905543435,"lng":22.697149929242318,"url":"https://maps.app.goo.gl/sw9W815tCrvPyndNA?g_st=ipc","address":"Έλος 230 55","categoryIds":["wineries-vineyards"],"categories":["Wineries & Vineyards"]},{"id":"wineriesVineyards_c0074db8c133","slug":"ktima-tselepoy-c007","kind":"restaurant","name":"Κτήμα Τσέλεπου","lat":37.42938401315253,"lng":22.489743084074338,"url":"https://maps.app.goo.gl/q5QDiSUHfETbAsfo9?g_st=ipc","address":"14th klm. Tripolis - Kastri Road, Rizes, Arcadia 220 12","categoryIds":["wineries-vineyards"],"categories":["Wineries & Vineyards"]},{"id":"wineriesVineyards_69d625490caa","slug":"oinopoieia-papantoni-69d6","kind":"restaurant","name":"Οινοποιεία Παπαντώνη","lat":37.62151973903064,"lng":22.717966668919065,"url":"https://maps.app.goo.gl/8MoiYv6j31NHuYmD9?g_st=ipc","address":"Κανάρη 47, Άργος 212 00","categoryIds":["wineries-vineyards"],"categories":["Wineries & Vineyards"]},{"id":"wineriesVineyards_b3c21913429a","slug":"oinopoieio-troypi-troupis-winery-b3c2","kind":"restaurant","name":"Οινοποιείο Τρουπή - Troupis Winery","lat":37.578821168768364,"lng":22.391134196287375,"url":"https://maps.app.goo.gl/y97jAfhSNsjXAtQt7?g_st=ipc","address":"Μηλιά, Μηλιά Τριπόλεως 221 00","categoryIds":["wineries-vineyards"],"categories":["Wineries & Vineyards"]},{"id":"wineriesVineyards_011f8d812c25","slug":"domaine-skouras-ktima-skoyra-o-a-e-011f","kind":"restaurant","name":"DOMAINE SKOURAS / ΚΤΗΜΑ ΣΚΟΥΡΑ Ο.Α.Ε.","lat":37.689635245473845,"lng":22.65473621335941,"url":"https://maps.app.goo.gl/xuRduiD32C9WJMTL8?g_st=ipc","address":"Argous - Sternas Rd (10th Km), Malandreni, Άργος 212 00","categoryIds":["wineries-vineyards"],"categories":["Wineries & Vineyards"]},{"id":"wineriesVineyards_2941ab0a3cb2","slug":"ktima-spyropoylos-2941","kind":"restaurant","name":"Κτήμα Σπυρόπουλος","lat":37.63241805452202,"lng":22.386158704913175,"url":"https://maps.app.goo.gl/yaMLQMfuQx4GhqbF7?g_st=ipc","address":"Μαντινεία 221 00","categoryIds":["wineries-vineyards"],"categories":["Wineries & Vineyards"]},{"id":"wineriesVineyards_02d00923574f","slug":"lafazanis-winery-02d0","kind":"restaurant","name":"Lafazanis Winery","lat":37.81366330913366,"lng":22.765441857507405,"url":"https://maps.app.goo.gl/A2t4w3k9kTA2cB6j9?g_st=ipc","address":"Θέση Κεφαλάρι, Αρχαίες Κλεωνές 205 00","categoryIds":["wineries-vineyards"],"categories":["Wineries & Vineyards"]},{"id":"wineriesVineyards_88afc94904f1","slug":"karamitsos-winery-88af","kind":"restaurant","name":"Karamitsos Winery","lat":37.8058034996967,"lng":22.666146923082234,"url":"https://maps.app.goo.gl/97nmfFmuN9mMotwW7?g_st=ipc","address":"Θέση Μπογάζι, Νεμέα 205 00","categoryIds":["wineries-vineyards"],"categories":["Wineries & Vineyards"]}],"nearby":[{"id":"municipalities_501ca30757a9","slug":"monemvasia-501c","kind":"municipality","name":"Μονεμβασιά","lat":36.6884,"lng":23.05,"region":"Λακωνία","name_en":"Monemvasia","region_en":"Laconia","distanceKm":8.959793191629652},{"id":"greekRestaurants_794458345bbc","slug":"voltes-7944","kind":"restaurant","name":"Βόλτες","lat":36.686792934225274,"lng":23.05465871968147,"url":"https://maps.app.goo.gl/L1YpqXiibiA7JZkp6?g_st=ipc","address":"Γιάννη Ρίτσου, Μονεμβασιά 230 70","categoryIds":["greek-restaurants"],"categories":["Greek Restaurants"],"distanceKm":9.403930804562405},{"id":"mustSeeAttractions_00d499d24fcf","slug":"kastropoliteia-monemvasias-00d4","kind":"restaurant","name":"Καστροπολιτεία Μονεμβασιάς","lat":36.687484458767585,"lng":23.0558013260312,"url":"https://maps.app.goo.gl/a1RARGnxhykKakN29?g_st=ipc","address":"Monemvasia 230 70","categoryIds":["attractions"],"categories":["Must-See Attractions"],"distanceKm":9.44646409821066},{"id":"wineriesVineyards_aa1e572628a2","slug":"lacovino-winery-aa1e","kind":"restaurant","name":"Lacovino Winery","lat":36.85798905543435,"lng":22.697149929242318,"url":"https://maps.app.goo.gl/sw9W815tCrvPyndNA?g_st=ipc","address":"Έλος 230 55","categoryIds":["wineries-vineyards"],"categories":["Wineries & Vineyards"],"distanceKm":27.71121507641999},{"id":"fishTavernasRestaurants_2a678cfe2dc0","slug":"saga-fish-restaurant-2a67","kind":"restaurant","name":"SAGA FISH RESTAURANT","lat":36.75609227671703,"lng":22.56974766830783,"url":"https://maps.app.goo.gl/pjwBsRKTeWC7U2RX6?g_st=ipc","address":"ΤΖΑΝΝΗ ΤΖΑΝΕΤΑΚΗ, Githio 232 00","categoryIds":["fish-tavernas"],"categories":["Fish Tavernas"],"distanceKm":35.48419817708962},{"id":"municipalities_3a3d61a31c8f","slug":"gytheio-3a3d","kind":"municipality","name":"Γύθειο","lat":36.7572,"lng":22.5644,"aliases":["Gytheio","Ytheio"],"region":"Λακωνία","name_en":"Gytheio","region_en":"Laconia","distanceKm":35.96795207186806},{"id":"municipalities_69975f7e3686","slug":"mayrovoyni-6997","kind":"municipality","name":"Μαυροβούνι","lat":36.7275,"lng":22.5564,"region":"Λακωνία","name_en":"Mavrovouni","region_en":"Laconia","distanceKm":36.60111805762965},{"id":"municipalities_44f0c923cf66","slug":"skoytari-44f0","kind":"municipality","name":"Σκουτάρι","lat":36.716,"lng":22.55,"region":"Λακωνία","name_en":"Skoutari","region_en":"Laconia","distanceKm":37.22051561045937}],"sameRegion":[],"mentionedGuides":[]},"__N_SSG":true}