{"pageProps":{"entity":{"id":"italianRestaurants_d26e71c0baaa","slug":"p3-pizza-pasta-piazza-d26e","kind":"restaurant","name":"P3 • Pizza Pasta Piazza","lat":37.95458478436311,"lng":23.74640491373037,"url":"https://maps.app.goo.gl/RxyTMGLyt4d7KQ4T7?g_st=ipc","address":"Πλ. Υμηττού 15, Υμηττός 172 37","categoryIds":["italian"],"categories":["Italian Restaurants"]},"sameCategory":[{"id":"italianRestaurants_bdaaf75d6c5e","slug":"canarino-bdaa","kind":"restaurant","name":"Canarino","lat":37.95905367625766,"lng":23.73382645635927,"url":"https://maps.app.goo.gl/kPu5BDkNuumunei99?g_st=ipc","address":"Ηλία Ηλιού 28, Αθήνα 117 43","categoryIds":["italian"],"categories":["Italian Restaurants"]},{"id":"italianRestaurants_2b0b4658687c","slug":"agave-athens-2b0b","kind":"restaurant","name":"agave athens","lat":37.9657831829776,"lng":23.746184137622457,"url":"https://maps.app.goo.gl/uUSmZ457DPu3bX9J6?g_st=ipc","address":"Ευφράνορος 40, Αθήνα 116 35","categoryIds":["italian"],"categories":["Italian Restaurants"]},{"id":"italianRestaurants_77b67be1fb4f","slug":"mario-luigi-77b6","kind":"restaurant","name":"Mario & Luigi","lat":37.966012366342085,"lng":23.746366511353546,"url":"https://maps.app.goo.gl/xKjHZ2p6PcwHNd7G8?g_st=ipc","address":"Ευφράνορος 35, Αθήνα 116 35","categoryIds":["italian"],"categories":["Italian Restaurants"]},{"id":"italianRestaurants_eb6dad79ff00","slug":"colibri-eb6d","kind":"restaurant","name":"Colibri","lat":37.96629536354424,"lng":23.742907448127177,"url":"https://maps.app.goo.gl/p6S1BxZ6W3VgwiR46?g_st=ipc","address":"Εμπεδοκλέους 15, Αθήνα 116 35","categoryIds":["italian"],"categories":["Italian Restaurants"]},{"id":"italianRestaurants_2ca02a129667","slug":"luma-2ca0","kind":"restaurant","name":"Luma","lat":37.967195735298965,"lng":23.74306872996665,"url":"https://maps.app.goo.gl/csSJRksdwNoDcqqE7?g_st=ipc","address":"Φερεκύδου 2, Αθήνα 116 35","categoryIds":["italian"],"categories":["Italian Restaurants"]},{"id":"italianRestaurants_858265b3f822","slug":"cosa-nostra-fresca-pasta-pagrati-8582","kind":"restaurant","name":"Cosa Nostra Fresca Pasta Pagrati","lat":37.96783594678004,"lng":23.743332676630974,"url":"https://maps.app.goo.gl/CdMX5E6yxNBbvoYs8?g_st=ipc","address":"Αρχιμήδους 8, Αθήνα 116 35","categoryIds":["italian"],"categories":["Italian Restaurants"]},{"id":"italianRestaurants_f25cb6c501bb","slug":"la-nonna-f25c","kind":"restaurant","name":"la nonna","lat":37.966397023107625,"lng":23.734629464112153,"url":"https://maps.app.goo.gl/JWJwotwbGCaC9dvV6?g_st=ipc","address":"Αναπαύσεως 11, Αθήνα 116 36","categoryIds":["italian"],"categories":["Italian Restaurants"]},{"id":"italianRestaurants_22324beef805","slug":"pizza-days-agioy-dimitrioy-2232","kind":"restaurant","name":"Pizza Days - Αγίου Δημητρίου","lat":37.9436201391912,"lng":23.733022003629234,"url":"https://maps.app.goo.gl/mj45NkH8L5jqeHD58?g_st=ipc","address":"Ανδρέα Παπανδρέου 2, Αγ. Δημήτριος Αττικής 173 41","categoryIds":["italian"],"categories":["Italian Restaurants"]}],"nearby":[{"id":"greekRestaurants_11dff068e9ea","slug":"taverna-toy-vardi-11df","kind":"restaurant","name":"Ταβέρνα του Βαρδή","lat":37.95570603338151,"lng":23.74583290711746,"url":"https://maps.app.goo.gl/6RAXFnJTA2DTzwA88","address":"Καισαρείας 9, Υμηττός 172 37","categoryIds":["greek-restaurants"],"categories":["Greek Restaurants"],"distanceKm":0.13438591352441964},{"id":"fishTavernasRestaurants_bfa3fa802461","slug":"to-koytoyki-toy-nikola-bfa3","kind":"restaurant","name":"Το κουτούκι του Νικόλα","lat":37.957390018378845,"lng":23.748097249841244,"url":"https://maps.app.goo.gl/HyEob8x31HSBRG4G6?g_st=ipc","address":"Καλλιπόλεως 1, Βύρωνας 162 32","categoryIds":["fish-tavernas"],"categories":["Fish Tavernas"],"distanceKm":0.3454192183164751},{"id":"municipalities_2413d46e54f8","slug":"ymittos-2413","kind":"municipality","name":"Υμηττός","lat":37.9506,"lng":23.7511,"aliases":["Ymittos","Hymettos","Υμηττος"],"region":"Νότια Προάστια","name_en":"Ymittos","region_en":"Southern Suburbs","distanceKm":0.6048080158525928},{"id":"cheapEatsRestaurants_a6f267f71448","slug":"psitopoleio-o-kostas-a6f2","kind":"restaurant","name":"Ψητοπωλείο Ο Κώστας","lat":37.94774148940973,"lng":23.74608370924349,"url":"https://maps.app.goo.gl/8n9ne3gHR6APgQwh6?g_st=ipc","address":"Ηλιουπόλεως 157, Υμηττός 172 36","categoryIds":["cheap-eats"],"categories":["Gyros & Cheap Eats"],"distanceKm":0.7614606908500265},{"id":"cheapEatsRestaurants_a825d27fc97c","slug":"i-pita-toy-karafla-a825","kind":"restaurant","name":"Η ΠΙΤΑ ΤΟΥ ΚΑΡΑΦΛΑ","lat":37.96232693388551,"lng":23.744677303486494,"url":"https://maps.app.goo.gl/sAGKAGj6UyDLWwiq7?g_st=ipc","address":"Φιλολάου 142, Αθήνα 116 32","categoryIds":["cheap-eats"],"categories":["Gyros & Cheap Eats"],"distanceKm":0.8741103964015239},{"id":"cheapEatsRestaurants_1640e0da72d1","slug":"smasheat-o-1640","kind":"restaurant","name":"Smasheat'o","lat":37.95001486404743,"lng":23.73773292955517,"url":"https://maps.app.goo.gl/nrXvTuy8yr3sWi7k8?g_st=ipc","address":"Meg. Alexandrou 2, Athina 172 35","categoryIds":["cheap-eats"],"categories":["Gyros & Cheap Eats"],"distanceKm":0.9145282576895367},{"id":"greekRestaurants_e8a12eb29aae","slug":"eylalia-e8a1","kind":"restaurant","name":"Ευλαλία","lat":37.96221703725563,"lng":23.742138763953527,"url":"https://maps.app.goo.gl/HVpdCimDL2uUQGMfA","address":"Φρύνωνος 10, Αθήνα 116 32","categoryIds":["greek-restaurants"],"categories":["Greek Restaurants"],"distanceKm":0.9274324401897774},{"id":"dessertsRestaurants_36cfd9004102","slug":"fresh-mail-pagkratioy-36cf","kind":"restaurant","name":"Fresh Mail Παγκρατίου","lat":37.963053181322294,"lng":23.74589240163266,"url":"https://maps.app.goo.gl/umohxobBLijQzZis5?g_st=ipc","address":"Filolaou 124Α, Athina 116 33","categoryIds":["desserts"],"categories":["Dessert Shops"],"distanceKm":0.9427142157734264}],"sameRegion":[],"mentionedGuides":[]},"__N_SSG":true}