{"pageProps":{"entity":{"id":"municipalities_e7a6ea2b75ba","slug":"pagkrati-e7a6","kind":"municipality","name":"Παγκράτι","lat":37.9635,"lng":23.7496,"aliases":["Pangrati"],"region":"Κέντρο Αθήνας","name_en":"Pagkrati","region_en":"Athens Center"},"sameCategory":[],"nearby":[{"id":"luxuryDiningRestaurants_24449a18a8b0","slug":"cinq-sens-athens-2444","kind":"restaurant","name":"Cinq Sens Athens","lat":37.964330906697526,"lng":23.749169578189175,"url":"https://maps.app.goo.gl/oJzDuNQyNTeigZtU6?g_st=ipc","address":"Πύρρου 38, Αθήνα 116 33","categoryIds":["luxury-dining"],"categories":["Luxury Dining"],"distanceKm":0.09980078751785525},{"id":"dessertsRestaurants_055560d21207","slug":"zacharoplasteio-lido-0555","kind":"restaurant","name":"Ζαχαροπλαστείο Lido","lat":37.96582623086202,"lng":23.750235658736546,"url":"https://maps.app.goo.gl/6RDutorGFGKRD3ru9?g_st=ipc","address":"Χρεμωνίδου 35, Αθήνα 116 33","categoryIds":["desserts"],"categories":["Dessert Shops"],"distanceKm":0.2645995027605331},{"id":"greekRestaurants_9f875f84dbee","slug":"taverna-tzimis-9f87","kind":"restaurant","name":"Ταβέρνα Τζίμης","lat":37.96221220979963,"lng":23.752873943570865,"url":"https://maps.app.goo.gl/qCasHzTvfzEm5GVQ9","address":"Κωνσταντιλιέρη 2, Βύρωνας 162 31","categoryIds":["greek-restaurants"],"categories":["Greek Restaurants"],"distanceKm":0.32075531096869414},{"id":"dessertsRestaurants_36cfd9004102","slug":"fresh-mail-pagkratioy-36cf","kind":"restaurant","name":"Fresh Mail Παγκρατίου","lat":37.963053181322294,"lng":23.74589240163266,"url":"https://maps.app.goo.gl/umohxobBLijQzZis5?g_st=ipc","address":"Filolaou 124Α, Athina 116 33","categoryIds":["desserts"],"categories":["Dessert Shops"],"distanceKm":0.3288081365558619},{"id":"greekRestaurants_548d92c2d4db","slug":"soyrtoyko-548d","kind":"restaurant","name":"Σουρτουκω","lat":37.96175056849477,"lng":23.75277374627553,"url":"https://maps.app.goo.gl/xYnatdAUqU3QWGLv9","address":"Λεωφ. Χρυσοστόμου Σμύρνης 47, Βύρωνας 162 32","categoryIds":["greek-restaurants"],"categories":["Greek Restaurants"],"distanceKm":0.3394928207320027},{"id":"burgersRestaurants_2488bfd093b0","slug":"raw-street-burger-2488","kind":"restaurant","name":"RAW Street Burger","lat":37.96608078812892,"lng":23.747084457131937,"url":"https://maps.app.goo.gl/WsNpm6Ti1nzJiYwd7?g_st=ipc","address":"Υμηττού 130, Αθήνα 116 34","categoryIds":["burgers"],"categories":["Burger Spots"],"distanceKm":0.36191605868268945},{"id":"italianRestaurants_2b0b4658687c","slug":"agave-athens-2b0b","kind":"restaurant","name":"agave athens","lat":37.9657831829776,"lng":23.746184137622457,"url":"https://maps.app.goo.gl/uUSmZ457DPu3bX9J6?g_st=ipc","address":"Ευφράνορος 40, Αθήνα 116 35","categoryIds":["italian"],"categories":["Italian Restaurants"],"distanceKm":0.39258824169205053},{"id":"italianRestaurants_77b67be1fb4f","slug":"mario-luigi-77b6","kind":"restaurant","name":"Mario & Luigi","lat":37.966012366342085,"lng":23.746366511353546,"url":"https://maps.app.goo.gl/xKjHZ2p6PcwHNd7G8?g_st=ipc","address":"Ευφράνορος 35, Αθήνα 116 35","categoryIds":["italian"],"categories":["Italian Restaurants"],"distanceKm":0.39798852062173007}],"sameRegion":[{"id":"municipalities_0889636ab7df","slug":"petralona-0889","kind":"municipality","name":"Πετράλωνα","lat":37.9656,"lng":23.7108,"region":"Κέντρο Αθήνας","name_en":"Petralona","region_en":"Athens Center"},{"id":"municipalities_0cae2c00b932","slug":"kolonaki-0cae","kind":"municipality","name":"Κολωνάκι","lat":37.9769,"lng":23.7436,"aliases":["Kolonaki"],"region":"Κέντρο Αθήνας","name_en":"Kolonaki","region_en":"Athens Center"},{"id":"municipalities_0eb5ad956816","slug":"neos-kosmos-0eb5","kind":"municipality","name":"Νέος Κόσμος","lat":37.9563,"lng":23.7289,"region":"Κέντρο Αθήνας","name_en":"Neos Kosmos","region_en":"Athens Center"},{"id":"municipalities_0fd1d03201a0","slug":"mets-0fd1","kind":"municipality","name":"Μετς","lat":37.9685,"lng":23.7453,"region":"Κέντρο Αθήνας","name_en":"Mets","region_en":"Athens Center"},{"id":"municipalities_1760d194c086","slug":"ampelokipoi-1760","kind":"municipality","name":"Αμπελόκηποι","lat":38.002,"lng":23.753,"aliases":["Ampelopoi","Ampelokipoi","Ampelokipi","Αμπελοκηποι","Αμπελοκηπι"],"region":"Κέντρο Αθήνας","name_en":"Ambelokipi","region_en":"Athens Center"},{"id":"municipalities_23828bbce235","slug":"patisia-2382","kind":"municipality","name":"Πατήσια","lat":38.0167,"lng":23.7333,"aliases":["Πατησια","Patissia"],"region":"Κέντρο Αθήνας","name_en":"Patisia","region_en":"Athens Center"},{"id":"municipalities_2bcfcb8b899f","slug":"psyrri-2bcf","kind":"municipality","name":"Ψυρρή","lat":37.9761,"lng":23.7246,"aliases":["Psirri","Psyrri"],"region":"Κέντρο Αθήνας","name_en":"Psyrri","region_en":"Athens Center"},{"id":"municipalities_2dbf77b73060","slug":"royf-2dbf","kind":"municipality","name":"Ρουφ","lat":37.9767,"lng":23.7074,"region":"Κέντρο Αθήνας","name_en":"Rouf","region_en":"Athens Center"}],"mentionedGuides":[{"slug":"greek-bakeries-brunch-coffee-guide-el","title":"Ελληνική Αρτοποιία, Brunch & Κουλτούρα Καφέ"},{"slug":"greek-bakeries-brunch-coffee-guide","title":"Greek Bakeries, Brunch & Coffee Culture"},{"slug":"american-college-of-greece-agia-paraskevi-guide-el","title":"American College of Greece: Καλώς ήρθατε στην Αγία Παρασκευή"},{"slug":"american-college-of-greece-agia-paraskevi-guide","title":"American College of Greece: Welcome to Agia Paraskevi"}]},"__N_SSG":true}