{"pageProps":{"entity":{"id":"familyFriendly_d5ba30df5709","slug":"parko-floisvos-d5ba","kind":"restaurant","name":"Πάρκο Φλοίσβος","lat":37.928217571282076,"lng":23.687928394626468,"url":"https://maps.app.goo.gl/xsiY1D9U4tz2Gxeu8?g_st=ipc","address":"Πάρκο Φλοίσβου Λεωφόρος Ποσειδονος παλαιο φαληρο, Αθήνα 175 61","categoryIds":["family-friendly"],"categories":["Kid Friendly Locations"]},"sameCategory":[{"id":"familyFriendly_f503c55e6f20","slug":"palio-faliro-park-f503","kind":"restaurant","name":"Palio Faliro Park","lat":37.927500164435116,"lng":23.68777633044372,"url":"https://maps.app.goo.gl/2D445MwyghagAFkRA?g_st=ic","address":"Leof. Poseidonos 17, Paleo Faliro 175 61","categoryIds":["family-friendly"],"categories":["Kid Friendly Locations"]},{"id":"familyFriendly_eb2517ef6cdc","slug":"flisvos-playground-eb25","kind":"restaurant","name":"Flisvos Playground","lat":37.9267608286871,"lng":23.6891198217997,"url":"https://maps.app.goo.gl/jLUBCzf12Wt3RSRK7?g_st=ipc","address":"Palaio Faliro 175 61","categoryIds":["family-friendly"],"categories":["Kid Friendly Locations"]},{"id":"familyFriendly_a3e2f6188bf1","slug":"kentro-politismoy-idryma-stayros-niarchos-a3e2","kind":"restaurant","name":"Κέντρο Πολιτισμού Ίδρυμα Σταύρος Νιάρχος","lat":37.93985683037055,"lng":23.692122482978903,"url":"https://maps.app.goo.gl/ib2tnNRmM1foX6zd8?g_st=ipc","address":"Λεωφ. Ανδρέα Συγγρού 364, Καλλιθέα 176 74","categoryIds":["family-friendly"],"categories":["Kid Friendly Locations"]},{"id":"familyFriendly_afbd73fa31fe","slug":"neo-psifiako-planitario-idrymatos-eygenidoy-afbd","kind":"restaurant","name":"Νέο Ψηφιακό Πλανητάριο Ιδρύματος Ευγενίδου","lat":37.939924135926155,"lng":23.69664152972377,"url":"https://maps.app.goo.gl/6jTSzr4LUutvW78x6?g_st=ipc","address":"387 Syggrou Ave. (entrance 11, Πεντέλης st, Αθήνα 175 64","categoryIds":["family-friendly"],"categories":["Kid Friendly Locations"]},{"id":"familyFriendly_2be04a6b1d81","slug":"parko-stayros-niarchos-2be0","kind":"restaurant","name":"Πάρκο Σταύρος Νιάρχος","lat":37.942200854453496,"lng":23.69345667519833,"url":"https://maps.app.goo.gl/8s92kLGvmU1yA3fe8?g_st=ipc","address":"Λεωφ. Ανδρέα Συγγρού 364, Καλλιθέα 176 74","categoryIds":["family-friendly"],"categories":["Kid Friendly Locations"]},{"id":"familyFriendly_feb6b1cb5cd1","slug":"little-land-kids-play-feb6","kind":"restaurant","name":"Little Land - Kids Play","lat":37.930642671894525,"lng":23.710426716839976,"url":"https://maps.app.goo.gl/fZKSbKJMUaonK7vh9?g_st=ipc","address":"Λεωφ. Ελ. Βενιζέλου 235, Παλαιό Φάληρο 175 63","categoryIds":["family-friendly"],"categories":["Kid Friendly Locations"]},{"id":"familyFriendly_09f0644c9732","slug":"lofos-politismoy-09f0","kind":"restaurant","name":"Λόφος πολιτισμού","lat":37.91111626951665,"lng":23.722999637224824,"url":"https://maps.app.goo.gl/MWLNyH93oknhhPcz9?g_st=ipc","address":"Άλιμος 174 55","categoryIds":["family-friendly"],"categories":["Kid Friendly Locations"]},{"id":"familyFriendly_b7e14b13fc56","slug":"paramythoypoli-ellinikoy-argyroypolis-b7e1","kind":"restaurant","name":"Παραμυθούπολη Ελληνικού Αργυρούπολης","lat":37.90960009979719,"lng":23.737312819815322,"url":"https://maps.app.goo.gl/MGgTCv28KmDG4VgK8?g_st=ipc","address":"Αλ. Παπαναστασίου, Αργυρούπολη 164 52","categoryIds":["family-friendly"],"categories":["Kid Friendly Locations"]}],"nearby":[{"id":"familyFriendly_f503c55e6f20","slug":"palio-faliro-park-f503","kind":"restaurant","name":"Palio Faliro Park","lat":37.927500164435116,"lng":23.68777633044372,"url":"https://maps.app.goo.gl/2D445MwyghagAFkRA?g_st=ic","address":"Leof. Poseidonos 17, Paleo Faliro 175 61","categoryIds":["family-friendly"],"categories":["Kid Friendly Locations"],"distanceKm":0.0808792811663291},{"id":"familyFriendly_eb2517ef6cdc","slug":"flisvos-playground-eb25","kind":"restaurant","name":"Flisvos Playground","lat":37.9267608286871,"lng":23.6891198217997,"url":"https://maps.app.goo.gl/jLUBCzf12Wt3RSRK7?g_st=ipc","address":"Palaio Faliro 175 61","categoryIds":["family-friendly"],"categories":["Kid Friendly Locations"],"distanceKm":0.19276514605872502},{"id":"italianRestaurants_a8f55f60daad","slug":"napolitivo-a8f5","kind":"restaurant","name":"Napolitivo","lat":37.931139363113324,"lng":23.68556698847028,"url":"https://maps.app.goo.gl/iJWXQzLD79YWLeji9?g_st=ipc","address":"Λεωφ. Ποσειδώνος 702, Παλαιό Φάληρο 175 61","categoryIds":["italian"],"categories":["Italian Restaurants"],"distanceKm":0.385288941419872},{"id":"italianRestaurants_c97c0ccdbf8c","slug":"o-italos-c97c","kind":"restaurant","name":"Ο Ιταλός","lat":37.926673536986776,"lng":23.69220389211545,"url":"https://maps.app.goo.gl/up3EpvmXnu7L2VC67?g_st=ipc","address":"Αλκυόνης 16, Παλαιό Φάληρο 175 61","categoryIds":["italian"],"categories":["Italian Restaurants"],"distanceKm":0.41243555014501393},{"id":"mustSeeAttractions_7720a421889c","slug":"marina-floisvoy-7720","kind":"restaurant","name":"Μαρίνα Φλοίσβου","lat":37.9311951612676,"lng":23.68504538337465,"url":"https://maps.app.goo.gl/vxdQs7SscGUC98hY9?g_st=ipc","address":"Flisvos Marina, Αθήνα 175 61","categoryIds":["attractions"],"categories":["Must-See Attractions"],"distanceKm":0.41660582815864056},{"id":"monasteriesChurches_350fade94be9","slug":"ieros-naos-agioy-alexandroy-350f","kind":"restaurant","name":"Ιερός Ναός Αγίου Αλεξάνδρου","lat":37.92675404012077,"lng":23.69297935050041,"url":"https://maps.app.goo.gl/oTPMMN55BBN9bVMA8?g_st=ipc","address":"Αγίου Αλεξάνδρου 14, Παλαιό Φάληρο 175 61","categoryIds":["monasteries-churches"],"categories":["Monasteries & Spiritual Sites"],"distanceKm":0.47196050998872624},{"id":"coffeeBrunchRestaurants_766ea98ae001","slug":"oi-pites-tis-sofias-766e","kind":"restaurant","name":"Οι πίτες της Σοφίας","lat":37.92792315472672,"lng":23.693652242106012,"url":"https://maps.app.goo.gl/yk8JxAF2vSDEd4wt8?g_st=ipc","address":"Αγίου Αλεξάνδρου 30, Παλαιό Φάληρο 175 61","categoryIds":["coffee-brunch"],"categories":["Coffee & Brunch Spots"],"distanceKm":0.503097346142644},{"id":"asianRestaurants_df4a095e5eb1","slug":"kikko-sushi-fish-df4a","kind":"restaurant","name":"Kikko Sushi & Fish","lat":37.92527823438876,"lng":23.692729848366973,"url":"https://maps.app.goo.gl/kbxKKh8YDA8LNgPa6?g_st=ipc","address":"Αμφιτρίτης 8, Παλαιό Φάληρο 175 61","categoryIds":["asian"],"categories":["Asian Restaurants"],"distanceKm":0.5330854401227189}],"sameRegion":[],"mentionedGuides":[]},"__N_SSG":true}