{"pageProps":{"entity":{"id":"dessertsRestaurants_bf5c88e2b8a0","slug":"paylos-boutique-gelateria-bf5c","kind":"restaurant","name":"Παύλος Boutique Gelateria","lat":39.50673573079307,"lng":20.262695193015087,"url":"https://maps.app.goo.gl/jvvGBnLGwBaooftv9?g_st=ipc","address":"Eth. Antistasis 88, Igoumenitsa 461 00","categoryIds":["desserts"],"categories":["Dessert Shops"]},"sameCategory":[{"id":"dessertsRestaurants_51c501b69bcd","slug":"cosy-51c5","kind":"restaurant","name":"Cosy","lat":39.42695341977823,"lng":19.943982019426304,"url":"https://maps.app.goo.gl/tLH5nMQN5TJtaAzM8?g_st=ipc","address":"Αγ. Γεώργιος 490 80","categoryIds":["desserts"],"categories":["Dessert Shops"]},{"id":"dessertsRestaurants_c84a0048c110","slug":"papagiorgis-patiserie-gelateria-c84a","kind":"restaurant","name":"Papagiorgis Patiserie-Gelateria","lat":39.624442580854314,"lng":19.922449483485316,"url":"https://maps.app.goo.gl/tsC3kM3FwzybS2zd6?g_st=ipc","address":"Nikiforou Theotoki 32, Kerkira 491 00","categoryIds":["desserts"],"categories":["Dessert Shops"]},{"id":"dessertsRestaurants_672e57be6b02","slug":"solo-gelato-672e","kind":"restaurant","name":"Solo Gelato","lat":39.62449131411604,"lng":19.92192848556591,"url":"https://maps.app.goo.gl/75zMv1NcKb3QY9T4A?g_st=ipc","address":"Michail Theotoki 3, Kerkira 491 00","categoryIds":["desserts"],"categories":["Dessert Shops"]},{"id":"dessertsRestaurants_40ed95d6ca7b","slug":"il-capriccio-creperie-gelateria-40ed","kind":"restaurant","name":"Il Capriccio Creperie Gelateria","lat":39.196184264572324,"lng":20.187150122565953,"url":"https://maps.app.goo.gl/cvmdPcy2F9CSE1Jx6?g_st=ipc","address":"Unnamed Road,, Gaios 490 82","categoryIds":["desserts"],"categories":["Dessert Shops"]},{"id":"dessertsRestaurants_c1858394016b","slug":"fresco-gelato-artigianale-c185","kind":"restaurant","name":"Fresco gelato artigianale","lat":38.833202680203854,"lng":20.707021375147267,"url":"https://maps.app.goo.gl/ewEbAmjuJdZBCseQ7?g_st=ipc","address":"Ioannou Mela 69, Lefkada 311 00","categoryIds":["desserts"],"categories":["Dessert Shops"]},{"id":"dessertsRestaurants_edd942eb31a3","slug":"rook-s-pastry-lab-edd9","kind":"restaurant","name":"Rook's Pastry Lab","lat":39.36032541859575,"lng":21.926312209067312,"url":"https://maps.app.goo.gl/Qok4Wd3kZZnJC6xv9?g_st=ipc","address":"Γαμβέτα, Dim. Lappa 12 - 16, Karditsa 431 00","categoryIds":["desserts"],"categories":["Dessert Shops"]},{"id":"dessertsRestaurants_29d96cbe3da8","slug":"glykoplasteio-29d9","kind":"restaurant","name":"Glykoplasteío","lat":38.91264896054346,"lng":21.80246572954374,"url":"https://maps.app.goo.gl/c3y6StatonhrUYj26?g_st=ipc","address":"1ο χιλιόμετρο Εθνικής Οδού Καρπενησίου Λαμίας, Καρπενήσι, Karpenisi 361 00","categoryIds":["desserts"],"categories":["Dessert Shops"]},{"id":"dessertsRestaurants_1e491648e63f","slug":"gelato-fresco-italiano-1e49","kind":"restaurant","name":"Gelato fresco italiano","lat":38.17749874571835,"lng":20.48897656776002,"url":"https://maps.app.goo.gl/AFtw3E5Sssatu2m37?g_st=ipc","address":"Ρόκκου, Vergoti 4, Argostoli 281 00","categoryIds":["desserts"],"categories":["Dessert Shops"]}],"nearby":[{"id":"municipalities_7196d20fb090","slug":"igoymenitsa-7196","kind":"municipality","name":"Ηγουμενίτσα","lat":39.5036,"lng":20.2669,"region":"Ήπειρος","name_en":"Igoumenitsa","region_en":"Epirus","distanceKm":0.5017126044967004},{"id":"municipalities_6d7c9163781b","slug":"filiates-6d7c","kind":"municipality","name":"Φιλιάτες","lat":39.601,"lng":20.309,"region":"Ήπειρος","name_en":"Filiates","region_en":"Epirus","distanceKm":11.208316273361335},{"id":"fishTavernasRestaurants_60db33e5dbf6","slug":"ionion-fish-restaurant-60db","kind":"restaurant","name":"Ionion Fish Restaurant","lat":39.39885130705451,"lng":20.25621796602664,"url":"https://maps.app.goo.gl/UjAp1padEHJ7Q3nQ7?g_st=ipc","address":"Mega Ammos, Sivota 461 00","categoryIds":["fish-tavernas"],"categories":["Fish Tavernas"],"distanceKm":12.009084338979275},{"id":"italianRestaurants_9f740af053b2","slug":"filomila-9f74","kind":"restaurant","name":"Filomila","lat":39.28501094493868,"lng":20.39762732442374,"url":"https://maps.app.goo.gl/q6frpMcS63aQ6eSu5?g_st=ipc","address":"Filomila","categoryIds":["italian"],"categories":["Italian Restaurants"],"distanceKm":27.244945738428566},{"id":"municipalities_4044fe56cffd","slug":"parga-4044","kind":"municipality","name":"Πάργα","lat":39.2856,"lng":20.4014,"aliases":["Παργα"],"region":"Ήπειρος","name_en":"Parga","region_en":"Epirus","distanceKm":27.325501013426774},{"id":"rooftopLoungesRestaurants_022b40d3c73a","slug":"avocado-cocktail-bar-022b","kind":"restaurant","name":"Avocado Cocktail Bar","lat":39.28423915622935,"lng":20.39914061806164,"url":"https://maps.app.goo.gl/Rej46ZikGi16jCPa6?g_st=ipc","address":"23ης Φεβρουαρίου, Parga 480 60","categoryIds":["rooftop-lounges"],"categories":["Rooftop Lounges"],"distanceKm":27.378092640344978},{"id":"dessertsRestaurants_51c501b69bcd","slug":"cosy-51c5","kind":"restaurant","name":"Cosy","lat":39.42695341977823,"lng":19.943982019426304,"url":"https://maps.app.goo.gl/tLH5nMQN5TJtaAzM8?g_st=ipc","address":"Αγ. Γεώργιος 490 80","categoryIds":["desserts"],"categories":["Dessert Shops"],"distanceKm":28.761222438749332},{"id":"luxuryDiningRestaurants_4ac0f5cb2cce","slug":"makris-restaurant-4ac0","kind":"restaurant","name":"Makris Restaurant","lat":39.490901721836174,"lng":19.92628299466604,"url":"https://maps.app.goo.gl/GPZUEnWWjrQuRVWr7?g_st=ipc","address":"Miramare Beach, Moraitika 491 00","categoryIds":["luxury-dining"],"categories":["Luxury Dining"],"distanceKm":28.91853608286645}],"sameRegion":[],"mentionedGuides":[]},"__N_SSG":true}