{"pageProps":{"entity":{"id":"mexicanRestaurants_983dcb8a2e0a","slug":"picasso-on-the-beach-naxos-983d","kind":"restaurant","name":"Picasso on the beach - Naxos","lat":37.05943119973437,"lng":25.358989286042366,"url":"https://maps.app.goo.gl/dyPRjYQnHRARiSJ79?g_st=ipc","address":"Beach, Plaka, Ag. Anna 843 00","categoryIds":["mexican"],"categories":["Mexican Restaurants"]},"sameCategory":[{"id":"mexicanRestaurants_9cdc9098224f","slug":"el-dorado-9cdc","kind":"restaurant","name":"El Dorado","lat":37.4384356377363,"lng":25.332482232008008,"url":"https://maps.app.goo.gl/Z4qdJprni1KMQm3YA?g_st=ipc","address":"Epar.Od. Mikonou, Mikonos 846 00","categoryIds":["mexican"],"categories":["Mexican Restaurants"]},{"id":"mexicanRestaurants_c15838bdee62","slug":"azul-condesa-mykonos-c158","kind":"restaurant","name":"Azul Condesa Mykonos","lat":37.445318743092045,"lng":25.33424731325651,"url":"https://maps.app.goo.gl/PtCSKGqYbgCdSXyz5?g_st=ipc","address":"Πετειναρος, Μύκονος 846 00","categoryIds":["mexican"],"categories":["Mexican Restaurants"]},{"id":"mexicanRestaurants_ef3256c8f86b","slug":"appaloosa-bar-restaurant-ef32","kind":"restaurant","name":"Appaloosa Bar Restaurant","lat":37.45234589794245,"lng":25.38409135881813,"url":"https://maps.app.goo.gl/x9fF3ksZjKbckcRR9?g_st=ipc","address":"Άνω Μερά 846 00","categoryIds":["mexican"],"categories":["Mexican Restaurants"]},{"id":"mexicanRestaurants_3d3eda2795fe","slug":"ancho-3d3e","kind":"restaurant","name":"Ancho","lat":37.93619879432701,"lng":23.947326529806652,"url":"https://maps.app.goo.gl/vZsWgNz2ht7aShcY9","address":"Attiki Odos, Spata Artemida 190 04","categoryIds":["mexican"],"categories":["Mexican Restaurants"]},{"id":"mexicanRestaurants_bc074466ce69","slug":"amigos-bc07","kind":"restaurant","name":"Amigos","lat":37.85929715781572,"lng":23.756229404432254,"url":"https://maps.app.goo.gl/CeHzLQv4LTsb7j5RA?g_st=ipc","address":"Κύπρου 65, Γλυφάδα 166 74","categoryIds":["mexican"],"categories":["Mexican Restaurants"]},{"id":"mexicanRestaurants_41b2ba4d071f","slug":"el-catrin-41b2","kind":"restaurant","name":"El Catrin","lat":37.85991051831941,"lng":23.75494123731321,"url":"https://maps.app.goo.gl/tAYLNiXMfX7MbEnT9?g_st=ipc","address":"Φοίβης 15, Γλυφάδα 166 74","categoryIds":["mexican"],"categories":["Mexican Restaurants"]},{"id":"mexicanRestaurants_4df313ff7b2b","slug":"ancho-mexican-grill-4df3","kind":"restaurant","name":"Ancho Mexican Grill","lat":37.862745862193556,"lng":23.754877099753806,"url":"https://maps.app.goo.gl/LepDURte7YPh6NZL8?g_st=ipc","address":"Γιαννιτσοπούλου 3, Γλυφάδα 166 74","categoryIds":["mexican"],"categories":["Mexican Restaurants"]},{"id":"mexicanRestaurants_0c73152ab27f","slug":"abrazo-0c73","kind":"restaurant","name":"ABRAZO","lat":37.90764040669511,"lng":23.748959602183852,"url":"https://maps.app.goo.gl/aK9BaFV3WgpvSdWJ7?g_st=ipc","address":"Μαρίνου Γερουλάνου 55, Αργυρούπολη 164 52","categoryIds":["mexican"],"categories":["Mexican Restaurants"]}],"nearby":[{"id":"coffeeBrunchRestaurants_3c0e0ba19c1e","slug":"cedar-naxos-3c0e","kind":"restaurant","name":"Cedar Naxos","lat":37.05894909734054,"lng":25.359010791260953,"url":"https://maps.app.goo.gl/sMRnKogU1qsVLy5N7?g_st=ipc","address":"Plaka beach island, Cyclades, Town 84300, 843 00","categoryIds":["coffee-brunch"],"categories":["Coffee & Brunch Spots"],"distanceKm":0.05364129394904249},{"id":"coffeeBrunchRestaurants_06b43145276e","slug":"yazoo-summer-bliss-06b4","kind":"restaurant","name":"Yazoo Summer Bliss","lat":37.05936629317493,"lng":25.358292075823126,"url":"https://maps.app.goo.gl/6st7M6E2gAiTKTuK7?g_st=ipc","address":"Beach, Plaka 843 00","categoryIds":["coffee-brunch"],"categories":["Coffee & Brunch Spots"],"distanceKm":0.06228636079755004},{"id":"greekRestaurants_1f1aa19a1160","slug":"yazoo-summer-bliss-1f1a","kind":"restaurant","name":"Yazoo Summer Bliss","lat":37.05947332168921,"lng":25.35827570673648,"url":"https://maps.app.goo.gl/NhU86ckth6hj5Sat7?g_st=ipc","address":"Beach, Πλάκα 843 00","categoryIds":["greek-restaurants"],"categories":["Greek Restaurants"],"distanceKm":0.06349226114945235},{"id":"italianRestaurants_338afaa92d9f","slug":"caya-italian-cuisine-cocktail-bar-338a","kind":"restaurant","name":"Caya Italian Cuisine Cocktail Bar","lat":37.05775350559496,"lng":25.360162570769955,"url":"https://maps.app.goo.gl/aQBfn7JeavM87SvT6?g_st=ipc","address":"Πλάκα Ναξος Κυκλάδες, 843 00","categoryIds":["italian"],"categories":["Italian Restaurants"],"distanceKm":0.21363677640462184},{"id":"greekRestaurants_e19d898df0e1","slug":"taverna-paradeisos-naxos-e19d","kind":"restaurant","name":"Ταβέρνα Παράδεισος | Νάξος","lat":37.06269869849226,"lng":25.355485426360563,"url":"https://maps.app.goo.gl/snSuBibKoHzbKRP3A?g_st=ipc","address":"Μαραγκας 843 00","categoryIds":["greek-restaurants"],"categories":["Greek Restaurants"],"distanceKm":0.4781961995353777},{"id":"coffeeBrunchRestaurants_1ed3ff082f80","slug":"goat-in-a-boat-1ed3","kind":"restaurant","name":"goat in a boat","lat":37.06717854640464,"lng":25.356316886639643,"url":"https://maps.app.goo.gl/RjakHZ5s5a6HV2Rj8?g_st=ipc","address":"Αγ. Αννα 843 00","categoryIds":["coffee-brunch"],"categories":["Coffee & Brunch Spots"],"distanceKm":0.8935044404704771},{"id":"fishTavernasRestaurants_e4bded96d41b","slug":"akrogiali-restaurant-studios-e4bd","kind":"restaurant","name":"Akrogiali Restaurant- Studios","lat":37.06850212174682,"lng":25.355709551048015,"url":"https://maps.app.goo.gl/f5SYBYZkLKJhZSov6?g_st=ipc","address":"Αγ. Αννα 843 00","categoryIds":["fish-tavernas"],"categories":["Fish Tavernas"],"distanceKm":1.049781864178051},{"id":"coffeeBrunchRestaurants_a4f088033efd","slug":"petrino-beach-restaurant-a4f0","kind":"restaurant","name":"Petrino Beach Restaurant","lat":37.05234820744201,"lng":25.368775961363156,"url":"https://maps.app.goo.gl/zpHeyfTFhxTR1uEU8?g_st=ipc","address":"Μαραγκας 843 00","categoryIds":["coffee-brunch"],"categories":["Coffee & Brunch Spots"],"distanceKm":1.1724005669014264}],"sameRegion":[],"mentionedGuides":[{"slug":"choose-perfect-greek-island-el","title":"Πώς να Επιλέξετε το Τέλειο Ελληνικό Νησί για το Ταξίδι σας"},{"slug":"choose-perfect-greek-island","title":"How to Choose the Perfect Greek Island for Your Trip"},{"slug":"greece-weather-swimming-ferry-guide-el","title":"Πότε να Επισκεφτείτε την Ελλάδα: Καιρός, Μήνες Κολύμβησης & Βασικές Χρονικές Πληροφορίες"},{"slug":"greece-weather-swimming-ferry-guide","title":"When to Visit Greece: Weather, Swimming Months & Essential Travel Timings"},{"slug":"traveling-to-greece-on-a-budget-el","title":"Ταξιδι στην Ελλαδα με μικρο budget"},{"slug":"traveling-to-greece-on-a-budget","title":"Traveling to Greece on a Budget"}]},"__N_SSG":true}