{"pageProps":{"entity":{"id":"coffeeBrunchRestaurants_b5cf03ae48c6","slug":"poco-loco-beach-baracantina-b5cf","kind":"restaurant","name":"Poco Loco Beach BARaCantina","lat":40.405548594123,"lng":23.873476264424372,"url":"https://maps.app.goo.gl/3wzoip2GSNybngj77?g_st=ipc","address":"Beach, Ierissos, thessaloniki 570 19","categoryIds":["coffee-brunch"],"categories":["Coffee & Brunch Spots"]},"sameCategory":[{"id":"coffeeBrunchRestaurants_72e9e2905eca","slug":"voulitsa-beach-bar-72e9","kind":"restaurant","name":"Voulitsa Beach Bar","lat":40.38145872405999,"lng":23.94007429302176,"url":"https://maps.app.goo.gl/Xqncmn24rvoWBwBP9?g_st=ipc","address":"Nea Roda 630 75","categoryIds":["coffee-brunch"],"categories":["Coffee & Brunch Spots"]},{"id":"coffeeBrunchRestaurants_646f779019d9","slug":"anemos-beach-bar-restaurant-646f","kind":"restaurant","name":"Anemos Beach Bar & Restaurant","lat":40.34319122046617,"lng":23.96653818078894,"url":"https://maps.app.goo.gl/Q4BHLN3SEhu3gcD48?g_st=ipc","address":"Ouranoupoli 630 75","categoryIds":["coffee-brunch"],"categories":["Coffee & Brunch Spots"]},{"id":"coffeeBrunchRestaurants_3c8b23370f26","slug":"makai-beach-bar-3c8b","kind":"restaurant","name":"Makai Beach Bar","lat":40.28754129654397,"lng":23.69344494313625,"url":"https://maps.app.goo.gl/LM9ZDTfgxjSUVZASA?g_st=ipc","address":"7MQV+29, Eleonas 630 78","categoryIds":["coffee-brunch"],"categories":["Coffee & Brunch Spots"]},{"id":"coffeeBrunchRestaurants_6bd1b4ee2edd","slug":"le-mantri-beach-bar-6bd1","kind":"restaurant","name":"Le Mantri Beach Bar","lat":40.24711352255949,"lng":23.722806749285716,"url":"https://maps.app.goo.gl/JzQ8QxBHm1Z7RWLz6?g_st=ipc","address":"Ακτή Τρανή Αμμούδα, Λιβροχιό good, Ag. Nikolaos 630 78","categoryIds":["coffee-brunch"],"categories":["Coffee & Brunch Spots"]},{"id":"coffeeBrunchRestaurants_854c31e0ceee","slug":"la-luna-854c","kind":"restaurant","name":"La Luna","lat":40.23930190869367,"lng":23.72686046824902,"url":"https://maps.app.goo.gl/ufdEfkab77wbekDB9?g_st=ipc","address":"Παραλία Τρανή Αμμούδα, Ormos Panagias 630 78","categoryIds":["coffee-brunch"],"categories":["Coffee & Brunch Spots"]},{"id":"coffeeBrunchRestaurants_497e3d529e6b","slug":"rodia-beach-bar-497e","kind":"restaurant","name":"Rodia Beach Bar","lat":40.16728294783182,"lng":23.87753516622083,"url":"https://maps.app.goo.gl/JWDuoC5xfuaZE3qx7?g_st=ipc","address":"Vourvourou 630 78","categoryIds":["coffee-brunch"],"categories":["Coffee & Brunch Spots"]},{"id":"coffeeBrunchRestaurants_67b37013fc99","slug":"day-by-day-67b3","kind":"restaurant","name":"Day by Day","lat":40.222448904043915,"lng":23.669671135590562,"url":"https://maps.app.goo.gl/HcoxLeAt4x4SJsFy8?g_st=ipc","address":"Λεωφόρος Σιθωνίας, Nikiti 630 88","categoryIds":["coffee-brunch"],"categories":["Coffee & Brunch Spots"]},{"id":"coffeeBrunchRestaurants_ff1094e6f54f","slug":"manassu-beach-bar-and-restaurant-ff10","kind":"restaurant","name":"Manassu Beach Bar and Restaurant","lat":40.15983560901836,"lng":23.895238695639563,"url":"https://maps.app.goo.gl/vTT1YVpou5DWsbZ16?g_st=ipc","address":"12ο χλμ. Βουρβουρού, Sarti 630 78","categoryIds":["coffee-brunch"],"categories":["Coffee & Brunch Spots"]}],"nearby":[{"id":"coffeeBrunchRestaurants_72e9e2905eca","slug":"voulitsa-beach-bar-72e9","kind":"restaurant","name":"Voulitsa Beach Bar","lat":40.38145872405999,"lng":23.94007429302176,"url":"https://maps.app.goo.gl/Xqncmn24rvoWBwBP9?g_st=ipc","address":"Nea Roda 630 75","categoryIds":["coffee-brunch"],"categories":["Coffee & Brunch Spots"],"distanceKm":6.24379763583374},{"id":"fishTavernasRestaurants_9e4956f003d0","slug":"tzanis-9e49","kind":"restaurant","name":"Tzanis","lat":40.33107915875693,"lng":23.922485829473047,"url":"https://maps.app.goo.gl/gztDX78ELvSAM2Bu8?g_st=ipc","address":"Αμμουλιανή, Ammouliani 630 75","categoryIds":["fish-tavernas"],"categories":["Fish Tavernas"],"distanceKm":9.263270418327679},{"id":"coffeeBrunchRestaurants_646f779019d9","slug":"anemos-beach-bar-restaurant-646f","kind":"restaurant","name":"Anemos Beach Bar & Restaurant","lat":40.34319122046617,"lng":23.96653818078894,"url":"https://maps.app.goo.gl/Q4BHLN3SEhu3gcD48?g_st=ipc","address":"Ouranoupoli 630 75","categoryIds":["coffee-brunch"],"categories":["Coffee & Brunch Spots"],"distanceKm":10.498857084414675},{"id":"mustSeeAttractions_7469acb1186c","slug":"agio-oros-7469","kind":"restaurant","name":"Agio Oros","lat":40.32543105494457,"lng":23.97840678393634,"url":"https://maps.app.goo.gl/wXzMsUCGyGcDfoW59?g_st=ipc","address":"Ouranoupoli 630 75","categoryIds":["attractions"],"categories":["Must-See Attractions"],"distanceKm":12.585550420599139},{"id":"coffeeBrunchRestaurants_3c8b23370f26","slug":"makai-beach-bar-3c8b","kind":"restaurant","name":"Makai Beach Bar","lat":40.28754129654397,"lng":23.69344494313625,"url":"https://maps.app.goo.gl/LM9ZDTfgxjSUVZASA?g_st=ipc","address":"7MQV+29, Eleonas 630 78","categoryIds":["coffee-brunch"],"categories":["Coffee & Brunch Spots"],"distanceKm":20.12356460015906},{"id":"greekRestaurants_55cc517b34bd","slug":"klimataria-taverna-55cc","kind":"restaurant","name":"Κληματαριά Ταβέρνα","lat":40.32390424532117,"lng":23.65627015174525,"url":"https://maps.app.goo.gl/UP2j7uNG1z1XVsRY7?g_st=ipc","address":"Μεταγκιτσι Χαλκιδικής, Μεταγκίτσι 630 78","categoryIds":["greek-restaurants"],"categories":["Greek Restaurants"],"distanceKm":20.519957787086557},{"id":"coffeeBrunchRestaurants_6bd1b4ee2edd","slug":"le-mantri-beach-bar-6bd1","kind":"restaurant","name":"Le Mantri Beach Bar","lat":40.24711352255949,"lng":23.722806749285716,"url":"https://maps.app.goo.gl/JzQ8QxBHm1Z7RWLz6?g_st=ipc","address":"Ακτή Τρανή Αμμούδα, Λιβροχιό good, Ag. Nikolaos 630 78","categoryIds":["coffee-brunch"],"categories":["Coffee & Brunch Spots"],"distanceKm":21.760098882911834},{"id":"coffeeBrunchRestaurants_854c31e0ceee","slug":"la-luna-854c","kind":"restaurant","name":"La Luna","lat":40.23930190869367,"lng":23.72686046824902,"url":"https://maps.app.goo.gl/ufdEfkab77wbekDB9?g_st=ipc","address":"Παραλία Τρανή Αμμούδα, Ormos Panagias 630 78","categoryIds":["coffee-brunch"],"categories":["Coffee & Brunch Spots"],"distanceKm":22.27597351128389}],"sameRegion":[],"mentionedGuides":[]},"__N_SSG":true}