{"pageProps":{"entity":{"id":"coffeeBrunchRestaurants_42325721148a","slug":"proof-nanobakery-4232","kind":"restaurant","name":"Proof Nanobakery","lat":37.97713063610252,"lng":23.72693618230377,"url":"https://maps.app.goo.gl/5N9VVMFGHUvfL6ec9?g_st=ipc","address":"Αγίας Ειρήνης 8, Αθήνα 105 51","categoryIds":["coffee-brunch"],"categories":["Coffee & Brunch Spots"]},"sameCategory":[{"id":"coffeeBrunchRestaurants_dda6cb75ebfa","slug":"snob-athens-luxury-rooms-espresso-gastro-bar-dda6","kind":"restaurant","name":"SNOB Athens Luxury Rooms & Espresso Gastro Bar","lat":37.97706349386115,"lng":23.726726410113187,"url":"https://maps.app.goo.gl/Z7rJpaKMWG44Coit8?g_st=ipc","address":"Αγίας Ειρήνης 17, Αθήνα 105 51","categoryIds":["coffee-brunch"],"categories":["Coffee & Brunch Spots"]},{"id":"coffeeBrunchRestaurants_377e5b2b94af","slug":"hyper-astro-bar-377e","kind":"restaurant","name":"Hyper Astro Bar","lat":37.976752074692875,"lng":23.726360654614314,"url":"https://maps.app.goo.gl/fFtwoCRNKsTccdUb7?g_st=ipc","address":"Ερμού 78, & Αθηνάς 2, Αθήνα 105 51","categoryIds":["coffee-brunch"],"categories":["Coffee & Brunch Spots"]},{"id":"coffeeBrunchRestaurants_8d3de33104cf","slug":"the-brunch-factory-8d3d","kind":"restaurant","name":"The Brunch Factory","lat":37.977341602927304,"lng":23.726205472467996,"url":"https://maps.app.goo.gl/CB8h73sPXUiPQmTu7?g_st=ipc","address":"Αθηνάς 11, Αθήνα 105 54","categoryIds":["coffee-brunch"],"categories":["Coffee & Brunch Spots"]},{"id":"coffeeBrunchRestaurants_1535869ba0db","slug":"bookbar-by-kaktos-1535","kind":"restaurant","name":"BOOKBAR by Kaktos","lat":37.97778372453625,"lng":23.727694162578636,"url":"https://maps.app.goo.gl/nkivf4z4Dxrwg4Su6?g_st=ipc","address":"Αιόλου 39, Αθήνα 105 51","categoryIds":["coffee-brunch"],"categories":["Coffee & Brunch Spots"]},{"id":"coffeeBrunchRestaurants_89fa6586b876","slug":"naked-athens-89fa","kind":"restaurant","name":"Naked Athens","lat":37.977383627962844,"lng":23.728247966730684,"url":"https://maps.app.goo.gl/hTG8NPLsUHzhqPFg6?g_st=ipc","address":"Πλ. Αγίας Ειρήνης 2, Αθήνα 105 60","categoryIds":["coffee-brunch"],"categories":["Coffee & Brunch Spots"]},{"id":"coffeeBrunchRestaurants_efaa63d4fa10","slug":"dope-efaa","kind":"restaurant","name":"Dope","lat":37.97832305246442,"lng":23.72690477526337,"url":"https://maps.app.goo.gl/JomysUEbYVtYn2KN6?g_st=ipc","address":"Βύσσης 25, Αθήνα 105 51","categoryIds":["coffee-brunch"],"categories":["Coffee & Brunch Spots"]},{"id":"coffeeBrunchRestaurants_10001909d6f1","slug":"attic-urban-rooftop-1000","kind":"restaurant","name":"Attic Urban Rooftop","lat":37.97687145726863,"lng":23.725410732994586,"url":"https://maps.app.goo.gl/9Zyy977FxxHx9dgc9?g_st=ipc","address":"Ερμού 86, Αθήνα 105 54","categoryIds":["coffee-brunch"],"categories":["Coffee & Brunch Spots"]},{"id":"coffeeBrunchRestaurants_26528fa68af9","slug":"the-brunchers-2652","kind":"restaurant","name":"The Brunchers","lat":37.97723167635048,"lng":23.724930062728706,"url":"https://maps.app.goo.gl/28Tan1nmqMaPBFMr7?g_st=ipc","address":"Αγ. Θέκλας 5, Αθήνα 105 54","categoryIds":["coffee-brunch"],"categories":["Coffee & Brunch Spots"]}],"nearby":[{"id":"familyFriendly_75cf039dc3c8","slug":"monsterville-75cf","kind":"restaurant","name":"Μonsterville","lat":37.9770387951142,"lng":23.726973034108944,"url":"https://maps.app.goo.gl/ZrBswsgbAjWMCTSH9?g_st=ic","address":"Agias Irinis 13, Athina 105 51","categoryIds":["family-friendly"],"categories":["Kid Friendly Locations"],"distanceKm":0.010710902063023447},{"id":"coffeeBrunchRestaurants_dda6cb75ebfa","slug":"snob-athens-luxury-rooms-espresso-gastro-bar-dda6","kind":"restaurant","name":"SNOB Athens Luxury Rooms & Espresso Gastro Bar","lat":37.97706349386115,"lng":23.726726410113187,"url":"https://maps.app.goo.gl/Z7rJpaKMWG44Coit8?g_st=ipc","address":"Αγίας Ειρήνης 17, Αθήνα 105 51","categoryIds":["coffee-brunch"],"categories":["Coffee & Brunch Spots"],"distanceKm":0.01984452302120225},{"id":"dessertsRestaurants_722e1b739382","slug":"iceroll-722e","kind":"restaurant","name":"IceRoll","lat":37.97685958783748,"lng":23.726327595889753,"url":"https://maps.app.goo.gl/8LHJovnHdYJkvDpY9?g_st=ipc","address":"Αθηνάς 2, Αθήνα 105 51","categoryIds":["desserts"],"categories":["Dessert Shops"],"distanceKm":0.061268440566678},{"id":"dessertsRestaurants_0f0c49ba7b9d","slug":"lukumades-0f0c","kind":"restaurant","name":"LUKUMAΔΕΣ","lat":37.97694430629526,"lng":23.727608988769845,"url":"https://maps.app.goo.gl/wq9zqPDm2JRLP8hZ7?g_st=ipc","address":"Eolou 21, & Aghias Irinis Str, Athina 105 51","categoryIds":["desserts"],"categories":["Dessert Shops"],"distanceKm":0.0625054261701904},{"id":"cheapEatsRestaurants_723925883510","slug":"streetwok-7239","kind":"restaurant","name":"StreetWok","lat":37.976894650216366,"lng":23.727593295730628,"url":"https://maps.app.goo.gl/ttsNgvAmT6HK6Umz7?g_st=ipc","address":"Αιόλου 21, Αθήνα 105 63","categoryIds":["cheap-eats"],"categories":["Gyros & Cheap Eats"],"distanceKm":0.06329200623925031},{"id":"asianRestaurants_3e39975f70d5","slug":"streetwok-3e39","kind":"restaurant","name":"StreetWok","lat":37.97689230907057,"lng":23.727592595188877,"url":"https://maps.app.goo.gl/qhpXyetVXaLisBEWA?g_st=ipc","address":"Αιόλου 21, Αθήνα 105 63","categoryIds":["asian"],"categories":["Asian Restaurants"],"distanceKm":0.0633446018796009},{"id":"mexicanRestaurants_12ba982b5dec","slug":"ancho-mexican-grill-12ba","kind":"restaurant","name":"Ancho Mexican Grill","lat":37.97715705569823,"lng":23.72766354204186,"url":"https://maps.app.goo.gl/iYXrRpCvSYJUhEHx8?g_st=ipc","address":"Αιόλου 25, Αθήνα 105 51","categoryIds":["mexican"],"categories":["Mexican Restaurants"],"distanceKm":0.06382080265877803},{"id":"cheapEatsRestaurants_f2848f6727ab","slug":"tylixto-monastiraki-f284","kind":"restaurant","name":"TYLIXTO MONASTIRAKI","lat":37.976859135543,"lng":23.727597993730694,"url":"https://maps.app.goo.gl/s8G17xLU1a1prvZq8?g_st=ipc","address":"Aiolou 19 TYLIXTO, Αιόλου 19, Αθήνα 105 51","categoryIds":["cheap-eats"],"categories":["Gyros & Cheap Eats"],"distanceKm":0.06539363804889918}],"sameRegion":[],"mentionedGuides":[]},"__N_SSG":true}