{"pageProps":{"entity":{"id":"coffeeBrunchRestaurants_1e8b13cd507d","slug":"riviera-coast-1e8b","kind":"restaurant","name":"Riviera Coast","lat":37.8360364556755,"lng":23.766880988503196,"url":"https://maps.app.goo.gl/d8HG2cz27hm9ZC3r9?g_st=ipc","address":"Λεωφ. Κωνσταντίνου Καραμανλή 18, Βούλα 166 73","categoryIds":["coffee-brunch"],"categories":["Coffee & Brunch Spots"]},"sameCategory":[{"id":"coffeeBrunchRestaurants_264a40023d71","slug":"oven-264a","kind":"restaurant","name":"όβεν","lat":37.83821741108239,"lng":23.7685609654253,"url":"https://maps.app.goo.gl/gmek3DFpsqqbYYR49?g_st=ipc","address":"Λεωφ. Βασιλέως Παύλου 104, Βούλα 166 73","categoryIds":["coffee-brunch"],"categories":["Coffee & Brunch Spots"]},{"id":"coffeeBrunchRestaurants_8123cddfff42","slug":"rey-pablo-8123","kind":"restaurant","name":"Rey Pablo","lat":37.83850094604755,"lng":23.768770335582047,"url":"https://maps.app.goo.gl/x4TKdGZ4P6i8FcrE6?g_st=ipc","address":"91, Λεωφ. Βασιλέως Παύλου 89, Βούλα 166 73","categoryIds":["coffee-brunch"],"categories":["Coffee & Brunch Spots"]},{"id":"coffeeBrunchRestaurants_12111c54ea5b","slug":"bloom-projectgr-1211","kind":"restaurant","name":"bloom_projectgr","lat":37.84969738967142,"lng":23.751254153373072,"url":"https://maps.app.goo.gl/aVjkRWWznkDXoF5n6?g_st=ipc","address":"4, Λεωφ. Αλκυονίδων Ave, Βούλα 166 73","categoryIds":["coffee-brunch"],"categories":["Coffee & Brunch Spots"]},{"id":"coffeeBrunchRestaurants_798042ad21e8","slug":"opus-inner-pleasure-7980","kind":"restaurant","name":"OPUS Inner Pleasure","lat":37.85815683883427,"lng":23.754579101528986,"url":"https://maps.app.goo.gl/s6FvEiAwBwBVBs2t9?g_st=ipc","address":"Πανδώρας 9, Γλυφάδα 166 74","categoryIds":["coffee-brunch"],"categories":["Coffee & Brunch Spots"]},{"id":"coffeeBrunchRestaurants_645a2c954fa3","slug":"wynwood-eat-sip-gather-the-miami-style-645a","kind":"restaurant","name":"Wynwood - Eat Sip & Gather the Miami Style","lat":37.85990914525332,"lng":23.75494068810683,"url":"https://maps.app.goo.gl/YQMJ5PpN4Cvem9qf6?g_st=ipc","address":"Φοίβης 15, Γλυφάδα 166 74","categoryIds":["coffee-brunch"],"categories":["Coffee & Brunch Spots"]},{"id":"coffeeBrunchRestaurants_296c68e50c96","slug":"blends-mix-match-296c","kind":"restaurant","name":"Blends Mix & Match","lat":37.86035282429643,"lng":23.756257632105665,"url":"https://maps.app.goo.gl/VgzGwQBJonZ2HWs87?g_st=ic","address":"Pl. Nimfon, Glifada 166 74","categoryIds":["coffee-brunch"],"categories":["Coffee & Brunch Spots"]},{"id":"coffeeBrunchRestaurants_f000d793a460","slug":"bungalow7-athens-f000","kind":"restaurant","name":"Bungalow7 Athens","lat":37.858739347203105,"lng":23.751507417801406,"url":"https://maps.app.goo.gl/46sTr1wF8Q2Bajpu7?g_st=ipc","address":"Λεωφ. Ποσειδώνος 110, Γλυφάδα 166 75","categoryIds":["coffee-brunch"],"categories":["Coffee & Brunch Spots"]},{"id":"coffeeBrunchRestaurants_1534d718f542","slug":"su-casa-1534","kind":"restaurant","name":"Su Casa","lat":37.8602791456983,"lng":23.75556920044941,"url":"https://maps.app.goo.gl/LzYwvbcwMZCWEetj9?g_st=ipc","address":"Pl. Nimfon, Glifada 166 74","categoryIds":["coffee-brunch"],"categories":["Coffee & Brunch Spots"]}],"nearby":[{"id":"coffeeBrunchRestaurants_264a40023d71","slug":"oven-264a","kind":"restaurant","name":"όβεν","lat":37.83821741108239,"lng":23.7685609654253,"url":"https://maps.app.goo.gl/gmek3DFpsqqbYYR49?g_st=ipc","address":"Λεωφ. Βασιλέως Παύλου 104, Βούλα 166 73","categoryIds":["coffee-brunch"],"categories":["Coffee & Brunch Spots"],"distanceKm":0.283860798657298},{"id":"luxuryDiningRestaurants_c1ae11688e19","slug":"drakoulis-dry-raw-butcheries-voula-c1ae","kind":"restaurant","name":"Drakoulis Dry & Raw - Butcheries Voula","lat":37.837831960071576,"lng":23.769665916102717,"url":"https://maps.app.goo.gl/uMQc68wzQ6KRLhmv6?g_st=ipc","address":"Λεωφ. Βασιλέως Παύλου 103, Βούλα 166 73","categoryIds":["luxury-dining"],"categories":["Luxury Dining"],"distanceKm":0.3157094169333271},{"id":"coffeeBrunchRestaurants_8123cddfff42","slug":"rey-pablo-8123","kind":"restaurant","name":"Rey Pablo","lat":37.83850094604755,"lng":23.768770335582047,"url":"https://maps.app.goo.gl/x4TKdGZ4P6i8FcrE6?g_st=ipc","address":"91, Λεωφ. Βασιλέως Παύλου 89, Βούλα 166 73","categoryIds":["coffee-brunch"],"categories":["Coffee & Brunch Spots"],"distanceKm":0.32035228234487934},{"id":"vegetarianRestaurants_5e82930d8565","slug":"coconuts-nuts-specialties-5e82","kind":"restaurant","name":"COCONUTS Nuts & Specialties","lat":37.83974545115199,"lng":23.767343337140883,"url":"https://maps.app.goo.gl/C155rgfingteegQn8?g_st=ipc","address":"Λεωφ. Βασιλέως Παύλου 67, Βούλα 166 73","categoryIds":["vegetarian"],"categories":["Vegetarian Friendly Restaurants"],"distanceKm":0.41441521798089115},{"id":"asianRestaurants_5169dc5ccfbd","slug":"koyasan-in-voula-5169","kind":"restaurant","name":"KoYaSan In Voula","lat":37.84038966721299,"lng":23.76668605741755,"url":"https://maps.app.goo.gl/hRUmgmxtpReyJ54h7?g_st=ipc","address":"KoYaSan In Voula","categoryIds":["asian"],"categories":["Asian Restaurants"],"distanceKm":0.484357622045153},{"id":"familyFriendly_b360cd975d06","slug":"voula-park-b360","kind":"restaurant","name":"Voula Park","lat":37.839630282199295,"lng":23.762193155062445,"url":"https://maps.app.goo.gl/V4oZWgECkqhJFkK46?g_st=ipc","address":"Nireos, Voula, Athens 166 73","categoryIds":["family-friendly"],"categories":["Kid Friendly Locations"],"distanceKm":0.5737270334158658},{"id":"luxuryDiningRestaurants_9dba478c9326","slug":"faidon-s-athens-9dba","kind":"restaurant","name":"FAIDON'S Athens","lat":37.841556503840984,"lng":23.766513107501794,"url":"https://maps.app.goo.gl/keaSEXUAsA2Tk34x9?g_st=ipc","address":"Αγίου Ιωάννου 28, Βούλα 166 73","categoryIds":["luxury-dining"],"categories":["Luxury Dining"],"distanceKm":0.6146509116022233},{"id":"luxuryDiningRestaurants_daf4afb74694","slug":"sea-satin-athens-riviera-daf4","kind":"restaurant","name":"Sea Satin Athens Riviera","lat":37.840370182607195,"lng":23.760387083086915,"url":"https://maps.app.goo.gl/Uip41WWw3kvAGzDG9?g_st=ipc","address":"Λεωφ. Κωνσταντίνου Καραμανλή 14, Βούλα 166 73","categoryIds":["luxury-dining"],"categories":["Luxury Dining"],"distanceKm":0.7466064911607914}],"sameRegion":[],"mentionedGuides":[]},"__N_SSG":true}