{"pageProps":{"entity":{"id":"dessertsRestaurants_b443fe373cff","slug":"savoidakis-bakery-patisserie-rethymno-b443","kind":"restaurant","name":"Σαβοϊδάκης Bakery & Patisserie, Ρέθυμνο","lat":35.3644961337899,"lng":24.48870910519482,"url":"https://maps.app.goo.gl/GXNdrvZMon8LLp5Y6?g_st=ipc","address":"Mark. Portaliou 57, Rethymno 741 50","categoryIds":["desserts"],"categories":["Dessert Shops"]},"sameCategory":[{"id":"dessertsRestaurants_374f4778e206","slug":"bombus-street-loukoumas-coffee-374f","kind":"restaurant","name":"Bombus Street Loukoumas & Coffee","lat":35.33637912527502,"lng":25.133042788251835,"url":"https://maps.app.goo.gl/AAjaiaEXbfkmmMRW6?g_st=ipc","address":"Pl. Kornarou 31, Iraklio 712 01","categoryIds":["desserts"],"categories":["Dessert Shops"]},{"id":"dessertsRestaurants_247254daf3fe","slug":"queen-boutique-desserts-2472","kind":"restaurant","name":"Queen Boutique Desserts","lat":35.34028577182634,"lng":25.13554567801893,"url":"https://maps.app.goo.gl/6wWh68bY9rCwbUsj8?g_st=ic","address":"Ag. Titou, Iraklio 712 02","categoryIds":["desserts"],"categories":["Dessert Shops"]},{"id":"dessertsRestaurants_ebef2944eed9","slug":"lolita-s-gelato-ebef","kind":"restaurant","name":"Lolita's Gelato","lat":36.46273695850675,"lng":25.376386479037105,"url":"https://maps.app.goo.gl/c2iaJjfqekF4QV9w5?g_st=ipc","address":"Oia 847 02","categoryIds":["desserts"],"categories":["Dessert Shops"]},{"id":"dessertsRestaurants_3d8333fd87a3","slug":"mitsakakis-3d83","kind":"restaurant","name":"Mitsakakis","lat":35.2071841117343,"lng":26.1068075256644,"url":"https://maps.app.goo.gl/HzPozyu829t1F6kV8?g_st=ipc","address":"Kon/nou Karamanli 6, Sitia 723 00","categoryIds":["desserts"],"categories":["Dessert Shops"]},{"id":"dessertsRestaurants_227e46360090","slug":"aggeliki-ice-cream-shop-227e","kind":"restaurant","name":"Aggeliki ice cream shop","lat":36.724956307095454,"lng":24.446679354720963,"url":"https://maps.app.goo.gl/Lr6pCYmiGibrxw1B7?g_st=ipc","address":"Greece, Adamas 848 00","categoryIds":["desserts"],"categories":["Dessert Shops"]},{"id":"dessertsRestaurants_816e027b7bd3","slug":"yfes-816e","kind":"restaurant","name":"Yfes","lat":36.971257014168174,"lng":24.72665696440793,"url":"https://maps.app.goo.gl/9np4LKVixhfHWSEt6?g_st=ipc","address":"Απολλωνία 840 03","categoryIds":["desserts"],"categories":["Dessert Shops"]},{"id":"dessertsRestaurants_1e21715c1ba4","slug":"theodorou-1e21","kind":"restaurant","name":"Theodorou","lat":36.98032236422911,"lng":24.725175617740387,"url":"https://maps.app.goo.gl/3Jy7ZAZANHv7j8Zv5?g_st=ipc","address":"Αρτεμώνας 840 03","categoryIds":["desserts"],"categories":["Dessert Shops"]},{"id":"dessertsRestaurants_3a9ca127474c","slug":"yellow-bicycle-3a9c","kind":"restaurant","name":"Yellow Bicycle","lat":36.981512610738626,"lng":24.723907398959476,"url":"https://maps.app.goo.gl/jrFAxiopPa2HXAPw6?g_st=ipc","address":"Αρτεμώνας 840 03","categoryIds":["desserts"],"categories":["Dessert Shops"]}],"nearby":[{"id":"coffeeBrunchRestaurants_0e2f635e730f","slug":"savoidakis-bakery-patisserie-rethymno-0e2f","kind":"restaurant","name":"Σαβοϊδάκης Bakery & Patisserie, Ρέθυμνο","lat":35.364498475258735,"lng":24.48871039963828,"url":"https://maps.app.goo.gl/JMMKwevbapcLZ5jw5?g_st=ipc","address":"Mark. Portaliou 57, Rethymno 741 50","categoryIds":["coffee-brunch"],"categories":["Coffee & Brunch Spots"],"distanceKm":0.000285595036837312},{"id":"municipalities_b647ea36f888","slug":"rethymno-b647","kind":"municipality","name":"Ρέθυμνο","lat":35.3647,"lng":24.4821,"aliases":["Ρεθυμνο","Rethimno","Rethymnon"],"region":"Κεντρική Κρήτη","name_en":"Rethymno","region_en":"Central Crete","distanceKm":0.5997280799765431},{"id":"familyFriendly_179239195c85","slug":"biotopoi-of-crete-nature-park-1792","kind":"restaurant","name":"Biotopoi of Crete Nature Park","lat":35.36002627927518,"lng":24.496326916546945,"url":"https://maps.app.goo.gl/bgFXGA2JPNnDk4Nh8?g_st=ipc","address":"Kalaitzakis Kastelakia, Rethymno 741 33","categoryIds":["family-friendly"],"categories":["Kid Friendly Locations"],"distanceKm":0.8510114039700377},{"id":"familyFriendly_e3a260aa1584","slug":"calcetto-e3a2","kind":"restaurant","name":"Calcetto","lat":35.35988785622983,"lng":24.496442751230653,"url":"https://maps.app.goo.gl/acAH5pkUBqCJVJGj6?g_st=ipc","address":"Ιωάννου Καλαϊτζάκη, Rethymno 741 00","categoryIds":["family-friendly"],"categories":["Kid Friendly Locations"],"distanceKm":0.8685509965630407},{"id":"greekRestaurants_025e209eb62b","slug":"hasika-025e","kind":"restaurant","name":"Hasika","lat":35.36781760941864,"lng":24.474835852084063,"url":"https://maps.app.goo.gl/hVvx64ssnxuZvpzs7?g_st=ipc","address":"Αγίας Βαρβάρας 11-13, Ρέθυμνο 741 31","categoryIds":["greek-restaurants"],"categories":["Greek Restaurants"],"distanceKm":1.3110684856875185},{"id":"greekRestaurants_b50a3b0926c1","slug":"raki-ba-raki-b50a","kind":"restaurant","name":"Raki Ba Raki","lat":35.370091171281985,"lng":24.473900295265366,"url":"https://maps.app.goo.gl/9dE1VSZKrMDMbd5q8?g_st=ipc","address":"Ραδαμάνθυος 16, Ρέθυμνο 741 31","categoryIds":["greek-restaurants"],"categories":["Greek Restaurants"],"distanceKm":1.479909796629721},{"id":"wineriesVineyards_46f14cfdb608","slug":"the-secret-gorge-restaurant-wine-tasting-experience-46f1","kind":"restaurant","name":"The Secret Gorge - Restaurant & Wine Tasting Experience","lat":35.36437657461691,"lng":24.41937540675887,"url":"https://maps.app.goo.gl/JcxKmH9JYsFLhZKR9?g_st=ipc","address":"3rd Klm. National Road, Rethymno 741 50","categoryIds":["wineries-vineyards"],"categories":["Wineries & Vineyards"],"distanceKm":6.287057765387414},{"id":"luxuryDiningRestaurants_2ae90f83c8cf","slug":"the-secret-gorge-restaurant-wine-tasting-experience-2ae9","kind":"restaurant","name":"The Secret Gorge - Restaurant & Wine Tasting Experience","lat":35.36437434920116,"lng":24.419370445837004,"url":"https://maps.app.goo.gl/gPHcQmEJJv1GDCXa7?g_st=ipc","address":"3rd Klm. National Road, Rethymno 741 50","categoryIds":["luxury-dining"],"categories":["Luxury Dining"],"distanceKm":6.287508225775231}],"sameRegion":[],"mentionedGuides":[]},"__N_SSG":true}