{"pageProps":{"entity":{"id":"greekRestaurants_da2ab78c5fb8","slug":"sknipa-da2a","kind":"restaurant","name":"Σκνίπα","lat":37.96447715022685,"lng":23.56326926823615,"url":"https://maps.app.goo.gl/zYvZ3P8Ee67RZoNy6","address":"Ηλέκτρας 1, Πέραμα 188 63","categoryIds":["greek-restaurants"],"categories":["Greek Restaurants"]},"sameCategory":[{"id":"greekRestaurants_0105e2b1bfb5","slug":"i-taverna-toy-katsogiannoy-0105","kind":"restaurant","name":"Η ταβέρνα του Κατσόγιαννου","lat":37.9460888309485,"lng":23.627498476767997,"url":"https://maps.app.goo.gl/JYrJ78md5Yy4N4n89","address":"Αγίου Παντελεήμονος 15, Δραπετσώνα 186 48","categoryIds":["greek-restaurants"],"categories":["Greek Restaurants"]},{"id":"greekRestaurants_899916cf9819","slug":"izampela-armenikes-nostimies-8999","kind":"restaurant","name":"Ιζαμπέλα - Αρμένικες νοστιμιές","lat":37.95153993965958,"lng":23.631088706562064,"url":"https://maps.app.goo.gl/r3twrz7bwRr76j8n8","address":"Αναπαύσεως 36, Δραπετσώνα 185 46","categoryIds":["greek-restaurants"],"categories":["Greek Restaurants"]},{"id":"greekRestaurants_e914468cc862","slug":"oinopantopoleio-to-eidikon-e914","kind":"restaurant","name":"Οινοπαντοπωλείο Tο Ειδικόν","lat":37.953880471733605,"lng":23.63384583394419,"url":"https://maps.app.goo.gl/PMXGHCEV52xT7G7w7","address":"Ψαρών 38, Πειραιάς 185 46","categoryIds":["greek-restaurants"],"categories":["Greek Restaurants"]},{"id":"greekRestaurants_f42ac62c3249","slug":"bounty-all-aboard-f42a","kind":"restaurant","name":"Bounty all aboard","lat":37.949723445369806,"lng":23.63332963263093,"url":"https://maps.app.goo.gl/2iShe5bzo7qg3ohc6","address":"Εθ. Αντιστάσεως 10, Δραπετσώνα 186 48","categoryIds":["greek-restaurants"],"categories":["Greek Restaurants"]},{"id":"greekRestaurants_8e907eeb8136","slug":"fagopoteion-stoy-thoma-8e90","kind":"restaurant","name":"Φαγοποτείον στου Θωμά","lat":37.954509819048326,"lng":23.642613690114224,"url":"https://maps.app.goo.gl/jQSs2dndkMDG9Tsq7","address":"Μαυρομιχάλη 22-24, Πειραιάς 185 45","categoryIds":["greek-restaurants"],"categories":["Greek Restaurants"]},{"id":"greekRestaurants_559e0d9ef868","slug":"marigo-edesmatopoleio-559e","kind":"restaurant","name":"Μαριγώ Εδεσματοπωλείο","lat":37.93961721991741,"lng":23.641779536091324,"url":"https://maps.app.goo.gl/4advyD22Ta7qiUEv7","address":"Φίλωνος 133, Πειραιάς 185 36","categoryIds":["greek-restaurants"],"categories":["Greek Restaurants"]},{"id":"greekRestaurants_71ccb1aa4b83","slug":"taverna-o-vasilis-71cc","kind":"restaurant","name":"Ταβέρνα Ο Βασίλης","lat":37.983639078803165,"lng":23.65172200450781,"url":"https://maps.app.goo.gl/P3D4J5ff2iNtoGc99","address":"Κολοκοτρώνη 160, Κορυδαλλός 181 21","categoryIds":["greek-restaurants"],"categories":["Greek Restaurants"]},{"id":"greekRestaurants_7773207b8a15","slug":"little-ginger-7773","kind":"restaurant","name":"Little Ginger","lat":37.93943083536511,"lng":23.6501378633564,"url":"https://maps.app.goo.gl/ekwyDGT5qeED8gtk8","address":"Αγγέλου Μεταξά 13, Πειραιάς 185 34","categoryIds":["greek-restaurants"],"categories":["Greek Restaurants"]}],"nearby":[{"id":"fishTavernasRestaurants_9ca929492cba","slug":"o-takis-9ca9","kind":"restaurant","name":"Ο Τάκης","lat":37.965219250882924,"lng":23.56442918090091,"url":"https://maps.app.goo.gl/ZwRnw6egRaawky1TA?g_st=ipc","address":"Ηπείρου 66, Πέραμα 188 63","categoryIds":["fish-tavernas"],"categories":["Fish Tavernas"],"distanceKm":0.13095313737962283},{"id":"fishTavernasRestaurants_2b503e4a2bfd","slug":"charti-kai-kalamari-2b50","kind":"restaurant","name":"ΧΑΡΤΙ ΚΑΙ ΚΑΛΑΜΑΡΙ","lat":37.964880612781556,"lng":23.561831186974818,"url":"https://maps.app.goo.gl/H8GUjvvHpXMG9g9D8?g_st=ipc","address":"Λεωφ. Ειρήνης 33, Πέραμα 188 63","categoryIds":["fish-tavernas"],"categories":["Fish Tavernas"],"distanceKm":0.13381395288582548},{"id":"fishTavernasRestaurants_076c1eca8c96","slug":"oyzeri-lagoydera-076c","kind":"restaurant","name":"Ουζερί Λαγουδέρα","lat":37.96427992970154,"lng":23.558753968080776,"url":"https://maps.app.goo.gl/osnWCGuQG8gn8L3B9?g_st=ipc","address":"Λεωφ. Δημοκρατίας 33, Πέραμα 188 63","categoryIds":["fish-tavernas"],"categories":["Fish Tavernas"],"distanceKm":0.3964423454620388},{"id":"municipalities_367507a29ecc","slug":"perama-3675","kind":"municipality","name":"Πέραμα","lat":37.9681,"lng":23.5667,"region":"Πειραιάς","name_en":"Perama","region_en":"Piraeus","distanceKm":0.5027243008249234},{"id":"cheapEatsRestaurants_10569f764062","slug":"sotiris-1056","kind":"restaurant","name":"Σωτήρης","lat":37.96420811591891,"lng":23.572955787134685,"url":"https://maps.app.goo.gl/6kV5zXHh5EwZ8Cy57?g_st=ipc","address":"ΑΘ.ΔΙΑΚΟΥ &, Σολωμού 6, Πέραμα 188 63","categoryIds":["cheap-eats"],"categories":["Gyros & Cheap Eats"],"distanceKm":0.849699185413409},{"id":"cheapEatsRestaurants_5e71f8045feb","slug":"to-steki-toy-manoli-5e71","kind":"restaurant","name":"Το Στέκι του Μανώλη","lat":37.963705294377505,"lng":23.57363615954898,"url":"https://maps.app.goo.gl/t3CWta3mHexys9Gs7?g_st=ipc","address":"Λεωφ. Ειρήνης 179, Πέραμα 188 63","categoryIds":["cheap-eats"],"categories":["Gyros & Cheap Eats"],"distanceKm":0.912864240738692},{"id":"fishTavernasRestaurants_3d632b6f2123","slug":"oinomageireio-o-vasilis-3d63","kind":"restaurant","name":"ΟΙΝΟΜΑΓΕΙΡΕΙΟ Ο ΒΑΣΙΛΗΣ","lat":37.95641057665237,"lng":23.61228914458667,"url":"https://maps.app.goo.gl/a3BE4Jby4PK3CikYA?g_st=ipc","address":"Ιχθυόσκαλα, Κερατσίνι 187 55","categoryIds":["fish-tavernas"],"categories":["Fish Tavernas"],"distanceKm":4.390180754781706},{"id":"municipalities_14b2964f3eeb","slug":"keratsini-14b2","kind":"municipality","name":"Κερατσίνι","lat":37.9639,"lng":23.6194,"aliases":["Κερατσινι"],"region":"Πειραιάς","name_en":"Keratsini","region_en":"Piraeus","distanceKm":4.921150950781997}],"sameRegion":[],"mentionedGuides":[]},"__N_SSG":true}