{"pageProps":{"entity":{"id":"dessertsRestaurants_1924a0d216d5","slug":"sol-bake-and-coffee-project-athens-1924","kind":"restaurant","name":"Sol Bake and Coffee Project - Athens","lat":37.978160024245575,"lng":23.730562902712155,"url":"https://maps.app.goo.gl/b6SrDJp3RTtqrXM58?g_st=ic","address":"Πραξιτέλους 11, Chavriou 9, Athina 105 62","categoryIds":["desserts"],"categories":["Dessert Shops"]},"sameCategory":[{"id":"dessertsRestaurants_02af5db1ffaa","slug":"overoll-croissanterie-02af","kind":"restaurant","name":"Overoll Croissanterie","lat":37.9788693032848,"lng":23.729688539887693,"url":"https://maps.app.goo.gl/eMRJKRxLBxxiGu628?g_st=ipc","address":"Πραξιτέλους 27, Αθήνα 105 60","categoryIds":["desserts"],"categories":["Dessert Shops"]},{"id":"dessertsRestaurants_0b6ae51a593c","slug":"koykoyvagia-0b6a","kind":"restaurant","name":"Κουκουβάγια","lat":37.97736767389115,"lng":23.728413094267065,"url":"https://maps.app.goo.gl/CMZY3dTRrJ7tTadz6?g_st=ipc","address":"Σκουζέ 1, Αθήνα 105 60","categoryIds":["desserts"],"categories":["Dessert Shops"]},{"id":"dessertsRestaurants_c341ccbd87e0","slug":"ariston-lompotesis-c341","kind":"restaurant","name":"ΑΡΙΣΤΟΝ ΛΟΜΠΟΤΕΣΗΣ","lat":37.97670511785389,"lng":23.732649290748736,"url":"https://maps.app.goo.gl/GQVtxtBLY3rpmzsa9?g_st=ipc","address":"Βουλής 10, Αθήνα 105 62","categoryIds":["desserts"],"categories":["Dessert Shops"]},{"id":"dessertsRestaurants_eb9f02ba5b47","slug":"choureal-choux-profiterole-eb9f","kind":"restaurant","name":"CHOUREAL - Choux & Profiterole","lat":37.97617972861017,"lng":23.73180056203846,"url":"https://maps.app.goo.gl/qEAK3Nkr3LyPuUwh9?g_st=ipc","address":"Διομείας 2 &, Ερμού 18, Αθήνα 105 63","categoryIds":["desserts"],"categories":["Dessert Shops"]},{"id":"dessertsRestaurants_ce9de85fc0a1","slug":"aristokratikon-epich-ap-to-1928-syntagma-athina-ce9d","kind":"restaurant","name":"Αριστοκρατικόν (Επιχ. απ'το 1928) - Σύνταγμα, Αθήνα","lat":37.97685312862056,"lng":23.732864293474787,"url":"https://maps.app.goo.gl/ZpgyyzyeJjW4e7Y58?g_st=ipc","address":"Βουλής 7, Αθήνα 105 62","categoryIds":["desserts"],"categories":["Dessert Shops"]},{"id":"dessertsRestaurants_0f0c49ba7b9d","slug":"lukumades-0f0c","kind":"restaurant","name":"LUKUMAΔΕΣ","lat":37.97694430629526,"lng":23.727608988769845,"url":"https://maps.app.goo.gl/wq9zqPDm2JRLP8hZ7?g_st=ipc","address":"Eolou 21, & Aghias Irinis Str, Athina 105 51","categoryIds":["desserts"],"categories":["Dessert Shops"]},{"id":"dessertsRestaurants_ecf6d66518c8","slug":"oggi-officina-gelato-gusto-italiano-athens-ecf6","kind":"restaurant","name":"Oggi - Officina Gelato Gusto Italiano, Athens","lat":37.97609425961556,"lng":23.73264733165775,"url":"https://maps.app.goo.gl/tFchspxKZcFEKXjf6?g_st=ipc","address":"Βουλής 17, Αθήνα 105 63","categoryIds":["desserts"],"categories":["Dessert Shops"]},{"id":"dessertsRestaurants_dd2783c4061c","slug":"my-cookie-dough-athens-dd27","kind":"restaurant","name":"My Cookie Dough Athens","lat":37.97549732457017,"lng":23.731646460060947,"url":"https://maps.app.goo.gl/h3es1mjnAZfnhipp6?g_st=ipc","address":"Petraki 7, Athina 105 63","categoryIds":["desserts"],"categories":["Dessert Shops"]}],"nearby":[{"id":"coffeeBrunchRestaurants_1d255ac807f1","slug":"sol-bake-and-coffee-project-athens-1d25","kind":"restaurant","name":"Sol Bake and Coffee Project - Athens","lat":37.97816157851863,"lng":23.73056218480863,"url":"https://maps.app.goo.gl/fW434BxjyGNZzoC17?g_st=ipc","address":"Πραξιτέλους 11, Χαβρίου 9, Αθήνα 105 62","categoryIds":["coffee-brunch"],"categories":["Coffee & Brunch Spots"],"distanceKm":0.00018392560436238472},{"id":"italianRestaurants_9735f36161b6","slug":"pracsitele-9735","kind":"restaurant","name":"Pracsitele","lat":37.978075255049035,"lng":23.730655699973674,"url":"https://maps.app.goo.gl/uY33YuN8n7TKUXd86?g_st=ipc","address":"Πραξιτέλους 7, Αθήνα 105 62","categoryIds":["italian"],"categories":["Italian Restaurants"],"distanceKm":0.012450012964108251},{"id":"cheapEatsRestaurants_1135b4cf022d","slug":"photis-deli-sandwiches-1135","kind":"restaurant","name":"Photis Deli Sandwiches","lat":37.97857197779405,"lng":23.73022657557408,"url":"https://maps.app.goo.gl/cJGp1CcZqq5tUPco9?g_st=ipc","address":"Πραξιτέλους 20, Αθήνα 105 61","categoryIds":["cheap-eats"],"categories":["Gyros & Cheap Eats"],"distanceKm":0.054472775982656665},{"id":"cheapEatsRestaurants_ab5cb5a64cdf","slug":"street-souvlaki-ab5c","kind":"restaurant","name":"Street Souvlaki","lat":37.97767884115099,"lng":23.73029552357521,"url":"https://maps.app.goo.gl/o9F3U32hpw226uAK9?g_st=ipc","address":"Κολοκοτρώνη 30, Αθήνα 105 62","categoryIds":["cheap-eats"],"categories":["Gyros & Cheap Eats"],"distanceKm":0.058412526422014464},{"id":"burgersRestaurants_f300f2c4a7ef","slug":"starlight-burgers-f300","kind":"restaurant","name":"Starlight Burgers","lat":37.97768708628673,"lng":23.730973383072776,"url":"https://maps.app.goo.gl/tRpSe3harTyJVBVg7?g_st=ipc","address":"Πραξιτέλους 1, Αθήνα 105 62","categoryIds":["burgers"],"categories":["Burger Spots"],"distanceKm":0.0637178533835147},{"id":"cheapEatsRestaurants_05c7dd51e3bb","slug":"curry-express-indian-food-05c7","kind":"restaurant","name":"Curry Express Indian Food","lat":37.9776157519804,"lng":23.73032710822111,"url":"https://maps.app.goo.gl/J66TMj5XKXHHYhD97?g_st=ipc","address":"Κολοκοτρώνη 37, Αθήνα 105 62","categoryIds":["cheap-eats"],"categories":["Gyros & Cheap Eats"],"distanceKm":0.06395187007168832},{"id":"mexicanRestaurants_d1ef1807c1f0","slug":"taco-loco-athens-d1ef","kind":"restaurant","name":"Taco Loco Athens","lat":37.9776204281013,"lng":23.730210870551065,"url":"https://maps.app.goo.gl/6pEPXa7waRhazPjR9?g_st=ipc","address":"Κολοκοτρώνη 39, Αθήνα 105 62","categoryIds":["mexican"],"categories":["Mexican Restaurants"],"distanceKm":0.06746921128147663},{"id":"coffeeBrunchRestaurants_268ab51f91a8","slug":"smak-zymeria-268a","kind":"restaurant","name":"Smak Ζυμερία","lat":37.97751180003605,"lng":23.730066447556442,"url":"https://maps.app.goo.gl/dAYcRqw7bHXmUKJz6?g_st=ipc","address":"Ρόμβης 21, Αθήνα 105 60","categoryIds":["coffee-brunch"],"categories":["Coffee & Brunch Spots"],"distanceKm":0.08419548542025987}],"sameRegion":[],"mentionedGuides":[{"slug":"tap-water-safe-greece-el","title":"Είναι Ασφαλές να Πίνετε Νερό Βρύσης στην Ελλάδα;"},{"slug":"tap-water-safe-greece","title":"Is Tap Water Safe to Drink in Greece?"},{"slug":"traveling-to-greece-on-a-budget-el","title":"Ταξιδι στην Ελλαδα με μικρο budget"},{"slug":"traveling-to-greece-on-a-budget","title":"Traveling to Greece on a Budget"}]},"__N_SSG":true}