{"pageProps":{"entity":{"id":"municipalities_9eb3f53efc0e","slug":"sparti-9eb3","kind":"municipality","name":"Σπάρτη","lat":37.0745,"lng":22.4301,"aliases":["Sparta","Sparti","Σπάρτα","Σπαρτιάτες","Σπαρτη"],"region":"Λακωνία","name_en":"Sparta","region_en":"Laconia"},"sameCategory":[],"nearby":[{"id":"mustSeeAttractions_10eb6a61dc7d","slug":"mystras-10eb","kind":"restaurant","name":"Mystras","lat":37.06880575051119,"lng":22.375815197260966,"url":"https://maps.app.goo.gl/Ad6oLYv7MUahs6GT6?g_st=ipc","address":"Mistras 231 00","categoryIds":["attractions"],"categories":["Must-See Attractions"],"distanceKm":4.857615158580656},{"id":"mustSeeAttractions_007b974cc264","slug":"archaeological-site-of-mystras-007b","kind":"restaurant","name":"Archaeological Site of Mystras","lat":37.0741056706056,"lng":22.3669181951106,"url":"https://maps.app.goo.gl/hRfeUmzdQ9kFWn689?g_st=ipc","address":"Lower Town 231 00","categoryIds":["attractions"],"categories":["Must-See Attractions"],"distanceKm":5.6054943268648225},{"id":"greekRestaurants_4b292579b6c1","slug":"kastraki-4b29","kind":"restaurant","name":"Καστράκι","lat":36.99814863061726,"lng":22.16327783385712,"url":"https://maps.app.goo.gl/ruMr5U1HpLAsRyMj8?g_st=ipc","address":"Verga, Καλαμάτα 241 00","categoryIds":["greek-restaurants"],"categories":["Greek Restaurants"],"distanceKm":25.1593100033754},{"id":"greekRestaurants_bea663c90687","slug":"old-kardamili-traditional-restaurant-bea6","kind":"restaurant","name":"Old Kardamili Traditional Restaurant","lat":36.89060323769192,"lng":22.234603142422902,"url":"https://maps.app.goo.gl/6q92ZmmxYbRjcPAK7?g_st=ipc","address":"Καρδαμύλη 240 22","categoryIds":["greek-restaurants"],"categories":["Greek Restaurants"],"distanceKm":26.826786415301534},{"id":"municipalities_916c7fc5dbd0","slug":"kardamyli-916c","kind":"municipality","name":"Καρδαμύλη","lat":36.887,"lng":22.231,"region":"Μάνη","name_en":"Kardamyli","region_en":"Mani","distanceKm":27.339626212122567},{"id":"municipalities_27bb87995f2c","slug":"kalamata-27bb","kind":"municipality","name":"Καλαμάτα","lat":37.0389,"lng":22.1142,"aliases":["Kalamata","Καλαματα"],"region":"Μεσσηνία","name_en":"Kalamata","region_en":"Messinia","distanceKm":28.310424362122664},{"id":"cheapEatsRestaurants_4a509c86a037","slug":"souvlakia-o-tzimis-4a50","kind":"restaurant","name":"Souvlakia o Tzimis","lat":37.04342911583992,"lng":22.113254908943482,"url":"https://maps.app.goo.gl/VEjvVPTR3XkkoZxW8?g_st=ipc","address":"Mpenaki 1, Kalamata 241 00","categoryIds":["cheap-eats"],"categories":["Gyros & Cheap Eats"],"distanceKm":28.326813057877892},{"id":"dessertsRestaurants_56efe2dc9d58","slug":"mama-s-sweethouse-56ef","kind":"restaurant","name":"Mama's Sweethouse","lat":37.04347618258237,"lng":22.112767283500112,"url":"https://maps.app.goo.gl/S4yCk6avJpgbawKA7?g_st=ipc","address":"Amfias 20, Kalamata 241 00","categoryIds":["desserts"],"categories":["Dessert Shops"],"distanceKm":28.369114490012038}],"sameRegion":[{"id":"municipalities_3a3d61a31c8f","slug":"gytheio-3a3d","kind":"municipality","name":"Γύθειο","lat":36.7572,"lng":22.5644,"aliases":["Gytheio","Ytheio"],"region":"Λακωνία","name_en":"Gytheio","region_en":"Laconia"},{"id":"municipalities_44f0c923cf66","slug":"skoytari-44f0","kind":"municipality","name":"Σκουτάρι","lat":36.716,"lng":22.55,"region":"Λακωνία","name_en":"Skoutari","region_en":"Laconia"},{"id":"municipalities_501ca30757a9","slug":"monemvasia-501c","kind":"municipality","name":"Μονεμβασιά","lat":36.6884,"lng":23.05,"region":"Λακωνία","name_en":"Monemvasia","region_en":"Laconia"},{"id":"municipalities_69975f7e3686","slug":"mayrovoyni-6997","kind":"municipality","name":"Μαυροβούνι","lat":36.7275,"lng":22.5564,"region":"Λακωνία","name_en":"Mavrovouni","region_en":"Laconia"}],"mentionedGuides":[]},"__N_SSG":true}