{"pageProps":{"entity":{"id":"dessertsRestaurants_d6293efcb0d5","slug":"sugarela-d629","kind":"restaurant","name":"Sugarela","lat":40.628286349246984,"lng":22.94919276720608,"url":"https://maps.app.goo.gl/BWRmuMRqDoq6N7MH8?g_st=ipc","address":"Nikiforou Foka 12, Thessaloniki 546 21","categoryIds":["desserts"],"categories":["Dessert Shops"]},"sameCategory":[{"id":"dessertsRestaurants_509c5344d793","slug":"armenonville-509c","kind":"restaurant","name":"Armenonville","lat":40.62813210913547,"lng":22.94876500137915,"url":"https://maps.app.goo.gl/3MMykvcTvkcMNqrA6?g_st=ipc","address":"Mitropoleos 102, Thessaloniki 546 21","categoryIds":["desserts"],"categories":["Dessert Shops"]},{"id":"dessertsRestaurants_28a0c1dca6b8","slug":"trigona-elenidi-28a0","kind":"restaurant","name":"Trigona Elenidi","lat":40.62886737433407,"lng":22.948457330769024,"url":"https://maps.app.goo.gl/CrarZvo5GUHnGW4C7?g_st=ipc","address":"Dim. Gounari 13, Thessaloniki 546 22","categoryIds":["desserts"],"categories":["Dessert Shops"]},{"id":"dessertsRestaurants_9cb3b10fe36b","slug":"yum-tree-9cb3","kind":"restaurant","name":"Yum Tree","lat":40.62786519012478,"lng":22.94755218130747,"url":"https://maps.app.goo.gl/zfkjDiD3iU8Rv19E6?g_st=ipc","address":"Dim. Gounari 5, Thessaloniki 546 22","categoryIds":["desserts"],"categories":["Dessert Shops"]},{"id":"dessertsRestaurants_ff4e4669779d","slug":"bombolo-ff4e","kind":"restaurant","name":"BOMBOLO","lat":40.628931168792896,"lng":22.947385328416402,"url":"https://maps.app.goo.gl/KrVfLWu1YhMe94yS8?g_st=ipc","address":"Mitropoleos 88, Thessaloniki 546 22","categoryIds":["desserts"],"categories":["Dessert Shops"]},{"id":"dessertsRestaurants_90fef645e082","slug":"fatto-a-mano-90fe","kind":"restaurant","name":"Fatto a Mano","lat":40.63009258953706,"lng":22.9479003155248,"url":"https://maps.app.goo.gl/nU8Tq4Vjr5TS7bBeA?g_st=ipc","address":"P. Mela 20, Thessaloniki 546 22","categoryIds":["desserts"],"categories":["Dessert Shops"]},{"id":"dessertsRestaurants_11a9a0429f5e","slug":"sugar-confectionery-11a9","kind":"restaurant","name":"Sugar Confectionery","lat":40.63028200470032,"lng":22.948376451004588,"url":"https://maps.app.goo.gl/ZJHSRbMxNSqCmdKCA?g_st=ipc","address":"Lordou Vironos 7, Thessaloniki 546 22","categoryIds":["desserts"],"categories":["Dessert Shops"]},{"id":"dessertsRestaurants_8263a8db76c8","slug":"valentino-crepes-8263","kind":"restaurant","name":"Valentino Crepes","lat":40.63057112442913,"lng":22.950154633509246,"url":"https://maps.app.goo.gl/nwvSZePQvBQzGocJ6?g_st=ipc","address":"Dim. Gounari 25, Thessaloniki 546 22","categoryIds":["desserts"],"categories":["Dessert Shops"]},{"id":"dessertsRestaurants_9d142e026cde","slug":"gelati-e-amore-9d14","kind":"restaurant","name":"Gelati e Amore","lat":40.63013548543496,"lng":22.951618020186764,"url":"https://maps.app.goo.gl/vMrAJXJCUj5tn2mDA?g_st=ipc","address":"Al. Svolou 44, Thessaloniki 546 21","categoryIds":["desserts"],"categories":["Dessert Shops"]}],"nearby":[{"id":"cheapEatsRestaurants_f03e4dc68c8d","slug":"feyrouz-skg-f03e","kind":"restaurant","name":"Feyrouz SKG","lat":40.62813032194449,"lng":22.94911089919006,"url":"https://maps.app.goo.gl/pedu5yTx6WHSFd5MA?g_st=ipc","address":"Mitropoleos 125, Nikiforou Foka 8, Thessaloniki 546 21","categoryIds":["cheap-eats"],"categories":["Gyros & Cheap Eats"],"distanceKm":0.0186745011741086},{"id":"dessertsRestaurants_509c5344d793","slug":"armenonville-509c","kind":"restaurant","name":"Armenonville","lat":40.62813210913547,"lng":22.94876500137915,"url":"https://maps.app.goo.gl/3MMykvcTvkcMNqrA6?g_st=ipc","address":"Mitropoleos 102, Thessaloniki 546 21","categoryIds":["desserts"],"categories":["Dessert Shops"],"distanceKm":0.03996676171169856},{"id":"vegetarianRestaurants_40634af2ec79","slug":"falafel-taste-middle-east-4063","kind":"restaurant","name":"Falafel Taste Middle East","lat":40.62785484140031,"lng":22.949330420414434,"url":"https://maps.app.goo.gl/bHy6BTfdp9RBhdBt6?g_st=ipc","address":"Mitropoleos 106 &, Romanou, Thessaloniki 546 21","categoryIds":["vegetarian"],"categories":["Vegetarian Friendly Restaurants"],"distanceKm":0.049367726001336106},{"id":"cheapEatsRestaurants_4326011ed54c","slug":"to-etsi-4326","kind":"restaurant","name":"Το Έτση","lat":40.627697688934035,"lng":22.94868143840882,"url":"https://maps.app.goo.gl/82yxHEuuzhZ7bD1T9?g_st=ipc","address":"Nikiforou Foka 2, Thessaloniki 546 21","categoryIds":["cheap-eats"],"categories":["Gyros & Cheap Eats"],"distanceKm":0.07840014436663352},{"id":"dessertsRestaurants_28a0c1dca6b8","slug":"trigona-elenidi-28a0","kind":"restaurant","name":"Trigona Elenidi","lat":40.62886737433407,"lng":22.948457330769024,"url":"https://maps.app.goo.gl/CrarZvo5GUHnGW4C7?g_st=ipc","address":"Dim. Gounari 13, Thessaloniki 546 22","categoryIds":["desserts"],"categories":["Dessert Shops"],"distanceKm":0.08958815882445056},{"id":"greekRestaurants_9ca9bccdb731","slug":"diagonios-1977-9ca9","kind":"restaurant","name":"Διαγώνιος 1977","lat":40.628424051093205,"lng":22.94777702854618,"url":"https://maps.app.goo.gl/NGT8FMWUaiPpBxYGA?g_st=ipc","address":"Πλ. Φαναριωτῶν 2, Θεσσαλονίκη 546 22","categoryIds":["greek-restaurants"],"categories":["Greek Restaurants"],"distanceKm":0.1204531807793366},{"id":"coffeeBrunchRestaurants_47c3c430cfa2","slug":"in-house-project-47c3","kind":"restaurant","name":"In House Project","lat":40.62870471135404,"lng":22.947776924849798,"url":"https://maps.app.goo.gl/9KxXxviA2D5JhcSW7?g_st=ipc","address":"Mitropoleos 96, Thessaloniki 546 22","categoryIds":["coffee-brunch"],"categories":["Coffee & Brunch Spots"],"distanceKm":0.12822104702302092},{"id":"greekRestaurants_bc2682007b45","slug":"canteen-all-day-bar-restaurant-bc26","kind":"restaurant","name":"Canteen All day Bar Restaurant","lat":40.628045759253304,"lng":22.94769823250704,"url":"https://maps.app.goo.gl/4PvAxWQTpkBWbzxZ6?g_st=ipc","address":"Δημ. Γούναρη 7, Θεσσαλονίκη 546 22","categoryIds":["greek-restaurants"],"categories":["Greek Restaurants"],"distanceKm":0.1289320647058651}],"sameRegion":[],"mentionedGuides":[]},"__N_SSG":true}