{"pageProps":{"entity":{"id":"rooftopLoungesRestaurants_fbedc289379a","slug":"taratsa-open-fbed","kind":"restaurant","name":"Taratsa Open","lat":38.83493516503128,"lng":20.711610210825643,"url":"https://maps.app.goo.gl/gucKqbib1YPXfXRd8?g_st=ipc","address":"EO Amfilochias Lefkadas, Lefkada 311 00","categoryIds":["rooftop-lounges"],"categories":["Rooftop Lounges"]},"sameCategory":[{"id":"rooftopLoungesRestaurants_022b40d3c73a","slug":"avocado-cocktail-bar-022b","kind":"restaurant","name":"Avocado Cocktail Bar","lat":39.28423915622935,"lng":20.39914061806164,"url":"https://maps.app.goo.gl/Rej46ZikGi16jCPa6?g_st=ipc","address":"23ης Φεβρουαρίου, Parga 480 60","categoryIds":["rooftop-lounges"],"categories":["Rooftop Lounges"]},{"id":"rooftopLoungesRestaurants_3af9241259c9","slug":"liberty-view-of-nafplio-3af9","kind":"restaurant","name":"Liberty View Of Nafplio","lat":37.56620313105519,"lng":22.806200235013893,"url":"https://maps.app.goo.gl/rQCJ25nGMgqPtznc9?g_st=ipc","address":"Σιδηράς Μεραρχίας 39, Ναύπλιο 211 00","categoryIds":["rooftop-lounges"],"categories":["Rooftop Lounges"]},{"id":"rooftopLoungesRestaurants_0981ecde8885","slug":"telescope-cafe-bar-restaurant-0981","kind":"restaurant","name":"Telescope Cafe Bar Restaurant","lat":38.00691762131001,"lng":23.65623811246107,"url":"https://maps.app.goo.gl/kiF8TojxnBhKbgaz5?g_st=ipc","address":"Φιλικής Εταιρείας, Χαϊδάρι 124 61","categoryIds":["rooftop-lounges"],"categories":["Rooftop Lounges"]},{"id":"rooftopLoungesRestaurants_43009144e178","slug":"la-luna-see-the-view-4300","kind":"restaurant","name":"La Luna See The View","lat":37.94499432681891,"lng":23.62996124370496,"url":"https://maps.app.goo.gl/uPm46zTckTNqv3Qu9?g_st=ipc","address":"Παύλου, Κουντουριώτου 73, Δραπετσώνα 186 48","categoryIds":["rooftop-lounges"],"categories":["Rooftop Lounges"]},{"id":"rooftopLoungesRestaurants_1533c10141a1","slug":"allegro-1533","kind":"restaurant","name":"Allegro","lat":40.597207319655574,"lng":22.9475710644147,"url":"https://maps.app.goo.gl/JPyojcjpAj6bXV746?g_st=ipc","address":"25 Martiou & Coastal Road, Thessaloniki 546 46","categoryIds":["rooftop-lounges"],"categories":["Rooftop Lounges"]},{"id":"rooftopLoungesRestaurants_70a332fffcc8","slug":"horizon-rooftop-of-senses-70a3","kind":"restaurant","name":"Horizon Rooftop Of Senses","lat":37.93866165468551,"lng":23.659642211558037,"url":"https://maps.app.goo.gl/viDajdxAvyspFBBt6?g_st=ipc","address":"Ακτή Κουμουνδούρου 24, Πειραιάς 185 33","categoryIds":["rooftop-lounges"],"categories":["Rooftop Lounges"]},{"id":"rooftopLoungesRestaurants_d731d137095c","slug":"nest-rooftop-monte-kastella-d731","kind":"restaurant","name":"ΝΕΣΤ Rooftop - Monte Kastella","lat":37.93966270446982,"lng":23.66158469266589,"url":"https://maps.app.goo.gl/ihEdPbBRkh4gUgkN8?g_st=ipc","address":"Λεωφ. Αλ. Παπαναστασίου 109, Πειραιάς 185 33","categoryIds":["rooftop-lounges"],"categories":["Rooftop Lounges"]},{"id":"rooftopLoungesRestaurants_7e076fa27638","slug":"margarita-at-the-top-of-sense-7e07","kind":"restaurant","name":"Margarita At the Top of Sense","lat":40.63545426028475,"lng":22.93700542047033,"url":"https://maps.app.goo.gl/WnmhcnyR1pUzpjBc9?g_st=ipc","address":"Pl. Morichovou 11, Thessaloniki 546 25","categoryIds":["rooftop-lounges"],"categories":["Rooftop Lounges"]}],"nearby":[{"id":"greekRestaurants_1d1502fabe5a","slug":"margarita-restaurant-1d15","kind":"restaurant","name":"Margarita Restaurant","lat":38.83487688240494,"lng":20.711768051704645,"url":"https://maps.app.goo.gl/4VvcV8grfdUFnb8k8?g_st=ipc","address":"Dimitrioy golemi, Λευκάδα 311 00","categoryIds":["greek-restaurants"],"categories":["Greek Restaurants"],"distanceKm":0.01512980153821453},{"id":"luxuryDiningRestaurants_7ec403367977","slug":"restaurant-thymari-7ec4","kind":"restaurant","name":"Restaurant Thymari","lat":38.835357324233975,"lng":20.708797217981044,"url":"https://maps.app.goo.gl/8TWdBgQzLn6EaTaWA?g_st=ipc","address":"Πηνελόπης 19, Lefkada 311 00","categoryIds":["luxury-dining"],"categories":["Luxury Dining"],"distanceKm":0.2481300299473623},{"id":"italianRestaurants_13db7f7dfac4","slug":"loulis-taste-project-13db","kind":"restaurant","name":"Loulis Taste Project","lat":38.83362395321285,"lng":20.707875524974906,"url":"https://maps.app.goo.gl/tNzSrPjrJVJbBhbr6?g_st=ipc","address":"Loulis Taste Project","categoryIds":["italian"],"categories":["Italian Restaurants"],"distanceKm":0.35482535352099526},{"id":"dessertsRestaurants_c1858394016b","slug":"fresco-gelato-artigianale-c185","kind":"restaurant","name":"Fresco gelato artigianale","lat":38.833202680203854,"lng":20.707021375147267,"url":"https://maps.app.goo.gl/ewEbAmjuJdZBCseQ7?g_st=ipc","address":"Ioannou Mela 69, Lefkada 311 00","categoryIds":["desserts"],"categories":["Dessert Shops"],"distanceKm":0.4416953730233993},{"id":"municipalities_1d2e36065111","slug":"leykada-1d2e","kind":"municipality","name":"Λευκάδα","lat":38.83,"lng":20.71,"region":"Ιόνιο","name_en":"Lefkada","region_en":"Ionian Islands","distanceKm":0.5662124802456339},{"id":"luxuryDiningRestaurants_8b20ccb20498","slug":"mastelo-restaurant-bar-8b20","kind":"restaurant","name":"Mastelo Restaurant & Bar","lat":38.83239517619771,"lng":20.705692089105533,"url":"https://maps.app.goo.gl/3X5uukpGejXWctER8?g_st=ipc","address":"Mitropoleos 11, Lefkada 311 00","categoryIds":["luxury-dining"],"categories":["Luxury Dining"],"distanceKm":0.5852697903854134},{"id":"coffeeBrunchRestaurants_819a67237a78","slug":"zimis-819a","kind":"restaurant","name":"Zimis","lat":38.83034594976957,"lng":20.704090375704506,"url":"https://maps.app.goo.gl/qftMEppMQDEhweUP7?g_st=ipc","address":"Efstathiou Zakka 12, Lefkada 311 00","categoryIds":["coffee-brunch"],"categories":["Coffee & Brunch Spots"],"distanceKm":0.827448720907252},{"id":"greekRestaurants_0ef8cfb2d853","slug":"kolokythas-oikogeneiaki-taverna-0ef8","kind":"restaurant","name":"ΚΟΛΟΚΥΘΑΣ Οικογενειακή Ταβέρνα","lat":38.79965914314924,"lng":20.740469326628666,"url":"https://maps.app.goo.gl/DdneXWByi7dQmATLA?g_st=ipc","address":"Πλαγια αιτολοκαρνανιας Πλαγιά, Πλαγιά 300 02","categoryIds":["greek-restaurants"],"categories":["Greek Restaurants"],"distanceKm":4.651614023930678}],"sameRegion":[],"mentionedGuides":[]},"__N_SSG":true}