{"pageProps":{"entity":{"id":"fishTavernasRestaurants_fb9d66fac1f5","slug":"tavern-agnanti-fb9d","kind":"restaurant","name":"Tavern Agnanti","lat":40.41084248795629,"lng":22.891152463357457,"url":"https://maps.app.goo.gl/rCLbi5kVttqKQ5gH7?g_st=ipc","address":"Παραλία Επανομής 575 00","categoryIds":["fish-tavernas"],"categories":["Fish Tavernas"]},"sameCategory":[{"id":"fishTavernasRestaurants_5f888942c0b2","slug":"ouzeri-agkyrovoli-5f88","kind":"restaurant","name":"Ouzeri Agkyrovoli","lat":40.3816010668938,"lng":22.930017992829136,"url":"https://maps.app.goo.gl/5dazC7iQuRSBAe5g8?g_st=ipc","address":"Άγνωστη Οδός, Ποταμός Επανωμής 575 00","categoryIds":["fish-tavernas"],"categories":["Fish Tavernas"]},{"id":"fishTavernasRestaurants_b57bdf3c8aed","slug":"retselis-restaurant-b57b","kind":"restaurant","name":"Retselis Restaurant","lat":40.46564721234731,"lng":22.856472838512083,"url":"https://maps.app.goo.gl/SQELaoZ53HgSaqhs6?g_st=ipc","address":"Politechniou 1, Nea Michaniona 570 04","categoryIds":["fish-tavernas"],"categories":["Fish Tavernas"]},{"id":"fishTavernasRestaurants_74a21593aab9","slug":"prigkipas-2-74a2","kind":"restaurant","name":"Πρίγκιπας 2","lat":40.50076912252891,"lng":22.874276414295796,"url":"https://maps.app.goo.gl/bCTBJDRFAeRcLaM56?g_st=ipc","address":"Οικονομίου και, Neapoleos 1, Ag. Triada 570 19","categoryIds":["fish-tavernas"],"categories":["Fish Tavernas"]},{"id":"fishTavernasRestaurants_ecaa83f4acfd","slug":"archipelagos-ecaa","kind":"restaurant","name":"Archipelagos","lat":40.51031154332882,"lng":22.92896116717673,"url":"https://maps.app.goo.gl/VsctpgJ15cGguUW59?g_st=ipc","address":"P. Kountouriotou 37, Perea 575 00","categoryIds":["fish-tavernas"],"categories":["Fish Tavernas"]},{"id":"fishTavernasRestaurants_12f95d4f93d0","slug":"maiami-seafood-restaurant-12f9","kind":"restaurant","name":"Maiami Seafood Restaurant","lat":40.5660781564898,"lng":22.958426191574933,"url":"https://maps.app.goo.gl/iH1kytUDBvfY1Xmu5?g_st=ipc","address":"Thetidos 18, Kalamaria 551 32","categoryIds":["fish-tavernas"],"categories":["Fish Tavernas"]},{"id":"fishTavernasRestaurants_0b1c52c256c7","slug":"thermaikos-psarotaverna-kalamaria-thessaloniki-0b1c","kind":"restaurant","name":"Θερμαϊκός Ψαροταβέρνα | Καλαμαρία, Θεσσαλονίκη","lat":40.56643535238568,"lng":22.958306698225478,"url":"https://maps.app.goo.gl/fGHKAJK8MvBqvND6A?g_st=ipc","address":"Thetidos, Kalamaria 551 32","categoryIds":["fish-tavernas"],"categories":["Fish Tavernas"]},{"id":"fishTavernasRestaurants_d3195d3c5fff","slug":"arodo-d319","kind":"restaurant","name":"Aródo","lat":40.566822399097624,"lng":22.957889078590952,"url":"https://maps.app.goo.gl/1PTePSM62TKyXYyd9?g_st=ipc","address":"Thetidos 25, Θεσσαλονίκη 551 32","categoryIds":["fish-tavernas"],"categories":["Fish Tavernas"]},{"id":"fishTavernasRestaurants_8519dfc7e5a0","slug":"prigkipas-8519","kind":"restaurant","name":"Prigkipas","lat":40.56870307397198,"lng":22.96042239278236,"url":"https://maps.app.goo.gl/CftYQWb7WS78EL267?g_st=ipc","address":"Chanion 8, Kalamaria 551 32","categoryIds":["fish-tavernas"],"categories":["Fish Tavernas"]}],"nearby":[{"id":"coffeeBrunchRestaurants_f7db517498a0","slug":"beach-house-by-flamingo-f7db","kind":"restaurant","name":"Beach House by flamingo","lat":40.38155085132963,"lng":22.921580696023792,"url":"https://maps.app.goo.gl/YdqcocS9SrPhoykt5?g_st=ipc","address":"Ποταμός, Epanomi 575 00","categoryIds":["coffee-brunch"],"categories":["Coffee & Brunch Spots"],"distanceKm":4.1531185409546065},{"id":"fishTavernasRestaurants_5f888942c0b2","slug":"ouzeri-agkyrovoli-5f88","kind":"restaurant","name":"Ouzeri Agkyrovoli","lat":40.3816010668938,"lng":22.930017992829136,"url":"https://maps.app.goo.gl/5dazC7iQuRSBAe5g8?g_st=ipc","address":"Άγνωστη Οδός, Ποταμός Επανωμής 575 00","categoryIds":["fish-tavernas"],"categories":["Fish Tavernas"],"distanceKm":4.626532497005928},{"id":"wineriesVineyards_1453a2659012","slug":"gerovasileiou-estate-1453","kind":"restaurant","name":"Gerovasileiou Estate","lat":40.44938832129469,"lng":22.924743352052637,"url":"https://maps.app.goo.gl/C8APtFGMgaBwFMYcA?g_st=ipc","address":"ktima Gerovassiliou, Epanomi 575 00","categoryIds":["wineries-vineyards"],"categories":["Wineries & Vineyards"],"distanceKm":5.143375849542406},{"id":"fishTavernasRestaurants_b57bdf3c8aed","slug":"retselis-restaurant-b57b","kind":"restaurant","name":"Retselis Restaurant","lat":40.46564721234731,"lng":22.856472838512083,"url":"https://maps.app.goo.gl/SQELaoZ53HgSaqhs6?g_st=ipc","address":"Politechniou 1, Nea Michaniona 570 04","categoryIds":["fish-tavernas"],"categories":["Fish Tavernas"],"distanceKm":6.763948130435167},{"id":"coffeeBrunchRestaurants_0acfd74b52d1","slug":"bonobo-0acf","kind":"restaurant","name":"bonobo","lat":40.469049217975595,"lng":22.95592261642206,"url":"https://maps.app.goo.gl/2aoNej1nWQNAJniB7?g_st=ipc","address":"Miaouli 78, Plagiari 575 00","categoryIds":["coffee-brunch"],"categories":["Coffee & Brunch Spots"],"distanceKm":8.48154643803869},{"id":"greekRestaurants_730ebf3d54bc","slug":"to-steki-steak-house-730e","kind":"restaurant","name":"ΤΟ ΣΤΕΚΙ Steak House","lat":40.468079577548984,"lng":22.97361442896107,"url":"https://maps.app.goo.gl/bcVGXZXajJU5Ehw39?g_st=ipc","address":"Π. Μελά 9, Τρίλοφος 575 00","categoryIds":["greek-restaurants"],"categories":["Greek Restaurants"],"distanceKm":9.445052786753095},{"id":"fishTavernasRestaurants_74a21593aab9","slug":"prigkipas-2-74a2","kind":"restaurant","name":"Πρίγκιπας 2","lat":40.50076912252891,"lng":22.874276414295796,"url":"https://maps.app.goo.gl/bCTBJDRFAeRcLaM56?g_st=ipc","address":"Οικονομίου και, Neapoleos 1, Ag. Triada 570 19","categoryIds":["fish-tavernas"],"categories":["Fish Tavernas"],"distanceKm":10.100817204617254},{"id":"greekRestaurants_0c835368c56b","slug":"anestis-chasapotaverna-0c83","kind":"restaurant","name":"Ανέστης Χασαποταβέρνα","lat":40.502483515629656,"lng":22.91579650811081,"url":"https://maps.app.goo.gl/t2wP5pPZ82MXqh6X7?g_st=ipc","address":"Λεωφ. Θεσσαλονίκης - Μηχανιώνας 78, Περαία 570 19","categoryIds":["greek-restaurants"],"categories":["Greek Restaurants"],"distanceKm":10.401154317107771}],"sameRegion":[],"mentionedGuides":[]},"__N_SSG":true}