{"pageProps":{"entity":{"id":"greekRestaurants_e84451b3cebc","slug":"taverna-psistaria-o-thomas-apo-to-1980-e844","kind":"restaurant","name":"Ταβέρνα - Ψησταριά ο Θωμάς απο το 1980","lat":38.015942140522725,"lng":23.686390666199237,"url":"https://maps.app.goo.gl/ZYNUbquE3yHM5E837","address":"Χαλκοκονδύλη 39, Περιστέρι 121 35","categoryIds":["greek-restaurants"],"categories":["Greek Restaurants"]},"sameCategory":[{"id":"greekRestaurants_894000c6e69f","slug":"arch-beer-house-8940","kind":"restaurant","name":"Arch Beer House","lat":38.01418942631727,"lng":23.68836608869776,"url":"https://maps.app.goo.gl/LiRMqJ6hgSpNtgJ99","address":"Εθ. Αντιστάσεως 91, Περιστέρι 121 34","categoryIds":["greek-restaurants"],"categories":["Greek Restaurants"]},{"id":"greekRestaurants_3bf98dd0eb38","slug":"anemologio-enallaktiko-kafe-3bf9","kind":"restaurant","name":"Ανεμολόγιο εναλλακτικό καφέ","lat":38.016523540675394,"lng":23.68057325145113,"url":"https://maps.app.goo.gl/jpKMuFsoZ998HnQE8","address":"Πελοπίδα 106, Περιστέρι 121 35","categoryIds":["greek-restaurants"],"categories":["Greek Restaurants"]},{"id":"greekRestaurants_6208e477b281","slug":"pappu-athens-6208","kind":"restaurant","name":"Pāppu Athens","lat":38.01046990272616,"lng":23.68965527636987,"url":"https://maps.app.goo.gl/QKrjcz5bwnJE9QXA6","address":"Μεσολογγίου 100, Περιστέρι 121 31","categoryIds":["greek-restaurants"],"categories":["Greek Restaurants"]},{"id":"greekRestaurants_66d5a57225f6","slug":"taverna-o-karagkiozis-66d5","kind":"restaurant","name":"Ταβέρνα Ο Καραγκιόζης","lat":38.01836729151931,"lng":23.702104419170855,"url":"https://maps.app.goo.gl/zhCvjvwCT9rbixAE6","address":"Τρώων 9, Bournazi 121 33","categoryIds":["greek-restaurants"],"categories":["Greek Restaurants"]},{"id":"greekRestaurants_9c5c07b28afc","slug":"schinos-mpistro-9c5c","kind":"restaurant","name":"Σχίνος Μπιστρό","lat":38.01228323858559,"lng":23.703471319893453,"url":"https://maps.app.goo.gl/VEoaxecqRaF6Y2in8","address":"Μεγ. Αλεξάνδρου 88, Περιστέρι 121 32","categoryIds":["greek-restaurants"],"categories":["Greek Restaurants"]},{"id":"greekRestaurants_8f61506d1171","slug":"basegrill-athens-8f61","kind":"restaurant","name":"Basegrill Athens","lat":38.01200938597209,"lng":23.7082215195935,"url":"https://maps.app.goo.gl/4HcYYs1yQVdq1giy8","address":"Λεωφ. Κωνσταντινουπόλεως 64, Περιστέρι 121 33","categoryIds":["greek-restaurants"],"categories":["Greek Restaurants"]},{"id":"greekRestaurants_ca3f37d54af0","slug":"to-kastro-mezedopoleio-ca3f","kind":"restaurant","name":"Το Κάστρο - Μεζεδοπωλείο","lat":38.029707505192306,"lng":23.701561203164797,"url":"https://maps.app.goo.gl/ntunDXdn4W56VrG16","address":"Πολυτέκνων 80, Ίλιον 131 21","categoryIds":["greek-restaurants"],"categories":["Greek Restaurants"]},{"id":"greekRestaurants_d28823b9eec2","slug":"myrtia-peristeri-d288","kind":"restaurant","name":"Μυρτιά - Περιστέρι","lat":38.00643775276086,"lng":23.706964574646523,"url":"https://maps.app.goo.gl/ZmkpQ1J6yj1b1iUX6","address":"Αγίας Παρασκευής 24, Περιστέρι 121 32","categoryIds":["greek-restaurants"],"categories":["Greek Restaurants"]}],"nearby":[{"id":"familyFriendly_8e9d5a82d610","slug":"alsos-peristerioy-8e9d","kind":"restaurant","name":"Άλσος Περιστερίου","lat":38.01691760996396,"lng":23.68608991560274,"url":"https://maps.app.goo.gl/RLSd71ewXvmvT1cB6?g_st=ipc","address":"Αγίου Βασιλείου 63, Περιστέρι 121 35","categoryIds":["family-friendly"],"categories":["Kid Friendly Locations"],"distanceKm":0.1116212065874514},{"id":"greekRestaurants_894000c6e69f","slug":"arch-beer-house-8940","kind":"restaurant","name":"Arch Beer House","lat":38.01418942631727,"lng":23.68836608869776,"url":"https://maps.app.goo.gl/LiRMqJ6hgSpNtgJ99","address":"Εθ. Αντιστάσεως 91, Περιστέρι 121 34","categoryIds":["greek-restaurants"],"categories":["Greek Restaurants"],"distanceKm":0.2606372935191817},{"id":"burgersRestaurants_61f30a1a8896","slug":"arch-beer-house-61f3","kind":"restaurant","name":"Arch Beer House","lat":38.013998175642,"lng":23.688328178434592,"url":"https://maps.app.goo.gl/ESAdNAhkQW7WvLqWA?g_st=ipc","address":"Εθ. Αντιστάσεως 91, Περιστέρι 121 34","categoryIds":["burgers"],"categories":["Burger Spots"],"distanceKm":0.27483612370670213},{"id":"cheapEatsRestaurants_9b3a59c497dd","slug":"to-magkali-peristeri-9b3a","kind":"restaurant","name":"Το Μαγκάλι (Περιστέρι)","lat":38.01338073065152,"lng":23.686862336191798,"url":"https://maps.app.goo.gl/cpKq1vTipGxLPNCu7?g_st=ipc","address":"Δωδεκανήσου 24, Πελοπίδα 48, Περιστέρι 121 34","categoryIds":["cheap-eats"],"categories":["Gyros & Cheap Eats"],"distanceKm":0.28779756251893773},{"id":"asianRestaurants_fd79716bd06b","slug":"mayman-fd79","kind":"restaurant","name":"Mayman","lat":38.01237886315462,"lng":23.686035629770352,"url":"https://maps.app.goo.gl/u5z1UYphrgpUNHe16","address":"Dodekanisou 1, Peristeri 121 36","categoryIds":["asian"],"categories":["Asian Restaurants"],"distanceKm":0.3974372995428902},{"id":"mexicanRestaurants_249dc358fb68","slug":"item-249d","kind":"restaurant","name":"𝖫𝖠 𝖢𝖠𝖲𝖠 𝖠𝖹𝖴𝖫","lat":38.01238167042839,"lng":23.68855888974166,"url":"https://maps.app.goo.gl/w4rjy3ViFe7tB9vZ8?g_st=ipc","address":"Θηβών 143, Περιστέρι 121 34","categoryIds":["mexican"],"categories":["Mexican Restaurants"],"distanceKm":0.439115469627067},{"id":"mexicanRestaurants_cccdda88c52d","slug":"la-casa-azul-cccd","kind":"restaurant","name":"La Casa Azul","lat":38.01237602759444,"lng":23.68855969778912,"url":"https://maps.app.goo.gl/HmeGfenDmu6xhBo27","address":"Thivon 143, Peristeri 121 34","categoryIds":["mexican"],"categories":["Mexican Restaurants"],"distanceKm":0.4397118560061542},{"id":"coffeeBrunchRestaurants_7f4487a3dbe7","slug":"to-tapsaki-7f44","kind":"restaurant","name":"ΤΟ ΤΑΨΑΚΙ","lat":38.01602416062038,"lng":23.69208574474452,"url":"https://maps.app.goo.gl/1RLYBjPgBMgH7a6F8?g_st=ipc","address":"Λεωφ. Παναγή Τσαλδάρη 95, Περιστέρι 121 34","categoryIds":["coffee-brunch"],"categories":["Coffee & Brunch Spots"],"distanceKm":0.4989932910030358}],"sameRegion":[],"mentionedGuides":[]},"__N_SSG":true}