{"pageProps":{"entity":{"id":"greekRestaurants_7e187d76eed9","slug":"taverna-agiannis-goyrnopoyla-7e18","kind":"restaurant","name":"ΤΑΒΕΡΝΑ ΑΓΙΑΝΝΗΣ ΓΟΥΡΝΟΠΟΥΛΑ","lat":37.99600590320037,"lng":22.763769354956416,"url":"https://maps.app.goo.gl/TAEgeZnnDvDXP5b27?g_st=ipc","address":"Αθηνών 190, Κιάτο 202 00","categoryIds":["greek-restaurants"],"categories":["Greek Restaurants"]},"sameCategory":[{"id":"greekRestaurants_7e3395541ef7","slug":"ellas-7e33","kind":"restaurant","name":"Ελλάς","lat":38.025725060862264,"lng":22.73285830482763,"url":"https://maps.app.goo.gl/1U76XKVBxExMEULE7?g_st=ipc","address":"Παλαιά Ε.Ο. Κορίνθου Πατρών 16, Κάτω Διμηνιό, Κιάτο 202 00","categoryIds":["greek-restaurants"],"categories":["Greek Restaurants"]},{"id":"greekRestaurants_b760cd0c2463","slug":"chavon-restobar-b760","kind":"restaurant","name":"Chavon Restobar","lat":37.96210160412795,"lng":22.806527700162825,"url":"https://maps.app.goo.gl/gHNgPE2wUtHLY6F1A?g_st=ipc","address":"Parodos Andrea Lazana 101, Βραχάτι 200 06","categoryIds":["greek-restaurants"],"categories":["Greek Restaurants"]},{"id":"greekRestaurants_f0875a0de3a8","slug":"eviva-taverna-f087","kind":"restaurant","name":"Εβίβα Ταβέρνα","lat":37.94826596142861,"lng":22.791019779670105,"url":"https://maps.app.goo.gl/D8Mr8bUZPttfMux47?g_st=ipc","address":"Επαρ.Οδ. Βραχατίου - Νεμέας 255, Βοχαϊκό 200 06","categoryIds":["greek-restaurants"],"categories":["Greek Restaurants"]},{"id":"greekRestaurants_95a7c55fd3b7","slug":"panorama-95a7","kind":"restaurant","name":"PANORAMA","lat":38.00713857434971,"lng":22.938193442340463,"url":"https://maps.app.goo.gl/iZ1dcxAEfMtNzWnJ6?g_st=ipc","address":"Λουτράκι 203 00","categoryIds":["greek-restaurants"],"categories":["Greek Restaurants"]},{"id":"greekRestaurants_a175a16286e2","slug":"kafeneion-stoy-giannoy-a175","kind":"restaurant","name":"Καφενείον στου Γιαννου","lat":38.046932367246974,"lng":22.58624645586887,"url":"https://maps.app.goo.gl/n81icmGiqF55MhN98?g_st=ipc","address":"Επαρ.Οδ. Ξυλόκαστρου - Τρικάλων - Μάννας 98, Ρίζα 204 00","categoryIds":["greek-restaurants"],"categories":["Greek Restaurants"]},{"id":"greekRestaurants_cb449644830d","slug":"taverna-mpekos-cb44","kind":"restaurant","name":"ΤΑΒΕΡΝΑ ΜΠΕΚΟΣ","lat":37.882103671834614,"lng":22.89083633129398,"url":"https://maps.app.goo.gl/WFqWdQskbVXwmo339?g_st=ipc","address":"ΕΟ Κορίνθου Άργους 36, Σολομός 201 00","categoryIds":["greek-restaurants"],"categories":["Greek Restaurants"]},{"id":"greekRestaurants_87ece57093df","slug":"maistrali-87ec","kind":"restaurant","name":"Μαϊστράλι","lat":37.967119636762334,"lng":22.972511635572165,"url":"https://maps.app.goo.gl/TngD3F1b3PDVc4187?g_st=ipc","address":"Ποσειδώνος 81, Λουτράκι 203 00","categoryIds":["greek-restaurants"],"categories":["Greek Restaurants"]},{"id":"greekRestaurants_2229596e0e1c","slug":"sofos-2229","kind":"restaurant","name":"Sofos","lat":37.8214332020111,"lng":22.663718153863066,"url":"https://maps.app.goo.gl/dwiyoJBZoJnwyzi76?g_st=ipc","address":"Δερβενακίων, Νεμέα 205 00","categoryIds":["greek-restaurants"],"categories":["Greek Restaurants"]}],"nearby":[{"id":"municipalities_f416e3da4569","slug":"kiato-f416","kind":"municipality","name":"Κιάτο","lat":37.974,"lng":22.751,"region":"Κορινθία","name_en":"Kiato","region_en":"Corinthia","distanceKm":2.690717006789285},{"id":"greekRestaurants_7e3395541ef7","slug":"ellas-7e33","kind":"restaurant","name":"Ελλάς","lat":38.025725060862264,"lng":22.73285830482763,"url":"https://maps.app.goo.gl/1U76XKVBxExMEULE7?g_st=ipc","address":"Παλαιά Ε.Ο. Κορίνθου Πατρών 16, Κάτω Διμηνιό, Κιάτο 202 00","categoryIds":["greek-restaurants"],"categories":["Greek Restaurants"],"distanceKm":4.272514128367224},{"id":"municipalities_5f8e38dfed51","slug":"sikyonion-5f8e","kind":"municipality","name":"Σικυωνίων","lat":37.95,"lng":22.75,"region":"Κορινθία","name_en":"Sikyonion","region_en":"Corinthia","distanceKm":5.256076041518909},{"id":"greekRestaurants_b760cd0c2463","slug":"chavon-restobar-b760","kind":"restaurant","name":"Chavon Restobar","lat":37.96210160412795,"lng":22.806527700162825,"url":"https://maps.app.goo.gl/gHNgPE2wUtHLY6F1A?g_st=ipc","address":"Parodos Andrea Lazana 101, Βραχάτι 200 06","categoryIds":["greek-restaurants"],"categories":["Greek Restaurants"],"distanceKm":5.3158128842904215},{"id":"greekRestaurants_f0875a0de3a8","slug":"eviva-taverna-f087","kind":"restaurant","name":"Εβίβα Ταβέρνα","lat":37.94826596142861,"lng":22.791019779670105,"url":"https://maps.app.goo.gl/D8Mr8bUZPttfMux47?g_st=ipc","address":"Επαρ.Οδ. Βραχατίου - Νεμέας 255, Βοχαϊκό 200 06","categoryIds":["greek-restaurants"],"categories":["Greek Restaurants"],"distanceKm":5.821103808110223},{"id":"wineriesVineyards_542024b64466","slug":"ktima-papargyrioy-5420","kind":"restaurant","name":"Κτήμα Παπαργυρίου","lat":38.018936342010846,"lng":22.689015035366058,"url":"https://maps.app.goo.gl/CGseBU489tpRFbra7?g_st=ipc","address":"Lalioti Corinthias, Κιάτο 202 00","categoryIds":["wineries-vineyards"],"categories":["Wineries & Vineyards"],"distanceKm":7.0283258070471435},{"id":"familyFriendly_52cd4997ee89","slug":"farma-ampelos-vochaikou-52cd","kind":"restaurant","name":"FARMA AMPELOS VOCHAIKOU","lat":37.932680344972496,"lng":22.771047365230917,"url":"https://maps.app.goo.gl/cQ3vrm4TKeMAyCsq6?g_st=ipc","address":"ΑΓΡΟΤΙΚΗ ΟΔΟΣ, Βοχαϊκό 200 06","categoryIds":["family-friendly"],"categories":["Kid Friendly Locations"],"distanceKm":7.070327679729053},{"id":"fishTavernasRestaurants_bedd9566b385","slug":"thealos-thealos-bedd","kind":"restaurant","name":"Θέαλος - Thealos","lat":37.94991846803997,"lng":22.83722013675207,"url":"https://maps.app.goo.gl/Aaq7XhnhCgZUhsH29?g_st=ipc","address":"Unnamed Rd, Kato Assos 200 06","categoryIds":["fish-tavernas"],"categories":["Fish Tavernas"],"distanceKm":8.228887420311963}],"sameRegion":[],"mentionedGuides":[]},"__N_SSG":true}