{"pageProps":{"entity":{"id":"burgersRestaurants_594f0da03951","slug":"the-smashers-athens-594f","kind":"restaurant","name":"The Smashers Athens","lat":37.976855263908405,"lng":23.728850035341498,"url":"https://maps.app.goo.gl/eZb9zRu5ZEKX8jLZ6?g_st=ipc","address":"Καλαμιώτου 7, Αθήνα 105 63","categoryIds":["burgers"],"categories":["Burger Spots"]},"sameCategory":[{"id":"burgersRestaurants_7c6e8e764472","slug":"the-smashers-athens-7c6e","kind":"restaurant","name":"The Smashers Athens","lat":37.97685470027012,"lng":23.728849657560023,"url":"https://maps.app.goo.gl/uKyi2SUBZv1EWPoV7?g_st=ic","address":"Kalamiotou 7, Athina 105 63","categoryIds":["burgers"],"categories":["Burger Spots"]},{"id":"burgersRestaurants_ca036ca42e3f","slug":"pax-burgers-ca03","kind":"restaurant","name":"Pax burgers","lat":37.97692157366875,"lng":23.727728305189554,"url":"https://maps.app.goo.gl/w3oRJbpwaMiNHFW39?g_st=ipc","address":"Αιόλου 34, Αθήνα 105 63","categoryIds":["burgers"],"categories":["Burger Spots"]},{"id":"burgersRestaurants_72777d81b2c1","slug":"cadillac-burgers-7277","kind":"restaurant","name":"Cadillac Burgers","lat":37.97549144814891,"lng":23.728731411277973,"url":"https://maps.app.goo.gl/tbzr2ePrf29seJBFA?g_st=ipc","address":"Μνησικλέους 6, Αθήνα 105 56","categoryIds":["burgers"],"categories":["Burger Spots"]},{"id":"burgersRestaurants_e836c8590f61","slug":"one-burger-e836","kind":"restaurant","name":"ONE BURGER","lat":37.97831689957045,"lng":23.72749322677574,"url":"https://maps.app.goo.gl/ntrNb7xRjJ6JvZ9AA?g_st=ic","address":"One Burger, Agathonos 7, Greece 105 51","categoryIds":["burgers"],"categories":["Burger Spots"]},{"id":"burgersRestaurants_d55e3b1fc4f6","slug":"one-burger-d55e","kind":"restaurant","name":"ONE BURGER","lat":37.97831953861062,"lng":23.727493287060057,"url":"https://maps.app.goo.gl/N76y7HGoU6TuZHcW8?g_st=ipc","address":"Αγάθωνος 7, Αθήνα 105 51","categoryIds":["burgers"],"categories":["Burger Spots"]},{"id":"burgersRestaurants_f300f2c4a7ef","slug":"starlight-burgers-f300","kind":"restaurant","name":"Starlight Burgers","lat":37.97768708628673,"lng":23.730973383072776,"url":"https://maps.app.goo.gl/tRpSe3harTyJVBVg7?g_st=ipc","address":"Πραξιτέλους 1, Αθήνα 105 62","categoryIds":["burgers"],"categories":["Burger Spots"]},{"id":"burgersRestaurants_7e2f237c9f2e","slug":"juicygrill-athens-downtown-7e2f","kind":"restaurant","name":"juicygrill_Athens (downtown)","lat":37.97921135341064,"lng":23.730357458956963,"url":"https://maps.app.goo.gl/Nb6on5D2zYtdFLqw7?g_st=ipc","address":"Παλαιών Πατρών Γερμανού 7, Αθήνα 105 61","categoryIds":["burgers"],"categories":["Burger Spots"]},{"id":"burgersRestaurants_fed9fc98ba72","slug":"lobby-athens-fed9","kind":"restaurant","name":"Lobby Athens","lat":37.97480226330857,"lng":23.732216902854162,"url":"https://maps.app.goo.gl/McpvxRFgv3HSY4VF6?g_st=ipc","address":"Βουλής 30, Αθήνα 105 57","categoryIds":["burgers"],"categories":["Burger Spots"]}],"nearby":[{"id":"burgersRestaurants_7c6e8e764472","slug":"the-smashers-athens-7c6e","kind":"restaurant","name":"The Smashers Athens","lat":37.97685470027012,"lng":23.728849657560023,"url":"https://maps.app.goo.gl/uKyi2SUBZv1EWPoV7?g_st=ic","address":"Kalamiotou 7, Athina 105 63","categoryIds":["burgers"],"categories":["Burger Spots"],"distanceKm":0.0000708833322990732},{"id":"vegetarianRestaurants_5b207cd61024","slug":"av-it-5b20","kind":"restaurant","name":"AV IT","lat":37.976939825548584,"lng":23.728942581826033,"url":"https://maps.app.goo.gl/Kt7esiHQgo5rmoWc7?g_st=ipc","address":"Καλαμιώτου 8, Αθήνα 105 60","categoryIds":["vegetarian"],"categories":["Vegetarian Friendly Restaurants"],"distanceKm":0.012418268140165724},{"id":"fishTavernasRestaurants_96126d9ba88c","slug":"zisis-9612","kind":"restaurant","name":"Ζήσης","lat":37.97677236195616,"lng":23.729130321852065,"url":"https://maps.app.goo.gl/B6NXu9TchhZNtX1m9?g_st=ipc","address":"Αθηναΐδος 3, Αθήνα 105 63","categoryIds":["fish-tavernas"],"categories":["Fish Tavernas"],"distanceKm":0.026239787568737485},{"id":"coffeeBrunchRestaurants_86c49b223ca7","slug":"gaya-athens-86c4","kind":"restaurant","name":"GAYA Athens","lat":37.97655155960143,"lng":23.729000167842386,"url":"https://maps.app.goo.gl/wY2FhMBr8ApzzSLw5?g_st=ipc","address":"Καλαμιώτου 2, Αθήνα 105 63","categoryIds":["coffee-brunch"],"categories":["Coffee & Brunch Spots"],"distanceKm":0.03624366408777985},{"id":"cheapEatsRestaurants_5f988e7e01fc","slug":"food-str-5f98","kind":"restaurant","name":"Food Str","lat":37.977285336004456,"lng":23.72911901973204,"url":"https://maps.app.goo.gl/tiAdgVLPy9vMcbLd6?g_st=ipc","address":"Καλαμιώτου 14, Αθήνα 105 60","categoryIds":["cheap-eats"],"categories":["Gyros & Cheap Eats"],"distanceKm":0.05331773436710268},{"id":"monasteriesChurches_33b82b7e9f7b","slug":"ieros-panepistimiakos-naos-eisodion-tis-theotokoy-kapnikarea-33b8","kind":"restaurant","name":"Ιερός Πανεπιστημιακός Ναός Εισοδίων της Θεοτόκου (Καπνικαρέα)","lat":37.97637980025147,"lng":23.72861650689245,"url":"https://maps.app.goo.gl/7LkLpxAa7L7V3fr8A?g_st=ipc","address":"Πλ. Καπνικαρέας 3, Αθήνα 105 63","categoryIds":["monasteries-churches"],"categories":["Monasteries & Spiritual Sites"],"distanceKm":0.05669324561809622},{"id":"cheapEatsRestaurants_8b657b1197a5","slug":"hoocut-8b65","kind":"restaurant","name":"Hoocut","lat":37.976849062316084,"lng":23.72809711402173,"url":"https://maps.app.goo.gl/gP2JFL8Nk8hDVyEZ6?g_st=ipc","address":"Πλ. Αγίας Ειρήνης 9, Αθήνα 105 63","categoryIds":["cheap-eats"],"categories":["Gyros & Cheap Eats"],"distanceKm":0.06599749401437471},{"id":"dessertsRestaurants_0b6ae51a593c","slug":"koykoyvagia-0b6a","kind":"restaurant","name":"Κουκουβάγια","lat":37.97736767389115,"lng":23.728413094267065,"url":"https://maps.app.goo.gl/CMZY3dTRrJ7tTadz6?g_st=ipc","address":"Σκουζέ 1, Αθήνα 105 60","categoryIds":["desserts"],"categories":["Dessert Shops"],"distanceKm":0.06865242656941647}],"sameRegion":[],"mentionedGuides":[{"slug":"tap-water-safe-greece-el","title":"Είναι Ασφαλές να Πίνετε Νερό Βρύσης στην Ελλάδα;"},{"slug":"tap-water-safe-greece","title":"Is Tap Water Safe to Drink in Greece?"},{"slug":"traveling-to-greece-on-a-budget-el","title":"Ταξιδι στην Ελλαδα με μικρο budget"},{"slug":"traveling-to-greece-on-a-budget","title":"Traveling to Greece on a Budget"}]},"__N_SSG":true}