{"pageProps":{"entity":{"id":"municipalities_cd6440a43ab3","slug":"tinos-cd64","kind":"municipality","name":"Τήνος","lat":37.5374,"lng":25.1634,"aliases":["Τηνος"],"region":"Κυκλάδες","name_en":"Tinos","region_en":"Cyclades"},"sameCategory":[],"nearby":[{"id":"dessertsRestaurants_7426a192dfcd","slug":"sol-bake-coffee-project-tinos-7426","kind":"restaurant","name":"Sol Bake & Coffee Project Tinos","lat":37.53735450561746,"lng":25.16338897699387,"url":"https://maps.app.goo.gl/pfudAWa8vWhrYMxA8?g_st=ipc","address":"Drosou, Tinos 842 00","categoryIds":["desserts"],"categories":["Dessert Shops"],"distanceKm":0.005151265905259565},{"id":"greekRestaurants_17f688b51787","slug":"mikro-karavi-17f6","kind":"restaurant","name":"Μικρό Καράβι","lat":37.537225713460884,"lng":25.163117473820197,"url":"https://maps.app.goo.gl/C42kWyeZ487nmhrT8?g_st=ipc","address":"Τριών Ιεραρχών, Τήνος 842 00","categoryIds":["greek-restaurants"],"categories":["Greek Restaurants"],"distanceKm":0.03156167702031392},{"id":"coffeeBrunchRestaurants_c8a38ea13a91","slug":"the-roosters-tinos-c8a3","kind":"restaurant","name":"The Roosters Tinos","lat":37.53564368153088,"lng":25.16363638828339,"url":"https://maps.app.goo.gl/GthTcgeC9P8iYKHF6?g_st=ipc","address":"Ακτή Γ. Δρόσου 0, Tinos 842 00","categoryIds":["coffee-brunch"],"categories":["Coffee & Brunch Spots"],"distanceKm":0.1964028278488099},{"id":"coffeeBrunchRestaurants_9d6d468c274d","slug":"mikro-tinos-9d6d","kind":"restaurant","name":"Mikro Tinos","lat":37.53905011947504,"lng":25.162412761350158,"url":"https://maps.app.goo.gl/2bBZEK7Z5id58XNP8?g_st=ipc","address":"Evaggelistrias 42, Tinos 842 00","categoryIds":["coffee-brunch"],"categories":["Coffee & Brunch Spots"],"distanceKm":0.20308571157240038},{"id":"coffeeBrunchRestaurants_7f2ed8602049","slug":"moxa-espresso-bar-7f2e","kind":"restaurant","name":"Moxa Espresso Bar","lat":37.53892047512739,"lng":25.161704068402724,"url":"https://maps.app.goo.gl/WEWXxoC44GxvXT9t9?g_st=ipc","address":"ΝΙΚΗΦΟΡΟΥ ΛΥΤΡΑ 10, Tinos 842 00","categoryIds":["coffee-brunch"],"categories":["Coffee & Brunch Spots"],"distanceKm":0.2257090360681994},{"id":"dessertsRestaurants_059711f45839","slug":"mesklies-zacharoplasteio-tinos-0597","kind":"restaurant","name":"Μεσκλιές ζαχαροπλαστείο Τήνος","lat":37.53782261822991,"lng":25.160738844151368,"url":"https://maps.app.goo.gl/F9giWnJkDkh2tKMi8?g_st=ipc","address":"Επαρ.Οδ. Τήνου-Καλλονής 1876, Τήνος 842 00","categoryIds":["desserts"],"categories":["Dessert Shops"],"distanceKm":0.2393000644343101},{"id":"coffeeBrunchRestaurants_efaa1eb785fb","slug":"antilalos-efaa","kind":"restaurant","name":"Antilalos","lat":37.53878225540917,"lng":25.160792308573363,"url":"https://maps.app.goo.gl/JZWV3eGAAkm1yYKZ9?g_st=ipc","address":"Αφεντούλη, Paxamadi και, Tinos 842 00","categoryIds":["coffee-brunch"],"categories":["Coffee & Brunch Spots"],"distanceKm":0.27656665393835056},{"id":"greekRestaurants_5411c28e3480","slug":"myrtilo-bistro-5411","kind":"restaurant","name":"Μύρτιλο bistro","lat":37.538868934363514,"lng":25.16069378342922,"url":"https://maps.app.goo.gl/skwxRn9YNPogPQ1XA?g_st=ipc","address":"Βιτάλη, Αφεντούλη και, Τήνος 842 00","categoryIds":["greek-restaurants"],"categories":["Greek Restaurants"],"distanceKm":0.2891625664946915}],"sameRegion":[{"id":"municipalities_094e7414e11a","slug":"mykonos-094e","kind":"municipality","name":"Μύκονος","lat":37.4467,"lng":25.3289,"aliases":["Mikonos","Μύκονα","Μυκονος","Mykonos","Myconos"],"region":"Κυκλάδες","name_en":"Mykonos","region_en":"Cyclades"},{"id":"municipalities_10c41fed1584","slug":"syros-10c4","kind":"municipality","name":"Σύρος","lat":37.4442,"lng":24.9428,"aliases":["Syros","Siros","Σύρα","Συρος","Συρο"],"region":"Κυκλάδες","name_en":"Syros","region_en":"Cyclades"},{"id":"municipalities_27d97a869977","slug":"schoinoysa-27d9","kind":"municipality","name":"Σχοινούσα","lat":36.8667,"lng":25.5167,"region":"Κυκλάδες","name_en":"Schinoussa","region_en":"Cyclades"},{"id":"municipalities_3cbd90a19d63","slug":"andros-3cbd","kind":"municipality","name":"Άνδρος","lat":37.8333,"lng":24.9333,"region":"Κυκλάδες","name_en":"Andros","region_en":"Cyclades"},{"id":"municipalities_402e7912632b","slug":"serifos-402e","kind":"municipality","name":"Σέριφος","lat":37.1537,"lng":24.5197,"aliases":["Σεριφος"],"region":"Κυκλάδες","name_en":"Serifos","region_en":"Cyclades"},{"id":"municipalities_444e7b37bb5a","slug":"koyfonisi-444e","kind":"municipality","name":"Κουφονήσι","lat":36.9333,"lng":25.6,"region":"Κυκλάδες","name_en":"Koufonisia","region_en":"Cyclades"},{"id":"municipalities_56cba484379e","slug":"anafi-56cb","kind":"municipality","name":"Ανάφη","lat":36.35,"lng":25.7667,"region":"Κυκλάδες","name_en":"Anafi","region_en":"Cyclades"},{"id":"municipalities_5b32b43e93f7","slug":"santorini-5b32","kind":"municipality","name":"Σαντορίνη","lat":36.3932,"lng":25.4615,"aliases":["Thira","Thera","Santorin","Σαντορίνα","Σαντορινη","Θήρα","Θηρα"],"region":"Κυκλάδες","name_en":"Santorini","region_en":"Cyclades"}],"mentionedGuides":[{"slug":"greece-2026-holidays-guide-el","title":"Ελλάδα 2026: Αργίες & Εκδηλώσεις"},{"slug":"greece-2026-holidays-guide","title":"Greece: Holidays & Events 2026"}]},"__N_SSG":true}