{"pageProps":{"entity":{"id":"greekRestaurants_d4937c446881","slug":"to-steki-toy-andrea-stin-andro-d493","kind":"restaurant","name":"Το Στέκι Του Ανδρέα στην Άνδρο","lat":37.90062312367468,"lng":24.711658535578362,"url":"https://maps.app.goo.gl/XUN3ng41cfQhgK3D6?g_st=ipc","address":"Παραλία Φελλού, Άνδρος 845 00","categoryIds":["greek-restaurants"],"categories":["Greek Restaurants"]},"sameCategory":[{"id":"greekRestaurants_1430d6fb94a9","slug":"kossis-1430","kind":"restaurant","name":"Κόσσης","lat":37.92050251340132,"lng":24.72409809326984,"url":"https://maps.app.goo.gl/uhxK7foF95HsorjaA?g_st=ipc","address":"Aνω, Κάτω Φελλός 845 01","categoryIds":["greek-restaurants"],"categories":["Greek Restaurants"]},{"id":"greekRestaurants_93cc48915673","slug":"almi-tavern-andros-93cc","kind":"restaurant","name":"Almi Tavern Andros","lat":37.861737922645034,"lng":24.779792309491878,"url":"https://maps.app.goo.gl/eHhBS6sYeSo2Zr6s5?g_st=ipc","address":"Επαρ.Οδ. Άνδρου-Μπατσίου, Μπατσί 845 01","categoryIds":["greek-restaurants"],"categories":["Greek Restaurants"]},{"id":"greekRestaurants_86110571add2","slug":"to-mpalkoni-toy-aigaioy-8611","kind":"restaurant","name":"Το Μπαλκόνι του Αιγαίου","lat":37.83554332996387,"lng":24.812413866994714,"url":"https://maps.app.goo.gl/7HaLWB594ALzDwtp7?g_st=ipc","address":"ΑΠΡΟΒΑΤΟ, Άνω Απροβατου 845 01","categoryIds":["greek-restaurants"],"categories":["Greek Restaurants"]},{"id":"greekRestaurants_718e14a085bf","slug":"fofo-cycladic-gastronomy-718e","kind":"restaurant","name":"Fofo Cycladic Gastronomy","lat":37.82353783239752,"lng":24.928189313412695,"url":"https://maps.app.goo.gl/2iPebnrW2ztaiYfU7?g_st=ipc","address":"Επαρ.Οδ. Άνδρου-Σταυροπέδας, Λιβάδια 845 00","categoryIds":["greek-restaurants"],"categories":["Greek Restaurants"]},{"id":"greekRestaurants_9335e3ff6212","slug":"sea-satin-nino-9335","kind":"restaurant","name":"SEA SATIN NINO","lat":37.773197007055956,"lng":24.950818318342087,"url":"https://maps.app.goo.gl/h3BaucesVrSWHYau5?g_st=ipc","address":"Pedestrian Walk Way, Ormos, Korthi 845 02","categoryIds":["greek-restaurants"],"categories":["Greek Restaurants"]},{"id":"greekRestaurants_f1c703fa9088","slug":"sima-f1c7","kind":"restaurant","name":"Sima","lat":37.640391826641014,"lng":25.040013069732986,"url":"https://maps.app.goo.gl/3px2jqkoAcSm4AFa7?g_st=ipc","address":"Πύργος 842 01","categoryIds":["greek-restaurants"],"categories":["Greek Restaurants"]},{"id":"greekRestaurants_854af5844b5d","slug":"athmar-854a","kind":"restaurant","name":"Αθμάρ","lat":37.639145778049105,"lng":25.04198852214129,"url":"https://maps.app.goo.gl/89sj6fRtcg34nfx16?g_st=ipc","address":"Τήνου, Πύργος 842 01","categoryIds":["greek-restaurants"],"categories":["Greek Restaurants"]},{"id":"greekRestaurants_94cb9a9dd94a","slug":"stin-ammo-allios-94cb","kind":"restaurant","name":"Στην Άμμο...αλλιώς","lat":37.615358360450664,"lng":25.042685964832707,"url":"https://maps.app.goo.gl/3Pr5rMprS5Yppvz26?g_st=ipc","address":"Επαρχιακή οδός Τήνου, Όρμος Υστερνίων 842 00","categoryIds":["greek-restaurants"],"categories":["Greek Restaurants"]}],"nearby":[{"id":"greekRestaurants_1430d6fb94a9","slug":"kossis-1430","kind":"restaurant","name":"Κόσσης","lat":37.92050251340132,"lng":24.72409809326984,"url":"https://maps.app.goo.gl/uhxK7foF95HsorjaA?g_st=ipc","address":"Aνω, Κάτω Φελλός 845 01","categoryIds":["greek-restaurants"],"categories":["Greek Restaurants"],"distanceKm":2.4652031203091793},{"id":"greekRestaurants_93cc48915673","slug":"almi-tavern-andros-93cc","kind":"restaurant","name":"Almi Tavern Andros","lat":37.861737922645034,"lng":24.779792309491878,"url":"https://maps.app.goo.gl/eHhBS6sYeSo2Zr6s5?g_st=ipc","address":"Επαρ.Οδ. Άνδρου-Μπατσίου, Μπατσί 845 01","categoryIds":["greek-restaurants"],"categories":["Greek Restaurants"],"distanceKm":7.379211022309486},{"id":"fishTavernasRestaurants_b2dc1ce51a26","slug":"mastello-b2dc","kind":"restaurant","name":"Mastello","lat":37.85819226338292,"lng":24.78588365168363,"url":"https://maps.app.goo.gl/6pEnXsNrPXAaNQPu8?g_st=ipc","address":"Μπατσί 845 01","categoryIds":["fish-tavernas"],"categories":["Fish Tavernas"],"distanceKm":8.04357148465213},{"id":"fishTavernasRestaurants_58477da61988","slug":"oti-kalo-5847","kind":"restaurant","name":"Oti Kalo","lat":37.8562893028016,"lng":24.785922766571392,"url":"https://maps.app.goo.gl/NHF5wztHFXbNzzkG6?g_st=ipc","address":"Μπατσί 845 01","categoryIds":["fish-tavernas"],"categories":["Fish Tavernas"],"distanceKm":8.172291481357318},{"id":"fishTavernasRestaurants_4dd45c710873","slug":"stamatis-tavern-4dd4","kind":"restaurant","name":"Stamatis Tavern","lat":37.85607023280217,"lng":24.78575728988094,"url":"https://maps.app.goo.gl/mBX3JbJMAWJA4x3Y7?g_st=ipc","address":"Κυκλάδων Ανδρος, Mpatsi 845 03","categoryIds":["fish-tavernas"],"categories":["Fish Tavernas"],"distanceKm":8.175458319085152},{"id":"greekRestaurants_86110571add2","slug":"to-mpalkoni-toy-aigaioy-8611","kind":"restaurant","name":"Το Μπαλκόνι του Αιγαίου","lat":37.83554332996387,"lng":24.812413866994714,"url":"https://maps.app.goo.gl/7HaLWB594ALzDwtp7?g_st=ipc","address":"ΑΠΡΟΒΑΤΟ, Άνω Απροβατου 845 01","categoryIds":["greek-restaurants"],"categories":["Greek Restaurants"],"distanceKm":11.427578190825225},{"id":"dessertsRestaurants_1d7df040c53a","slug":"zacharoplasteio-za-i-ris-zairis-pastry-patisserie-gelateria-1d7d","kind":"restaurant","name":"ΖΑΧΑΡΟΠΛΑΣΤΕΙΟ \"ΖΑ'Ι'ΡΗΣ\" ZAIRIS-PASTRY Patisserie Gelateria","lat":37.82579583533186,"lng":24.91462125689678,"url":"https://maps.app.goo.gl/QbRR2HA2G4VUjkbb9?g_st=ipc","address":"ΜΕΣΣΑΡΙΑ, ΑΝΔΡΟΣ - MESSARIA, ANDROS, KYKLADES 845 00","categoryIds":["desserts"],"categories":["Dessert Shops"],"distanceKm":19.664298387493954},{"id":"fishTavernasRestaurants_f065f7059030","slug":"binelikia-f065","kind":"restaurant","name":"Binelikia","lat":37.83942195557314,"lng":24.93605561916826,"url":"https://maps.app.goo.gl/g7MbV8Cu1pjFFz8b7?g_st=ipc","address":"Νειμποριό, Andros 845 00","categoryIds":["fish-tavernas"],"categories":["Fish Tavernas"],"distanceKm":20.839552760378314}],"sameRegion":[],"mentionedGuides":[]},"__N_SSG":true}