{"pageProps":{"entity":{"id":"greekRestaurants_e6f75b86de1f","slug":"to-salkimi-e6f7","kind":"restaurant","name":"Το Σαλκίμι","lat":39.32842613710333,"lng":23.150200950982853,"url":"https://maps.app.goo.gl/a2R9yDYGNQsY2fUS6?g_st=ipc","address":"Πήλιο 370 10","categoryIds":["greek-restaurants"],"categories":["Greek Restaurants"]},"sameCategory":[{"id":"greekRestaurants_f58f287acaec","slug":"1900-paradosiako-taverneio-traditional-tavern-f58f","kind":"restaurant","name":"1900 Παραδοσιακό Ταβερνείο (Traditional Tavern)","lat":39.30568114219273,"lng":23.12040447873948,"url":"https://maps.app.goo.gl/Zbob4RrewGaAi1fY9?g_st=ipc","address":"Kala Nera 370 10","categoryIds":["greek-restaurants"],"categories":["Greek Restaurants"]},{"id":"greekRestaurants_144d3acb24f4","slug":"chromata-144d","kind":"restaurant","name":"Χρώματα","lat":39.360435382943386,"lng":23.212842528145245,"url":"https://maps.app.goo.gl/xvs49fJpk8BZa6Wq8?g_st=ipc","address":"Unnamed Road, Νότιο Πήλιο 370 12","categoryIds":["greek-restaurants"],"categories":["Greek Restaurants"]},{"id":"greekRestaurants_1079f07652cc","slug":"dipnosofistis-1079","kind":"restaurant","name":"Dipnosofistis","lat":39.38375041090327,"lng":23.18105009328821,"url":"https://maps.app.goo.gl/R1fF5NSY4Gzefgph6?g_st=ipc","address":"Μυλοποτάμου, Τσαγκαράδα 370 12","categoryIds":["greek-restaurants"],"categories":["Greek Restaurants"]},{"id":"greekRestaurants_267ed799993c","slug":"platanus-orientalis-267e","kind":"restaurant","name":"Platanus Orientalis","lat":39.36160028394274,"lng":23.05970176441853,"url":"https://maps.app.goo.gl/CeNcPhtv8mJKEc4q7?g_st=ipc","address":"Αγ. Λαυρέντιος 373 00","categoryIds":["greek-restaurants"],"categories":["Greek Restaurants"]},{"id":"greekRestaurants_a4dfe435f448","slug":"synantisi-estiatorio-kissos-pilio-a4df","kind":"restaurant","name":"Συνάντηση ΕΣΤΙΑΤΟΡΙΟ ΚΙΣΣΟΣ ΠΗΛΙΟ","lat":39.40657416072869,"lng":23.13161356443952,"url":"https://maps.app.goo.gl/wt5g3M2MqHJT3Hdz8?g_st=ipc","address":"Κισσός 370 12","categoryIds":["greek-restaurants"],"categories":["Greek Restaurants"]},{"id":"greekRestaurants_24faaabf2725","slug":"estiatorio-o-makis-ta-5f-24fa","kind":"restaurant","name":"Εστιατόριο \"Ο Μάκης\" (Τα 5φ)","lat":39.406879787357994,"lng":23.13137854437809,"url":"https://maps.app.goo.gl/MVaqELfDNQavTVj78?g_st=ipc","address":"Κισσός 370 12","categoryIds":["greek-restaurants"],"categories":["Greek Restaurants"]},{"id":"greekRestaurants_f1609d667006","slug":"kritsa-restaurant-f160","kind":"restaurant","name":"KRITSA Restaurant","lat":39.390714981206585,"lng":22.99890427348712,"url":"https://maps.app.goo.gl/nVaAkJVNsbHGrwKh9?g_st=ipc","address":"CENTRAL SQUARE PORTARIA PELION, 370 11","categoryIds":["greek-restaurants"],"categories":["Greek Restaurants"]},{"id":"greekRestaurants_f894a7783597","slug":"kardamo-oinomageireion-f894","kind":"restaurant","name":"Κάρδαμο Οινομαγειρείον","lat":39.402083128717685,"lng":22.984980722142236,"url":"https://maps.app.goo.gl/2BVduXtmC112zqJN8?g_st=ipc","address":"Πηλίου, Μακρινίτσα 370 11","categoryIds":["greek-restaurants"],"categories":["Greek Restaurants"]}],"nearby":[{"id":"dessertsRestaurants_fab74267c12c","slug":"anna-na-ena-milo-fab7","kind":"restaurant","name":"Άννα να ένα μήλο","lat":39.32818241324449,"lng":23.15069435375763,"url":"https://maps.app.goo.gl/pFdSDfbmt9PYS4wT9?g_st=ic","address":"Epar.Od. Agrias-Mileon 107, Milies 370 10","categoryIds":["desserts"],"categories":["Dessert Shops"],"distanceKm":0.050353753004019126},{"id":"familyFriendly_b5b29fc053cc","slug":"the-pelion-train-b5b2","kind":"restaurant","name":"The Pelion Train","lat":39.327703252626804,"lng":23.143518252950724,"url":"https://maps.app.goo.gl/P1JAubEdVdzV1V5Y8?g_st=ipc","address":"South Pelion 370 10","categoryIds":["family-friendly"],"categories":["Kid Friendly Locations"],"distanceKm":0.580389359943362},{"id":"greekRestaurants_f58f287acaec","slug":"1900-paradosiako-taverneio-traditional-tavern-f58f","kind":"restaurant","name":"1900 Παραδοσιακό Ταβερνείο (Traditional Tavern)","lat":39.30568114219273,"lng":23.12040447873948,"url":"https://maps.app.goo.gl/Zbob4RrewGaAi1fY9?g_st=ipc","address":"Kala Nera 370 10","categoryIds":["greek-restaurants"],"categories":["Greek Restaurants"],"distanceKm":3.600953960058723},{"id":"italianRestaurants_c53ee4efcd79","slug":"pasta-la-vista-kala-nera-c53e","kind":"restaurant","name":"Pasta La Vista KALA NERA","lat":39.3056996345145,"lng":23.120100052879696,"url":"https://maps.app.goo.gl/tYaU41CZfgnnQu8V7","address":"Kala Nera 370 10","categoryIds":["italian"],"categories":["Italian Restaurants"],"distanceKm":3.618205875489022},{"id":"greekRestaurants_144d3acb24f4","slug":"chromata-144d","kind":"restaurant","name":"Χρώματα","lat":39.360435382943386,"lng":23.212842528145245,"url":"https://maps.app.goo.gl/xvs49fJpk8BZa6Wq8?g_st=ipc","address":"Unnamed Road, Νότιο Πήλιο 370 12","categoryIds":["greek-restaurants"],"categories":["Greek Restaurants"],"distanceKm":6.456387917414799},{"id":"greekRestaurants_1079f07652cc","slug":"dipnosofistis-1079","kind":"restaurant","name":"Dipnosofistis","lat":39.38375041090327,"lng":23.18105009328821,"url":"https://maps.app.goo.gl/R1fF5NSY4Gzefgph6?g_st=ipc","address":"Μυλοποτάμου, Τσαγκαράδα 370 12","categoryIds":["greek-restaurants"],"categories":["Greek Restaurants"],"distanceKm":6.699204801050731},{"id":"dessertsRestaurants_18c800bb34dd","slug":"apalou-bistro-18c8","kind":"restaurant","name":"Apalou bistro","lat":39.38733910168991,"lng":23.17288978772186,"url":"https://maps.app.goo.gl/8B5hS4CF5VjiJNweA?g_st=ic","address":"EO Neochoriou Tsagkaradas 26, Tsagkarada 370 12","categoryIds":["desserts"],"categories":["Dessert Shops"],"distanceKm":6.835092011880388},{"id":"fishTavernasRestaurants_c8eeb49067cc","slug":"aggelika-fish-taverna-c8ee","kind":"restaurant","name":"Aggelika Fish Taverna","lat":39.37460340431694,"lng":23.203276067077514,"url":"https://maps.app.goo.gl/TXanhReoHFTGYtHL9?g_st=ipc","address":"Μαγνησία Πήλιο Τσαγκαράδα Μυλοπόταμος, Πήλιο Μυλοπόταμος 370 12","categoryIds":["fish-tavernas"],"categories":["Fish Tavernas"],"distanceKm":6.869594878274465}],"sameRegion":[],"mentionedGuides":[]},"__N_SSG":true}