{"pageProps":{"entity":{"id":"greekRestaurants_532b03b35deb","slug":"trygetes-532b","kind":"restaurant","name":"Trygetes","lat":40.609449198477655,"lng":22.99030105913949,"url":"https://maps.app.goo.gl/Rf62EziGTreVjA668?g_st=ipc","address":"17is Noemvriou 12, Pilea 555 34","categoryIds":["greek-restaurants"],"categories":["Greek Restaurants"]},"sameCategory":[{"id":"greekRestaurants_e5e2b9a4516b","slug":"strovolos-e5e2","kind":"restaurant","name":"Στρόβολος","lat":40.609636107203336,"lng":22.989436108652693,"url":"https://maps.app.goo.gl/yxZrsFbF6G2pXQQK9?g_st=ipc","address":"Μεσολογγίου 17 νοεμβριου, Θεσσαλονίκη 555 35","categoryIds":["greek-restaurants"],"categories":["Greek Restaurants"]},{"id":"greekRestaurants_d9762e9f6ad6","slug":"to-neon-estiatorio-d976","kind":"restaurant","name":"ΤΟ ΝΕΟΝ εστιατόριο","lat":40.61224067227643,"lng":22.98407750802401,"url":"https://maps.app.goo.gl/fkULAaU3UcrpCHGRA?g_st=ipc","address":"Γρηγορίου Λαμπράκη 205 & Δημ.Τσιαπάνου 25-29, Άνω Τούμπα 543 52","categoryIds":["greek-restaurants"],"categories":["Greek Restaurants"]},{"id":"greekRestaurants_87ad943f04be","slug":"mpaloyxis-87ad","kind":"restaurant","name":"ΜΠΑΛΟΥΞΗΣ","lat":40.60469663357637,"lng":22.980860258041304,"url":"https://maps.app.goo.gl/mkwSB515HmQ3h8yA8?g_st=ipc","address":"Δορυλαίου 86, Πυλαία 544 54","categoryIds":["greek-restaurants"],"categories":["Greek Restaurants"]},{"id":"greekRestaurants_4d78fe3c61be","slug":"rou-leisure-gatherings-4d78","kind":"restaurant","name":"Rou Leisure Gatherings","lat":40.61281592695175,"lng":22.975955444197268,"url":"https://maps.app.goo.gl/ms5wLYa1p3XXEfE18?g_st=ipc","address":"Πραξαγόρα 22, Θεσσαλονίκη 543 51","categoryIds":["greek-restaurants"],"categories":["Greek Restaurants"]},{"id":"greekRestaurants_46e9b5128099","slug":"mezedopoleio-sti-gonia-tis-inas-46e9","kind":"restaurant","name":"ΜΕΖΕΔΟΠΩΛΕΙΟ ΣΤΗ ΓΩΝΙΑ ΤΗΣ ΙΝΑΣ","lat":40.60655899968898,"lng":22.97552887156289,"url":"https://maps.app.goo.gl/cVtcjxY8sNr9dRR19?g_st=ipc","address":"Απόλλωνος 20, Θεσσαλονίκη 544 54","categoryIds":["greek-restaurants"],"categories":["Greek Restaurants"]},{"id":"greekRestaurants_5c376770db26","slug":"kafeneion-to-dallaveri-5c37","kind":"restaurant","name":"Kafeneion To Dallaveri","lat":40.61571484515384,"lng":22.976632129539492,"url":"https://maps.app.goo.gl/6CZnkJNTLRD3MjRz7?g_st=ipc","address":"Diagora 51, Thessaloniki 543 51","categoryIds":["greek-restaurants"],"categories":["Greek Restaurants"]},{"id":"greekRestaurants_d088423c78a1","slug":"sygchrono-kafeneion-o-tzertzeles-d088","kind":"restaurant","name":"Σύγχρονο Καφενείον ο Τζερτζελές","lat":40.617294004272665,"lng":22.977421178943235,"url":"https://maps.app.goo.gl/E8KAZpAFgpwoquHv9?g_st=ipc","address":"Καθηγητού Νικολάου Ανδριώτη 13, Θεσσαλονίκη 543 51","categoryIds":["greek-restaurants"],"categories":["Greek Restaurants"]},{"id":"greekRestaurants_cf4b92a49ee3","slug":"vregmeni-gata-cf4b","kind":"restaurant","name":"Βρεγμένη Γάτα","lat":40.60532273136461,"lng":22.974506640452905,"url":"https://maps.app.goo.gl/ei8BmMqU9LPgvJwq9?g_st=ipc","address":"Απόλλωνος 4, Θεσσαλονίκη 544 54","categoryIds":["greek-restaurants"],"categories":["Greek Restaurants"]}],"nearby":[{"id":"cheapEatsRestaurants_0c3a0f831178","slug":"food-truck-park-skg-0c3a","kind":"restaurant","name":"Food Truck Park SKG","lat":40.609281906480575,"lng":22.989500884434833,"url":"https://maps.app.goo.gl/hfoXLoQmnjaHwpUB7?g_st=ipc","address":"Kapetan Ntogra 31, Pilea 555 35","categoryIds":["cheap-eats"],"categories":["Gyros & Cheap Eats"],"distanceKm":0.07006161168552519},{"id":"greekRestaurants_e5e2b9a4516b","slug":"strovolos-e5e2","kind":"restaurant","name":"Στρόβολος","lat":40.609636107203336,"lng":22.989436108652693,"url":"https://maps.app.goo.gl/yxZrsFbF6G2pXQQK9?g_st=ipc","address":"Μεσολογγίου 17 νοεμβριου, Θεσσαλονίκη 555 35","categoryIds":["greek-restaurants"],"categories":["Greek Restaurants"],"distanceKm":0.07591517684979117},{"id":"burgersRestaurants_96feec737ac7","slug":"brothers-in-law-96fe","kind":"restaurant","name":"Brothers In Law","lat":40.610811655039555,"lng":22.98741536304393,"url":"https://maps.app.goo.gl/VFJTVUrK126W1Uku9?g_st=ipc","address":"Grigoriou Lampraki 244, Pilea 543 52","categoryIds":["burgers"],"categories":["Burger Spots"],"distanceKm":0.2868619823893657},{"id":"fishTavernasRestaurants_4b85b6df400f","slug":"alepoy-mezedopoleio-4b85","kind":"restaurant","name":"Αλεπού Μεζεδοπωλείο","lat":40.607668350364605,"lng":22.993173165196392,"url":"https://maps.app.goo.gl/fMUK2hozw9hQG8zN8?g_st=ipc","address":"17is Noemvriou 26, Thessaloniki 555 34","categoryIds":["fish-tavernas"],"categories":["Fish Tavernas"],"distanceKm":0.3130426202549962},{"id":"dessertsRestaurants_0447f5ff16d8","slug":"pie-serres-lambrakis-0447","kind":"restaurant","name":"Pie \"SERRES\" Lambrakis","lat":40.611438946577884,"lng":22.985616518677983,"url":"https://maps.app.goo.gl/t2b2XQwYxmP3pkBd6?g_st=ipc","address":"Grigoriou Lampraki 222, Thessaloniki 555 34","categoryIds":["desserts"],"categories":["Dessert Shops"],"distanceKm":0.453127646696924},{"id":"cheapEatsRestaurants_8ba579af851d","slug":"steakhouse-costas-8ba5","kind":"restaurant","name":"Steakhouse Costas","lat":40.607757700164754,"lng":22.984167654560377,"url":"https://maps.app.goo.gl/vkLu33M5Ct15FeXa6?g_st=ipc","address":"Emmanouil Fili 15, Pilea 555 34","categoryIds":["cheap-eats"],"categories":["Gyros & Cheap Eats"],"distanceKm":0.5508636444404575},{"id":"cheapEatsRestaurants_2468c5a59712","slug":"petridis-and-sons-grill-house-2468","kind":"restaurant","name":"Petridis And Sons - Grill House","lat":40.61189681851916,"lng":22.984212166296615,"url":"https://maps.app.goo.gl/qmEdiZfcHrQAp8pU7?g_st=ipc","address":"Grigoriou Lampraki 206, Thessaloniki 555 34","categoryIds":["cheap-eats"],"categories":["Gyros & Cheap Eats"],"distanceKm":0.5815959443847866},{"id":"greekRestaurants_d9762e9f6ad6","slug":"to-neon-estiatorio-d976","kind":"restaurant","name":"ΤΟ ΝΕΟΝ εστιατόριο","lat":40.61224067227643,"lng":22.98407750802401,"url":"https://maps.app.goo.gl/fkULAaU3UcrpCHGRA?g_st=ipc","address":"Γρηγορίου Λαμπράκη 205 & Δημ.Τσιαπάνου 25-29, Άνω Τούμπα 543 52","categoryIds":["greek-restaurants"],"categories":["Greek Restaurants"],"distanceKm":0.6101972301201742}],"sameRegion":[],"mentionedGuides":[]},"__N_SSG":true}