{"pageProps":{"entity":{"id":"familyFriendly_594134dea180","slug":"tsoupra-5941","kind":"restaurant","name":"Tsoupra","lat":40.48659769840057,"lng":23.041299188559442,"url":"https://maps.app.goo.gl/7eqHoia3eNX5CcHv7?g_st=ipc","address":"ΤΘ293, Ag. Paraskevi 570 01","categoryIds":["family-friendly"],"categories":["Kid Friendly Locations"]},"sameCategory":[{"id":"familyFriendly_91485676f9ef","slug":"anemodoura-9148","kind":"restaurant","name":"Anemodoúra","lat":40.50002708370587,"lng":23.026843516964323,"url":"https://maps.app.goo.gl/99k4EGKtgjYSqeE99?g_st=ipc","address":"8η Οδός, Tagarades 570 01","categoryIds":["family-friendly"],"categories":["Kid Friendly Locations"]},{"id":"familyFriendly_0fecbfd6be0e","slug":"waterland-0fec","kind":"restaurant","name":"Waterland","lat":40.510653052442045,"lng":23.017626650911268,"url":"https://maps.app.goo.gl/NR3PEtkiCnf5Fkg89?g_st=ipc","address":"5i Odos, Tagarades 570 01","categoryIds":["family-friendly"],"categories":["Kid Friendly Locations"]},{"id":"familyFriendly_9807fa41d38f","slug":"lemures-family-lifestyle-play-hub-9807","kind":"restaurant","name":"Lemures Family Lifestyle & Play Hub","lat":40.54355927563734,"lng":23.019251786146132,"url":"https://maps.app.goo.gl/Cv1bZomhT5nP8ZDp6?g_st=ic","address":"Vasilikis Tavaki 6, Thermi 570 01","categoryIds":["family-friendly"],"categories":["Kid Friendly Locations"]},{"id":"familyFriendly_42d11ef19ff8","slug":"cloud-22-family-room-42d1","kind":"restaurant","name":"Cloud 22 Family Room","lat":40.54922868058373,"lng":23.01923766208044,"url":"https://maps.app.goo.gl/Pz6v5LnzAbK4gQGx6?g_st=ic","address":"Tavaki 17, Thermi 570 01","categoryIds":["family-friendly"],"categories":["Kid Friendly Locations"]},{"id":"familyFriendly_be918ccf9323","slug":"adventure-paintball-be91","kind":"restaurant","name":"Adventure Paintball","lat":40.54700993224624,"lng":22.99671406411148,"url":"https://maps.app.goo.gl/7H5QaUvgacWdSVGR6?g_st=ic","address":"A/D Thessalonikis Neon Moudanion, Thermi 570 01","categoryIds":["family-friendly"],"categories":["Kid Friendly Locations"]},{"id":"familyFriendly_7fb51600aa06","slug":"tavern-moustakas-7fb5","kind":"restaurant","name":"TAVERN 'MOUSTAKAS'","lat":40.48840354435027,"lng":23.133350169062904,"url":"https://maps.app.goo.gl/fKdiSDKLKGdGC5V28?g_st=ipc","address":"Βασιλικά Θεσσαλονίκης, Θεσσαλονίκη 570 06","categoryIds":["family-friendly"],"categories":["Kid Friendly Locations"]},{"id":"familyFriendly_6d59a3955a06","slug":"thermi-dam-6d59","kind":"restaurant","name":"Thermi Dam","lat":40.55889714492611,"lng":23.035634918395665,"url":"https://maps.app.goo.gl/WB5r5nzJStMwqtSV8?g_st=ipc","address":"Γεφυρα Φράγματος Θέρμης, Thermi 570 01","categoryIds":["family-friendly"],"categories":["Kid Friendly Locations"]},{"id":"familyFriendly_5db5a10042ec","slug":"les-raquettes-tennis-club-5db5","kind":"restaurant","name":"Les Raquettes Tennis Club","lat":40.55611851243244,"lng":23.00759531084474,"url":"https://maps.app.goo.gl/Uz7ZprsZow6RFsYs7?g_st=ipc","address":"Σοφοκλέους, Thermi 570 01","categoryIds":["family-friendly"],"categories":["Kid Friendly Locations"]}],"nearby":[{"id":"familyFriendly_91485676f9ef","slug":"anemodoura-9148","kind":"restaurant","name":"Anemodoúra","lat":40.50002708370587,"lng":23.026843516964323,"url":"https://maps.app.goo.gl/99k4EGKtgjYSqeE99?g_st=ipc","address":"8η Οδός, Tagarades 570 01","categoryIds":["family-friendly"],"categories":["Kid Friendly Locations"],"distanceKm":1.9298022076103383},{"id":"familyFriendly_0fecbfd6be0e","slug":"waterland-0fec","kind":"restaurant","name":"Waterland","lat":40.510653052442045,"lng":23.017626650911268,"url":"https://maps.app.goo.gl/NR3PEtkiCnf5Fkg89?g_st=ipc","address":"5i Odos, Tagarades 570 01","categoryIds":["family-friendly"],"categories":["Kid Friendly Locations"],"distanceKm":3.340847674229661},{"id":"dessertsRestaurants_ade0c81c0696","slug":"terkenlis-sa-ade0","kind":"restaurant","name":"Terkenlis SA","lat":40.53095135339602,"lng":23.040855842977592,"url":"https://maps.app.goo.gl/akE1bVgaSKcamD5a9?g_st=ipc","address":"EO Thessalonikis Poligirou, Thermi 570 01","categoryIds":["desserts"],"categories":["Dessert Shops"],"distanceKm":4.932043837052349},{"id":"dessertsRestaurants_1eaa59dec57f","slug":"confectioneries-hatzifotiou-1eaa","kind":"restaurant","name":"Confectioneries Hatzifotiou","lat":40.44091493203973,"lng":23.01172950209268,"url":"https://maps.app.goo.gl/ZBAersiUhet96cfT7?g_st=ipc","address":"24ο χλμ, Θεσ/νίκης - Μουδανιών, Mikra 575 00","categoryIds":["desserts"],"categories":["Dessert Shops"],"distanceKm":5.662251566834806},{"id":"greekRestaurants_730ebf3d54bc","slug":"to-steki-steak-house-730e","kind":"restaurant","name":"ΤΟ ΣΤΕΚΙ Steak House","lat":40.468079577548984,"lng":22.97361442896107,"url":"https://maps.app.goo.gl/bcVGXZXajJU5Ehw39?g_st=ipc","address":"Π. Μελά 9, Τρίλοφος 575 00","categoryIds":["greek-restaurants"],"categories":["Greek Restaurants"],"distanceKm":6.0839522810454},{"id":"cheapEatsRestaurants_5ff919c79857","slug":"maestro-cantina-5ff9","kind":"restaurant","name":"Maestro Cantina","lat":40.539866600210786,"lng":23.020757982919235,"url":"https://maps.app.goo.gl/BCe5MC2HVtopgoEH7?g_st=ipc","address":"EO Thessalonikis Poligirou 32, Thermi 570 01","categoryIds":["cheap-eats"],"categories":["Gyros & Cheap Eats"],"distanceKm":6.17252365015018},{"id":"burgersRestaurants_4060fc5be247","slug":"maestro-cantina-4060","kind":"restaurant","name":"Maestro Cantina","lat":40.539870288194706,"lng":23.0207573353921,"url":"https://maps.app.goo.gl/WJTaYcJdPxACzwkXA?g_st=ipc","address":"EO Thessalonikis Poligirou 32, Thermi 570 01","categoryIds":["burgers"],"categories":["Burger Spots"],"distanceKm":6.17293255951181},{"id":"dessertsRestaurants_162156adc1f2","slug":"nick-alexoudas-1621","kind":"restaurant","name":"NICK ALEXOUDAS","lat":40.50355208818679,"lng":22.970983268361184,"url":"https://maps.app.goo.gl/pdjwM7eD44CCVek79?g_st=ipc","address":"Θέρμη 570 01","categoryIds":["desserts"],"categories":["Dessert Shops"],"distanceKm":6.237596245542356}],"sameRegion":[],"mentionedGuides":[]},"__N_SSG":true}