{"pageProps":{"entity":{"id":"wineriesVineyards_92f1087dc250","slug":"united-winemaking-agricultural-cooperative-of-samos-92f1","kind":"restaurant","name":"United Winemaking Agricultural Cooperative of Samos","lat":37.79463716140727,"lng":26.687480470072543,"url":"https://maps.app.goo.gl/jkzS8DahV6TajD1L9?g_st=ipc","address":"Karlovasi 832 00","categoryIds":["wineries-vineyards"],"categories":["Wineries & Vineyards"]},"sameCategory":[{"id":"wineriesVineyards_f17638e49b8a","slug":"oinopoieio-moraiti-f176","kind":"restaurant","name":"Οινοποιείο Μωραΐτη","lat":37.1229987485843,"lng":25.244213980711866,"url":"https://maps.app.goo.gl/1HbespH52SwExwaW8?g_st=ipc","address":"Επαρχιακή Οδός Νάουσας-Μάρπισσας, Νάουσα 844 01","categoryIds":["wineries-vineyards"],"categories":["Wineries & Vineyards"]},{"id":"wineriesVineyards_a4d0adc4e189","slug":"oinopoieio-chatzakis-a4d0","kind":"restaurant","name":"Οινοποιείο Χατζάκης","lat":37.487911506949764,"lng":24.920189638380265,"url":"https://maps.app.goo.gl/PnEvnYgAhh5oLj4j6?g_st=ipc","address":"Αη Μιχάλης 841 00","categoryIds":["wineries-vineyards"],"categories":["Wineries & Vineyards"]},{"id":"wineriesVineyards_f66d3d921eed","slug":"domaine-sigalas-f66d","kind":"restaurant","name":"Domaine Sigalas","lat":36.47144515332007,"lng":25.394233805271192,"url":"https://maps.app.goo.gl/kxHf2McGP81at7gq9?g_st=ipc","address":"Baxes, Oia, Santorini 847 02","categoryIds":["wineries-vineyards"],"categories":["Wineries & Vineyards"]},{"id":"wineriesVineyards_21a74b37ed66","slug":"vassaltis-vineyards-21a7","kind":"restaurant","name":"Vassaltis Vineyards","lat":36.44254790219748,"lng":25.43767809168264,"url":"https://maps.app.goo.gl/2AtdngotJUgMkr7o8?g_st=ipc","address":"Περιφερειακή οδός, Βουρβούλος 847 00","categoryIds":["wineries-vineyards"],"categories":["Wineries & Vineyards"]},{"id":"wineriesVineyards_c4b8aaa71f14","slug":"manalis-c4b8","kind":"restaurant","name":"Μάναλης","lat":36.681144681918035,"lng":25.100751857820168,"url":"https://maps.app.goo.gl/3DPBf6dGCNTLKikN6?g_st=ipc","address":"Σίκινος 840 10","categoryIds":["wineries-vineyards"],"categories":["Wineries & Vineyards"]},{"id":"wineriesVineyards_28e385a5b348","slug":"gaia-winery-santorini-28e3","kind":"restaurant","name":"Gaia Winery Santorini","lat":36.391347708444265,"lng":25.485792242462427,"url":"https://maps.app.goo.gl/MLYCkmtcnHSNEbdT6?g_st=ipc","address":"Θέση Βραχειές, Έξω Γωνιά, Perivolia 847 00","categoryIds":["wineries-vineyards"],"categories":["Wineries & Vineyards"]},{"id":"wineriesVineyards_ddfea8113f2e","slug":"cave-wine-museum-winery-koutsogiannopoulos-santorini-yposkafo-moyseio-oinoy-oinopoieio-koytsogiannopoylos-georgios-ddfe","kind":"restaurant","name":"Cave Wine Museum - Winery Koutsogiannopoulos Santorini (Υπόσκαφο Μουσείο Οίνου - Οινοποιείο Κουτσογιαννόπουλος Γεώργιος)","lat":36.39672195171486,"lng":25.460144574368652,"url":"https://maps.app.goo.gl/aGUb6MruiHYUGV8m8?g_st=ipc","address":"Βόθωνας, Βοθωνας 847 00","categoryIds":["wineries-vineyards"],"categories":["Wineries & Vineyards"]},{"id":"wineriesVineyards_8ab3932f0db2","slug":"artemis-karamolegos-8ab3","kind":"restaurant","name":"Artemis Karamolegos","lat":36.38835128439954,"lng":25.46365749287468,"url":"https://maps.app.goo.gl/6kQf3bRiieM4P2Es8?g_st=ipc","address":"Έξω Γωνιά 847 00","categoryIds":["wineries-vineyards"],"categories":["Wineries & Vineyards"]}],"nearby":[{"id":"mustSeeAttractions_54fb3772eb37","slug":"archaeological-site-of-heraion-of-samos-54fb","kind":"restaurant","name":"Archaeological Site of Heraion of Samos","lat":37.67350522925315,"lng":26.88799727034567,"url":"https://maps.app.goo.gl/aSS6QjyqGgHanzsj8?g_st=ipc","address":"Pythagoreio 831 03","categoryIds":["attractions"],"categories":["Must-See Attractions"],"distanceKm":22.189096449716704},{"id":"mustSeeAttractions_0e0154b8338b","slug":"pythagoras-statue-0e01","kind":"restaurant","name":"Pythagoras Statue","lat":37.689752282548156,"lng":26.94490447179151,"url":"https://maps.app.goo.gl/9QY7VwS3H1acWG6g8?g_st=ipc","address":"Samos 831 03","categoryIds":["attractions"],"categories":["Must-See Attractions"],"distanceKm":25.46316663696693},{"id":"municipalities_928b419eccb6","slug":"samos-928b","kind":"municipality","name":"Σάμος","lat":37.754,"lng":26.977,"aliases":["Σαμος"],"region":"Βόρειο Αιγαίο","name_en":"Samos","region_en":"North Aegean","distanceKm":25.844457556060522},{"id":"municipalities_99d9186f1f31","slug":"agathonisi-99d9","kind":"municipality","name":"Αγαθονήσι","lat":37.456,"lng":26.963,"region":"Δωδεκάνησα","name_en":"Agathonisi","region_en":"Dodecanese","distanceKm":44.79559769588921},{"id":"municipalities_a1a685a55092","slug":"arkoi-a1a6","kind":"municipality","name":"Αρκοί","lat":37.372,"lng":26.736,"region":"Δωδεκάνησα","name_en":"Arki","region_en":"Dodecanese","distanceKm":47.18918860728903},{"id":"fishTavernasRestaurants_4004def7cd13","slug":"fish-tavern-lampi-4004","kind":"restaurant","name":"FISH TAVERN LAMPI","lat":37.36640737144112,"lng":26.576359128489035,"url":"https://maps.app.goo.gl/PxsWuCmfXd3XNHAx7?g_st=ipc","address":"Patmos 855 00","categoryIds":["fish-tavernas"],"categories":["Fish Tavernas"],"distanceKm":48.61339978209627},{"id":"municipalities_e4734598fcc4","slug":"ikaria-e473","kind":"municipality","name":"Ικαρία","lat":37.6167,"lng":26.1667,"aliases":["Ικαρια"],"region":"Βόρειο Αιγαίο","name_en":"Ikaria","region_en":"North Aegean","distanceKm":49.9044952104107},{"id":"vegetarianRestaurants_325f7a0c0fd0","slug":"pernera-vegan-restaurant-fairtrade-coffee-shop-market-325f","kind":"restaurant","name":"Pernera Vegan Restaurant & Fairtrade Coffee Shop & Market","lat":37.32400648961271,"lng":26.54252733878879,"url":"https://maps.app.goo.gl/N2k56TsPjEKAnPtL9?g_st=ipc","address":"Σκάλα 855 00","categoryIds":["vegetarian"],"categories":["Vegetarian Friendly Restaurants"],"distanceKm":53.86895384251175}],"sameRegion":[],"mentionedGuides":[]},"__N_SSG":true}