{"pageProps":{"entity":{"id":"luxuryDiningRestaurants_23db0e41115a","slug":"valaora-resto-nafplio-23db","kind":"restaurant","name":"Valaora Resto Nafplio","lat":37.56519719151896,"lng":22.793079460983854,"url":"https://maps.app.goo.gl/9jUDwjniZiSHynrk9?g_st=ipc","address":"Mpanieres, Boumpoulinas, Nafplio 211 00","categoryIds":["luxury-dining"],"categories":["Luxury Dining"]},"sameCategory":[{"id":"luxuryDiningRestaurants_e6807e074ed0","slug":"wild-duck-e680","kind":"restaurant","name":"Wild Duck","lat":37.56734308437463,"lng":22.797850601824372,"url":"https://maps.app.goo.gl/3WVLVVZ3Za8oDxQz6?g_st=ipc","address":"Boumpoulinas 67, Nafplio 211 00","categoryIds":["luxury-dining"],"categories":["Luxury Dining"]},{"id":"luxuryDiningRestaurants_1d0de6836c07","slug":"kavos-1d0d","kind":"restaurant","name":"Κάβος","lat":37.9019731487588,"lng":23.01292410391318,"url":"https://maps.app.goo.gl/Bbcu94gWiDCHZAwH8?g_st=ipc","address":"Ίσθμια 201 00","categoryIds":["luxury-dining"],"categories":["Luxury Dining"]},{"id":"luxuryDiningRestaurants_e93ed529fdfa","slug":"hams-clams-e93e","kind":"restaurant","name":"Hams & Clams","lat":37.93313157813386,"lng":23.64744436080488,"url":"https://maps.app.goo.gl/KsnmFZ1WnGooiyEV7?g_st=ipc","address":"Λιμάνι, Μαρίνα Ζέας, Πειραιάς 185 37","categoryIds":["luxury-dining"],"categories":["Luxury Dining"]},{"id":"luxuryDiningRestaurants_ef48010de0b4","slug":"mitsis-n-u-piraeus-port-ef48","kind":"restaurant","name":"Mitsis N'U Piraeus Port","lat":37.946256281878604,"lng":23.642735306655823,"url":"https://maps.app.goo.gl/3DKm52Lh2ApKNN1X8?g_st=ipc","address":"Αριστείδου 16-20, Πειραιάς 185 31","categoryIds":["luxury-dining"],"categories":["Luxury Dining"]},{"id":"luxuryDiningRestaurants_e7d40d9dd881","slug":"varoulko-seaside-restaurant-e7d4","kind":"restaurant","name":"Varoulko Seaside Restaurant","lat":37.93728764717136,"lng":23.658501845885716,"url":"https://maps.app.goo.gl/rqEtmfcH3ZARtEsf7?g_st=ipc","address":"Ακτή Κουμουνδούρου 54, Πειραιάς 185 33","categoryIds":["luxury-dining"],"categories":["Luxury Dining"]},{"id":"luxuryDiningRestaurants_223cae9767cf","slug":"nest-rooftop-monte-kastella-223c","kind":"restaurant","name":"ΝΕΣΤ Rooftop - Monte Kastella","lat":37.93966255701075,"lng":23.661584217897186,"url":"https://maps.app.goo.gl/KrWjCjHhBZcKtAsU9?g_st=ipc","address":"Λεωφ. Αλ. Παπαναστασίου 109, Πειραιάς 185 33","categoryIds":["luxury-dining"],"categories":["Luxury Dining"]},{"id":"luxuryDiningRestaurants_84da05872d04","slug":"delta-restaurant-84da","kind":"restaurant","name":"Delta Restaurant","lat":37.939081506016144,"lng":23.69146940163584,"url":"https://maps.app.goo.gl/GSgBvngfewJdVtkA7?g_st=ipc","address":"Λεωφ. Ανδρέα Συγγρού 364, Αθήνα 176 74","categoryIds":["luxury-dining"],"categories":["Luxury Dining"]},{"id":"luxuryDiningRestaurants_8af90b11228b","slug":"e-o-pan-asian-restaurant-athens-8af9","kind":"restaurant","name":"e&o Pan-Asian Restaurant Athens","lat":37.94077150497406,"lng":23.696879786243304,"url":"https://maps.app.goo.gl/nAwF6RqCeQF6rY2P9?g_st=ipc","address":"Λεωφ. Ανδρέα Συγγρού 385, Παλαιό Φάληρο 175 64","categoryIds":["luxury-dining"],"categories":["Luxury Dining"]}],"nearby":[{"id":"mustSeeAttractions_c7dd65dae274","slug":"kastro-akronayplias-c7dd","kind":"restaurant","name":"Κάστρο Ακροναυπλίας","lat":37.56407670573787,"lng":22.793195253729316,"url":"https://maps.app.goo.gl/DkbZi8R48n8E7Qu76?g_st=ipc","address":"Άγγελου Τερζάκη 25, Ναύπλιο 211 00","categoryIds":["attractions"],"categories":["Must-See Attractions"],"distanceKm":0.12500965035080513},{"id":"dessertsRestaurants_b80c1e7de6b5","slug":"antica-gelateria-di-roma-b80c","kind":"restaurant","name":"Antica Gelateria di Roma","lat":37.566618037126396,"lng":22.79578874005151,"url":"https://maps.app.goo.gl/VdKWZXmCT7JTwu2Z8?g_st=ipc","address":"3 Pharmakopoulou and Komninou, Ναύπλιο 211 00","categoryIds":["desserts"],"categories":["Dessert Shops"],"distanceKm":0.28632707407870717},{"id":"italianRestaurants_62cf2e5c270d","slug":"la-gratella-62cf","kind":"restaurant","name":"La Gratella","lat":37.56708420040735,"lng":22.796775177187325,"url":"https://maps.app.goo.gl/wA9xzqnbmvvq1Bqo8?g_st=ipc","address":"Vasilissis Olgas, Nafplio 211 00","categoryIds":["italian"],"categories":["Italian Restaurants"],"distanceKm":0.38746675731360924},{"id":"greekRestaurants_742eabdb9109","slug":"to-teloneio-742e","kind":"restaurant","name":"Το Τελωνείο","lat":37.56743155679151,"lng":22.79708632929498,"url":"https://maps.app.goo.gl/nh7yb45ifREfXwro7?g_st=ipc","address":"Ακτής Μιαούλη 83, Ναύπλιο 211 00","categoryIds":["greek-restaurants"],"categories":["Greek Restaurants"],"distanceKm":0.4317972550956317},{"id":"italianRestaurants_0d133bb8af27","slug":"itria-cucina-italiana-restaurant-0d13","kind":"restaurant","name":"ITRIA Cucina Italiana Restaurant","lat":37.567386909343334,"lng":22.797290266729004,"url":"https://maps.app.goo.gl/HHmGQxRgnuihmTyY7?g_st=ipc","address":"Boumpoulinas 81, Nafplio 211 00","categoryIds":["italian"],"categories":["Italian Restaurants"],"distanceKm":0.44387574663344725},{"id":"luxuryDiningRestaurants_e6807e074ed0","slug":"wild-duck-e680","kind":"restaurant","name":"Wild Duck","lat":37.56734308437463,"lng":22.797850601824372,"url":"https://maps.app.goo.gl/3WVLVVZ3Za8oDxQz6?g_st=ipc","address":"Boumpoulinas 67, Nafplio 211 00","categoryIds":["luxury-dining"],"categories":["Luxury Dining"],"distanceKm":0.48350181876401094},{"id":"greekRestaurants_7230005d3481","slug":"skarpeta-skarpeta-7230","kind":"restaurant","name":"Σκαρπέτα | Skarpeta","lat":37.56454091062987,"lng":22.80102416836778,"url":"https://maps.app.goo.gl/y1tbJ7Ka9yN8RJXn7?g_st=ipc","address":"Πάρκο, Σταϊκοπούλου, Ναύπλιο 211 00","categoryIds":["greek-restaurants"],"categories":["Greek Restaurants"],"distanceKm":0.7040400886694186},{"id":"municipalities_6a56a10792f1","slug":"nayplio-6a56","kind":"municipality","name":"Ναύπλιο","lat":37.567,"lng":22.801,"aliases":["Nafplio","Nauplia","Ναυπλία","Ναυπλίων","Ναυπλιο","Ναυπλια"],"region":"Αργολίδα","name_en":"Nafplio","region_en":"Argolis","distanceKm":0.726317881745945}],"sameRegion":[],"mentionedGuides":[{"slug":"athens-day-trips-guide-el","title":"Καλύτερες Ημερήσιες Εκδρομές από την Αθήνα"},{"slug":"athens-day-trips-guide","title":"Best Day Trip Ideas from Athens"}]},"__N_SSG":true}