{"pageProps":{"entity":{"id":"municipalities_2413d46e54f8","slug":"ymittos-2413","kind":"municipality","name":"Υμηττός","lat":37.9506,"lng":23.7511,"aliases":["Ymittos","Hymettos","Υμηττος"],"region":"Νότια Προάστια","name_en":"Ymittos","region_en":"Southern Suburbs"},"sameCategory":[],"nearby":[{"id":"cheapEatsRestaurants_a6f267f71448","slug":"psitopoleio-o-kostas-a6f2","kind":"restaurant","name":"Ψητοπωλείο Ο Κώστας","lat":37.94774148940973,"lng":23.74608370924349,"url":"https://maps.app.goo.gl/8n9ne3gHR6APgQwh6?g_st=ipc","address":"Ηλιουπόλεως 157, Υμηττός 172 36","categoryIds":["cheap-eats"],"categories":["Gyros & Cheap Eats"],"distanceKm":0.5426732326110948},{"id":"italianRestaurants_d26e71c0baaa","slug":"p3-pizza-pasta-piazza-d26e","kind":"restaurant","name":"P3 • Pizza Pasta Piazza","lat":37.95458478436311,"lng":23.74640491373037,"url":"https://maps.app.goo.gl/RxyTMGLyt4d7KQ4T7?g_st=ipc","address":"Πλ. Υμηττού 15, Υμηττός 172 37","categoryIds":["italian"],"categories":["Italian Restaurants"],"distanceKm":0.6048080158525928},{"id":"greekRestaurants_11dff068e9ea","slug":"taverna-toy-vardi-11df","kind":"restaurant","name":"Ταβέρνα του Βαρδή","lat":37.95570603338151,"lng":23.74583290711746,"url":"https://maps.app.goo.gl/6RAXFnJTA2DTzwA88","address":"Καισαρείας 9, Υμηττός 172 37","categoryIds":["greek-restaurants"],"categories":["Greek Restaurants"],"distanceKm":0.7318657672627725},{"id":"fishTavernasRestaurants_bfa3fa802461","slug":"to-koytoyki-toy-nikola-bfa3","kind":"restaurant","name":"Το κουτούκι του Νικόλα","lat":37.957390018378845,"lng":23.748097249841244,"url":"https://maps.app.goo.gl/HyEob8x31HSBRG4G6?g_st=ipc","address":"Καλλιπόλεως 1, Βύρωνας 162 32","categoryIds":["fish-tavernas"],"categories":["Fish Tavernas"],"distanceKm":0.7996011053420086},{"id":"cheapEatsRestaurants_08d52517e6fc","slug":"mparmpa-mitsos-vyronas-08d5","kind":"restaurant","name":"Μπάρμπα Μήτσος Βύρωνας","lat":37.95390974598432,"lng":23.759679171308928,"url":"https://maps.app.goo.gl/1eSEWa3g6EhnDAvb6?g_st=ipc","address":"Επταλόφου 88, Βύρωνας 162 33","categoryIds":["cheap-eats"],"categories":["Gyros & Cheap Eats"],"distanceKm":0.8374240248794046},{"id":"burgersRestaurants_1d9dede89409","slug":"hippy-joe-1d9d","kind":"restaurant","name":"Hippy Joe","lat":37.95458600508715,"lng":23.75943276506492,"url":"https://maps.app.goo.gl/crkq6yzRLRbaTy288?g_st=ipc","address":"Καραολή και Δημητρίου 5, Βύρωνας 162 31","categoryIds":["burgers"],"categories":["Burger Spots"],"distanceKm":0.8545413418670497},{"id":"coffeeBrunchRestaurants_767a9009c272","slug":"mademoiselle-coffee-brunch-767a","kind":"restaurant","name":"Mademoiselle Coffee & Brunch","lat":37.954517599815006,"lng":23.760305394672425,"url":"https://maps.app.goo.gl/swhTHqBQtRNT8ZAx6?g_st=ipc","address":"Μαγνησίας 91, Βύρωνας 162 33","categoryIds":["coffee-brunch"],"categories":["Coffee & Brunch Spots"],"distanceKm":0.9171758007570077},{"id":"cheapEatsRestaurants_53eb96e06f78","slug":"zampelis-soyvlaki-53eb","kind":"restaurant","name":"ΖΑΜΠΕΛΗΣ Σουβλάκι","lat":37.942278449963005,"lng":23.7489165228981,"url":"https://maps.app.goo.gl/mBFJVYTZsF1kBbtk7?g_st=ipc","address":"Λεωφ. Μαρίνου Αντύπα 42, Ηλιούπολη 163 46","categoryIds":["cheap-eats"],"categories":["Gyros & Cheap Eats"],"distanceKm":0.9449147975153728}],"sameRegion":[{"id":"municipalities_093f8da9eef7","slug":"nea-smyrni-093f","kind":"municipality","name":"Νέα Σμύρνη","lat":37.9456,"lng":23.7142,"aliases":["Nea Smyrni","Nea Smirni","Νεα Σμυρνη","Nea Smyrne"],"region":"Νότια Προάστια","name_en":"Nea Smyrni","region_en":"Southern Suburbs"},{"id":"municipalities_3d9dbd89e718","slug":"glyfada-3d9d","kind":"municipality","name":"Γλυφάδα","lat":37.8782,"lng":23.743,"aliases":["Glyfada","Gliphada","Γλυφαδα","Glifada"],"region":"Νότια Προάστια","name_en":"Glyfada","region_en":"Southern Suburbs"},{"id":"municipalities_4714f1907ab8","slug":"elliniko-4714","kind":"municipality","name":"Ελληνικό","lat":37.892,"lng":23.743,"region":"Νότια Προάστια","name_en":"Elliniko","region_en":"Southern Suburbs"},{"id":"municipalities_4ce899ab5232","slug":"argyroypoli-4ce8","kind":"municipality","name":"Αργυρούπολη","lat":37.905,"lng":23.738,"region":"Νότια Προάστια","name_en":"Argyroupoli","region_en":"Southern Suburbs"},{"id":"municipalities_54bb39e9ab94","slug":"dafni-54bb","kind":"municipality","name":"Δάφνη","lat":37.95,"lng":23.732,"aliases":["Dafni","Daphni","Δαφνη","Daphne"],"region":"Νότια Προάστια","name_en":"Dafni","region_en":"Southern Suburbs"},{"id":"municipalities_79c2791cab2a","slug":"vari-79c2","kind":"municipality","name":"Βάρη","lat":37.8333,"lng":23.7917,"region":"Νότια Προάστια","name_en":"Vari","region_en":"Southern Suburbs"},{"id":"municipalities_89aa8cc05ac2","slug":"palaio-faliro-89aa","kind":"municipality","name":"Παλαιό Φάληρο","lat":37.9286,"lng":23.701,"region":"Νότια Προάστια","name_en":"Palaio Faliro","region_en":"Southern Suburbs"},{"id":"municipalities_9a7f68490e58","slug":"vyronas-9a7f","kind":"municipality","name":"Βύρωνας","lat":37.9667,"lng":23.7667,"aliases":["Vyronas","Vyrona","Βυρωνας","Vironas","Byron"],"region":"Νότια Προάστια","name_en":"Vyronas","region_en":"Southern Suburbs"}],"mentionedGuides":[]},"__N_SSG":true}