{"pageProps":{"entity":{"id":"dessertsRestaurants_9cb3b10fe36b","slug":"yum-tree-9cb3","kind":"restaurant","name":"Yum Tree","lat":40.62786519012478,"lng":22.94755218130747,"url":"https://maps.app.goo.gl/zfkjDiD3iU8Rv19E6?g_st=ipc","address":"Dim. Gounari 5, Thessaloniki 546 22","categoryIds":["desserts"],"categories":["Dessert Shops"]},"sameCategory":[{"id":"dessertsRestaurants_509c5344d793","slug":"armenonville-509c","kind":"restaurant","name":"Armenonville","lat":40.62813210913547,"lng":22.94876500137915,"url":"https://maps.app.goo.gl/3MMykvcTvkcMNqrA6?g_st=ipc","address":"Mitropoleos 102, Thessaloniki 546 21","categoryIds":["desserts"],"categories":["Dessert Shops"]},{"id":"dessertsRestaurants_ff4e4669779d","slug":"bombolo-ff4e","kind":"restaurant","name":"BOMBOLO","lat":40.628931168792896,"lng":22.947385328416402,"url":"https://maps.app.goo.gl/KrVfLWu1YhMe94yS8?g_st=ipc","address":"Mitropoleos 88, Thessaloniki 546 22","categoryIds":["desserts"],"categories":["Dessert Shops"]},{"id":"dessertsRestaurants_28a0c1dca6b8","slug":"trigona-elenidi-28a0","kind":"restaurant","name":"Trigona Elenidi","lat":40.62886737433407,"lng":22.948457330769024,"url":"https://maps.app.goo.gl/CrarZvo5GUHnGW4C7?g_st=ipc","address":"Dim. Gounari 13, Thessaloniki 546 22","categoryIds":["desserts"],"categories":["Dessert Shops"]},{"id":"dessertsRestaurants_d6293efcb0d5","slug":"sugarela-d629","kind":"restaurant","name":"Sugarela","lat":40.628286349246984,"lng":22.94919276720608,"url":"https://maps.app.goo.gl/BWRmuMRqDoq6N7MH8?g_st=ipc","address":"Nikiforou Foka 12, Thessaloniki 546 21","categoryIds":["desserts"],"categories":["Dessert Shops"]},{"id":"dessertsRestaurants_90fef645e082","slug":"fatto-a-mano-90fe","kind":"restaurant","name":"Fatto a Mano","lat":40.63009258953706,"lng":22.9479003155248,"url":"https://maps.app.goo.gl/nU8Tq4Vjr5TS7bBeA?g_st=ipc","address":"P. Mela 20, Thessaloniki 546 22","categoryIds":["desserts"],"categories":["Dessert Shops"]},{"id":"dessertsRestaurants_11a9a0429f5e","slug":"sugar-confectionery-11a9","kind":"restaurant","name":"Sugar Confectionery","lat":40.63028200470032,"lng":22.948376451004588,"url":"https://maps.app.goo.gl/ZJHSRbMxNSqCmdKCA?g_st=ipc","address":"Lordou Vironos 7, Thessaloniki 546 22","categoryIds":["desserts"],"categories":["Dessert Shops"]},{"id":"dessertsRestaurants_9bbc0c355797","slug":"agapame-to-katsikisio-gala-9bbc","kind":"restaurant","name":"Αγαπάμε το κατσικίσιο γάλα","lat":40.63062994509152,"lng":22.947679865531065,"url":"https://maps.app.goo.gl/U3wBWwpBXDhPzkpc6?g_st=ipc","address":"P. Mela 28, Thessaloniki 546 22","categoryIds":["desserts"],"categories":["Dessert Shops"]},{"id":"dessertsRestaurants_8263a8db76c8","slug":"valentino-crepes-8263","kind":"restaurant","name":"Valentino Crepes","lat":40.63057112442913,"lng":22.950154633509246,"url":"https://maps.app.goo.gl/nwvSZePQvBQzGocJ6?g_st=ipc","address":"Dim. Gounari 25, Thessaloniki 546 22","categoryIds":["desserts"],"categories":["Dessert Shops"]}],"nearby":[{"id":"cheapEatsRestaurants_09ba201c7611","slug":"yum-tree-09ba","kind":"restaurant","name":"Yum Tree","lat":40.62786595411914,"lng":22.947554429551257,"url":"https://maps.app.goo.gl/8t8Wb8QaYGPzQ1F76?g_st=ipc","address":"Dim. Gounari 5, Thessaloniki 546 22","categoryIds":["cheap-eats"],"categories":["Gyros & Cheap Eats"],"distanceKm":0.0002078839346786894},{"id":"vegetarianRestaurants_b82222e81ca2","slug":"merry-berry-health-bar-b822","kind":"restaurant","name":"Merry Berry Health Bar","lat":40.62787788837935,"lng":22.947534537868144,"url":"https://maps.app.goo.gl/9NhW77pMY2C6xJxq8?g_st=ipc","address":"Dim. Gounari 5, Thessaloniki 546 22","categoryIds":["vegetarian"],"categories":["Vegetarian Friendly Restaurants"],"distanceKm":0.0020519999910443495},{"id":"coffeeBrunchRestaurants_9305c93ce682","slug":"canteen-all-day-bar-restaurant-9305","kind":"restaurant","name":"Canteen All day Bar Restaurant","lat":40.62803673619556,"lng":22.94769963358214,"url":"https://maps.app.goo.gl/M7potW66EBLTEfRx7?g_st=ipc","address":"Dim. Gounari 7, Thessaloniki 546 22","categoryIds":["coffee-brunch"],"categories":["Coffee & Brunch Spots"],"distanceKm":0.02277509373046951},{"id":"greekRestaurants_bc2682007b45","slug":"canteen-all-day-bar-restaurant-bc26","kind":"restaurant","name":"Canteen All day Bar Restaurant","lat":40.628045759253304,"lng":22.94769823250704,"url":"https://maps.app.goo.gl/4PvAxWQTpkBWbzxZ6?g_st=ipc","address":"Δημ. Γούναρη 7, Θεσσαλονίκη 546 22","categoryIds":["greek-restaurants"],"categories":["Greek Restaurants"],"distanceKm":0.023559701101648935},{"id":"vegetarianRestaurants_c6f3e8f66558","slug":"join-juice-bars-c6f3","kind":"restaurant","name":"JOIN juice bars","lat":40.62769116289148,"lng":22.94711801674614,"url":"https://maps.app.goo.gl/nimzQmKjxrKbiFuKA?g_st=ipc","address":"Leof. Nikis 73, Thessaloniki 546 22","categoryIds":["vegetarian"],"categories":["Vegetarian Friendly Restaurants"],"distanceKm":0.04143610278665811},{"id":"coffeeBrunchRestaurants_459993a6b6f4","slug":"join-juice-bars-4599","kind":"restaurant","name":"JOIN juice bars","lat":40.62769069211422,"lng":22.947117280367095,"url":"https://maps.app.goo.gl/7fKny43wd3q96T1s5?g_st=ipc","address":"Leof. Nikis 73, Thessaloniki 546 22","categoryIds":["coffee-brunch"],"categories":["Coffee & Brunch Spots"],"distanceKm":0.04151550490717746},{"id":"fishTavernasRestaurants_d45de4d8396f","slug":"marea-sea-spirit-d45d","kind":"restaurant","name":"MAREA sea spirit","lat":40.628341964657956,"lng":22.947576121389986,"url":"https://maps.app.goo.gl/Ck1Kd1PfuHwFhziJ6?g_st=ipc","address":"Margariti Lori 13, Thessaloniki 546 22","categoryIds":["fish-tavernas"],"categories":["Fish Tavernas"],"distanceKm":0.05305339182874287},{"id":"greekRestaurants_5db983812e0a","slug":"to-elliniko-5db9","kind":"restaurant","name":"Το Ελληνικό","lat":40.62835209292357,"lng":22.947350658434885,"url":"https://maps.app.goo.gl/xnCJBuGfhotgXpup6?g_st=ipc","address":"Στρ. Καλλάρη 9, Θεσσαλονίκη 546 22","categoryIds":["greek-restaurants"],"categories":["Greek Restaurants"],"distanceKm":0.05674939256319573}],"sameRegion":[],"mentionedGuides":[]},"__N_SSG":true}