[
  {
    "url": "https://maps.app.goo.gl/VTAxttodcrh81J5E9?g_st=ipc",
    "name": "καφέ Nuestro sueno",
    "address": "Καραολή και Δημητρίου, Χολαργός 153 41",
    "lat": "37.996802341238464",
    "lng": "23.81194934538021"
  },
  {
    "url": "https://maps.app.goo.gl/ABQAbZ7KqvzbpCbB8?g_st=ipc",
    "name": "Alsos Cholargou / Άλσος Χολαργού",
    "address": "Ευριπίδου 1, Χολαργός 155 62",
    "lat": "37.99728709619762",
    "lng": "23.80134814036896"
  },
  {
    "url": "https://maps.app.goo.gl/82avq8dPqN3VZq7W7?g_st=ipc",
    "name": "ΚΤΗΜΑ ΑΡΙΣΤΗ",
    "address": "Πλουτάρχου 10, Χαλάνδρι 152 34",
    "lat": "38.01987728596246",
    "lng": "23.81566062458868"
  },
  {
    "url": "https://maps.app.goo.gl/rJbRGPSSoVw8phSo6?g_st=ipc",
    "name": "Άλσος Παπάγου",
    "address": "Κορυτσάς 31, Παπάγου 156 69",
    "lat": "37.99340202683861",
    "lng": "23.794076076253262"
  },
  {
    "url": "https://maps.app.goo.gl/bhvyTpRQmsaLe3W48?g_st=ipc",
    "name": "Piu Verde",
    "address": "Στρατ, Αλ. Παπάγου, Παπάγου 156 69",
    "lat": "37.993574877289596",
    "lng": "23.792630011880384"
  },
  {
    "url": "https://maps.app.goo.gl/ah7MLHXrkbxTWacS8?g_st=ipc",
    "name": "Οικογενειακό Πάρκο Περιβαλλοντικής Ευαισθητοποίησης",
    "address": "Λεωφ. Παπάγου, Παπάγου 156 69",
    "lat": "37.99329104933058",
    "lng": "23.791786076511723"
  },
  {
    "url": "https://maps.app.goo.gl/YhbenTKqVr5zHZrSA?g_st=ipc",
    "name": "Gymboree Play & Music ΝΕΟ Ψυχικό",
    "address": "Γρ. Ξενόπουλου 3Α, Νέο Ψυχικό 154 51",
    "lat": "38.00040956605857",
    "lng": "23.77746842451767"
  },
  {
    "url": "https://maps.app.goo.gl/qibAD4W4gNvVSf698?g_st=ipc",
    "name": "Ενυδρείο XPLORE Oceans",
    "address": "Αγησιλάου, Μαρούσι 151 23",
    "lat": "38.03457407087024",
    "lng": "23.791982125171685"
  },
  {
    "url": "https://maps.app.goo.gl/TKKhEa5LN1Dy53v36?g_st=ipc",
    "name": "XPLORE",
    "address": "Λεωφ. Κηφισίας 37Α, Μαρούσι 151 23",
    "lat": "38.034636437257035",
    "lng": "23.79103363842638"
  },
  {
    "url": "https://maps.app.goo.gl/pvC5VhagjzGcsF3b7?g_st=ipc",
    "name": "Πάρκο Μίκης Θεοδωράκης - ΤΥΠΕΤ",
    "address": "Υμηττού 57, Βριλήσσια 152 35",
    "lat": "38.0376288072202",
    "lng": "23.83650236719041"
  },
  {
    "url": "https://maps.app.goo.gl/ByfaE3CKqvW9hrLv6?g_st=ipc",
    "name": "Replayce",
    "address": "OAKA Gate Z, Αμαρυσίας Αρτέμιδος, Μαρούσι 151 22",
    "lat": "38.04114619526046",
    "lng": "23.788356717778257"
  },
  {
    "url": "https://maps.app.goo.gl/xX4rv5hpzm2R55iv8?g_st=ipc",
    "name": "Δεντρόσπιτο",
    "address": "Λεωφ. Πεντέλης 102, Βριλήσσια 152 35",
    "lat": "38.04193059212469",
    "lng": "23.83336989792643"
  },
  {
    "url": "https://maps.app.goo.gl/eikiyDUe7JH1ESeMA?g_st=ipc",
    "name": "Freeline - Athens Inline Skating School",
    "address": "Μαρούσι 151 23",
    "lat": "38.04178979504894",
    "lng": "23.783943829723313"
  },
  {
    "url": "https://maps.app.goo.gl/ot5mvzRcDDXoA46w8?g_st=ipc",
    "name": "Άλσος Βεΐκου",
    "address": "Λεωφόρος Βεΐκου, Αναγεννήσεως &, Γαλάτσι 111 46",
    "lat": "38.02808730194628",
    "lng": "23.7654289848257"
  },
  {
    "url": "https://maps.app.goo.gl/bVGsyiVv6EgBKgQg7?g_st=ipc",
    "name": "Πάρκο Πρώην Ναυτικής Βάσης",
    "address": "Λεωφ. Πεντέλης 41, Βριλήσσια 152 35",
    "lat": "38.045491355804536",
    "lng": "23.838523859146985"
  },
  {
    "url": "https://maps.app.goo.gl/ikBxVbssGYshQenA7?g_st=ipc",
    "name": "THE WALL",
    "address": "Αγίου Αθανασίου 12, Παλλήνη 153 51",
    "lat": "38.00928367382339",
    "lng": "23.8721127138081"
  },
  {
    "url": "https://maps.app.goo.gl/5ypCQjX1CzhhmDWMA?g_st=ipc",
    "name": "FUNMILY eat-drink-play",
    "address": "Οδός Πεντέλης 114, Μαρούσι 151 26",
    "lat": "38.051902735451634",
    "lng": "23.82889440448781"
  },
  {
    "url": "https://maps.app.goo.gl/p7oh1sqhz5MkfN978?g_st=ipc",
    "name": "Planet Cosmos",
    "address": "Κλεισθένους 399, Γέρακας 153 44",
    "lat": "38.036967894838305",
    "lng": "23.858200213835428"
  },
  {
    "url": "https://maps.app.goo.gl/KumHXE484XwJxn489?g_st=ipc",
    "name": "Block Games",
    "address": "Περικλέους 1, Μαρούσι 151 22",
    "lat": "38.05634420757886",
    "lng": "23.803830698656842"
  },
  {
    "url": "https://maps.app.goo.gl/qo4PWWenK9kDd9qC7?g_st=ipc",
    "name": "Πεδίον Άρεως",
    "address": "Λεωφ. Αλεξάνδρας, Αθήνα 114 74",
    "lat": "37.99296743190719",
    "lng": "23.73662502583579"
  },
  {
    "url": "https://maps.app.goo.gl/XsjBK4zMnNMj3Syf6?g_st=ipc",
    "name": "GAME Project",
    "address": "204, ELeftheriou Venizelou Str N, Αθήνα 141 22",
    "lat": "38.057383703991036",
    "lng": "23.772780317559956"
  },
  {
    "url": "https://maps.app.goo.gl/wiMy56MxapPr4udz6?g_st=ipc",
    "name": "Ελληνικό Παιδικό Μουσείο",
    "address": "Βασ. Γεωργίου B 19, Αθήνα 106 75",
    "lat": "37.97343665476228",
    "lng": "23.744227584570496"
  },
  {
    "url": "https://maps.app.goo.gl/xdffZruJ9uqfJ5wx8?g_st=ipc",
    "name": "Άλσος Νέας Φιλαδέλφειας",
    "address": "Λεωφ. Δεκελείας 152, Αθήνα 143 42",
    "lat": "38.042763651734646",
    "lng": "23.744714870891837"
  },
  {
    "url": "https://maps.app.goo.gl/MCnnH77ndto6n5WT8?g_st=ipc",
    "name": "Εθνικός Κήπος",
    "address": "Αθήνα 105 57",
    "lat": "37.97258568206085",
    "lng": "23.73743382176546"
  },
  {
    "url": "https://maps.app.goo.gl/x9xASynDZReucwX5A?g_st=ipc",
    "name": "K9 Arena",
    "address": "Χαλκίδος 15, Λυκόβρυση 141 23",
    "lat": "38.07105818937244",
    "lng": "23.783776935008227"
  },
  {
    "url": "https://maps.app.goo.gl/3kET1gVajc9wtcHj9?g_st=ipc",
    "name": "Εθνικό Μουσείο Φυσικής Ιστορίας Γουλανδρή",
    "address": "Όθωνος 100, Κηφισιά 145 62",
    "lat": "38.07463041368346",
    "lng": "23.814406620087777"
  },
  {
    "url": "https://maps.app.goo.gl/wTSkxqJ3qSwLG4aJA?g_st=ipc",
    "name": "Hakuna Matata Family Park",
    "address": "Αχαρνών 53, Κηφισιά 145 61",
    "lat": "38.07414614693604",
    "lng": "23.79446488393812"
  },
  {
    "url": "https://maps.app.goo.gl/Qjmb6xRCJvU3Lj87A?g_st=ipc",
    "name": "Leontario Entertainment Center",
    "address": "Αμαζονoσ 15, Παλληνη 15344",
    "lat": "37.996183572327645",
    "lng": "23.899494670938427"
  },
  {
    "url": "https://maps.app.goo.gl/hbZeHeJkN4GXh5tc6?g_st=ipc",
    "name": "Εθνικό Αστεροσκοπείο Αθηνών - Κέντρο Επισκεπτών Θησείου",
    "address": "Λόφος Νυμφών Θησείο, ΤΘ 20048, Αθήνα 118 10",
    "lat": "37.97274718818258",
    "lng": "23.717946612728728"
  },
  {
    "url": "https://maps.app.goo.gl/ruiCqSWVCT4XLQ6T7?g_st=ipc",
    "name": "Μητροπολιτικό Πάρκο Αντώνης Τρίτσης",
    "address": "Σπύρου Μουστακλή 23, Ίλιον 131 22",
    "lat": "38.04448272470426",
    "lng": "23.721863541204524"
  },
  {
    "url": "https://maps.app.goo.gl/FiJWknWTB14td3ra9?g_st=ipc",
    "name": "Designer Outlet Athens",
    "address": "D-Oikodomiko Tetragono, Γυαλού E71, Σπάτα 190 04",
    "lat": "37.98621935732948",
    "lng": "23.91050612444449"
  },
  {
    "url": "https://maps.app.goo.gl/DDga87nVticqm9qYA?g_st=ipc",
    "name": "HADO Δάφνη",
    "address": "Μπουμπουλίνας 6, Αγ. Δημήτριος Αττικής 173 43",
    "lat": "37.94808909976108",
    "lng": "23.73774466226219"
  },
  {
    "url": "https://maps.app.goo.gl/YkXeKrRsNFSepRDT8?g_st=ipc",
    "name": "Αρχαιολογικό Άλσος Ακαδημίας Πλάτωνος",
    "address": "Αθήνα 104 42",
    "lat": "37.99129905736324",
    "lng": "23.708384657791346"
  },
  {
    "url": "https://maps.app.goo.gl/e5jXXHYZC2NhJgZy7?g_st=ipc",
    "name": "Ninja Park Athens",
    "address": "Καλυφτάκη 74, Κηφισιά 145 64",
    "lat": "38.08643856775193",
    "lng": "23.788809005523504"
  },
  {
    "url": "https://maps.app.goo.gl/JecbscmoWg1c4Snw5?g_st=ipc",
    "name": "Smart Park",
    "address": "Εμπορικό Πάρκο Smart Park, Ε. Πουλακη, OT 71, & 72, Σπάτα 190 04",
    "lat": "37.98478188179295",
    "lng": "23.913104747091037"
  },
  {
    "url": "https://maps.app.goo.gl/VYjCmEzxbNTXc6xX9?g_st=ipc",
    "name": "OASIS Activity Farm Park",
    "address": "Πλαπούτα, Άνω Καρέλλας 194 00",
    "lat": "37.928303788781086",
    "lng": "23.851038750815583"
  },
  {
    "url": "https://maps.app.goo.gl/bxj4o99on71RaCp79?g_st=ipc",
    "name": "Γαϊδουροχώρα - Το Ελληνικό Κέντρο για το Γαϊδούρι",
    "address": "Ηπείρου 40, Κρωπία 194 00",
    "lat": "37.92251188321968",
    "lng": "23.844073086239685"
  },
  {
    "url": "https://maps.app.goo.gl/93r82jmmMvCfQwZe8?g_st=ipc",
    "name": "Γεωρ. Παπανδρέου",
    "address": "Κηφισιά 146 71",
    "lat": "38.09209780213087",
    "lng": "23.824819042791706"
  },
  {
    "url": "https://maps.app.goo.gl/azuqAZc93giJTXmj8?g_st=ipc",
    "name": "Gymboree Play & Music Ν.Ερυθραία",
    "address": "Τατοΐου 102, Νέα Ερυθραία 146 71",
    "lat": "38.09316691407804",
    "lng": "23.80936117936556"
  },
  {
    "url": "https://maps.app.goo.gl/iUSz6s7BVEgZACCj9?g_st=ipc",
    "name": "PLAYMOBIL FunPark",
    "address": "Αμαλιάδος 4, Κηφισιά 145 64",
    "lat": "38.101749739078855",
    "lng": "23.80667805908177"
  },
  {
    "url": "https://maps.app.goo.gl/4YmyHX6EqG7wK1GEA?g_st=ipc",
    "name": "ΠΑΙΔΙΚΕΣ ΕΚΔΗΛΩΣΕΙΣ-ΞΕΝΕΣ ΓΛΩΣΣΕΣ | PETIT PARIS",
    "address": "Κρίνων 2, Νέα Ερυθραία 146 71",
    "lat": "38.10232524306243",
    "lng": "23.827672622944732"
  },
  {
    "url": "https://maps.app.goo.gl/DqJ2RQU9EoTQdjWRA?g_st=ipc",
    "name": "Πάρκο Ανδρέα Παπανδρέου",
    "address": "146 71, Αισχύλου 18, Νέα Ερυθραία 146 71",
    "lat": "38.1031196150353",
    "lng": "23.81935226972679"
  },
  {
    "url": "https://maps.app.goo.gl/Jbrq2A31UzDnM1Ro7?g_st=ipc",
    "name": "SPORTS PARK",
    "address": "1 χλμ Σπατών, Πικερμίου, Σπάτα 190 04",
    "lat": "37.97421350979179",
    "lng": "23.929458278036556"
  },
  {
    "url": "https://maps.app.goo.gl/RLSd71ewXvmvT1cB6?g_st=ipc",
    "name": "Άλσος Περιστερίου",
    "address": "Αγίου Βασιλείου 63, Περιστέρι 121 35",
    "lat": "38.01691760996396",
    "lng": "23.68608991560274"
  },
  {
    "url": "https://maps.app.goo.gl/wwQRT4HuTNPHeVR97?g_st=ipc",
    "name": "HADO Περιστέρι",
    "address": "Ταντάλου 10, Περιστέρι 121 35",
    "lat": "38.02563091830247",
    "lng": "23.685245432173534"
  },
  {
    "url": "https://maps.app.goo.gl/66tZd4g5Ha8fLC1g6?g_st=ipc",
    "name": "Αηδονάκια PlayCity",
    "address": "Ξενοδοχοϋπαλλήλων 22, Αχαρνές 136 72",
    "lat": "38.09606577414195",
    "lng": "23.75333886341834"
  },
  {
    "url": "https://maps.app.goo.gl/fZKSbKJMUaonK7vh9?g_st=ipc",
    "name": "Little Land - Kids Play",
    "address": "Λεωφ. Ελ. Βενιζέλου 235, Παλαιό Φάληρο 175 63",
    "lat": "37.930642671894525",
    "lng": "23.710426716839976"
  },
  {
    "url": "https://maps.app.goo.gl/9R2iG5DSfkWfCzH2A?g_st=ipc",
    "name": "Παιδική Χαρά Πλατείας Καραισκάκη",
    "address": "Λευκωσίας 25, Γλυφάδα 165 62",
    "lat": "37.90061761752489",
    "lng": "23.771490329070613"
  },
  {
    "url": "https://maps.app.goo.gl/6jTSzr4LUutvW78x6?g_st=ipc",
    "name": "Νέο Ψηφιακό Πλανητάριο Ιδρύματος Ευγενίδου",
    "address": "387 Syggrou Ave. (entrance 11, Πεντέλης st, Αθήνα 175 64",
    "lat": "37.939924135926155",
    "lng": "23.69664152972377"
  },
  {
    "url": "https://maps.app.goo.gl/MGgTCv28KmDG4VgK8?g_st=ipc",
    "name": "Παραμυθούπολη Ελληνικού Αργυρούπολης",
    "address": "Αλ. Παπαναστασίου, Αργυρούπολη 164 52",
    "lat": "37.90960009979719",
    "lng": "23.737312819815322"
  },
  {
    "url": "https://maps.app.goo.gl/8s92kLGvmU1yA3fe8?g_st=ipc",
    "name": "Πάρκο Σταύρος Νιάρχος",
    "address": "Λεωφ. Ανδρέα Συγγρού 364, Καλλιθέα 176 74",
    "lat": "37.942200854453496",
    "lng": "23.69345667519833"
  },
  {
    "url": "https://maps.app.goo.gl/ekLuaxykkE5KT2Ee6?g_st=ipc",
    "name": "Thorikou, Saronikos 190 10",
    "address": "Λεωφ. Κηφισού, Πέτρου Ράλλη και, Αγ. Ιωάννης Ρέντης 182 33",
    "lat": "37.973400347629344",
    "lng": "23.672836485418895"
  },
  {
    "url": "https://maps.app.goo.gl/kUkHYYpwWmY27cqm9?g_st=ipc",
    "name": "Πρότυπο Οικογενειακό Πάρκο",
    "address": "Δραγατσανίου, Ελληνικό 167 77",
    "lat": "37.904103805227116",
    "lng": "23.74422997348302"
  },
  {
    "url": "https://maps.app.goo.gl/ib2tnNRmM1foX6zd8?g_st=ipc",
    "name": "Κέντρο Πολιτισμού Ίδρυμα Σταύρος Νιάρχος",
    "address": "Λεωφ. Ανδρέα Συγγρού 364, Καλλιθέα 176 74",
    "lat": "37.93985683037055",
    "lng": "23.692122482978903"
  },
  {
    "url": "https://maps.app.goo.gl/MWLNyH93oknhhPcz9?g_st=ipc",
    "name": "Λόφος πολιτισμού",
    "address": "Άλιμος 174 55",
    "lat": "37.91111626951665",
    "lng": "23.722999637224824"
  },
  {
    "url": "https://maps.app.goo.gl/aP4Lewjodvss5zHY9?g_st=ipc",
    "name": "HADO AGIA VARVARA",
    "address": "Λεωφ. Ελ. Βενιζέλου 73, Αγ. Βαρβάρα 123 51",
    "lat": "37.98824441492673",
    "lng": "23.659086481003886"
  },
  {
    "url": "https://maps.app.goo.gl/u7nRPPFnbvtVeLEQ7?g_st=ipc",
    "name": "ΔΕΗ Chocolate & Ice Cream Experience",
    "address": "The Ellinikon Expérience Park, Ελληνικό 167 77",
    "lat": "37.89648025729673",
    "lng": "23.737725296668952"
  },
  {
    "url": "https://maps.app.goo.gl/xsiY1D9U4tz2Gxeu8?g_st=ipc",
    "name": "Πάρκο Φλοίσβος",
    "address": "Πάρκο Φλοίσβου Λεωφόρος Ποσειδονος παλαιο φαληρο, Αθήνα 175 61",
    "lat": "37.928217571282076",
    "lng": "23.687928394626468"
  },
  {
    "url": "https://maps.app.goo.gl/sqeFJaUrDmxw1UqF7?g_st=ipc",
    "name": "The Ellinikon Experience Park",
    "address": "Ελληνικό 167 77",
    "lat": "37.889532923626724",
    "lng": "23.741777435195917"
  },
  {
    "url": "https://maps.app.goo.gl/zpYyze4k5z1xryNd8?g_st=ipc",
    "name": "Strike Kiddo",
    "address": "Λεωφ. Αθηνών 336, Χαϊδάρι 124 62",
    "lat": "38.01119139287315",
    "lng": "23.650703428601517"
  },
  {
    "url": "https://maps.app.goo.gl/6XzwEHQN7jNiKh5K7?g_st=ipc",
    "name": "Farmamoo",
    "address": "Λεωφ. Διονύσου, Νέα Μάκρη 190 05",
    "lat": "38.095267950428",
    "lng": "23.93118868435028"
  },
  {
    "url": "https://maps.app.goo.gl/WsLFbFUaXSS2rGMR6?g_st=ipc",
    "name": "Βοτανικός Κήπος Διομήδους",
    "address": "Ιερά Οδός 403, Χαϊδάρι 124 61",
    "lat": "38.010895961889986",
    "lng": "23.642935426625115"
  },
  {
    "url": "https://maps.app.goo.gl/9xRLBKhZXYMexEQX8?g_st=ipc",
    "name": "ΚΤΗΜΑ ΚΟΚΟΤΟΥ",
    "address": "Κτήμα Γ. Κοκοτού 1, Σταμάτα 145 75",
    "lat": "38.12312970101472",
    "lng": "23.891798090837362"
  },
  {
    "url": "https://maps.app.goo.gl/J7UHi8dDFoMJKKUh7?g_st=ipc",
    "name": "Αθλητικό Πάρκο Πάρνηθας και Μουσείο Παλαιών Επαγγελμάτων",
    "address": "Ρόδων, Άνω Λιόσια 133 43",
    "lat": "38.11083610723094",
    "lng": "23.69169674427175"
  },
  {
    "url": "https://maps.app.goo.gl/dpip4AngfBL8xv2M8?g_st=ipc",
    "name": "Bella Vespa",
    "address": "Κύπρου 11, Γλυφάδα 166 75",
    "lat": "37.86706675735918",
    "lng": "23.747387332761612"
  },
  {
    "url": "https://maps.app.goo.gl/eBpgr4RX9Y42hXEw6?g_st=ipc",
    "name": "Πλατεία Χαρίτων",
    "address": "Σεμέλης 1, Γλυφάδα 166 74",
    "lat": "37.86415490115138",
    "lng": "23.75493366426452"
  },
  {
    "url": "https://maps.app.goo.gl/b5HKTfYuBC6WE3XP7?g_st=ipc",
    "name": "Jumicar",
    "address": "Λεωφ. Μαραθώνος 1, Νέα Μάκρη 190 05",
    "lat": "38.07454902492717",
    "lng": "23.982372514870235"
  },
  {
    "url": "https://maps.app.goo.gl/D43jUtfBGCJtvXoNA?g_st=ipc",
    "name": "Πάρκο Αιξωνής",
    "address": "Δημ. Γούναρη, Γλυφάδα 166 74",
    "lat": "37.85436759031945",
    "lng": "23.767620410773823"
  },
  {
    "url": "https://maps.app.goo.gl/LpauJpU7FAqyQdA8A?g_st=ipc",
    "name": "Margi Farm",
    "address": "Thorikou, Saronikos 190 10",
    "lat": "37.84874963465927",
    "lng": "23.91294630423687"
  },
  {
    "url": "https://maps.app.goo.gl/e2bkfTBofA6k2DW66?g_st=ipc",
    "name": "Λακκαγκίνη Στα Κιούρκα",
    "address": "Αγίας Τριάδος, Αφίδνες 190 14",
    "lat": "38.205377296617634",
    "lng": "23.828785798413897"
  },
  {
    "url": "https://maps.app.goo.gl/FTF7uvik6S36p7TQ9?g_st=ipc",
    "name": "Λίμνη Μπελέτσι",
    "address": "Ιπποκράτειος Πολιτεία 190 14",
    "lat": "38.21272884882845",
    "lng": "23.804742885101245"
  },
  {
    "url": "https://maps.app.goo.gl/x7x4Lu9B5vabrAyJ7?g_st=ipc",
    "name": "Πάρκο ARKOPOLIS",
    "address": "Μαρίας Κιουρί, Ελευσίνα 192 00",
    "lat": "38.04423565223715",
    "lng": "23.533199733095568"
  },
  {
    "url": "https://maps.app.goo.gl/hsmq3SFgWsx53mPW7?g_st=ipc",
    "name": "Ιππικός Όμιλος Κουβαρά",
    "address": "Αγίου Φανουρίου, Κουβαράς 190 03",
    "lat": "37.827589338108154",
    "lng": "23.987545277707177"
  },
  {
    "url": "https://maps.app.goo.gl/uqiE3UGiFvDWS7Da8?g_st=ipc",
    "name": "Adventure Park",
    "address": "Επαρ.Οδ. Μαλακάσας-Μαρκόπουλου, Μαλακάσα 190 11",
    "lat": "38.23252814955923",
    "lng": "23.80993374825537"
  },
  {
    "url": "https://maps.app.goo.gl/g4HUGMwd4cCRvGvE8?g_st=ipc",
    "name": "Μια φορά κι έναν καιρό - the Greeks",
    "address": "Παναγίας Γρηγορούσης, Αυλώνας 190 11",
    "lat": "38.25621870422675",
    "lng": "23.68492152014709"
  },
  {
    "url": "https://maps.app.goo.gl/iMm9xyAzQoQ2dUJU9?g_st=ipc",
    "name": "Anima Club",
    "address": "Υακίνθου Str, Ανάβυσσος 190 13",
    "lat": "37.74050273423326",
    "lng": "23.921750567749367"
  },
  {
    "url": "https://maps.app.goo.gl/eqCZacM2mh9hh5mi8?g_st=ipc",
    "name": "Splash Waterpark Isthmos",
    "address": "Ισθμού, Λουτράκι 203 00",
    "lat": "37.92495583561113",
    "lng": "22.991604427588854"
  },
  {
    "url": "https://maps.app.goo.gl/1hz4bXK4e1zKMcW19?g_st=ipc",
    "name": "Αθλούπολη",
    "address": "Θέση Μπαθαρίστρα, Δήμος Κορινθίων 201 00",
    "lat": "37.92596676764985",
    "lng": "22.950761882031436"
  },
  {
    "url": "https://maps.app.goo.gl/cQ3vrm4TKeMAyCsq6?g_st=ipc",
    "name": "FARMA AMPELOS VOCHAIKOU",
    "address": "ΑΓΡΟΤΙΚΗ ΟΔΟΣ, Βοχαϊκό 200 06",
    "lat": "37.932680344972496",
    "lng": "22.771047365230917"
  },
  {
    "url": "https://maps.app.goo.gl/Jk42DbsK7YsoCuVL6?g_st=ipc",
    "name": "Κεντρο Ελεύθερης Ιππασίας",
    "address": "Epar.Od. Xilokastrou - Trikalon - Mannas, Ξυλόκαστρο 204 00",
    "lat": "38.01371091852879",
    "lng": "22.49660964449245"
  },
  {
    "url": "https://maps.app.goo.gl/BaTm12sUUp1d1c9g8?g_st=ipc",
    "name": "Γήπεδο Ποδοσφαίρου Πάγου",
    "address": "Πάγος 841 00",
    "lat": "37.42646477570567",
    "lng": "24.907668410293343"
  },
  {
    "url": "https://maps.app.goo.gl/o23ir2rREaRUFiwK9?g_st=ipc",
    "name": "Area Synest",
    "address": "Epar.Od. Agorianis-Koronias, Sinevro 250 10",
    "lat": "38.06576851291907",
    "lng": "22.340295581454182"
  },
  {
    "url": "https://maps.app.goo.gl/V3SkPjW9XHfNjwvSA?g_st=ipc",
    "name": "Νύμφες",
    "address": "Ζαρούχλα - Φενεός, Zarouchla 250 06",
    "lat": "37.99541884225497",
    "lng": "22.275355626093795"
  },
  {
    "url": "https://maps.app.goo.gl/Lr7uMbC7sLXRLEP9A?g_st=ipc",
    "name": "CHERRYLAND - ΚΤΗΜΑ ΦΩΚΑΕΩΝ",
    "address": "Epar.Od. Pountas - Kalavriton, Kernitsa 250 03",
    "lat": "38.12752130997816",
    "lng": "22.216601874987493"
  },
  {
    "url": "https://maps.app.goo.gl/FxXNY1FFj7tEZcaq9?g_st=ipc",
    "name": "Vagonetto",
    "address": "51 km National Road Lamia-Amfissa, Amfissa 331 00",
    "lat": "38.63219190812368",
    "lng": "22.37159554223315"
  },
  {
    "url": "https://maps.app.goo.gl/f6rw3vWAJG1aAtPU6?g_st=ipc",
    "name": "Attica Zoological Park",
    "address": "Spata 190 04",
    "lat": "37.98044022083859",
    "lng": "23.910805906852257"
  },
  {
    "url": "https://maps.app.goo.gl/jLUBCzf12Wt3RSRK7?g_st=ipc",
    "name": "Flisvos Playground",
    "address": "Palaio Faliro 175 61",
    "lat": "37.9267608286871",
    "lng": "23.6891198217997"
  },
  {
    "url": "https://maps.app.goo.gl/V4oZWgECkqhJFkK46?g_st=ipc",
    "name": "Voula Park",
    "address": "Nireos, Voula, Athens 166 73",
    "lat": "37.839630282199295",
    "lng": "23.762193155062445"
  },
  {
    "url": "https://maps.app.goo.gl/P1JAubEdVdzV1V5Y8?g_st=ipc",
    "name": "The Pelion Train",
    "address": "South Pelion 370 10",
    "lat": "39.327703252626804",
    "lng": "23.143518252950724"
  },
  {
    "url": "https://maps.app.goo.gl/iHrSULP8wTnmG78AA?g_st=ipc",
    "name": "HADO Volos",
    "address": "Sachtouri 3, Volos 383 34",
    "lat": "39.36503171785606",
    "lng": "22.930285891313282"
  },
  {
    "url": "https://maps.app.goo.gl/kxZ4WVVMgAh5nHj19?g_st=ipc",
    "name": "Aqua Fun",
    "address": "ΣΤΕΛΙΔΑ, Ag. Prokopios 843 00",
    "lat": "37.082347515027855",
    "lng": "25.35405984069226"
  },
  {
    "url": "https://maps.app.goo.gl/LrjoDSvaukPFS7Bc7?g_st=ipc",
    "name": "Saloon Park",
    "address": "3ο χιλ Καρπενησίου Προυσσου, Karpenisi 361 00",
    "lat": "38.90092130813555",
    "lng": "21.772793181199432"
  },
  {
    "url": "https://maps.app.goo.gl/fpNf7FvMpmXwxvRu6?g_st=ipc",
    "name": "Κάστρο των παραμυθιών",
    "address": "Αγριλος 243 00",
    "lat": "37.20812929239709",
    "lng": "21.590483103667832"
  },
  {
    "url": "https://maps.app.goo.gl/Jsmn7XMyr6zE6XDc6?g_st=ipc",
    "name": "Κτήμα Βρύση - Πολυχώρος εκδηλώσεων",
    "address": "Τύρναβος 401 00",
    "lat": "39.776305858514846",
    "lng": "22.305702369995416"
  },
  {
    "url": "https://maps.app.goo.gl/ZQzmktMRGdV4gQEMA?g_st=ipc",
    "name": "Sani Adventure",
    "address": "Sani Resort, Sani 630 77",
    "lat": "40.10317902398793",
    "lng": "23.309203578886024"
  },
  {
    "url": "https://maps.app.goo.gl/QGXbvqJ5SBN9ww289?g_st=ipc",
    "name": "Grecotel La Riviera at Riviera Olympia & Aqua Park",
    "address": "Λουτρά Κυλλήνης 270 50",
    "lat": "37.85820173121935",
    "lng": "21.11005718262559"
  },
  {
    "url": "https://maps.app.goo.gl/pwB8sxfXU5yLbEHY9?g_st=ipc",
    "name": "Saint George Athletic Park",
    "address": "Trikala 421 00",
    "lat": "39.54375380003077",
    "lng": "21.786690732349854"
  },
  {
    "url": "https://maps.app.goo.gl/39GhkgeydgX7Y7Z5A?g_st=ipc",
    "name": "Κεραμαριό Παραδοσιακή Ταβέρνα και Ξενώνες",
    "address": "Συνοικισμός Κεραμαριό, Δρακότρυπα, Mouzaki 430 60",
    "lat": "39.40971777314896",
    "lng": "21.605805073179642"
  },
  {
    "url": "https://maps.app.goo.gl/HiNCRKX6yM5iQQuv6?g_st=ipc",
    "name": "The Mill of the Elves",
    "address": "Πάρκο Ματσόπουλου, Trikala 421 00",
    "lat": "39.5462653378013",
    "lng": "21.758814753478795"
  },
  {
    "url": "https://maps.app.goo.gl/7eqHoia3eNX5CcHv7?g_st=ipc",
    "name": "Tsoupra",
    "address": "ΤΘ293, Ag. Paraskevi 570 01",
    "lat": "40.48659769840057",
    "lng": "23.041299188559442"
  },
  {
    "url": "https://maps.app.goo.gl/99k4EGKtgjYSqeE99?g_st=ipc",
    "name": "Anemodoúra",
    "address": "8η Οδός, Tagarades 570 01",
    "lat": "40.50002708370587",
    "lng": "23.026843516964323"
  },
  {
    "url": "https://maps.app.goo.gl/NR3PEtkiCnf5Fkg89?g_st=ipc",
    "name": "Waterland",
    "address": "5i Odos, Tagarades 570 01",
    "lat": "40.510653052442045",
    "lng": "23.017626650911268"
  },
  {
    "url": "https://maps.app.goo.gl/aNsGddhwQVLYuHvq9?g_st=ipc",
    "name": "Platanórama",
    "address": "8χλμ. Γερακαρου-Ζαγκλιβερι, Zagkliveri 570 12",
    "lat": "40.58774137724462",
    "lng": "23.252726275052023"
  },
  {
    "url": "https://maps.app.goo.gl/WB5r5nzJStMwqtSV8?g_st=ipc",
    "name": "Thermi Dam",
    "address": "Γεφυρα Φράγματος Θέρμης, Thermi 570 01",
    "lat": "40.55889714492611",
    "lng": "23.035634918395665"
  },
  {
    "url": "https://maps.app.goo.gl/Uz7ZprsZow6RFsYs7?g_st=ipc",
    "name": "Les Raquettes Tennis Club",
    "address": "Σοφοκλέους, Thermi 570 01",
    "lat": "40.55611851243244",
    "lng": "23.00759531084474"
  },
  {
    "url": "https://maps.app.goo.gl/b73PDCUhFyJQjo748?g_st=ipc",
    "name": "Magic Park",
    "address": "Agias Anastasias 15, Thessaloniki 555 35",
    "lat": "40.554442078448254",
    "lng": "22.989769059470625"
  },
  {
    "url": "https://maps.app.goo.gl/r83VD4fLTaPtYU7R6?g_st=ipc",
    "name": "NOESIS Science Center & Technology Museum",
    "address": "Θεσσαλονίκης 6 χλμ, Thermi 570 01",
    "lat": "40.562055011158115",
    "lng": "22.995596178260882"
  },
  {
    "url": "https://maps.app.goo.gl/5okZMJqh76rUBbgm9?g_st=ipc",
    "name": "ERGON Agora (East)",
    "address": "Leof. Georgikis Scholis 50, Pilea Chortiatis 555 35",
    "lat": "40.55876788324677",
    "lng": "22.976948972214135"
  },
  {
    "url": "https://maps.app.goo.gl/6g3bBu8datKxsCYq7?g_st=ipc",
    "name": "Platanakia Natura",
    "address": "St Paraskevopoulou, Panorama 552 36",
    "lat": "40.59354583506236",
    "lng": "23.05309273408505"
  },
  {
    "url": "https://maps.app.goo.gl/KdBGSDP4JgtkbeQQ7?g_st=ipc",
    "name": "Happy Play",
    "address": "Ioanninon Rd 9-11, Pilea 555 35",
    "lat": "40.58463538696909",
    "lng": "22.98516339267734"
  },
  {
    "url": "https://maps.app.goo.gl/NStAQS6bJYjXPSMi8?g_st=ipc",
    "name": "Trees Trees",
    "address": "Ανατολής, Elaionon και, Pilea 555 35",
    "lat": "40.60274841786202",
    "lng": "23.00941473830645"
  },
  {
    "url": "https://maps.app.goo.gl/Y3M4X3SLfpUBctf88?g_st=ipc",
    "name": "HADO ARENA TOUMPA",
    "address": "Kleanthous 25, Thessaloniki 544 53",
    "lat": "40.61298475023653",
    "lng": "22.966163361832432"
  },
  {
    "url": "https://maps.app.goo.gl/jBCqSTmypZMRabtf7?g_st=ipc",
    "name": "Lake Kournas",
    "address": "Georgioupoli 730 07",
    "lat": "35.33085393719484",
    "lng": "24.275768556511693"
  },
  {
    "url": "https://maps.app.goo.gl/bgFXGA2JPNnDk4Nh8?g_st=ipc",
    "name": "Biotopoi of Crete Nature Park",
    "address": "Kalaitzakis Kastelakia, Rethymno 741 33",
    "lat": "35.36002627927518",
    "lng": "24.496326916546945"
  },
  {
    "url": "https://maps.app.goo.gl/acAH5pkUBqCJVJGj6?g_st=ipc",
    "name": "Calcetto",
    "address": "Ιωάννου Καλαϊτζάκη, Rethymno 741 00",
    "lat": "35.35988785622983",
    "lng": "24.496442751230653"
  },
  {
    "url": "https://maps.app.goo.gl/P3RfiqzgWLJwu2HN6?g_st=ipc",
    "name": "Family Sports Club",
    "address": "Tositsa 18, Thessaloniki 570 10",
    "lat": "40.655661119206584",
    "lng": "22.9951268038431"
  },
  {
    "url": "https://maps.app.goo.gl/zejLUTjQA5bbDHBb6?g_st=ipc",
    "name": "Ιχνηλάτης Ονείρων - Κτήμα Κλημεντινη",
    "address": "EO Thessalonikis Kavalas, Volvi 572 00",
    "lat": "40.67362926471837",
    "lng": "23.088737171472587"
  },
  {
    "url": "https://maps.app.goo.gl/4acWduunHuC2yzqCA?g_st=ipc",
    "name": "Κτήμα Χαϊδευτός",
    "address": "Kavallari 572 00",
    "lat": "40.70742578041207",
    "lng": "23.04278762334095"
  },
  {
    "url": "https://maps.app.goo.gl/y5U3WvSQGqnkW6KY7?g_st=ipc",
    "name": "R'MOTE",
    "address": "Palaiokomis 22, Evosmos 562 24",
    "lat": "40.68581196268978",
    "lng": "22.922356233082034"
  },
  {
    "url": "https://maps.app.goo.gl/jZyLiRLATZktk5dG7?g_st=ipc",
    "name": "ΠΑΡΚΟ ΔΕΙΝΟΣΑΥΡΩΝ",
    "address": "Thessaloniki 7ο χλμ, Oreokastro 570 13",
    "lat": "40.701527729460004",
    "lng": "22.939792993737786"
  },
  {
    "url": "https://maps.app.goo.gl/GummsjTvyttusdP46?g_st=ipc",
    "name": "Freedom Interactive Playzone",
    "address": "Μακεδονικού Αγώνα, Zappa &, Oreokastro 570 13",
    "lat": "40.70867369830318",
    "lng": "22.911054983573504"
  },
  {
    "url": "https://maps.app.goo.gl/KgPCpfULKMp7KhMJ7?g_st=ipc",
    "name": "Bowling City Club",
    "address": "Bowling City Club, Veria 591 32",
    "lat": "40.49775337927069",
    "lng": "22.17239983558456"
  },
  {
    "url": "https://maps.app.goo.gl/SFFV3HjpyPgVaZLc9?g_st=ipc",
    "name": "PLAY HALL",
    "address": "Leof. Geor. Gennimata, Ioannina 452 21",
    "lat": "39.65033321631473",
    "lng": "20.865657018209728"
  },
  {
    "url": "https://maps.app.goo.gl/4Hf2kigPt77kQGn87?g_st=ipc",
    "name": "CRETAquarium Thalassokosmos",
    "address": "Heraklion 710 03",
    "lat": "35.332361553594524",
    "lng": "25.282456113974675"
  },
  {
    "url": "https://maps.app.goo.gl/UUXRrELKzb2aEokB8?g_st=ipc",
    "name": "Sport Point",
    "address": "Καστρινογιαννάκη 1 και, Dervenakion, Iraklio 714 09",
    "lat": "35.329005872034685",
    "lng": "25.15446679791221"
  },
  {
    "url": "https://maps.app.goo.gl/Bv4uWJJC4Gk8ssCE8?g_st=ipc",
    "name": "Dinosaur Park",
    "address": "DEKK, Gournes 715 00",
    "lat": "35.32673458782771",
    "lng": "25.287539183910724"
  },
  {
    "url": "https://maps.app.goo.gl/VVxJNmLN85fw55Gd7?g_st=ipc",
    "name": "Gouves Water Park Water Slides",
    "address": "88J2+J7, Kato Gouves 700 14",
    "lat": "35.330529620260506",
    "lng": "25.30109647574127"
  },
  {
    "url": "https://maps.app.goo.gl/hzfaUBDJZ9VG57An9?g_st=ipc",
    "name": "Labyrinth Park",
    "address": "Hersonissos 700 14",
    "lat": "35.2948469322292",
    "lng": "25.35746794187921"
  },
  {
    "url": "https://maps.app.goo.gl/68ZgyahuDevJAYMF7?g_st=ipc",
    "name": "Agioi Anargyroi Valley",
    "address": "Exochon 2, Serres 621 22",
    "lat": "41.10410121996559",
    "lng": "23.55204878636089"
  },
  {
    "url": "https://maps.app.goo.gl/hQZWfg9QfnFeMyBTA?g_st=ipc",
    "name": "Ονειρούπολη Δράμας",
    "address": "Drama 661 00",
    "lat": "41.147983932052774",
    "lng": "24.146200919467475"
  },
  {
    "url": "https://maps.app.goo.gl/JMXqaxKVD3CmU7Ft8?g_st=ipc",
    "name": "Rafting No Limits GR",
    "address": "BOURAZANI Konitsa, BOURAZANi KONITSA 441 00",
    "lat": "40.057225940419336",
    "lng": "20.627015564275286"
  },
  {
    "url": "https://maps.app.goo.gl/HMY8KCD3WrpUh6xp6?g_st=ipc",
    "name": "Kerkini Lake National Park",
    "address": "Κερκίνη, 620 55",
    "lat": "41.25926151784883",
    "lng": "23.14040332719198"
  },
  {
    "url": "https://maps.app.goo.gl/NQ1AwXiEg5oZQg359?g_st=ipc",
    "name": "Aqualand",
    "address": "Agios Ioannis 491 00",
    "lat": "39.61697908099727",
    "lng": "19.837429719404867"
  },
  {
    "url": "https://maps.app.goo.gl/VV66xLTvU3w6LKzy9?g_st=ipc",
    "name": "Butterflies Valley",
    "address": "Επάνω Καλαμωνας 851 06",
    "lat": "36.33937370008562",
    "lng": "28.059689128523214"
  },
  {
    "url": "https://maps.app.goo.gl/6wgTeh9tgUC2bD1a8?g_st=ipc",
    "name": "WaterPark",
    "address": "Athanaton, Rodos 851 05",
    "lat": "36.36437213652793",
    "lng": "28.212294371159473"
  },
  {
    "url": "https://maps.app.goo.gl/f3b5sDipJZCcLSLC7?g_st=ipc",
    "name": "RΙVER WEST",
    "address": "Par. Leoforou Kifisou 98, Egaleo 122 41",
    "lat": "37.98032396745312",
    "lng": "23.679187542082428"
  },
  {
    "url": "https://maps.app.goo.gl/hyNCGfBFcBtGJn7q9?g_st=ipc",
    "name": "Mediterranean Cosmos",
    "address": "11ο χλμ εθνικής οδού, A/D Thessalonikis Neon Moudanion, Thessaloniki 570 01",
    "lat": "40.555729354394046",
    "lng": "22.993377329551482"
  },
  {
    "url": "https://maps.app.goo.gl/yMHqMAgG61irWESX9?g_st=ipc",
    "name": "Odysseas Fokas Park",
    "address": "Επιθεωρητού Δημητρίου Μισυρλή 26, Thessaloniki 542 50",
    "lat": "40.612796604966135",
    "lng": "22.95168040124591"
  },
  {
    "url": "https://maps.app.goo.gl/cAbkipq3qupUHj1v7?g_st=ipc",
    "name": "Garden of Roses Playground",
    "address": "Leof. Meg. Alexandrou 14, Thessaloniki 546 43",
    "lat": "40.60699253708574",
    "lng": "22.950719648023778"
  },
  {
    "url": "https://maps.app.goo.gl/fhjCwYn9Hozz3TG16?g_st=ipc",
    "name": "Olympus Forest Park",
    "address": "Pyrgetos 414 47",
    "lat": "39.936757899181885",
    "lng": "22.59765175900559"
  },
  {
    "url": "https://maps.app.goo.gl/yZyZ8YKUDg7Ac4pY7?g_st=ipc",
    "name": "Καψάλας tennis club",
    "address": "Θέση Επτάρια, Nea Michaniona 570 04",
    "lat": "40.49945923504331",
    "lng": "22.848750088608462"
  },
  {
    "url": "https://maps.app.goo.gl/zXVMtXNDFGQx4jhn7?g_st=ipc",
    "name": "Planet Physics",
    "address": "Located in: Olympic Indoor Hall Nikos Galis, Leof. Olimpionikou Spirou Loui, Marousi 151 23",
    "lat": "38.03717219186782",
    "lng": "23.78478282955737"
  },
  {
    "url": "https://maps.app.goo.gl/RnpfKj2r4pesLq5V8?g_st=ipc",
    "name": "Περιβαλλοντικό Πάρκο Θέρμης",
    "address": "Περιβαλλοντικό Πάρκο, Thermi 570 01",
    "lat": "40.56073866312424",
    "lng": "23.034167329764607"
  },
  {
    "url": "https://maps.app.goo.gl/12YHRaQcoWEy1dcC6?g_st=ipc",
    "name": "Περιβαλλοντικό Πάρκο Δερβενίου",
    "address": "Mygdonia 545 00",
    "lat": "40.7144477049586",
    "lng": "22.966013369993284"
  },
  {
    "url": "https://maps.app.goo.gl/fKdiSDKLKGdGC5V28?g_st=ipc",
    "name": "TAVERN 'MOUSTAKAS'",
    "address": "Βασιλικά Θεσσαλονίκης, Θεσσαλονίκη 570 06",
    "lat": "40.48840354435027",
    "lng": "23.133350169062904"
  },
  {
    "url": "https://maps.app.goo.gl/GLfxf6LcGPn5DhUJA?g_st=ipc",
    "name": "Πάρκο Τζένη Καρέζη",
    "address": "Polichni 565 32",
    "lat": "40.65858356268694",
    "lng": "22.948886429553223"
  },
  {
    "url": "https://maps.app.goo.gl/BJcVtK4p1mr7qG5B7?g_st=ipc",
    "name": "Love Sports Club",
    "address": "Unnamed Road, Pilea Chortiatis 555 35",
    "lat": "40.576783631024576",
    "lng": "22.994808120184832"
  },
  {
    "url": "https://maps.app.goo.gl/gx1m825JjfkqNKfC6?g_st=ipc",
    "name": "Paradise Park",
    "address": "Ε.Ο. Κόμβος, Metamorfoseos 100, Acharnes 136 71",
    "lat": "38.07150243306409",
    "lng": "23.752975610444484"
  },
  {
    "url": "https://maps.app.goo.gl/8bk7HjJdaK7izqGE6?g_st=ipc",
    "name": "The Park of Mushrooms",
    "address": "Taliadouri 77, Grevena 511 00",
    "lat": "40.085707982229366",
    "lng": "21.437328929556166"
  },
  {
    "url": "https://maps.app.goo.gl/7i1TWYeF8ZyU3Vq47?g_st=ipc",
    "name": "Luna Park Aidonakia S.A.",
    "address": "Leof. Dimokratias, Agii Anargiri 131 22",
    "lat": "38.04298329114164",
    "lng": "23.72412165922102"
  },
  {
    "url": "https://maps.app.goo.gl/RuwhJYNYLe2JU3NZA?g_st=ipc",
    "name": "Πάρκο Ελαφιών Αγίου Παντελεήμονος,Άγιος Δημήτριος Κοζάνης",
    "address": "Agios Dimitrios 501 50",
    "lat": "40.43077407157342",
    "lng": "21.94672871822924"
  },
  {
    "url": "https://maps.app.goo.gl/r2tEVGwv5yEFHniq9?g_st=ipc",
    "name": "Waterfall St. Barbara",
    "address": "Epar.Od. Paranestiou-Sidironerou, Paranesti 660 35",
    "lat": "41.34373735977138",
    "lng": "24.590726669205488"
  },
  {
    "url": "https://maps.app.goo.gl/jGXWJC6i6KeqGJ128?g_st=ipc",
    "name": "Waterfalls of Edessa",
    "address": "Tsimiski 2, Edessa 582 00",
    "lat": "40.80389706859676",
    "lng": "22.056027729555048"
  },
  {
    "url": "https://maps.app.goo.gl/38dNg4YHr7NMSpqy8?g_st=ipc",
    "name": "Παραμυθοχώρα powered by Unboxholics",
    "address": "Pozar Baths 584 00",
    "lat": "40.96985491269367",
    "lng": "21.914553567562834"
  }
]
