{"pageProps":{"entity":{"id":"vegetarianRestaurants_7a1d3cdc2f0d","slug":"join-juice-bars-7a1d","kind":"restaurant","name":"JOIN juice bars","lat":40.55503362763898,"lng":22.99252543932156,"url":"https://maps.app.goo.gl/WHH71Tq64um8wrhG6?g_st=ipc","address":"11ο χλμ εθνικής οδού, A/D Thessalonikis Neon Moudanion, Thessaloniki 570 01","categoryIds":["vegetarian"],"categories":["Vegetarian Friendly Restaurants"]},"sameCategory":[{"id":"vegetarianRestaurants_02c8bc386448","slug":"falafeleria-02c8","kind":"restaurant","name":"Falafeleria","lat":40.5988199696969,"lng":22.95250846403434,"url":"https://maps.app.goo.gl/snuFukejKVaEqQ597?g_st=ipc","address":"25is Martiou 14, Thessaloniki 546 46","categoryIds":["vegetarian"],"categories":["Vegetarian Friendly Restaurants"]},{"id":"vegetarianRestaurants_124c931734e1","slug":"join-juice-bars-124c","kind":"restaurant","name":"JOIN juice bars","lat":40.60107621263692,"lng":22.9498057867803,"url":"https://maps.app.goo.gl/ZhpdC4uUpyfMLEVM6?g_st=ipc","address":"Marias Kallas 1, Thessaloniki 546 45","categoryIds":["vegetarian"],"categories":["Vegetarian Friendly Restaurants"]},{"id":"vegetarianRestaurants_afbddf6d4612","slug":"falaifel-afbd","kind":"restaurant","name":"Falaifel","lat":40.605220221287475,"lng":22.958853196988702,"url":"https://maps.app.goo.gl/GhD8UrgWEeP9DmB59?g_st=ipc","address":"Geor. Drosini 12, Thessaloniki 546 44","categoryIds":["vegetarian"],"categories":["Vegetarian Friendly Restaurants"]},{"id":"vegetarianRestaurants_37b68f83011f","slug":"butterflies-and-hurricanes-37b6","kind":"restaurant","name":"Butterflies And Hurricanes","lat":40.61464637786299,"lng":22.960841806951244,"url":"https://maps.app.goo.gl/GzsQL6NzLmnniqyE6?g_st=ipc","address":"Pindarou 1, Thessaloniki 546 39","categoryIds":["vegetarian"],"categories":["Vegetarian Friendly Restaurants"]},{"id":"vegetarianRestaurants_40634af2ec79","slug":"falafel-taste-middle-east-4063","kind":"restaurant","name":"Falafel Taste Middle East","lat":40.62785484140031,"lng":22.949330420414434,"url":"https://maps.app.goo.gl/bHy6BTfdp9RBhdBt6?g_st=ipc","address":"Mitropoleos 106 &, Romanou, Thessaloniki 546 21","categoryIds":["vegetarian"],"categories":["Vegetarian Friendly Restaurants"]},{"id":"vegetarianRestaurants_c6f3e8f66558","slug":"join-juice-bars-c6f3","kind":"restaurant","name":"JOIN juice bars","lat":40.62769116289148,"lng":22.94711801674614,"url":"https://maps.app.goo.gl/nimzQmKjxrKbiFuKA?g_st=ipc","address":"Leof. Nikis 73, Thessaloniki 546 22","categoryIds":["vegetarian"],"categories":["Vegetarian Friendly Restaurants"]},{"id":"vegetarianRestaurants_b82222e81ca2","slug":"merry-berry-health-bar-b822","kind":"restaurant","name":"Merry Berry Health Bar","lat":40.62787788837935,"lng":22.947534537868144,"url":"https://maps.app.goo.gl/9NhW77pMY2C6xJxq8?g_st=ipc","address":"Dim. Gounari 5, Thessaloniki 546 22","categoryIds":["vegetarian"],"categories":["Vegetarian Friendly Restaurants"]},{"id":"vegetarianRestaurants_43af59721fc8","slug":"omg-in-skg-43af","kind":"restaurant","name":"OMG in SKG","lat":40.63186182844344,"lng":22.953097770969947,"url":"https://maps.app.goo.gl/b6twRtPbJbTuXUe26?g_st=ipc","address":"Episkopou Kitrous Nikolaou 1, Thessaloniki 546 35","categoryIds":["vegetarian"],"categories":["Vegetarian Friendly Restaurants"]}],"nearby":[{"id":"coffeeBrunchRestaurants_cae5ad9a4492","slug":"join-juice-bars-cae5","kind":"restaurant","name":"JOIN juice bars","lat":40.555069982077164,"lng":22.99254169325442,"url":"https://maps.app.goo.gl/VvKcZzDAukezDVie8?g_st=ipc","address":"11ο χλμ εθνικής οδού, A/D Thessalonikis Neon Moudanion, Thessaloniki 570 01","categoryIds":["coffee-brunch"],"categories":["Coffee & Brunch Spots"],"distanceKm":0.004269297059274226},{"id":"burgersRestaurants_fce90a3ad073","slug":"pax-burgers-fce9","kind":"restaurant","name":"Pax Burgers","lat":40.554974978986735,"lng":22.992839835594616,"url":"https://maps.app.goo.gl/TuduB4i2geBy2cb58?g_st=ipc","address":"ΘΕΣΣΑΛΟΝΙΚΗΣ-ΜΟΥΔΑΝΙΩΝ, Thermi 570 01","categoryIds":["burgers"],"categories":["Burger Spots"],"distanceKm":0.02735029460825667},{"id":"burgersRestaurants_bb792caf2487","slug":"pax-burgers-bb79","kind":"restaurant","name":"Pax Burgers","lat":40.55495597120905,"lng":22.992844598481618,"url":"https://maps.app.goo.gl/TuduB4i2geBy2cb58?g_st=ipc","address":"ΘΕΣΣΑΛΟΝΙΚΗΣ-ΜΟΥΔΑΝΙΩΝ, Thermi 570 01","categoryIds":["burgers"],"categories":["Burger Spots"],"distanceKm":0.02831273324842353},{"id":"cheapEatsRestaurants_5fc75ada9dd1","slug":"hot-pot-pasteria-5fc7","kind":"restaurant","name":"Hot Pot Pasteria","lat":40.555245602641975,"lng":22.992913714606928,"url":"https://maps.app.goo.gl/ZucBkKNWduhhUbyv9?g_st=ipc","address":"Mediterranean Cosmos, Thessaloniki","categoryIds":["cheap-eats"],"categories":["Gyros & Cheap Eats"],"distanceKm":0.04039312099354283},{"id":"greekRestaurants_e2775941e27f","slug":"lemargko-lemargo-e277","kind":"restaurant","name":"ΛΕΜΑΡΓΚΟ - LEMARGO","lat":40.55568833913434,"lng":22.99200579097481,"url":"https://maps.app.goo.gl/WVMwFqWKDdGPyWjd6?g_st=ipc","address":"11οχλμ. οδού, Thessaloniki, ΘΕΣΣΑΛΟΝΙΚΗΣ-ΜΟΥΔΑΝΙΩΝ, Θέρμη 570 01","categoryIds":["greek-restaurants"],"categories":["Greek Restaurants"],"distanceKm":0.0850134443531142},{"id":"familyFriendly_27bf58d1aae3","slug":"mediterranean-cosmos-27bf","kind":"restaurant","name":"Mediterranean Cosmos","lat":40.555729354394046,"lng":22.993377329551482,"url":"https://maps.app.goo.gl/hyNCGfBFcBtGJn7q9?g_st=ipc","address":"11ο χλμ εθνικής οδού, A/D Thessalonikis Neon Moudanion, Thessaloniki 570 01","categoryIds":["family-friendly"],"categories":["Kid Friendly Locations"],"distanceKm":0.1056623804999699},{"id":"dessertsRestaurants_f4e918b1bdf0","slug":"cinnabon-f4e9","kind":"restaurant","name":"Cinnabon","lat":40.55623010232396,"lng":22.993413011236047,"url":"https://maps.app.goo.gl/NCWBKtbPRQENGDWW7?g_st=ipc","address":"11ο Χμ, A/D Thessalonikis Neon Moudanion, 570 01","categoryIds":["desserts"],"categories":["Dessert Shops"],"distanceKm":0.15271829956940117},{"id":"dessertsRestaurants_8fbacc0c06a7","slug":"terkenlis-8fba","kind":"restaurant","name":"Terkenlis","lat":40.55633315795377,"lng":22.993299667914595,"url":"https://maps.app.goo.gl/jz8nuACpM2Fnauw9A?g_st=ipc","address":"11ο χλμ, ΘΕΣΣΑΛΟΝΙΚΗΣ-ΜΟΥΔΑΝΙΩΝ, 555 35","categoryIds":["desserts"],"categories":["Dessert Shops"],"distanceKm":0.1586157439955471}],"sameRegion":[],"mentionedGuides":[]},"__N_SSG":true}