{"pageProps":{"entity":{"id":"mexicanRestaurants_d1ef1807c1f0","slug":"taco-loco-athens-d1ef","kind":"restaurant","name":"Taco Loco Athens","lat":37.9776204281013,"lng":23.730210870551065,"url":"https://maps.app.goo.gl/6pEPXa7waRhazPjR9?g_st=ipc","address":"Κολοκοτρώνη 39, Αθήνα 105 62","categoryIds":["mexican"],"categories":["Mexican Restaurants"]},"sameCategory":[{"id":"mexicanRestaurants_12ba982b5dec","slug":"ancho-mexican-grill-12ba","kind":"restaurant","name":"Ancho Mexican Grill","lat":37.97715705569823,"lng":23.72766354204186,"url":"https://maps.app.goo.gl/iYXrRpCvSYJUhEHx8?g_st=ipc","address":"Αιόλου 25, Αθήνα 105 51","categoryIds":["mexican"],"categories":["Mexican Restaurants"]},{"id":"mexicanRestaurants_855638776a76","slug":"tekila-8556","kind":"restaurant","name":"Tekila","lat":37.97697304778162,"lng":23.733460625726625,"url":"https://maps.app.goo.gl/CAhgNENSirDV1fWq7?g_st=ipc","address":"Κολοκοτρώνη 3, Αθήνα 105 62","categoryIds":["mexican"],"categories":["Mexican Restaurants"]},{"id":"mexicanRestaurants_33052426e7a2","slug":"mamacita-taqueria-y-cocteleria-3305","kind":"restaurant","name":"Mamacita - Taquería y Coctelería","lat":37.97469687554734,"lng":23.731910676858394,"url":"https://maps.app.goo.gl/KcBA2GUcjk1cY9FJ8?g_st=ipc","address":"Απόλλωνος 9Β, Αθήνα 105 57","categoryIds":["mexican"],"categories":["Mexican Restaurants"]},{"id":"mexicanRestaurants_68ac307861c4","slug":"morenita-all-day-bar-restaurant-68ac","kind":"restaurant","name":"Morenita All Day Bar Restaurant","lat":37.978327591113846,"lng":23.724081018892964,"url":"https://maps.app.goo.gl/HF699YbZfp4NJUYi7?g_st=ipc","address":"Τάκη 13, Αθήνα 105 54","categoryIds":["mexican"],"categories":["Mexican Restaurants"]},{"id":"mexicanRestaurants_78038d8f26a9","slug":"dos-gardenias-7803","kind":"restaurant","name":"Dos Gardenias","lat":37.977603557604816,"lng":23.722737599299293,"url":"https://maps.app.goo.gl/Gi4zf9TfzCfLeQPL6?g_st=ipc","address":"Ήβης 21 &, Ναυάρχου Αποστόλη 17, Αθήνα 105 54","categoryIds":["mexican"],"categories":["Mexican Restaurants"]},{"id":"mexicanRestaurants_5d5b665dab34","slug":"poncho-tacos-5d5b","kind":"restaurant","name":"Poncho TACOS","lat":37.986865601219684,"lng":23.73564152842256,"url":"https://maps.app.goo.gl/UDV48UEWHbvnBPVPA?g_st=ipc","address":"Θεμιστοκλέους 63, Αθήνα 106 83","categoryIds":["mexican"],"categories":["Mexican Restaurants"]},{"id":"mexicanRestaurants_624c5c1ab8d8","slug":"mentirosa-tacos-cocktails-624c","kind":"restaurant","name":"Mentirosa - Tacos & Cocktails","lat":37.982550988441936,"lng":23.717503924756294,"url":"https://maps.app.goo.gl/1xXknD2jtrEpodcR7?g_st=ipc","address":"Θερμοπυλών 41, Αθήνα 104 35","categoryIds":["mexican"],"categories":["Mexican Restaurants"]},{"id":"mexicanRestaurants_fbd3ffd2a2f7","slug":"senor-picante-fbd3","kind":"restaurant","name":"Señor Picante","lat":37.965314110245735,"lng":23.72647699463702,"url":"https://maps.app.goo.gl/ubhB9thYzcYwcr5P6?g_st=ipc","address":"Φαλήρου 40, Αθήνα 117 42","categoryIds":["mexican"],"categories":["Mexican Restaurants"]}],"nearby":[{"id":"cheapEatsRestaurants_ab5cb5a64cdf","slug":"street-souvlaki-ab5c","kind":"restaurant","name":"Street Souvlaki","lat":37.97767884115099,"lng":23.73029552357521,"url":"https://maps.app.goo.gl/o9F3U32hpw226uAK9?g_st=ipc","address":"Κολοκοτρώνη 30, Αθήνα 105 62","categoryIds":["cheap-eats"],"categories":["Gyros & Cheap Eats"],"distanceKm":0.009861106998376269},{"id":"cheapEatsRestaurants_05c7dd51e3bb","slug":"curry-express-indian-food-05c7","kind":"restaurant","name":"Curry Express Indian Food","lat":37.9776157519804,"lng":23.73032710822111,"url":"https://maps.app.goo.gl/J66TMj5XKXHHYhD97?g_st=ipc","address":"Κολοκοτρώνη 37, Αθήνα 105 62","categoryIds":["cheap-eats"],"categories":["Gyros & Cheap Eats"],"distanceKm":0.010201437240444285},{"id":"coffeeBrunchRestaurants_268ab51f91a8","slug":"smak-zymeria-268a","kind":"restaurant","name":"Smak Ζυμερία","lat":37.97751180003605,"lng":23.730066447556442,"url":"https://maps.app.goo.gl/dAYcRqw7bHXmUKJz6?g_st=ipc","address":"Ρόμβης 21, Αθήνα 105 60","categoryIds":["coffee-brunch"],"categories":["Coffee & Brunch Spots"],"distanceKm":0.017496861560106686},{"id":"asianRestaurants_427d94265987","slug":"shisan-sushi-bar-427d","kind":"restaurant","name":"Shisan Sushi Bar","lat":37.977337086650145,"lng":23.730266018891072,"url":"https://maps.app.goo.gl/nPpYrXs7ZyBAs7gx9?g_st=ipc","address":"Ρόμβης 24Α, Αθήνα 105 62","categoryIds":["asian"],"categories":["Asian Restaurants"],"distanceKm":0.03187477598867731},{"id":"vegetarianRestaurants_66f29ff77bdf","slug":"inloveagain-specialty-coffee-66f2","kind":"restaurant","name":"InLoveAgain. Specialty coffee","lat":37.97733209854113,"lng":23.72987682666704,"url":"https://maps.app.goo.gl/GuskwaqjTh2E9fc66?g_st=ipc","address":"Κλειτίου 3, Αθήνα 105 60","categoryIds":["vegetarian"],"categories":["Vegetarian Friendly Restaurants"],"distanceKm":0.043418254064691894},{"id":"italianRestaurants_9735f36161b6","slug":"pracsitele-9735","kind":"restaurant","name":"Pracsitele","lat":37.978075255049035,"lng":23.730655699973674,"url":"https://maps.app.goo.gl/uY33YuN8n7TKUXd86?g_st=ipc","address":"Πραξιτέλους 7, Αθήνα 105 62","categoryIds":["italian"],"categories":["Italian Restaurants"],"distanceKm":0.06385855179770007},{"id":"burgersRestaurants_f300f2c4a7ef","slug":"starlight-burgers-f300","kind":"restaurant","name":"Starlight Burgers","lat":37.97768708628673,"lng":23.730973383072776,"url":"https://maps.app.goo.gl/tRpSe3harTyJVBVg7?g_st=ipc","address":"Πραξιτέλους 1, Αθήνα 105 62","categoryIds":["burgers"],"categories":["Burger Spots"],"distanceKm":0.06724358668516611},{"id":"dessertsRestaurants_1924a0d216d5","slug":"sol-bake-and-coffee-project-athens-1924","kind":"restaurant","name":"Sol Bake and Coffee Project - Athens","lat":37.978160024245575,"lng":23.730562902712155,"url":"https://maps.app.goo.gl/b6SrDJp3RTtqrXM58?g_st=ic","address":"Πραξιτέλους 11, Chavriou 9, Athina 105 62","categoryIds":["desserts"],"categories":["Dessert Shops"],"distanceKm":0.06746921128147663}],"sameRegion":[],"mentionedGuides":[{"slug":"tap-water-safe-greece-el","title":"Είναι Ασφαλές να Πίνετε Νερό Βρύσης στην Ελλάδα;"},{"slug":"tap-water-safe-greece","title":"Is Tap Water Safe to Drink in Greece?"},{"slug":"traveling-to-greece-on-a-budget-el","title":"Ταξιδι στην Ελλαδα με μικρο budget"},{"slug":"traveling-to-greece-on-a-budget","title":"Traveling to Greece on a Budget"}]},"__N_SSG":true}