{"pageProps":{"entity":{"id":"vegetarianRestaurants_9509b84d5e8c","slug":"v-for-vita-9509","kind":"restaurant","name":"V For Vita","lat":40.240211315315356,"lng":23.28368813091845,"url":"https://maps.app.goo.gl/5vCV3e8KbGqG5dav5?g_st=ipc","address":"Eligmon 3, Nea Moudania 632 00","categoryIds":["vegetarian"],"categories":["Vegetarian Friendly Restaurants"]},"sameCategory":[{"id":"vegetarianRestaurants_7a1d3cdc2f0d","slug":"join-juice-bars-7a1d","kind":"restaurant","name":"JOIN juice bars","lat":40.55503362763898,"lng":22.99252543932156,"url":"https://maps.app.goo.gl/WHH71Tq64um8wrhG6?g_st=ipc","address":"11ο χλμ εθνικής οδού, A/D Thessalonikis Neon Moudanion, Thessaloniki 570 01","categoryIds":["vegetarian"],"categories":["Vegetarian Friendly Restaurants"]},{"id":"vegetarianRestaurants_02c8bc386448","slug":"falafeleria-02c8","kind":"restaurant","name":"Falafeleria","lat":40.5988199696969,"lng":22.95250846403434,"url":"https://maps.app.goo.gl/snuFukejKVaEqQ597?g_st=ipc","address":"25is Martiou 14, Thessaloniki 546 46","categoryIds":["vegetarian"],"categories":["Vegetarian Friendly Restaurants"]},{"id":"vegetarianRestaurants_afbddf6d4612","slug":"falaifel-afbd","kind":"restaurant","name":"Falaifel","lat":40.605220221287475,"lng":22.958853196988702,"url":"https://maps.app.goo.gl/GhD8UrgWEeP9DmB59?g_st=ipc","address":"Geor. Drosini 12, Thessaloniki 546 44","categoryIds":["vegetarian"],"categories":["Vegetarian Friendly Restaurants"]},{"id":"vegetarianRestaurants_124c931734e1","slug":"join-juice-bars-124c","kind":"restaurant","name":"JOIN juice bars","lat":40.60107621263692,"lng":22.9498057867803,"url":"https://maps.app.goo.gl/ZhpdC4uUpyfMLEVM6?g_st=ipc","address":"Marias Kallas 1, Thessaloniki 546 45","categoryIds":["vegetarian"],"categories":["Vegetarian Friendly Restaurants"]},{"id":"vegetarianRestaurants_37b68f83011f","slug":"butterflies-and-hurricanes-37b6","kind":"restaurant","name":"Butterflies And Hurricanes","lat":40.61464637786299,"lng":22.960841806951244,"url":"https://maps.app.goo.gl/GzsQL6NzLmnniqyE6?g_st=ipc","address":"Pindarou 1, Thessaloniki 546 39","categoryIds":["vegetarian"],"categories":["Vegetarian Friendly Restaurants"]},{"id":"vegetarianRestaurants_40634af2ec79","slug":"falafel-taste-middle-east-4063","kind":"restaurant","name":"Falafel Taste Middle East","lat":40.62785484140031,"lng":22.949330420414434,"url":"https://maps.app.goo.gl/bHy6BTfdp9RBhdBt6?g_st=ipc","address":"Mitropoleos 106 &, Romanou, Thessaloniki 546 21","categoryIds":["vegetarian"],"categories":["Vegetarian Friendly Restaurants"]},{"id":"vegetarianRestaurants_b82222e81ca2","slug":"merry-berry-health-bar-b822","kind":"restaurant","name":"Merry Berry Health Bar","lat":40.62787788837935,"lng":22.947534537868144,"url":"https://maps.app.goo.gl/9NhW77pMY2C6xJxq8?g_st=ipc","address":"Dim. Gounari 5, Thessaloniki 546 22","categoryIds":["vegetarian"],"categories":["Vegetarian Friendly Restaurants"]},{"id":"vegetarianRestaurants_c6f3e8f66558","slug":"join-juice-bars-c6f3","kind":"restaurant","name":"JOIN juice bars","lat":40.62769116289148,"lng":22.94711801674614,"url":"https://maps.app.goo.gl/nimzQmKjxrKbiFuKA?g_st=ipc","address":"Leof. Nikis 73, Thessaloniki 546 22","categoryIds":["vegetarian"],"categories":["Vegetarian Friendly Restaurants"]}],"nearby":[{"id":"fishTavernasRestaurants_360fe5857213","slug":"marina-360f","kind":"restaurant","name":"Marina","lat":40.19552411690556,"lng":23.323836693602985,"url":"https://maps.app.goo.gl/6oh9CPXimxwQ4vdG6?g_st=ipc","address":"POTIDAIA, Nea Potidea 632 00","categoryIds":["fish-tavernas"],"categories":["Fish Tavernas"],"distanceKm":6.0259148771409174},{"id":"greekRestaurants_5d95f90e24a6","slug":"ta-kastra-5d95","kind":"restaurant","name":"Τα Κάστρα","lat":40.19644489776472,"lng":23.325795895395796,"url":"https://maps.app.goo.gl/1jdDdXYAsWUehvoW8?g_st=ipc","address":"Κανάλι Νέας Ποτίδαιας, Νέα Ποτίδαια 632 00","categoryIds":["greek-restaurants"],"categories":["Greek Restaurants"],"distanceKm":6.03873182540098},{"id":"coffeeBrunchRestaurants_5784021e779f","slug":"lemonis-bakery-5784","kind":"restaurant","name":"Lemonis Bakery","lat":40.19513294653809,"lng":23.330689010754938,"url":"https://maps.app.goo.gl/K8vAnFPwrCRyavzCA?g_st=ipc","address":"Epar.Od. Poligirou - Neas Potideas, Nea Propontida 632 00","categoryIds":["coffee-brunch"],"categories":["Coffee & Brunch Spots"],"distanceKm":6.407116481837061},{"id":"greekRestaurants_e4db76cd737a","slug":"taverna-giannis-e4db","kind":"restaurant","name":"Ταβέρνα Γιάννης","lat":40.30643313313829,"lng":23.20731900101629,"url":"https://maps.app.goo.gl/uEtZqrvbUfiysQHn8?g_st=ipc","address":"Αγίας Παρασκευής 401, Νέα Τρίγλια 630 79","categoryIds":["greek-restaurants"],"categories":["Greek Restaurants"],"distanceKm":9.808128189186474},{"id":"greekRestaurants_4ed7350eaa50","slug":"massalia-nea-fokaia-4ed7","kind":"restaurant","name":"Μασσαλία - Νέα Φώκαια","lat":40.13302544916829,"lng":23.396518787610884,"url":"https://maps.app.goo.gl/uWerarGoWNG5Gpax8?g_st=ipc","address":"Πλατεια, Νέα Φώκαια 630 77","categoryIds":["greek-restaurants"],"categories":["Greek Restaurants"],"distanceKm":15.294318867684213},{"id":"familyFriendly_06f04540ae3b","slug":"sani-adventure-06f0","kind":"restaurant","name":"Sani Adventure","lat":40.10317902398793,"lng":23.309203578886024,"url":"https://maps.app.goo.gl/ZQzmktMRGdV4gQEMA?g_st=ipc","address":"Sani Resort, Sani 630 77","categoryIds":["family-friendly"],"categories":["Kid Friendly Locations"],"distanceKm":15.390747971191873},{"id":"coffeeBrunchRestaurants_f3e4019c450d","slug":"thokos-cafe-bar-bistro-f3e4","kind":"restaurant","name":"Thokos Cafe Bar Bistro","lat":40.13335777699941,"lng":23.402877403357074,"url":"https://maps.app.goo.gl/ek2Zc3cWzQTwhHRT9?g_st=ipc","address":"Nea. Fokea, Halkidiki, Nea Fokea 630 77","categoryIds":["coffee-brunch"],"categories":["Coffee & Brunch Spots"],"distanceKm":15.61032113281206},{"id":"fishTavernasRestaurants_713eeba74062","slug":"to-kyma-713e","kind":"restaurant","name":"To Kyma","lat":40.102311716094015,"lng":23.436768440109095,"url":"https://maps.app.goo.gl/AnRAQzdyuWf59ypc6?g_st=ipc","address":"Epar.Od. Paliouriou-Afitou, Afitos 630 77","categoryIds":["fish-tavernas"],"categories":["Fish Tavernas"],"distanceKm":20.1071202313523}],"sameRegion":[],"mentionedGuides":[]},"__N_SSG":true}