{"pageProps":{"payload":{"area":{"id":"municipalities_2f324ee27306","name":"Εξάρχεια","nameEn":"Exarcheia","region":"Κέντρο Αθήνας","regionEn":"Athens Center","lat":37.984,"lng":23.7365,"urlSlug":"exarcheia","aliases":["Εξάρχεια","Exarcheia","Εξάρχεια Athens Center","Exarcheia Athens Center","Exarchia","Eksarheia","Εξαρχεια","Εξαρχειά","Exarxia","Eksarchia","exarcheia-2f32","exarcheia"]},"category":{"id":"coffee-brunch","name":"Coffee & Brunch Spots","urlSlug":"brunch","aliases":["coffee-brunch","Coffee & Brunch Spots","coffee-brunch-spots","coffee-and-brunch","brunch-spots"]},"entities":[{"entity":{"id":"coffeeBrunchRestaurants_d36dcbf8db8e","slug":"nuffsaid-athens-d36d","kind":"restaurant","name":"NuffSaid.Athens","lat":37.983130427686646,"lng":23.736758649889097,"url":"https://maps.app.goo.gl/HmGsxR2qGDJfvBKs6?g_st=ipc","address":"Διδότου 31, Αθήνα 106 80","categoryIds":["coffee-brunch"],"categories":["Coffee & Brunch Spots"]},"distanceKm":0.09931373911351048},{"entity":{"id":"coffeeBrunchRestaurants_fbce3a8d9ac7","slug":"free-thinking-zone-fbce","kind":"restaurant","name":"Free Thinking Zone","lat":37.982167427382876,"lng":23.7367442995071,"url":"https://maps.app.goo.gl/MVnbPnESdj5g5dLr8?g_st=ipc","address":"106 80, Skoufa 64 &, Γριβαίων 1, Αθήνα 106 80","categoryIds":["coffee-brunch"],"categories":["Coffee & Brunch Spots"]},"distanceKm":0.20489456312349638},{"entity":{"id":"coffeeBrunchRestaurants_6ecc469a1225","slug":"the-black-salami-microbakery-6ecc","kind":"restaurant","name":"The Black Salami Microbakery","lat":37.98610295066266,"lng":23.73813379013077,"url":"https://maps.app.goo.gl/HJ9cCZfV3LeKP7U3A?g_st=ipc","address":"Ζωοδόχου Πηγής 71, Αθήνα 106 81","categoryIds":["coffee-brunch"],"categories":["Coffee & Brunch Spots"]},"distanceKm":0.2741939217211059},{"entity":{"id":"coffeeBrunchRestaurants_ea5204c1a6d8","slug":"boken-athens-ea52","kind":"restaurant","name":"Boken Athens","lat":37.98455750232933,"lng":23.733083600431524,"url":"https://maps.app.goo.gl/L42dwqLWL7TpGc5a8?g_st=ipc","address":"Εμμανουήλ Μπενάκη 40, Αθήνα 106 78","categoryIds":["coffee-brunch"],"categories":["Coffee & Brunch Spots"]},"distanceKm":0.30576864880047316},{"entity":{"id":"coffeeBrunchRestaurants_24a3c9b03a04","slug":"behold-theman-24a3","kind":"restaurant","name":"behold theman","lat":37.986871883204095,"lng":23.73489020906335,"url":"https://maps.app.goo.gl/avUBs2LwMous6Xs97?g_st=ipc","address":"Ιδεοχώρος, Στουρνάρη 6, Αθήνα 106 83","categoryIds":["coffee-brunch"],"categories":["Coffee & Brunch Spots"]},"distanceKm":0.34911536500684337},{"entity":{"id":"coffeeBrunchRestaurants_728ff1b5d2a5","slug":"motiv-728f","kind":"restaurant","name":"MOTIV","lat":37.98356771821389,"lng":23.731211011656264,"url":"https://maps.app.goo.gl/cfAQd1ZN4MrBL9T99?g_st=ipc","address":"Εμμανουήλ Μπενάκη 20, Αθήνα 106 78","categoryIds":["coffee-brunch"],"categories":["Coffee & Brunch Spots"]},"distanceKm":0.466023980720698},{"entity":{"id":"coffeeBrunchRestaurants_19d13a25b343","slug":"filion-19d1","kind":"restaurant","name":"Φίλιον","lat":37.980020632255595,"lng":23.738452651724426,"url":"https://maps.app.goo.gl/Ts2X8wZmEjWPZrR3A?g_st=ipc","address":"Σκουφά 34, Αθήνα 106 72","categoryIds":["coffee-brunch"],"categories":["Coffee & Brunch Spots"]},"distanceKm":0.4744279716955821},{"entity":{"id":"coffeeBrunchRestaurants_8e0209d5d821","slug":"efimerida-ath-8e02","kind":"restaurant","name":"Εφημερίδα ATH","lat":37.97982401641368,"lng":23.734805099489133,"url":"https://maps.app.goo.gl/Kv2HqL5VxXf39c5Y7?g_st=ipc","address":"Βησσαρίωνος 9, Αθήνα 106 72","categoryIds":["coffee-brunch"],"categories":["Coffee & Brunch Spots"]},"distanceKm":0.4875304208181491},{"entity":{"id":"coffeeBrunchRestaurants_36f81684a0dd","slug":"kolor-36f8","kind":"restaurant","name":"kolor.","lat":37.98351287018702,"lng":23.730837222364755,"url":"https://maps.app.goo.gl/p5U6oKL1b1TdeuVD9?g_st=ipc","address":"Εμμανουήλ Μπενάκη 7-9, Αθήνα 106 78","categoryIds":["coffee-brunch"],"categories":["Coffee & Brunch Spots"]},"distanceKm":0.4992454330721919},{"entity":{"id":"coffeeBrunchRestaurants_b9df566768c1","slug":"kora-b9df","kind":"restaurant","name":"KORA","lat":37.98011321585773,"lng":23.739705197719534,"url":"https://maps.app.goo.gl/bGLYXaCD894A2zsQ8?g_st=ipc","address":"Παναγιώτου Αναγνωστοπούλου 44, Αθήνα 106 73","categoryIds":["coffee-brunch"],"categories":["Coffee & Brunch Spots"]},"distanceKm":0.5154640590029054},{"entity":{"id":"coffeeBrunchRestaurants_ad607df7652f","slug":"samba-coffee-roasters-the-shop-ad60","kind":"restaurant","name":"Samba Coffee Roasters | The Shop","lat":37.9794317267494,"lng":23.73762622482217,"url":"https://maps.app.goo.gl/34yfEmMHeLiaz3iD9?g_st=ipc","address":"Σόλωνος 36, Αθήνα 106 73","categoryIds":["coffee-brunch"],"categories":["Coffee & Brunch Spots"]},"distanceKm":0.5174702842228839},{"entity":{"id":"coffeeBrunchRestaurants_89f23e6089a9","slug":"philos-athens-89f2","kind":"restaurant","name":"Philos Athens","lat":37.97913933627947,"lng":23.73788834865789,"url":"https://maps.app.goo.gl/jExQQH2yipA8bApt9?g_st=ipc","address":"Σόλωνος 32, Αθήνα 106 73","categoryIds":["coffee-brunch"],"categories":["Coffee & Brunch Spots"]},"distanceKm":0.5540092699179423},{"entity":{"id":"coffeeBrunchRestaurants_d047b317da2a","slug":"to-tsai-d047","kind":"restaurant","name":"To Tsai","lat":37.97897316301174,"lng":23.737126960431553,"url":"https://maps.app.goo.gl/xwzLF5n6xn8fr2tf8?g_st=ipc","address":"Αλ. Σούτσου 19, Αθήνα 106 71","categoryIds":["coffee-brunch"],"categories":["Coffee & Brunch Spots"]},"distanceKm":0.561653271571613},{"entity":{"id":"coffeeBrunchRestaurants_467447d36a44","slug":"montakioy-4674","kind":"restaurant","name":"ΜΟΝΤΑΚΙΟΥ","lat":37.979477424699695,"lng":23.732289365097284,"url":"https://maps.app.goo.gl/CeF2nsyqfmvgyLPC9?g_st=ipc","address":"Σταδίου 30, Αθήνα 105 64","categoryIds":["coffee-brunch"],"categories":["Coffee & Brunch Spots"]},"distanceKm":0.6237674985112724},{"entity":{"id":"coffeeBrunchRestaurants_394da04a2026","slug":"it-restaurant-kolonaki-394d","kind":"restaurant","name":"IT restaurant Kolonaki","lat":37.9781134250021,"lng":23.737763201387953,"url":"https://maps.app.goo.gl/5dn3SzH3a8fsGfeW7?g_st=ipc","address":"106 71 Voukourestiou 30 &, Αλ. Σούτσου, Αθήνα 106 71","categoryIds":["coffee-brunch"],"categories":["Coffee & Brunch Spots"]},"distanceKm":0.6638544851104214},{"entity":{"id":"coffeeBrunchRestaurants_f33248e61009","slug":"prasini-tenta-lykavittos-f332","kind":"restaurant","name":"Πράσινη Τέντα, Λυκαβηττός","lat":37.980853849375265,"lng":23.74311999324442,"url":"https://maps.app.goo.gl/Ra6VkFbWmNNsbYnu8?g_st=ipc","address":"Μονοπάτι Λυκαβηττού, Αθήνα 114 71","categoryIds":["coffee-brunch"],"categories":["Coffee & Brunch Spots"]},"distanceKm":0.6775092385567172},{"entity":{"id":"coffeeBrunchRestaurants_a3230d252f22","slug":"bayard-cafe-bar-a323","kind":"restaurant","name":"Bayard Cafe Bar","lat":37.98818653598511,"lng":23.742397891424794,"url":"https://maps.app.goo.gl/uimsu3ktFK4Xu2bBA?g_st=ipc","address":"Ζωοδόχου Πηγής 134, Αθήνα 114 72","categoryIds":["coffee-brunch"],"categories":["Coffee & Brunch Spots"]},"distanceKm":0.6956171741529457},{"entity":{"id":"coffeeBrunchRestaurants_741e5993d85c","slug":"paul-athens-741e","kind":"restaurant","name":"PAUL Athens","lat":37.977628510320386,"lng":23.735790636370144,"url":"https://maps.app.goo.gl/2zHj3YHoNrWUYk8f8?g_st=ipc","address":"Πανεπιστημίου 10, Αθήνα 106 71","categoryIds":["coffee-brunch"],"categories":["Coffee & Brunch Spots"]},"distanceKm":0.7112000887421734},{"entity":{"id":"coffeeBrunchRestaurants_3321b1393c9d","slug":"s-agapw-coffee-wine-and-love-3321","kind":"restaurant","name":"S’agapw Coffee Wine and Love","lat":37.97818149501619,"lng":23.732268569349888,"url":"https://maps.app.goo.gl/oYaBfSgA7BG2s8ph8?g_st=ipc","address":"Ανθίμου Γαζή 15, Αθήνα 105 61","categoryIds":["coffee-brunch"],"categories":["Coffee & Brunch Spots"]},"distanceKm":0.7457445283993468},{"entity":{"id":"coffeeBrunchRestaurants_ab1d021ea45b","slug":"muse-bistro-ab1d","kind":"restaurant","name":"Muse Bistro","lat":37.97978388430184,"lng":23.72982150044081,"url":"https://maps.app.goo.gl/S3SNQHHwiWFuHc2N6?g_st=ipc","address":"Aristidou 3, Athina 105 59","categoryIds":["coffee-brunch"],"categories":["Coffee & Brunch Spots"]},"distanceKm":0.749932331918713},{"entity":{"id":"coffeeBrunchRestaurants_da407c688cb3","slug":"cocona-da40","kind":"restaurant","name":"Cocona","lat":37.977556380518415,"lng":23.739553637845837,"url":"https://maps.app.goo.gl/eL1Nh7NXC2UfRJX69?g_st=ipc","address":"Μηλιώνη 10, Αθήνα 106 73","categoryIds":["coffee-brunch"],"categories":["Coffee & Brunch Spots"]},"distanceKm":0.7648525405329121},{"entity":{"id":"coffeeBrunchRestaurants_03891d56076e","slug":"odori-0389","kind":"restaurant","name":"Odori","lat":37.97922436265169,"lng":23.729754698272135,"url":"https://maps.app.goo.gl/Wa5G5txL7dyLZjDX9?g_st=ipc","address":"Σκουλενίου 2, Αθήνα 105 61","categoryIds":["coffee-brunch"],"categories":["Coffee & Brunch Spots"]},"distanceKm":0.7946668213349475},{"entity":{"id":"coffeeBrunchRestaurants_32f3744210f1","slug":"ruins-athens-urban-area-32f3","kind":"restaurant","name":"Ruins Athens Urban Area","lat":37.97772096182225,"lng":23.740886798075717,"url":"https://maps.app.goo.gl/m4eWX6HzHjiKpfSEA?g_st=ipc","address":"Τσακάλωφ 4, Αθήνα 106 73","categoryIds":["coffee-brunch"],"categories":["Coffee & Brunch Spots"]},"distanceKm":0.7970615547642339},{"entity":{"id":"coffeeBrunchRestaurants_3bd143dc0b3c","slug":"anana-coffee-food-3bd1","kind":"restaurant","name":"Anana Coffee|Food","lat":37.9790791623964,"lng":23.72939339771832,"url":"https://maps.app.goo.gl/LVwtjjfHm1ZP7KNd9?g_st=ipc","address":"Πραξιτέλους 33, Αθήνα 105 60","categoryIds":["coffee-brunch"],"categories":["Coffee & Brunch Spots"]},"distanceKm":0.8290647433975192},{"entity":{"id":"coffeeBrunchRestaurants_1d255ac807f1","slug":"sol-bake-and-coffee-project-athens-1d25","kind":"restaurant","name":"Sol Bake and Coffee Project - Athens","lat":37.97816157851863,"lng":23.73056218480863,"url":"https://maps.app.goo.gl/fW434BxjyGNZzoC17?g_st=ipc","address":"Πραξιτέλους 11, Χαβρίου 9, Αθήνα 105 62","categoryIds":["coffee-brunch"],"categories":["Coffee & Brunch Spots"]},"distanceKm":0.8320478234008185},{"entity":{"id":"coffeeBrunchRestaurants_34ae78424cdb","slug":"abuelo-34ae","kind":"restaurant","name":"Abuelo","lat":37.977278007040915,"lng":23.732254640031748,"url":"https://maps.app.goo.gl/mtDzW4EBiKS3shLM8?g_st=ipc","address":"Κολοκοτρώνη 11, Αθήνα 105 62","categoryIds":["coffee-brunch"],"categories":["Coffee & Brunch Spots"]},"distanceKm":0.8349452803201041},{"entity":{"id":"coffeeBrunchRestaurants_ed24a7ddbf8d","slug":"the-makers-ed24","kind":"restaurant","name":"The Makers","lat":37.979293464451835,"lng":23.729075477305056,"url":"https://maps.app.goo.gl/ckVaWVRSL5xpfiAs8?g_st=ipc","address":"Πραξιτέλους 37, Αθήνα 105 60","categoryIds":["coffee-brunch"],"categories":["Coffee & Brunch Spots"]},"distanceKm":0.8350596279927949},{"entity":{"id":"coffeeBrunchRestaurants_9ae1dd6e7d5a","slug":"psomas-n-mokka-kafekopteio-a-e-e-9ae1","kind":"restaurant","name":"ΨΩΜΑΣ, Ν., \"ΜΟΚΚΑ ΚΑΦΕΚΟΠΤΕΙΟ\" Α.Ε.Ε.","lat":37.98083447984655,"lng":23.727407040678795,"url":"https://maps.app.goo.gl/oAY3rXKoej3BQGy39?g_st=ipc","address":"Αθηνάς 44, Αθήνα 105 51","categoryIds":["coffee-brunch"],"categories":["Coffee & Brunch Spots"]},"distanceKm":0.8712132939525613},{"entity":{"id":"coffeeBrunchRestaurants_10f7636fb183","slug":"fillo-10f7","kind":"restaurant","name":"Fillo","lat":37.97664924966537,"lng":23.732881855883917,"url":"https://maps.app.goo.gl/kXhn28aSgrw8SgU47?g_st=ipc","address":"105 62, Βουλής 11, Αθήνα 105 62","categoryIds":["coffee-brunch"],"categories":["Coffee & Brunch Spots"]},"distanceKm":0.8767271942607768},{"entity":{"id":"coffeeBrunchRestaurants_268ab51f91a8","slug":"smak-zymeria-268a","kind":"restaurant","name":"Smak Ζυμερία","lat":37.97751180003605,"lng":23.730066447556442,"url":"https://maps.app.goo.gl/dAYcRqw7bHXmUKJz6?g_st=ipc","address":"Ρόμβης 21, Αθήνα 105 60","categoryIds":["coffee-brunch"],"categories":["Coffee & Brunch Spots"]},"distanceKm":0.9156696017302559}],"counts":{"totalEntities":4118,"totalInArea":848,"totalInCategory":506,"totalCategoryArea":129},"relatedCategories":[{"categoryId":"cheap-eats","categorySlug":"cheap-eats","categoryName":"Gyros & Cheap Eats","count":113,"passesThreshold":true},{"categoryId":"greek-restaurants","categorySlug":"greek-restaurants","categoryName":"Greek Restaurants","count":100,"passesThreshold":true},{"categoryId":"desserts","categorySlug":"desserts","categoryName":"Dessert Shops","count":85,"passesThreshold":true},{"categoryId":"vegetarian","categorySlug":"vegetarian","categoryName":"Vegetarian Friendly Restaurants","count":73,"passesThreshold":true},{"categoryId":"luxury-dining","categorySlug":"luxury-dining","categoryName":"Luxury Dining","count":70,"passesThreshold":true},{"categoryId":"rooftop-lounges","categorySlug":"rooftops","categoryName":"Rooftop Lounges","count":54,"passesThreshold":true},{"categoryId":"italian","categorySlug":"italian","categoryName":"Italian Restaurants","count":49,"passesThreshold":true},{"categoryId":"attractions","categorySlug":"attractions","categoryName":"Must-See Attractions","count":43,"passesThreshold":true},{"categoryId":"asian","categorySlug":"asian-restaurants","categoryName":"Asian Restaurants","count":40,"passesThreshold":true},{"categoryId":"burgers","categorySlug":"burgers","categoryName":"Burger Spots","count":39,"passesThreshold":true}],"relatedAreas":[{"areaId":"municipalities_5bc013791cf8","areaName":"Πλάκα","areaSlug":"plaka","count":142,"nearestDistanceKm":0.1263629446508417},{"areaId":"municipalities_b85b54408d92","areaName":"Θησείο","areaSlug":"thiseio","count":137,"nearestDistanceKm":0.13190824216712424},{"areaId":"municipalities_877c3bc81df5","areaName":"Σύνταγμα","areaSlug":"syntagma","count":136,"nearestDistanceKm":0.16065593503940825},{"areaId":"municipalities_4149fa79e27b","areaName":"Ακρόπολη","areaSlug":"akropoli","count":136,"nearestDistanceKm":0.27692773736814036},{"areaId":"municipalities_d7e1aaaed4f9","areaName":"Μοναστηράκι","areaSlug":"monastiraki","count":135,"nearestDistanceKm":0.05173092611255523},{"areaId":"municipalities_616efd2a0d9b","areaName":"Κουκάκι","areaSlug":"koykaki","count":135,"nearestDistanceKm":0.07224190875382393},{"areaId":"municipalities_2bcfcb8b899f","areaName":"Ψυρρή","areaSlug":"psyrri","count":135,"nearestDistanceKm":0.1010137281247451},{"areaId":"municipalities_0fd1d03201a0","areaName":"Μετς","areaSlug":"mets","count":134,"nearestDistanceKm":0.12687781171574306},{"areaId":"municipalities_0cae2c00b932","areaName":"Κολωνάκι","areaSlug":"kolonaki","count":133,"nearestDistanceKm":0.019551496670837543},{"areaId":"municipalities_0eb5ad956816","areaName":"Νέος Κόσμος","areaSlug":"neos-kosmos","count":132,"nearestDistanceKm":0.5340714379438}],"passesThreshold":true}},"__N_SSG":true}