{"pageProps":{"payload":{"area":{"id":"municipalities_bb6da3cdb3bd","name":"Επταπύργιο","nameEn":"Eptapyrgio","region":"Θεσσαλονίκη","regionEn":"Thessaloniki","lat":40.6506,"lng":22.9486,"urlSlug":"eptapyrgio","aliases":["Επταπύργιο","Eptapyrgio","Επταπύργιο Thessaloniki","Eptapyrgio Thessaloniki","Επταπυργιο","Yedi Kule","eptapyrgio-bb6d","eptapyrgio"]},"category":{"id":"coffee-brunch","name":"Coffee & Brunch Spots","urlSlug":"brunch","aliases":["coffee-brunch","Coffee & Brunch Spots","coffee-brunch-spots","coffee-and-brunch","brunch-spots"]},"entities":[{"entity":{"id":"coffeeBrunchRestaurants_0052077d62fc","slug":"merenda-coffee-wine-more-0052","kind":"restaurant","name":"Merenda Coffee Wine & More","lat":40.651073348117436,"lng":22.945590441346173,"url":"https://maps.app.goo.gl/AiQwHhGbA2vVd8nH7?g_st=ipc","address":"Flogiton 2, Neapoli 567 28","categoryIds":["coffee-brunch"],"categories":["Coffee & Brunch Spots"]},"distanceKm":0.25929330087866703},{"entity":{"id":"coffeeBrunchRestaurants_964653005e5d","slug":"maharaja-skg-heaven-of-shisha-9646","kind":"restaurant","name":"MAHARAJA SKG - Heaven of Shisha","lat":40.658033849704225,"lng":22.941967646222036,"url":"https://maps.app.goo.gl/Ct3Z2v1aCBYrtE5k9?g_st=ipc","address":"Agnostou Stratiotou 36, Polichni 565 33","categoryIds":["coffee-brunch"],"categories":["Coffee & Brunch Spots"]},"distanceKm":0.9981548261651212},{"entity":{"id":"coffeeBrunchRestaurants_5e2abc98be89","slug":"ayli-open-air-coffee-bar-5e2a","kind":"restaurant","name":"Αυλή Open Air Coffee Bar","lat":40.65671676420057,"lng":22.939866059031072,"url":"https://maps.app.goo.gl/awEDoCCaNWaCXmC17?g_st=ipc","address":"Πάρκο, Davaki, Neapoli 567 27","categoryIds":["coffee-brunch"],"categories":["Coffee & Brunch Spots"]},"distanceKm":1.0027296216466084},{"entity":{"id":"coffeeBrunchRestaurants_9f516ac09de5","slug":"tsitsanki-9f51","kind":"restaurant","name":"Tsitsanki","lat":40.65105910915655,"lng":22.93545214874879,"url":"https://maps.app.goo.gl/fcosc9VFnpPap1qs5?g_st=ipc","address":"Λαγκαδά 116, Neapoli 567 27","categoryIds":["coffee-brunch"],"categories":["Coffee & Brunch Spots"]},"distanceKm":1.1103648840592175},{"entity":{"id":"coffeeBrunchRestaurants_61bbbed9f0b5","slug":"castra-all-day-terrace-bar-61bb","kind":"restaurant","name":"Castra- All Day Terrace Bar","lat":40.641322666802424,"lng":22.958308851938888,"url":"https://maps.app.goo.gl/bvxf6vbBiEtuPwrh9?g_st=ipc","address":"Eptapirgiou 122, Thessaloniki 546 34","categoryIds":["coffee-brunch"],"categories":["Coffee & Brunch Spots"]},"distanceKm":1.3172513550954477},{"entity":{"id":"coffeeBrunchRestaurants_cb81e6db9390","slug":"the-caravan-cafe-brunch-cb81","kind":"restaurant","name":"The Caravan Cafe | Brunch","lat":40.637809490842486,"lng":22.9414945910073,"url":"https://maps.app.goo.gl/zZG88R3tqQ4iE2m6A?g_st=ipc","address":"Βαμβακά 3, Thessaloniki 546 31","categoryIds":["coffee-brunch"],"categories":["Coffee & Brunch Spots"]},"distanceKm":1.5434237564916216},{"entity":{"id":"coffeeBrunchRestaurants_e22044bf3986","slug":"hue-roastery-e220","kind":"restaurant","name":"Hue Roastery","lat":40.63626725764962,"lng":22.94719442659408,"url":"https://maps.app.goo.gl/PGp8KLsttADm6bE79?g_st=ipc","address":"Filippou 38, Thessaloniki 546 31","categoryIds":["coffee-brunch"],"categories":["Coffee & Brunch Spots"]},"distanceKm":1.598134411851702},{"entity":{"id":"coffeeBrunchRestaurants_fb908cdb56f2","slug":"beetroot-fb90","kind":"restaurant","name":"Beetroot","lat":40.637551412889685,"lng":22.939748987657307,"url":"https://maps.app.goo.gl/v2Xnqi1U2R9tS4bz7?g_st=ipc","address":"Siggrou 8, Thessaloniki 546 25","categoryIds":["coffee-brunch"],"categories":["Coffee & Brunch Spots"]},"distanceKm":1.6318353095022233},{"entity":{"id":"coffeeBrunchRestaurants_ad2114e7ac37","slug":"bannie-ad21","kind":"restaurant","name":"Bannie","lat":40.63708508226566,"lng":22.94022952790158,"url":"https://maps.app.goo.gl/Gn3B2PxeEE5tHcph8?g_st=ipc","address":"Ionos Dragoumi 35, Thessaloniki 546 25","categoryIds":["coffee-brunch"],"categories":["Coffee & Brunch Spots"]},"distanceKm":1.6604641075477156},{"entity":{"id":"coffeeBrunchRestaurants_7c923e1edd56","slug":"mi-me-lismonei-art-cafe-7c92","kind":"restaurant","name":"Mi Me Lismonei Art Café","lat":40.63629409662354,"lng":22.940981395583297,"url":"https://maps.app.goo.gl/Wi79HnpxEWDrQr5A8?g_st=ipc","address":"El. Venizelou 23, Thessaloniki 546 24","categoryIds":["coffee-brunch"],"categories":["Coffee & Brunch Spots"]},"distanceKm":1.7157086233269274},{"entity":{"id":"coffeeBrunchRestaurants_3e6cfb10198f","slug":"shed-3e6c","kind":"restaurant","name":"shed","lat":40.63516182787635,"lng":22.9483681936243,"url":"https://maps.app.goo.gl/bczd7kAPu1ihwt9fA?g_st=ipc","address":"Patriarchoi Dionisii E 11, Thessaloniki 546 35","categoryIds":["coffee-brunch"],"categories":["Coffee & Brunch Spots"]},"distanceKm":1.7167578288565528},{"entity":{"id":"coffeeBrunchRestaurants_1ba6faa5ef16","slug":"naked-1ba6","kind":"restaurant","name":"NAKED","lat":40.6351156138034,"lng":22.949358819047884,"url":"https://maps.app.goo.gl/tVt4qfxaTjfyP7oG8?g_st=ipc","address":"Filippou 62, Thessaloniki 546 35","categoryIds":["coffee-brunch"],"categories":["Coffee & Brunch Spots"]},"distanceKm":1.7229751245153744},{"entity":{"id":"coffeeBrunchRestaurants_1c6ae917ccf8","slug":"romantzo-1c6a","kind":"restaurant","name":"Romantzo","lat":40.637344096207045,"lng":22.93721658740342,"url":"https://maps.app.goo.gl/xTf6UJFe7tcY4vHU7?g_st=ipc","address":"Veroias 2, Thessaloniki 546 25","categoryIds":["coffee-brunch"],"categories":["Coffee & Brunch Spots"]},"distanceKm":1.7592845356386038},{"entity":{"id":"coffeeBrunchRestaurants_dd910adc2566","slug":"beyond-the-walls-dd91","kind":"restaurant","name":"BEYOND The Walls","lat":40.63839199621431,"lng":22.934457510684794,"url":"https://maps.app.goo.gl/p8QR7tTcw9DAMN2e9?g_st=ipc","address":"Fragkon 2, Thessaloniki 546 26","categoryIds":["coffee-brunch"],"categories":["Coffee & Brunch Spots"]},"distanceKm":1.8073406911160905},{"entity":{"id":"coffeeBrunchRestaurants_fd2a487a0b78","slug":"ypsilon-fd2a","kind":"restaurant","name":"Υpsilon","lat":40.636365825174295,"lng":22.93811663555069,"url":"https://maps.app.goo.gl/7LvTZEdhDkTAMmp78?g_st=ipc","address":"Edessis 5, Thessaloniki 546 25","categoryIds":["coffee-brunch"],"categories":["Coffee & Brunch Spots"]},"distanceKm":1.8131470991163745},{"entity":{"id":"coffeeBrunchRestaurants_c5fcdd8f5d50","slug":"slow-kaffe-and-wine-c5fc","kind":"restaurant","name":"Slow Kaffe and Wine","lat":40.63667930749031,"lng":22.937326259309707,"url":"https://maps.app.goo.gl/sudFiDSGGdZvwXaq8?g_st=ipc","address":"Ernestou Emprar 10, Thessaloniki 546 25","categoryIds":["coffee-brunch"],"categories":["Coffee & Brunch Spots"]},"distanceKm":1.8168061964668314},{"entity":{"id":"coffeeBrunchRestaurants_225892e0cbdd","slug":"the-garden-bar-2258","kind":"restaurant","name":"The Garden Bar","lat":40.63514609058183,"lng":22.939331222845976,"url":"https://maps.app.goo.gl/KEZ45GJ89m9DDXvb6?g_st=ipc","address":"Ag. Mina 16, Thessaloniki 546 24","categoryIds":["coffee-brunch"],"categories":["Coffee & Brunch Spots"]},"distanceKm":1.8879785884397131},{"entity":{"id":"coffeeBrunchRestaurants_c803c29789d7","slug":"peach-boy-c803","kind":"restaurant","name":"Peach Boy","lat":40.633714458831285,"lng":22.944751777282193,"url":"https://maps.app.goo.gl/7wXxWHC7mrvUfoqf8?g_st=ipc","address":"Ermou 44, Thessaloniki 546 23","categoryIds":["coffee-brunch"],"categories":["Coffee & Brunch Spots"]},"distanceKm":1.9054538288126617},{"entity":{"id":"coffeeBrunchRestaurants_c75ff3cb9f5e","slug":"rafiki-outdoors-c75f","kind":"restaurant","name":"Rafiki Outdoors","lat":40.63384593288072,"lng":22.94144670060357,"url":"https://maps.app.goo.gl/EDFEAtyxnASt6ymy5?g_st=ipc","address":"Tsimiski 33, Thessaloniki 546 34","categoryIds":["coffee-brunch"],"categories":["Coffee & Brunch Spots"]},"distanceKm":1.9582953345026781},{"entity":{"id":"coffeeBrunchRestaurants_bb53d56df5ab","slug":"candybar-bb53","kind":"restaurant","name":"Candybar","lat":40.63307970052453,"lng":22.944591933924332,"url":"https://maps.app.goo.gl/Qxj6VN1pGyEntd7A9?g_st=ipc","address":"Ag. Theodoras 4, Thessaloniki 546 23","categoryIds":["coffee-brunch"],"categories":["Coffee & Brunch Spots"]},"distanceKm":1.9773022644202698},{"entity":{"id":"coffeeBrunchRestaurants_cec31106b257","slug":"canela-kamara-cec3","kind":"restaurant","name":"CANELA KAMARA","lat":40.63288705394979,"lng":22.951924664943846,"url":"https://maps.app.goo.gl/uer9gPdcnKtNqaiA8?g_st=ipc","address":"Vasou 2, Thessaloniki 546 35","categoryIds":["coffee-brunch"],"categories":["Coffee & Brunch Spots"]},"distanceKm":1.989465568714872},{"entity":{"id":"coffeeBrunchRestaurants_ed0ec5618011","slug":"las-ramblas-breakfast-and-coffee-brewers-skg-ed0e","kind":"restaurant","name":"Las Ramblas Breakfast and Coffee Brewers Skg","lat":40.63291948975748,"lng":22.944963559301026,"url":"https://maps.app.goo.gl/mae23zznYmk6BnJ5A?g_st=ipc","address":"Ag. Theodoras 8, Thessaloniki 546 23","categoryIds":["coffee-brunch"],"categories":["Coffee & Brunch Spots"]},"distanceKm":1.9897812074112677},{"entity":{"id":"coffeeBrunchRestaurants_142cba27d845","slug":"cedar-142c","kind":"restaurant","name":"Cedar","lat":40.637496852872374,"lng":22.964756224661162,"url":"https://maps.app.goo.gl/yNB87tJxbm51sRh69?g_st=ipc","address":"Leof. Ochi 25, Ag. Pavlos 554 38","categoryIds":["coffee-brunch"],"categories":["Coffee & Brunch Spots"]},"distanceKm":1.9952360515875849},{"entity":{"id":"coffeeBrunchRestaurants_b5c74e889058","slug":"bunny-tail-b5c7","kind":"restaurant","name":"Bunny Tail","lat":40.63263326905148,"lng":22.947686149858708,"url":"https://maps.app.goo.gl/5s2tkstCJrJZyR4TA?g_st=ipc","address":"Αλεξάνδρου Σβώλου 1, Patriarchou Ioakim 2, Thessaloniki 546 22","categoryIds":["coffee-brunch"],"categories":["Coffee & Brunch Spots"]},"distanceKm":1.9992967274183948},{"entity":{"id":"coffeeBrunchRestaurants_f04e1b347f8a","slug":"tabya-f04e","kind":"restaurant","name":"Tabya","lat":40.6330498721733,"lng":22.954427623261545,"url":"https://maps.app.goo.gl/FxsAHzVitWKgJyqY8?g_st=ipc","address":"Kon/nou Melenikou 14, Thessaloniki 546 35","categoryIds":["coffee-brunch"],"categories":["Coffee & Brunch Spots"]},"distanceKm":2.012477259134603},{"entity":{"id":"coffeeBrunchRestaurants_b487090aef38","slug":"moonkiz-cafe-b487","kind":"restaurant","name":"Moonkiz Café","lat":40.63268245780202,"lng":22.944199601012993,"url":"https://maps.app.goo.gl/34HUt3Zqr1wPaAQUA?g_st=ipc","address":"Geor. Stavrou 8, Thessaloniki 546 23","categoryIds":["coffee-brunch"],"categories":["Coffee & Brunch Spots"]},"distanceKm":2.0266395273021325},{"entity":{"id":"coffeeBrunchRestaurants_8c2176607636","slug":"donkey-garden-8c21","kind":"restaurant","name":"Donkey Garden","lat":40.63233978923016,"lng":22.94821185116991,"url":"https://maps.app.goo.gl/Kev7Tos1LbMdirKcA?g_st=ipc","address":"Skra 3, Thessaloniki 546 22","categoryIds":["coffee-brunch"],"categories":["Coffee & Brunch Spots"]},"distanceKm":2.0307068994023645},{"entity":{"id":"coffeeBrunchRestaurants_eb01fc18d144","slug":"mangiare-gastro-pizza-pasta-bar-eb01","kind":"restaurant","name":"Mangiare Gastro Pizza Pasta Bar","lat":40.63353783457787,"lng":22.939678053388604,"url":"https://maps.app.goo.gl/aWDb6qE5HF6MmFreA?g_st=ipc","address":"Mitropoleos 20, Thessaloniki 546 24","categoryIds":["coffee-brunch"],"categories":["Coffee & Brunch Spots"]},"distanceKm":2.0411136860609713},{"entity":{"id":"coffeeBrunchRestaurants_34a8b22d1957","slug":"cin-cin-34a8","kind":"restaurant","name":"Cin Cin","lat":40.632298193619214,"lng":22.946596687138204,"url":"https://maps.app.goo.gl/n6rxkXLoJv7xWQhy9?g_st=ipc","address":"Iktinou 22, Thessaloniki 546 22","categoryIds":["coffee-brunch"],"categories":["Coffee & Brunch Spots"]},"distanceKm":2.0420755727303814},{"entity":{"id":"coffeeBrunchRestaurants_3daa295f084c","slug":"olympion-cafe-bar-1951-3daa","kind":"restaurant","name":"Olympion Cafe Bar 1951","lat":40.632694674088896,"lng":22.941732044946015,"url":"https://maps.app.goo.gl/jjCCeEkXCKm7ow7v6?g_st=ipc","address":"Aristotelous Sq 10, Thessaloniki 546 23","categoryIds":["coffee-brunch"],"categories":["Coffee & Brunch Spots"]},"distanceKm":2.073596943651595}],"counts":{"totalEntities":4118,"totalInArea":317,"totalInCategory":506,"totalCategoryArea":60},"relatedCategories":[{"categoryId":"cheap-eats","categorySlug":"cheap-eats","categoryName":"Gyros & Cheap Eats","count":66,"passesThreshold":true},{"categoryId":"greek-restaurants","categorySlug":"greek-restaurants","categoryName":"Greek Restaurants","count":47,"passesThreshold":true},{"categoryId":"desserts","categorySlug":"desserts","categoryName":"Dessert Shops","count":37,"passesThreshold":true},{"categoryId":"burgers","categorySlug":"burgers","categoryName":"Burger Spots","count":21,"passesThreshold":true},{"categoryId":"fish-tavernas","categorySlug":"fish-tavernas","categoryName":"Fish Tavernas","count":17,"passesThreshold":true},{"categoryId":"italian","categorySlug":"italian","categoryName":"Italian Restaurants","count":16,"passesThreshold":true},{"categoryId":"vegetarian","categorySlug":"vegetarian","categoryName":"Vegetarian Friendly Restaurants","count":13,"passesThreshold":true},{"categoryId":"asian","categorySlug":"asian-restaurants","categoryName":"Asian Restaurants","count":12,"passesThreshold":true},{"categoryId":"attractions","categorySlug":"attractions","categoryName":"Must-See Attractions","count":9,"passesThreshold":true},{"categoryId":"luxury-dining","categorySlug":"luxury-dining","categoryName":"Luxury Dining","count":9,"passesThreshold":true}],"relatedAreas":[{"areaId":"municipalities_5bc013791cf8","areaName":"Πλάκα","areaSlug":"plaka","count":142,"passesThreshold":true,"nearestDistanceKm":0.1263629446508417},{"areaId":"municipalities_b85b54408d92","areaName":"Θησείο","areaSlug":"thiseio","count":137,"passesThreshold":true,"nearestDistanceKm":0.13190824216712424},{"areaId":"municipalities_877c3bc81df5","areaName":"Σύνταγμα","areaSlug":"syntagma","count":136,"passesThreshold":true,"nearestDistanceKm":0.16065593503940825},{"areaId":"municipalities_4149fa79e27b","areaName":"Ακρόπολη","areaSlug":"akropoli","count":136,"passesThreshold":true,"nearestDistanceKm":0.27692773736814036},{"areaId":"municipalities_d7e1aaaed4f9","areaName":"Μοναστηράκι","areaSlug":"monastiraki","count":135,"passesThreshold":true,"nearestDistanceKm":0.05173092611255523},{"areaId":"municipalities_616efd2a0d9b","areaName":"Κουκάκι","areaSlug":"koykaki","count":135,"passesThreshold":true,"nearestDistanceKm":0.07224190875382393},{"areaId":"municipalities_2bcfcb8b899f","areaName":"Ψυρρή","areaSlug":"psyrri","count":135,"passesThreshold":true,"nearestDistanceKm":0.1010137281247451},{"areaId":"municipalities_0fd1d03201a0","areaName":"Μετς","areaSlug":"mets","count":134,"passesThreshold":true,"nearestDistanceKm":0.12687781171574306},{"areaId":"municipalities_0cae2c00b932","areaName":"Κολωνάκι","areaSlug":"kolonaki","count":133,"passesThreshold":true,"nearestDistanceKm":0.019551496670837543},{"areaId":"municipalities_0eb5ad956816","areaName":"Νέος Κόσμος","areaSlug":"neos-kosmos","count":132,"passesThreshold":true,"nearestDistanceKm":0.5340714379438}],"passesThreshold":true},"hasAreaGuidePage":true,"topGuides":[]},"__N_SSG":true}