{"pageProps":{"entity":{"id":"municipalities_aaffd66d297b","slug":"naypaktos-aaff","kind":"municipality","name":"Ναύπακτος","lat":38.395,"lng":21.829,"region":"Δυτική Ελλάδα","name_en":"Nafpaktos","region_en":"Western Greece"},"sameCategory":[],"nearby":[{"id":"greekRestaurants_3652982e1103","slug":"ey-oinos-3652","kind":"restaurant","name":"Εύ-Οίνος","lat":38.39347292034383,"lng":21.82986697264944,"url":"https://maps.app.goo.gl/ijrmcn4wUaPLkcYZ8?g_st=ipc","address":"Σισμάνη 3, Ναύπακτος 303 00","categoryIds":["greek-restaurants"],"categories":["Greek Restaurants"],"distanceKm":0.1858547834825285},{"id":"greekRestaurants_29fafe6777ec","slug":"apiko-mezedotechneio-29fa","kind":"restaurant","name":"Απίκο μεζεδοτεχνείο","lat":38.393299094022936,"lng":21.82979800924532,"url":"https://maps.app.goo.gl/AcecnJwEzMnsr3Tq7?g_st=ipc","address":"Σισμάνη 14, Ναύπακτος 303 00","categoryIds":["greek-restaurants"],"categories":["Greek Restaurants"],"distanceKm":0.20151339918300304},{"id":"cheapEatsRestaurants_1fcaa4d5db8a","slug":"sweet-and-salty-1fca","kind":"restaurant","name":"Sweet and Salty","lat":38.3929233936639,"lng":21.828605110521075,"url":"https://maps.app.goo.gl/poWZpbGwDcXD9udJ6?g_st=ipc","address":"Καναβού και Κλεονίκου, Nafpaktos 303 00","categoryIds":["cheap-eats"],"categories":["Gyros & Cheap Eats"],"distanceKm":0.23345858735539107},{"id":"greekRestaurants_15370f84402d","slug":"taverna-papoulis-1537","kind":"restaurant","name":"Taverna Papoulis","lat":38.39278635466362,"lng":21.830140221236192,"url":"https://maps.app.goo.gl/WCJbXRkYL5MRmAFU9?g_st=ipc","address":"Σισμάνη, Φορμίωνος &, Ναύπακτος 303 00","categoryIds":["greek-restaurants"],"categories":["Greek Restaurants"],"distanceKm":0.2654475325083397},{"id":"greekRestaurants_5aa2e69eb132","slug":"spitiko-5aa2","kind":"restaurant","name":"Σπιτικό","lat":38.39170969336317,"lng":21.837681345168555,"url":"https://maps.app.goo.gl/mC2mz8b1QWHdrqH79?g_st=ipc","address":"Λεωφ. Καθόδου Δωριέων, Ναύπακτος 303 00","categoryIds":["greek-restaurants"],"categories":["Greek Restaurants"],"distanceKm":0.8404043270886029},{"id":"wineriesVineyards_2f6094ec16d1","slug":"parparoysis-oinopoiia-2f60","kind":"restaurant","name":"ΠΑΡΠΑΡΟΥΣΗΣ ΟΙΝΟΠΟΙΙΑ","lat":38.283502229311324,"lng":21.768505095628893,"url":"https://maps.app.goo.gl/1mV7U2hRvYf1jzfb9?g_st=ipc","address":"Πολυκαστης, Πάτρα 264 42","categoryIds":["wineries-vineyards"],"categories":["Wineries & Vineyards"],"distanceKm":13.473955224594503},{"id":"cheapEatsRestaurants_fab534827f1a","slug":"rigas-fab5","kind":"restaurant","name":"Rigas","lat":38.250839822865835,"lng":21.737567051131727,"url":"https://maps.app.goo.gl/p9VptZqYVY3ELr9j8?g_st=ipc","address":"Αγίου Ανδρέου κ, Zaimi, Patra 262 23","categoryIds":["cheap-eats"],"categories":["Gyros & Cheap Eats"],"distanceKm":17.90465923441198},{"id":"municipalities_9cb35779b9fc","slug":"patra-9cb3","kind":"municipality","name":"Πάτρα","lat":38.2466,"lng":21.7346,"aliases":["Patra","Patrae","Πάτραι","Πάτρη","Πατρα"],"region":"Δυτική Ελλάδα","name_en":"Patras","region_en":"Western Greece","distanceKm":18.442166478133075},{"id":"dessertsRestaurants_189ec545bdd1","slug":"lotsares-189e","kind":"restaurant","name":"Lotsárēs","lat":38.245712406206245,"lng":21.73585932751544,"url":"https://maps.app.goo.gl/uHizqRuZ9AFawcUz5?g_st=ipc","address":"Gerokostopoulou 23, Patra 262 21","categoryIds":["desserts"],"categories":["Dessert Shops"],"distanceKm":18.481987838879387},{"id":"cheapEatsRestaurants_1354d27873fc","slug":"choiropoiito-soyvlakopoieio-1354","kind":"restaurant","name":"Χοιροποίητο Σουβλακοποιείο","lat":38.2456567707955,"lng":21.73248119818369,"url":"https://maps.app.goo.gl/kQo4C3a3QHbyJMpq6?g_st=ipc","address":"Riga Fereou 139, Patra 262 21","categoryIds":["cheap-eats"],"categories":["Gyros & Cheap Eats"],"distanceKm":18.61895280254751},{"id":"vegetarianRestaurants_291831247589","slug":"rubik-s-2918","kind":"restaurant","name":"Rubik's","lat":38.24434291588552,"lng":21.735549427551657,"url":"https://maps.app.goo.gl/6yHAVjve3kJGvFFa9?g_st=ipc","address":"Patreos 92, Patra 262 25","categoryIds":["vegetarian"],"categories":["Vegetarian Friendly Restaurants"],"distanceKm":18.630730290276244},{"id":"dessertsRestaurants_6449be12e482","slug":"da-vinci-6449","kind":"restaurant","name":"DA VINCI","lat":38.24539440430271,"lng":21.731371228848985,"url":"https://maps.app.goo.gl/cgshZD6Sh33x15CL8?g_st=ipc","address":"Dim. Gounari 11, Patra 262 21","categoryIds":["desserts"],"categories":["Dessert Shops"],"distanceKm":18.688914165552937},{"id":"dessertsRestaurants_8ff0226983b7","slug":"lotsaris-bros-o-e-8ff0","kind":"restaurant","name":"Lotsaris Bros O.E.","lat":38.24431368433903,"lng":21.73185220313626,"url":"https://maps.app.goo.gl/vW8aWwnYez1UELdL8?g_st=ipc","address":"Maizonos 124, Patra 262 22","categoryIds":["desserts"],"categories":["Dessert Shops"],"distanceKm":18.777012791639972},{"id":"coffeeBrunchRestaurants_f84032a69c94","slug":"zeabakery-f840","kind":"restaurant","name":"zeabakery","lat":38.24285092491478,"lng":21.73125949400658,"url":"https://maps.app.goo.gl/2ULzYbujrWoB52n26?g_st=ipc","address":"Korinthou 302, Patra 262 22","categoryIds":["coffee-brunch"],"categories":["Coffee & Brunch Spots"],"distanceKm":18.945550629466766},{"id":"wineriesVineyards_8d14b59ec1a3","slug":"ampelones-rira-rira-vineyards-8d14","kind":"restaurant","name":"Αμπελώνες Ρίρα - Rira Vineyards","lat":38.29370777982869,"lng":22.008479102079523,"url":"https://maps.app.goo.gl/wH1yAZZ9D7nhcAqLA?g_st=ipc","address":"ΠΕΟ, Ν.Ε.Ο. Πατρών - Αθηνών, Νέος Ερινεός 250 09","categoryIds":["wineries-vineyards"],"categories":["Wineries & Vineyards"],"distanceKm":19.283528908931473},{"id":"dessertsRestaurants_298a5dde0910","slug":"grande-mylonas-298a","kind":"restaurant","name":"GRANDE MYLONAS","lat":38.226507714136424,"lng":21.749216193252526,"url":"https://maps.app.goo.gl/koEwVV1SwKUtb4o86?g_st=ipc","address":"Patron Klaous 54, Patra 263 34","categoryIds":["desserts"],"categories":["Dessert Shops"],"distanceKm":19.986897009701394},{"id":"wineriesVineyards_9e37380a5d2e","slug":"achaia-klaoys-9e37","kind":"restaurant","name":"Αχάια Κλάους","lat":38.1969102747539,"lng":21.769694421982503,"url":"https://maps.app.goo.gl/wH7qQkNGXbSkx9SY7?g_st=ipc","address":"Πετρωτό 262 23","categoryIds":["wineries-vineyards"],"categories":["Wineries & Vineyards"],"distanceKm":22.626431705792633},{"id":"fishTavernasRestaurants_701e88cdc0f1","slug":"moyrtas-psarotaverna-701e","kind":"restaurant","name":"Μουρτάς Ψαροταβέρνα","lat":38.19791064176577,"lng":21.696505177930376,"url":"https://maps.app.goo.gl/SyckXnzEqa1w9FPR9?g_st=ipc","address":"Palea EO Patras Pyrgou 35-45, Paralia 265 00","categoryIds":["fish-tavernas"],"categories":["Fish Tavernas"],"distanceKm":24.77846926272222},{"id":"fishTavernasRestaurants_b598193b21ce","slug":"gia-psaraki-b598","kind":"restaurant","name":"για ψαράκι","lat":38.16996316334188,"lng":21.67408353856444,"url":"https://maps.app.goo.gl/Mp22UWxr4LuQZaQa6?g_st=ipc","address":"Stavropoulou 101, Monodendri 250 02","categoryIds":["fish-tavernas"],"categories":["Fish Tavernas"],"distanceKm":28.442672011678876},{"id":"municipalities_8571c9b3ef03","slug":"aigio-8571","kind":"municipality","name":"Αίγιο","lat":38.249,"lng":22.105,"aliases":["Aigio","Egio"],"region":"Δυτική Ελλάδα","name_en":"Aigio","region_en":"Western Greece","distanceKm":29.039178459095755},{"id":"wineriesVineyards_b10486ff2d64","slug":"rouvalis-wines-oinoforos-a-e-b104","kind":"restaurant","name":"ROUVALIS WINES (ΟΙΝΟΦΟΡΟΣ Α.Ε.)","lat":38.22055000984663,"lng":22.089166676944025,"url":"https://maps.app.goo.gl/znCHsxFPu7zWUC1b9?g_st=ipc","address":"Αίγιο 251 00","categoryIds":["wineries-vineyards"],"categories":["Wineries & Vineyards"],"distanceKm":29.85955837241862},{"id":"municipalities_73b3488dba8a","slug":"mesologgi-73b3","kind":"municipality","name":"Μεσολόγγι","lat":38.365,"lng":21.262,"region":"Δυτική Ελλάδα","name_en":"Mesolongi","region_en":"Western Greece","distanceKm":49.53596812293774},{"id":"municipalities_a76f9b7cca3a","slug":"andravida-a76f","kind":"municipality","name":"Ανδραβίδα","lat":37.95,"lng":21.2333,"region":"Δυτική Ελλάδα","name_en":"Andravida","region_en":"Western Greece","distanceKm":71.83372619110236},{"id":"municipalities_a02aac135dae","slug":"amaliada-a02a","kind":"municipality","name":"Αμαλιάδα","lat":37.75,"lng":21.3333,"region":"Δυτική Ελλάδα","name_en":"Amaliada","region_en":"Western Greece","distanceKm":83.82503678342444}],"sameRegion":[{"id":"municipalities_4fc540cf4996","slug":"archaia-olympia-4fc5","kind":"municipality","name":"Αρχαία Ολυμπία","lat":37.637,"lng":21.63,"region":"Δυτική Ελλάδα","name_en":"Ancient Olympia","region_en":"Western Greece"},{"id":"municipalities_73b3488dba8a","slug":"mesologgi-73b3","kind":"municipality","name":"Μεσολόγγι","lat":38.365,"lng":21.262,"region":"Δυτική Ελλάδα","name_en":"Mesolongi","region_en":"Western Greece"},{"id":"municipalities_78277dd83f2a","slug":"pyrgos-7827","kind":"municipality","name":"Πύργος","lat":37.675,"lng":21.441,"region":"Δυτική Ελλάδα","name_en":"Pyrgos","region_en":"Western Greece"},{"id":"municipalities_8571c9b3ef03","slug":"aigio-8571","kind":"municipality","name":"Αίγιο","lat":38.249,"lng":22.105,"aliases":["Aigio","Egio"],"region":"Δυτική Ελλάδα","name_en":"Aigio","region_en":"Western Greece"},{"id":"municipalities_9cb35779b9fc","slug":"patra-9cb3","kind":"municipality","name":"Πάτρα","lat":38.2466,"lng":21.7346,"aliases":["Patra","Patrae","Πάτραι","Πάτρη","Πατρα"],"region":"Δυτική Ελλάδα","name_en":"Patras","region_en":"Western Greece"},{"id":"municipalities_a02aac135dae","slug":"amaliada-a02a","kind":"municipality","name":"Αμαλιάδα","lat":37.75,"lng":21.3333,"region":"Δυτική Ελλάδα","name_en":"Amaliada","region_en":"Western Greece"},{"id":"municipalities_a76f9b7cca3a","slug":"andravida-a76f","kind":"municipality","name":"Ανδραβίδα","lat":37.95,"lng":21.2333,"region":"Δυτική Ελλάδα","name_en":"Andravida","region_en":"Western Greece"}],"mentionedGuides":[],"canonicalSlug":"naypaktos-aaff","enrichment":{"summary_en":"Ναύπακτος is a curated neighborhood area in Δυτική Ελλάδα. It is connected to 4 nearby Googlementor picks to help travelers build a stronger local route.","summary_el":"Ναύπακτος είναι ένα επιλεγμένο σημείο ενδιαφέροντος στην περιοχή Δυτική Ελλάδα. Συνδέεται με 4 κοντινές προτάσεις του Googlementor για πιο ολοκληρωμένη εμπειρία.","vibe_tags":["local-neighborhood","base-for-exploring"],"best_for":["first-time visitors","walk-and-explore days","return visitors"],"visit_moments":["late morning walks","sunset exploration"],"practical_note":"4 curated places are within walkable distance from this area center.","nearby_walkable_count":4,"nearby_count_2km":5,"confidence":0.6},"areaContext":null,"intentContexts":[]},"__N_SSG":true}