{"pageProps":{"entity":{"id":"fishTavernasRestaurants_9fc8afd8e173","slug":"psarotaverna-mezedopoleio-oyzeri-o-faros-9fc8","kind":"restaurant","name":"ΨΑΡΟΤΑΒΕΡΝΑ ΜΕΖΕΔΟΠΩΛΕΙΟ ΟΥΖΕΡΙ - Ο ΦΑΡΟΣ","lat":37.927084276139034,"lng":23.632290513272565,"url":"https://maps.app.goo.gl/pREKQTkahQ7imgAJ9?g_st=ipc","address":"Ακτή Θεμιστοκλέους 234, Πειραιάς 185 39","categoryIds":["fish-tavernas"],"categories":["Fish Tavernas"]},"sameCategory":[{"id":"fishTavernasRestaurants_ee4e507362e3","slug":"ormos-afroditis-ee4e","kind":"restaurant","name":"Όρμος Αφροδίτης","lat":37.92911543576971,"lng":23.62978900614557,"url":"https://maps.app.goo.gl/GGis7goggoeEf7AZA?g_st=ipc","address":"Ακτή Θεμιστοκλέους 288, Πειραιάς 185 39","categoryIds":["fish-tavernas"],"categories":["Fish Tavernas"]},{"id":"fishTavernasRestaurants_4025235b4a3d","slug":"to-akri-4025","kind":"restaurant","name":"Το Ακρί","lat":37.928885346895214,"lng":23.628917142027834,"url":"https://maps.app.goo.gl/Po7BZ7burLRsugAE6?g_st=ipc","address":"Ακτή Θεμιστοκλέους 298, Πειραιάς 185 39","categoryIds":["fish-tavernas"],"categories":["Fish Tavernas"]},{"id":"fishTavernasRestaurants_521264f4beec","slug":"diasimos-5212","kind":"restaurant","name":"Διάσημος","lat":37.929473936509254,"lng":23.628330360905995,"url":"https://maps.app.goo.gl/4oTzKcL1ekxnFPHm6?g_st=ipc","address":"Ακτή Θεμιστοκλέους 308, Πειραιάς 185 39","categoryIds":["fish-tavernas"],"categories":["Fish Tavernas"]},{"id":"fishTavernasRestaurants_f8d86bc09dac","slug":"thalassaki-peiraiki-f8d8","kind":"restaurant","name":"Θαλασσάκι Πειραϊκή","lat":37.92967354930952,"lng":23.62815798430667,"url":"https://maps.app.goo.gl/wezeHrVUP5bEMGZo6?g_st=ipc","address":"Ακτή Θεμιστοκλέους 310, Πειραιάς 185 39","categoryIds":["fish-tavernas"],"categories":["Fish Tavernas"]},{"id":"fishTavernasRestaurants_5a2aeee94e01","slug":"thea-thalassa-5a2a","kind":"restaurant","name":"Θέα Θάλασσα","lat":37.93204953324016,"lng":23.62769564704017,"url":"https://maps.app.goo.gl/oH5KxTbr8PoKNwwL6?g_st=ipc","address":"Ακτή Θεμιστοκλέους 344, Πειραιάς 185 39","categoryIds":["fish-tavernas"],"categories":["Fish Tavernas"]},{"id":"fishTavernasRestaurants_e97561328583","slug":"akti-e975","kind":"restaurant","name":"Ακτή","lat":37.93233701473676,"lng":23.627879006589673,"url":"https://maps.app.goo.gl/FLne7XAZGedTHEkr6?g_st=ipc","address":"Ακτή Θεμιστοκλέους 348, Πειραιάς 185 39","categoryIds":["fish-tavernas"],"categories":["Fish Tavernas"]},{"id":"fishTavernasRestaurants_b66c76146a47","slug":"psarotaverna-o-giannis-b66c","kind":"restaurant","name":"Ψαροταβέρνα Ο Γιάννης","lat":37.93499994150365,"lng":23.63212553676847,"url":"https://maps.app.goo.gl/eNuQNp1jpPTuF4Zp6?g_st=ipc","address":"Λεωφ. Χατζηκυριάκου 107, Πειραιάς 185 39","categoryIds":["fish-tavernas"],"categories":["Fish Tavernas"]},{"id":"fishTavernasRestaurants_8f0cb7564598","slug":"margaro-8f0c","kind":"restaurant","name":"Μαργαρώ","lat":37.934632942041354,"lng":23.629156640005732,"url":"https://maps.app.goo.gl/ZboR52iNUWtrrWe79?g_st=ipc","address":"Λεωφ. Χατζηκυριάκου 126, Πειραιάς 185 38","categoryIds":["fish-tavernas"],"categories":["Fish Tavernas"]},{"id":"fishTavernasRestaurants_8bbe1388dc43","slug":"to-yperokeanion-8bbe","kind":"restaurant","name":"Το Υπερωκεάνιον","lat":37.937027133979264,"lng":23.630306101455314,"url":"https://maps.app.goo.gl/8UkxMc6urxkVhCf28?g_st=ipc","address":"Μαρίας Χατζηκυριάκου 48, Πειραιάς 185 38","categoryIds":["fish-tavernas"],"categories":["Fish Tavernas"]},{"id":"fishTavernasRestaurants_159bf25520a5","slug":"varoulko-seaside-restaurant-159b","kind":"restaurant","name":"Varoulko Seaside Restaurant","lat":37.93728962950612,"lng":23.658502308499486,"url":"https://maps.app.goo.gl/hXejEzhnCFuwNgQb8?g_st=ipc","address":"Ακτή Κουμουνδούρου 54, Πειραιάς 185 33","categoryIds":["fish-tavernas","luxury-dining"],"categories":["Fish Tavernas","Luxury Dining"],"legacySlugs":["varoulko-seaside-restaurant-e7d4"]},{"id":"fishTavernasRestaurants_2686f1888d4d","slug":"jimmy-s-fish-2686","kind":"restaurant","name":"Jimmy's Fish","lat":37.937411300998484,"lng":23.658441347658343,"url":"https://maps.app.goo.gl/14E3gTprwmDfYzgz9?g_st=ipc","address":"Ακτή Κουμουνδούρου 52, Πειραιάς 185 33","categoryIds":["fish-tavernas"],"categories":["Fish Tavernas"]},{"id":"fishTavernasRestaurants_948960a20968","slug":"piscis-mikrolimano-9489","kind":"restaurant","name":"PISCIS (Mikrolimano)","lat":37.938490522505944,"lng":23.659032074228165,"url":"https://maps.app.goo.gl/MsZEdpRYJ8p1nqmj9?g_st=ipc","address":"Ακτή Κουμουνδούρου 30, Πειραιάς 185 33","categoryIds":["fish-tavernas"],"categories":["Fish Tavernas"]}],"nearby":[{"id":"fishTavernasRestaurants_ee4e507362e3","slug":"ormos-afroditis-ee4e","kind":"restaurant","name":"Όρμος Αφροδίτης","lat":37.92911543576971,"lng":23.62978900614557,"url":"https://maps.app.goo.gl/GGis7goggoeEf7AZA?g_st=ipc","address":"Ακτή Θεμιστοκλέους 288, Πειραιάς 185 39","categoryIds":["fish-tavernas"],"categories":["Fish Tavernas"],"distanceKm":0.31487829412084306},{"id":"fishTavernasRestaurants_4025235b4a3d","slug":"to-akri-4025","kind":"restaurant","name":"Το Ακρί","lat":37.928885346895214,"lng":23.628917142027834,"url":"https://maps.app.goo.gl/Po7BZ7burLRsugAE6?g_st=ipc","address":"Ακτή Θεμιστοκλέους 298, Πειραιάς 185 39","categoryIds":["fish-tavernas"],"categories":["Fish Tavernas"],"distanceKm":0.357280871344411},{"id":"fishTavernasRestaurants_521264f4beec","slug":"diasimos-5212","kind":"restaurant","name":"Διάσημος","lat":37.929473936509254,"lng":23.628330360905995,"url":"https://maps.app.goo.gl/4oTzKcL1ekxnFPHm6?g_st=ipc","address":"Ακτή Θεμιστοκλέους 308, Πειραιάς 185 39","categoryIds":["fish-tavernas"],"categories":["Fish Tavernas"],"distanceKm":0.4373217349607579},{"id":"fishTavernasRestaurants_f8d86bc09dac","slug":"thalassaki-peiraiki-f8d8","kind":"restaurant","name":"Θαλασσάκι Πειραϊκή","lat":37.92967354930952,"lng":23.62815798430667,"url":"https://maps.app.goo.gl/wezeHrVUP5bEMGZo6?g_st=ipc","address":"Ακτή Θεμιστοκλέους 310, Πειραιάς 185 39","categoryIds":["fish-tavernas"],"categories":["Fish Tavernas"],"distanceKm":0.4628926972592814},{"id":"fishTavernasRestaurants_5a2aeee94e01","slug":"thea-thalassa-5a2a","kind":"restaurant","name":"Θέα Θάλασσα","lat":37.93204953324016,"lng":23.62769564704017,"url":"https://maps.app.goo.gl/oH5KxTbr8PoKNwwL6?g_st=ipc","address":"Ακτή Θεμιστοκλέους 344, Πειραιάς 185 39","categoryIds":["fish-tavernas"],"categories":["Fish Tavernas"],"distanceKm":0.6835474641448334},{"id":"fishTavernasRestaurants_e97561328583","slug":"akti-e975","kind":"restaurant","name":"Ακτή","lat":37.93233701473676,"lng":23.627879006589673,"url":"https://maps.app.goo.gl/FLne7XAZGedTHEkr6?g_st=ipc","address":"Ακτή Θεμιστοκλέους 348, Πειραιάς 185 39","categoryIds":["fish-tavernas"],"categories":["Fish Tavernas"],"distanceKm":0.7006090929254416},{"id":"fishTavernasRestaurants_b66c76146a47","slug":"psarotaverna-o-giannis-b66c","kind":"restaurant","name":"Ψαροταβέρνα Ο Γιάννης","lat":37.93499994150365,"lng":23.63212553676847,"url":"https://maps.app.goo.gl/eNuQNp1jpPTuF4Zp6?g_st=ipc","address":"Λεωφ. Χατζηκυριάκου 107, Πειραιάς 185 39","categoryIds":["fish-tavernas"],"categories":["Fish Tavernas"],"distanceKm":0.880300751620953},{"id":"fishTavernasRestaurants_8f0cb7564598","slug":"margaro-8f0c","kind":"restaurant","name":"Μαργαρώ","lat":37.934632942041354,"lng":23.629156640005732,"url":"https://maps.app.goo.gl/ZboR52iNUWtrrWe79?g_st=ipc","address":"Λεωφ. Χατζηκυριάκου 126, Πειραιάς 185 38","categoryIds":["fish-tavernas"],"categories":["Fish Tavernas"],"distanceKm":0.8832294347271673},{"id":"fishTavernasRestaurants_8bbe1388dc43","slug":"to-yperokeanion-8bbe","kind":"restaurant","name":"Το Υπερωκεάνιον","lat":37.937027133979264,"lng":23.630306101455314,"url":"https://maps.app.goo.gl/8UkxMc6urxkVhCf28?g_st=ipc","address":"Μαρίας Χατζηκυριάκου 48, Πειραιάς 185 38","categoryIds":["fish-tavernas"],"categories":["Fish Tavernas"],"distanceKm":1.119210094591568},{"id":"asianRestaurants_48bbff4f4936","slug":"kitschen-48bb","kind":"restaurant","name":"Kitschen","lat":37.936566769814284,"lng":23.63928965922229,"url":"https://maps.app.goo.gl/1zPoyQ3qoTUyktA49?g_st=ipc","address":"Κανάρη 5, Πειραιάς 185 37","categoryIds":["asian"],"categories":["Asian Restaurants"],"distanceKm":1.2200768733937306},{"id":"burgersRestaurants_51cd3df73f20","slug":"mpar-mpee-kioy-freattyda-51cd","kind":"restaurant","name":"Μπαρ Μπεε Κιου - Φρεαττύδα","lat":37.93450645446817,"lng":23.642685440187794,"url":"https://maps.app.goo.gl/UkJPpNzXrBGL944RA?g_st=ipc","address":"Λεωφ. Φρεάττυδος 13, Πειραιάς 185 37","categoryIds":["burgers","cheap-eats"],"categories":["Burger Spots","Gyros & Cheap Eats"],"legacySlugs":["mpar-mpee-kioy-freattyda-b711"],"distanceKm":1.2297623884804554},{"id":"coffeeBrunchRestaurants_4ee8e575619a","slug":"modish-coffee-graze-and-booze-4ee8","kind":"restaurant","name":"modish coffee, graze and booze","lat":37.936912830564985,"lng":23.639147286687205,"url":"https://maps.app.goo.gl/Fa2QfE64sQhorAFE9?g_st=ipc","address":"Ακτή Μιαούλη 81, Πειραιάς 185 38","categoryIds":["coffee-brunch"],"categories":["Coffee & Brunch Spots"],"distanceKm":1.24741331093853},{"id":"dessertsRestaurants_485012761632","slug":"galaktopoleio-stamoy-peiraia-4850","kind":"restaurant","name":"Γαλακτοπωλείο ΣΤΑΜΟΥ, Πειραιά","lat":37.93559337890928,"lng":23.64309227138255,"url":"https://maps.app.goo.gl/msTiobs8vpLYrcz57?g_st=ipc","address":"Λεωφ. Αφεντούλη 16 &, Πραξιτέλους 243, Πειραιάς 185 36","categoryIds":["desserts"],"categories":["Dessert Shops"],"distanceKm":1.3389315644735684},{"id":"monasteriesChurches_616a7205bceb","slug":"ieros-naos-agioy-nikolaoy-616a","kind":"restaurant","name":"Ιερός Ναός Αγίου Νικολάου","lat":37.93852657714825,"lng":23.640083861716022,"url":"https://maps.app.goo.gl/yhWmXb3651phCnDF8?g_st=ipc","address":"Αγίου Νικολάου 2, Πειραιάς 185 37","categoryIds":["monasteries-churches"],"categories":["Monasteries & Spiritual Sites"],"distanceKm":1.4442941332384172},{"id":"italianRestaurants_5ab192a29154","slug":"pizza-tros-5ab1","kind":"restaurant","name":"Pizza Tros","lat":37.93310764502524,"lng":23.647126189869965,"url":"https://maps.app.goo.gl/R29dtEiZf13f8My98?g_st=ipc","address":"Μαρίνα Ζέας, Πειραιάς 185 36","categoryIds":["italian"],"categories":["Italian Restaurants"],"distanceKm":1.4634421498056125},{"id":"asianRestaurants_7724da0cbe7e","slug":"ten-modern-asian-7724","kind":"restaurant","name":"Ten Modern Asian","lat":37.93291413644206,"lng":23.647263058130683,"url":"https://maps.app.goo.gl/updMqDsRmH6egHAL7?g_st=ipc","address":"Μαρίνα Ζέας, Πειραιάς 185 36","categoryIds":["asian"],"categories":["Asian Restaurants"],"distanceKm":1.4644762957073656},{"id":"luxuryDiningRestaurants_e93ed529fdfa","slug":"hams-clams-e93e","kind":"restaurant","name":"Hams & Clams","lat":37.93313157813386,"lng":23.64744436080488,"url":"https://maps.app.goo.gl/KsnmFZ1WnGooiyEV7?g_st=ipc","address":"Λιμάνι, Μαρίνα Ζέας, Πειραιάς 185 37","categoryIds":["luxury-dining"],"categories":["Luxury Dining"],"distanceKm":1.4895077851773295},{"id":"cheapEatsRestaurants_ff4578059709","slug":"story-streat-ff45","kind":"restaurant","name":"Story Streat","lat":37.93927555121359,"lng":23.639905760009334,"url":"https://maps.app.goo.gl/EXsQn9E1PkJeJjZU9?g_st=ipc","address":"301 Ακτή Μιαούλη, Enanti Agiou Nikolaou, Πειραιάς 185 35","categoryIds":["cheap-eats"],"categories":["Gyros & Cheap Eats"],"distanceKm":1.5112022508378038},{"id":"italianRestaurants_5214577033fb","slug":"portofino-cucina-italiana-5214","kind":"restaurant","name":"Portofino Cucina Italiana","lat":37.933560056703215,"lng":23.64800969933006,"url":"https://maps.app.goo.gl/V1DfNbY33j2yeRfy7?g_st=ipc","address":"Μαρίνα Ζέας, Πειραιάς 185 36","categoryIds":["italian"],"categories":["Italian Restaurants"],"distanceKm":1.5553868898602232},{"id":"asianRestaurants_4f2a760fc2e5","slug":"rouan-thai-4f2a","kind":"restaurant","name":"Rouan Thai","lat":37.939187297472465,"lng":23.64209685014842,"url":"https://maps.app.goo.gl/s9uo8VDSoDevpowm6?g_st=ipc","address":"Νοταρά 131, Πειραιάς 185 36","categoryIds":["asian"],"categories":["Asian Restaurants"],"distanceKm":1.5971331954220886},{"id":"italianRestaurants_245a69e4c28d","slug":"italida-restaurant-245a","kind":"restaurant","name":"Italida Restaurant","lat":37.939531794803344,"lng":23.64139153468878,"url":"https://maps.app.goo.gl/vJFoPpuhcPupJ3ju7?g_st=ipc","address":"Φιλελλήνων 9, Πειραιάς 185 36","categoryIds":["italian"],"categories":["Italian Restaurants"],"distanceKm":1.5977575812346716},{"id":"greekRestaurants_559e0d9ef868","slug":"marigo-edesmatopoleio-559e","kind":"restaurant","name":"Μαριγώ Εδεσματοπωλείο","lat":37.93961721991741,"lng":23.641779536091324,"url":"https://maps.app.goo.gl/4advyD22Ta7qiUEv7","address":"Φίλωνος 133, Πειραιάς 185 36","categoryIds":["greek-restaurants"],"categories":["Greek Restaurants"],"distanceKm":1.6231738889395084},{"id":"cheapEatsRestaurants_338abca2bc3e","slug":"jackaroo-338a","kind":"restaurant","name":"Jackaroo","lat":37.940156634414215,"lng":23.643183475106575,"url":"https://maps.app.goo.gl/QjFk2WWeE9jasgmR8?g_st=ipc","address":"Κολοκοτρώνη 126, Πειραιάς 185 35","categoryIds":["cheap-eats"],"categories":["Gyros & Cheap Eats"],"distanceKm":1.7394136120628194},{"id":"dessertsRestaurants_7b04a6c0e5e9","slug":"loukoumother-s-peiraias-7b04","kind":"restaurant","name":"Loukoumother's Πειραιάς","lat":37.93905157733481,"lng":23.647294517023667,"url":"https://maps.app.goo.gl/n5Dp63fF47u9TZuz6?g_st=ipc","address":"Ακτή Μουτσοπούλου 12, Πειραιάς 185 35","categoryIds":["desserts"],"categories":["Dessert Shops"],"distanceKm":1.8714545521042003}],"sameRegion":[],"mentionedGuides":[],"canonicalSlug":"psarotaverna-mezedopoleio-oyzeri-o-faros-9fc8","enrichment":{"summary_en":"ΨΑΡΟΤΑΒΕΡΝΑ ΜΕΖΕΔΟΠΩΛΕΙΟ ΟΥΖΕΡΙ - Ο ΦΑΡΟΣ is a curated restaurant in Πειραιάς 185 39 in the Fish Tavernas collection. It is connected to 6 nearby Googlementor picks to help travelers build a stronger local route.","summary_el":"ΨΑΡΟΤΑΒΕΡΝΑ ΜΕΖΕΔΟΠΩΛΕΙΟ ΟΥΖΕΡΙ - Ο ΦΑΡΟΣ είναι ένα επιλεγμένο σημείο φαγητού στην περιοχή Πειραιάς 185 39 και ανήκει στη συλλογή Fish Tavernas. Συνδέεται με 6 κοντινές προτάσεις του Googlementor για πιο ολοκληρωμένη εμπειρία.","vibe_tags":["curated","seafood-local"],"best_for":["first-time visitors","food lovers"],"visit_moments":["lunch stop","dinner stop"],"practical_note":"Address and direct map link are available for easy turn-by-turn access.","nearby_walkable_count":6,"nearby_count_2km":30,"confidence":0.98},"areaContext":{"slug":"kastella","name":"Kastella","nameEl":"Καστέλλα"},"intentContexts":[{"href":"/fish-tavernas/kastella","label":"Fish Tavernas in Kastella","categorySlug":"fish-tavernas","categoryName":"Fish Tavernas","areaSlug":"kastella","areaName":"Kastella","areaNameEl":"Καστέλλα"}]},"__N_SSG":true}