{"pageProps":{"entity":{"id":"municipalities_4fc540cf4996","slug":"archaia-olympia-4fc5","kind":"municipality","name":"Αρχαία Ολυμπία","lat":37.637,"lng":21.63,"region":"Δυτική Ελλάδα","name_en":"Ancient Olympia","region_en":"Western Greece"},"sameCategory":[],"nearby":[{"id":"mustSeeAttractions_9807d4208c78","slug":"archaeological-site-of-olympia-9807","kind":"restaurant","name":"Archaeological Site of Olympia","lat":37.638459018633775,"lng":21.62988056909868,"url":"https://maps.app.goo.gl/XwgzhKtMosL3r1vr5?g_st=ipc","address":"Archaia Olympia 270 65","categoryIds":["attractions"],"categories":["Must-See Attractions"],"distanceKm":0.16257595594735608},{"id":"municipalities_78277dd83f2a","slug":"pyrgos-7827","kind":"municipality","name":"Πύργος","lat":37.675,"lng":21.441,"region":"Δυτική Ελλάδα","name_en":"Pyrgos","region_en":"Western Greece","distanceKm":17.16624798123564},{"id":"municipalities_a02aac135dae","slug":"amaliada-a02a","kind":"municipality","name":"Αμαλιάδα","lat":37.75,"lng":21.3333,"region":"Δυτική Ελλάδα","name_en":"Amaliada","region_en":"Western Greece","distanceKm":28.97240479169249},{"id":"mustSeeAttractions_6898f516936d","slug":"temple-of-apollo-epicurius-at-bassae-of-phigaleia-6898","kind":"restaurant","name":"Temple of Apollo Epicurius at Bassae of Phigaleia","lat":37.42992485152253,"lng":21.900009196247805,"url":"https://maps.app.goo.gl/PVQYbF6evZv9zjAc9?g_st=ipc","address":"Figaleia 270 61","categoryIds":["attractions"],"categories":["Must-See Attractions"],"distanceKm":33.12151261422804},{"id":"municipalities_a76f9b7cca3a","slug":"andravida-a76f","kind":"municipality","name":"Ανδραβίδα","lat":37.95,"lng":21.2333,"region":"Δυτική Ελλάδα","name_en":"Andravida","region_en":"Western Greece","distanceKm":49.25811986244114},{"id":"municipalities_9cb35779b9fc","slug":"patra-9cb3","kind":"municipality","name":"Πάτρα","lat":38.2466,"lng":21.7346,"aliases":["Patra","Patrae","Πάτραι","Πάτρη","Πατρα"],"region":"Δυτική Ελλάδα","name_en":"Patras","region_en":"Western Greece","distanceKm":68.40221614936786},{"id":"municipalities_8571c9b3ef03","slug":"aigio-8571","kind":"municipality","name":"Αίγιο","lat":38.249,"lng":22.105,"aliases":["Aigio","Egio"],"region":"Δυτική Ελλάδα","name_en":"Aigio","region_en":"Western Greece","distanceKm":79.78667824931054},{"id":"municipalities_aaffd66d297b","slug":"naypaktos-aaff","kind":"municipality","name":"Ναύπακτος","lat":38.395,"lng":21.829,"region":"Δυτική Ελλάδα","name_en":"Nafpaktos","region_en":"Western Greece","distanceKm":86.06967992835116},{"id":"municipalities_73b3488dba8a","slug":"mesologgi-73b3","kind":"municipality","name":"Μεσολόγγι","lat":38.365,"lng":21.262,"region":"Δυτική Ελλάδα","name_en":"Mesolongi","region_en":"Western Greece","distanceKm":87.1353562961159}],"sameRegion":[{"id":"municipalities_73b3488dba8a","slug":"mesologgi-73b3","kind":"municipality","name":"Μεσολόγγι","lat":38.365,"lng":21.262,"region":"Δυτική Ελλάδα","name_en":"Mesolongi","region_en":"Western Greece"},{"id":"municipalities_78277dd83f2a","slug":"pyrgos-7827","kind":"municipality","name":"Πύργος","lat":37.675,"lng":21.441,"region":"Δυτική Ελλάδα","name_en":"Pyrgos","region_en":"Western Greece"},{"id":"municipalities_8571c9b3ef03","slug":"aigio-8571","kind":"municipality","name":"Αίγιο","lat":38.249,"lng":22.105,"aliases":["Aigio","Egio"],"region":"Δυτική Ελλάδα","name_en":"Aigio","region_en":"Western Greece"},{"id":"municipalities_9cb35779b9fc","slug":"patra-9cb3","kind":"municipality","name":"Πάτρα","lat":38.2466,"lng":21.7346,"aliases":["Patra","Patrae","Πάτραι","Πάτρη","Πατρα"],"region":"Δυτική Ελλάδα","name_en":"Patras","region_en":"Western Greece"},{"id":"municipalities_a02aac135dae","slug":"amaliada-a02a","kind":"municipality","name":"Αμαλιάδα","lat":37.75,"lng":21.3333,"region":"Δυτική Ελλάδα","name_en":"Amaliada","region_en":"Western Greece"},{"id":"municipalities_a76f9b7cca3a","slug":"andravida-a76f","kind":"municipality","name":"Ανδραβίδα","lat":37.95,"lng":21.2333,"region":"Δυτική Ελλάδα","name_en":"Andravida","region_en":"Western Greece"},{"id":"municipalities_aaffd66d297b","slug":"naypaktos-aaff","kind":"municipality","name":"Ναύπακτος","lat":38.395,"lng":21.829,"region":"Δυτική Ελλάδα","name_en":"Nafpaktos","region_en":"Western Greece"}],"mentionedGuides":[],"canonicalSlug":"archaia-olympia-4fc5","enrichment":{"summary_en":"Αρχαία Ολυμπία is a curated neighborhood area in Δυτική Ελλάδα. It is connected to 1 nearby Googlementor picks to help travelers build a stronger local route.","summary_el":"Αρχαία Ολυμπία είναι ένα επιλεγμένο σημείο ενδιαφέροντος στην περιοχή Δυτική Ελλάδα. Συνδέεται με 1 κοντινές προτάσεις του Googlementor για πιο ολοκληρωμένη εμπειρία.","vibe_tags":["local-neighborhood","base-for-exploring"],"best_for":["first-time visitors","walk-and-explore days","return visitors"],"visit_moments":["late morning walks","sunset exploration"],"practical_note":"1 curated places are within walkable distance from this area center.","nearby_walkable_count":1,"nearby_count_2km":1,"confidence":0.55},"areaContext":null,"intentContexts":[]},"__N_SSG":true}