{"pageProps":{"entity":{"id":"greekRestaurants_93f1c5af7d4e","slug":"evgenia-restaurant-93f1","kind":"restaurant","name":"Evgenia Restaurant","lat":37.9738473626084,"lng":23.732008770618236,"url":"https://maps.app.goo.gl/snfb8zhcUBZxSoPx9","address":"Βουλής 44Α, Αθήνα 105 58","categoryIds":["greek-restaurants"],"categories":["Greek Restaurants"]},"sameCategory":[{"id":"greekRestaurants_3e896dd5b050","slug":"spit-jack-3e89","kind":"restaurant","name":"Spit Jack","lat":37.97409123224814,"lng":23.732567622429254,"url":"https://maps.app.goo.gl/WP3HmHeYBBcXxVPM6","address":"Σκούφου 10, Αθήνα 105 57","categoryIds":["greek-restaurants"],"categories":["Greek Restaurants"]},{"id":"greekRestaurants_2ce35eba5f67","slug":"aspro-alogo-i-e-white-horse-traditional-greek-food-2ce3","kind":"restaurant","name":"Aspro Alogo (i.e. White Horse) Traditional Greek Food","lat":37.9748589013975,"lng":23.731279347476626,"url":"https://maps.app.goo.gl/Lo9db7KSrAQMHjXi6","address":"Απόλλωνος, Αθήνα 105 57","categoryIds":["greek-restaurants"],"categories":["Greek Restaurants"]},{"id":"greekRestaurants_75bff303ba08","slug":"symposio-restaurant-75bf","kind":"restaurant","name":"Symposio Restaurant","lat":37.97466836386933,"lng":23.73070242967316,"url":"https://maps.app.goo.gl/tMkNDw4cpv1tsuv86?g_st=ipc","address":"Apollonos 22, Athina 105 56","categoryIds":["greek-restaurants"],"categories":["Greek Restaurants"]},{"id":"greekRestaurants_4d35ec674015","slug":"taverna-saita-4d35","kind":"restaurant","name":"Taverna Saita","lat":37.97248143588815,"lng":23.732031545694568,"url":"https://maps.app.goo.gl/SCwWcqyGvhz7WVrE8","address":"Κυδαθηναίων 21, Αθήνα 105 58","categoryIds":["greek-restaurants"],"categories":["Greek Restaurants"]},{"id":"greekRestaurants_e299a6be96f9","slug":"to-kafeneio-e299","kind":"restaurant","name":"Το Καφενείο","lat":37.97255962660001,"lng":23.729567011443763,"url":"https://maps.app.goo.gl/3s8YnKNXM61cpsz69","address":"Επιχάρμου 1, Αθήνα 105 58","categoryIds":["greek-restaurants"],"categories":["Greek Restaurants"]},{"id":"greekRestaurants_9a0e0e6e3a9d","slug":"feedel-urban-gastronomy-9a0e","kind":"restaurant","name":"Feedέλ Urban Gastronomy","lat":37.976600766846424,"lng":23.729911306320325,"url":"https://maps.app.goo.gl/Uppwoqd1GbSaLvCe7","address":"Κτενά 1, Αθήνα 105 63","categoryIds":["greek-restaurants","luxury-dining"],"categories":["Greek Restaurants","Luxury Dining"],"legacySlugs":["feedel-urban-gastronomy-858d"]},{"id":"greekRestaurants_60d2190d08b8","slug":"aerides-mezedopoleio-plaka-60d2","kind":"restaurant","name":"Αέρηδες Μεζεδοπωλείο Πλάκα","lat":37.974495755428926,"lng":23.72798871305526,"url":"https://maps.app.goo.gl/Cx6gQQWkCy2n1mXw6","address":"Διογένους 3, Αθήνα 105 56","categoryIds":["greek-restaurants"],"categories":["Greek Restaurants"]},{"id":"greekRestaurants_193dd3b500da","slug":"to-paradosiako-193d","kind":"restaurant","name":"Το Παραδοσιακό","lat":37.977707115390295,"lng":23.728787167486587,"url":"https://maps.app.goo.gl/NeJoupJj8mkFs1fXA","address":"Κολοκοτρώνη 59, Αθήνα 105 60","categoryIds":["greek-restaurants"],"categories":["Greek Restaurants"]},{"id":"greekRestaurants_62e8feb8d72b","slug":"eatery-bairaktaris-aiolou-29-62e8","kind":"restaurant","name":"Eatery Bairaktaris Aiolou 29","lat":37.97741431797203,"lng":23.727650746109706,"url":"https://maps.app.goo.gl/QiyDhjXfeNsDkt9k7","address":"Αιόλου 29, Αθήνα 105 51","categoryIds":["greek-restaurants"],"categories":["Greek Restaurants"]},{"id":"greekRestaurants_60fc17fb1af0","slug":"eycharis-mezedopoleio-60fc","kind":"restaurant","name":"Ευχαρις Μεζεδοπωλείο","lat":37.97570405558301,"lng":23.72549560715114,"url":"https://maps.app.goo.gl/RANm4cQqR929BJSE7","address":"Αδριανού 49Α, Αθήνα 105 55","categoryIds":["greek-restaurants"],"categories":["Greek Restaurants"]},{"id":"greekRestaurants_77b3530742da","slug":"maiandros-restaurant-77b3","kind":"restaurant","name":"Maiandros Restaurant","lat":37.97572091133567,"lng":23.725354400404825,"url":"https://maps.app.goo.gl/6vSRNbnm7hVmc1NH6","address":"Αδριανού 47, Αθήνα 105 55","categoryIds":["greek-restaurants"],"categories":["Greek Restaurants"]},{"id":"greekRestaurants_4e928b322f7b","slug":"dopios-athens-4e92","kind":"restaurant","name":"Dopios Athens","lat":37.9792133312479,"lng":23.729886930144186,"url":"https://maps.app.goo.gl/nEVnGCyfc79ueYWh7","address":"Σκουλενίου 1, Αθήνα 105 61","categoryIds":["greek-restaurants"],"categories":["Greek Restaurants"]}],"nearby":[{"id":"luxuryDiningRestaurants_d7864d62c4d5","slug":"electra-roof-garden-d786","kind":"restaurant","name":"Electra Roof Garden","lat":37.97379853875271,"lng":23.731619747681133,"url":"https://maps.app.goo.gl/DRSR8qGkR5GU1Bts9?g_st=ipc","address":"Ναυάρχου Νικοδήμου 18-20, Αθήνα 105 57","categoryIds":["luxury-dining","rooftop-lounges"],"categories":["Luxury Dining","Rooftop Lounges"],"legacySlugs":["electra-roof-garden-e530"],"distanceKm":0.03452890983840037},{"id":"greekRestaurants_3e896dd5b050","slug":"spit-jack-3e89","kind":"restaurant","name":"Spit Jack","lat":37.97409123224814,"lng":23.732567622429254,"url":"https://maps.app.goo.gl/WP3HmHeYBBcXxVPM6","address":"Σκούφου 10, Αθήνα 105 57","categoryIds":["greek-restaurants"],"categories":["Greek Restaurants"],"distanceKm":0.05599033862110271},{"id":"asianRestaurants_ddcb57380116","slug":"ekiben-kitchen-ddcb","kind":"restaurant","name":"EKIBEN KITCHEN","lat":37.97373780649657,"lng":23.73268249015655,"url":"https://maps.app.goo.gl/phQR869HE6dZNJGS9?g_st=ipc","address":"Σκούφου 15, Αθήνα 105 57","categoryIds":["asian","burgers"],"categories":["Asian Restaurants","Burger Spots"],"legacySlugs":["ekiben-kitchen-bf81"],"distanceKm":0.06029768892835306},{"id":"asianRestaurants_d2dfba8aa86e","slug":"ikigai-japanese-market-d2df","kind":"restaurant","name":"Ikigai Japanese Market","lat":37.9738141066951,"lng":23.732787828654633,"url":"https://maps.app.goo.gl/qkTpkDkptgwCVeF68?g_st=ipc","address":"Σκούφου 15, Αθήνα 105 57","categoryIds":["asian"],"categories":["Asian Restaurants"],"distanceKm":0.06838764730858053},{"id":"vegetarianRestaurants_b15388cdd5d4","slug":"wild-souls-athens-voulis-b153","kind":"restaurant","name":"Wild Souls Athens Voulis","lat":37.97449199299614,"lng":23.73213651821812,"url":"https://maps.app.goo.gl/ynTY6phLf8WCv9oj7?g_st=ipc","address":"Βουλής 36, Αθήνα 105 57","categoryIds":["vegetarian"],"categories":["Vegetarian Friendly Restaurants"],"distanceKm":0.07254897759962263},{"id":"asianRestaurants_0d95e4345c8a","slug":"sushimou-0d95","kind":"restaurant","name":"Sushimou","lat":37.97442757213257,"lng":23.73246192997683,"url":"https://maps.app.goo.gl/1y3Cs2ks6GF4C85F6?g_st=ipc","address":"Σκούφου 6, Αθήνα 105 57","categoryIds":["asian","luxury-dining"],"categories":["Asian Restaurants","Luxury Dining"],"legacySlugs":["sushimou-47da"],"distanceKm":0.07576361341603575},{"id":"vegetarianRestaurants_8f0cf3873ae8","slug":"4-seasons-bio-organic-food-market-8f0c","kind":"restaurant","name":"4 Seasons Bio - Organic Food Market","lat":37.97393047054411,"lng":23.732888082947863,"url":"https://maps.app.goo.gl/VntknhKAe4PaVfpM6?g_st=ipc","address":"Νίκης 30, Αθήνα 105 57","categoryIds":["vegetarian"],"categories":["Vegetarian Friendly Restaurants"],"distanceKm":0.07762725512145048},{"id":"vegetarianRestaurants_8d8ca2489312","slug":"avocado-8d8c","kind":"restaurant","name":"Avocado","lat":37.97391324129181,"lng":23.73289192634984,"url":"https://maps.app.goo.gl/MrghLEMjktpmCFH58?g_st=ipc","address":"Νίκης 30, Αθήνα 105 57","categoryIds":["vegetarian"],"categories":["Vegetarian Friendly Restaurants"],"distanceKm":0.07775795145037427},{"id":"coffeeBrunchRestaurants_2fddcd2fe039","slug":"neropistolo-2fdd","kind":"restaurant","name":"Neropistolo","lat":37.974517291275795,"lng":23.7322749472112,"url":"https://maps.app.goo.gl/BtaYzYAqPmjvET4H6?g_st=ipc","address":"Βουλής 35, Αθήνα 105 57","categoryIds":["coffee-brunch"],"categories":["Coffee & Brunch Spots"],"distanceKm":0.07806093428859197},{"id":"vegetarianRestaurants_43a8a2b5eb46","slug":"winners-vegan-43a8","kind":"restaurant","name":"Winners Vegan","lat":37.97376452131408,"lng":23.73300918304916,"url":"https://maps.app.goo.gl/DFHjTpp5KFC8PQMg6?g_st=ipc","address":"Νίκης 27, Αθήνα 105 57","categoryIds":["vegetarian"],"categories":["Vegetarian Friendly Restaurants"],"distanceKm":0.08817272845306126},{"id":"burgersRestaurants_49b08b8052e0","slug":"birdman-49b0","kind":"restaurant","name":"Birdman","lat":37.97462442043903,"lng":23.73232607660368,"url":"https://maps.app.goo.gl/hqjbsZtLtS6aPvv9A?g_st=ipc","address":"Βουλής 35, Αθήνα 105 57","categoryIds":["burgers"],"categories":["Burger Spots"],"distanceKm":0.09077096398399782},{"id":"asianRestaurants_7b8b9814562d","slug":"pink-flamingo-dim-sum-7b8b","kind":"restaurant","name":"Pink Flamingo Dim Sum","lat":37.97460809363569,"lng":23.732494338257986,"url":"https://maps.app.goo.gl/fYsHDCdPt7Ag7nwx7?g_st=ipc","address":"Σκούφου 2-4, Αθήνα 105 57","categoryIds":["asian"],"categories":["Asian Restaurants"],"distanceKm":0.09469357833399883},{"id":"mexicanRestaurants_33052426e7a2","slug":"mamacita-taqueria-y-cocteleria-3305","kind":"restaurant","name":"Mamacita - Taquería y Coctelería","lat":37.97469687554734,"lng":23.731910676858394,"url":"https://maps.app.goo.gl/KcBA2GUcjk1cY9FJ8?g_st=ipc","address":"Απόλλωνος 9Β, Αθήνα 105 57","categoryIds":["mexican"],"categories":["Mexican Restaurants"],"distanceKm":0.0948520458179856},{"id":"asianRestaurants_c79d456ae7d7","slug":"noodle-bar-c79d","kind":"restaurant","name":"Noodle Bar","lat":37.97469670323124,"lng":23.731836375056524,"url":"https://maps.app.goo.gl/2JAZWHPydSGiN1Vz5?g_st=ipc","address":"Απόλλωνος 11, Αθήνα 105 57","categoryIds":["asian"],"categories":["Asian Restaurants"],"distanceKm":0.095643638803252},{"id":"luxuryDiningRestaurants_737b98c16994","slug":"anthes-restaurant-737b","kind":"restaurant","name":"ANTHES RESTAURANT","lat":37.974547276465074,"lng":23.732673103940233,"url":"https://maps.app.goo.gl/RDyBCidSMuRkERcq8?g_st=ipc","address":"Σκούφου 3, Αθήνα 105 57","categoryIds":["luxury-dining"],"categories":["Luxury Dining"],"distanceKm":0.09720029134141579},{"id":"italianRestaurants_4213a3098622","slug":"ami-italian-bistrot-4213","kind":"restaurant","name":"Ami Italian Bistrot","lat":37.97469248298705,"lng":23.732316050865755,"url":"https://maps.app.goo.gl/ddcDFfjhHBSTkLzH8?g_st=ipc","address":"Βουλής, Απόλλωνος &, Αθήνα 105 57","categoryIds":["italian"],"categories":["Italian Restaurants"],"distanceKm":0.097756812143728},{"id":"luxuryDiningRestaurants_165813797a98","slug":"aneton-1658","kind":"restaurant","name":"ΑΝΕΤΟΝ","lat":37.973499757295556,"lng":23.733045100192022,"url":"https://maps.app.goo.gl/tZNVrAuGYm6zBKgh9?g_st=ipc","address":"Ναυάρχου Νικοδήμου 3, Αθήνα 105 57","categoryIds":["luxury-dining"],"categories":["Luxury Dining"],"distanceKm":0.09872000715597085},{"id":"coffeeBrunchRestaurants_72ee5296056d","slug":"holy-llama-72ee","kind":"restaurant","name":"Holy Llama","lat":37.97397500358649,"lng":23.73312528899751,"url":"https://maps.app.goo.gl/5KzgeBBfEf77x8sL7?g_st=ipc","address":"Nikis, Syntagma 23, Αθήνα 105 57","categoryIds":["coffee-brunch","vegetarian"],"categories":["Coffee & Brunch Spots","Vegetarian Friendly Restaurants"],"legacySlugs":["holy-llama-4c1a"],"distanceKm":0.09889106245737968},{"id":"luxuryDiningRestaurants_bbd06feb8236","slug":"okio-restaurant-fine-dining-athens-bbd0","kind":"restaurant","name":"Okio Restaurant Fine Dining Athens","lat":37.973490463159685,"lng":23.733043418426053,"url":"https://maps.app.goo.gl/Z185a4BudLXiNxEu8?g_st=ipc","address":"Nikis 33 &, Ναυάρχου Νικοδήμου 3, Αθήνα 105 57","categoryIds":["luxury-dining"],"categories":["Luxury Dining"],"distanceKm":0.09899413817621505},{"id":"burgersRestaurants_fed9fc98ba72","slug":"lobby-athens-fed9","kind":"restaurant","name":"Lobby Athens","lat":37.97480226330857,"lng":23.732216902854162,"url":"https://maps.app.goo.gl/McpvxRFgv3HSY4VF6?g_st=ipc","address":"Βουλής 30, Αθήνα 105 57","categoryIds":["burgers"],"categories":["Burger Spots"],"distanceKm":0.10773598373335283},{"id":"rooftopLoungesRestaurants_ffccd88e3b0f","slug":"thea-terrace-bar-ffcc","kind":"restaurant","name":"Thea Terrace Bar","lat":37.97456272302777,"lng":23.731138501787182,"url":"https://maps.app.goo.gl/KVbnoHN86FaFe6Ch8?g_st=ipc","address":"Απόλλωνος 21, Αθήνα 105 57","categoryIds":["rooftop-lounges"],"categories":["Rooftop Lounges"],"distanceKm":0.11021022690981332},{"id":"asianRestaurants_e28b11d8898b","slug":"nolan-e28b","kind":"restaurant","name":"Nolan","lat":37.97479795746223,"lng":23.732371775380916,"url":"https://maps.app.goo.gl/X3KiMCEXwDEoAj3N6?g_st=ipc","address":"Βουλής 31 - 33, Αθήνα 105 57","categoryIds":["asian","luxury-dining"],"categories":["Asian Restaurants","Luxury Dining"],"legacySlugs":["nolan-d22b"],"distanceKm":0.1103865712966439},{"id":"dessertsRestaurants_46c9cba5969e","slug":"sweet-nolan-46c9","kind":"restaurant","name":"Sweet Nolan","lat":37.9747984209274,"lng":23.73248311530336,"url":"https://maps.app.goo.gl/vVwFTAJ3a7QrKyTr5?g_st=ipc","address":"Απόλλωνος 6Β, Αθήνα 105 57","categoryIds":["desserts"],"categories":["Dessert Shops"],"distanceKm":0.11363271498225033},{"id":"italianRestaurants_8dc12f0e929e","slug":"ovio-8dc1","kind":"restaurant","name":"OVIO","lat":37.974772406489194,"lng":23.732726038133688,"url":"https://maps.app.goo.gl/YsVGa9MzZPoFLxFs9?g_st=ipc","address":"Απόλλωνος 4, Αθήνα 105 57","categoryIds":["italian"],"categories":["Italian Restaurants"],"distanceKm":0.12055281089247032}],"sameRegion":[],"mentionedGuides":[],"canonicalSlug":"evgenia-restaurant-93f1","enrichment":{"summary_en":"Evgenia Restaurant is a curated restaurant in Αθήνα 105 58 in the Greek Restaurants collection. It is connected to 281 nearby Googlementor picks to help travelers build a stronger local route.","summary_el":"Evgenia Restaurant είναι ένα επιλεγμένο σημείο φαγητού στην περιοχή Αθήνα 105 58 και ανήκει στη συλλογή Greek Restaurants. Συνδέεται με 281 κοντινές προτάσεις του Googlementor για πιο ολοκληρωμένη εμπειρία.","vibe_tags":["curated"],"best_for":["first-time visitors","food lovers"],"visit_moments":["lunch stop","dinner stop"],"practical_note":"Address and direct map link are available for easy turn-by-turn access.","nearby_walkable_count":281,"nearby_count_2km":660,"confidence":0.98},"areaContext":{"slug":"plaka","name":"Plaka","nameEl":"Πλάκα"},"intentContexts":[{"href":"/greek-restaurants/plaka","label":"Greek Restaurants in Plaka","categorySlug":"greek-restaurants","categoryName":"Greek Restaurants","areaSlug":"plaka","areaName":"Plaka","areaNameEl":"Πλάκα"}]},"__N_SSG":true}