{"pageProps":{"entity":{"id":"dessertsRestaurants_9d142e026cde","slug":"gelati-e-amore-9d14","kind":"restaurant","name":"Gelati e Amore","lat":40.63013548543496,"lng":22.951618020186764,"url":"https://maps.app.goo.gl/vMrAJXJCUj5tn2mDA?g_st=ipc","address":"Al. Svolou 44, Thessaloniki 546 21","categoryIds":["desserts"],"categories":["Dessert Shops"]},"sameCategory":[{"id":"asianRestaurants_aa56878cf133","slug":"nagomi-jpn-aa56","kind":"restaurant","name":"Nagomi Jpn","lat":40.63061239454344,"lng":22.951225233616498,"url":"https://maps.app.goo.gl/8UyTpuy2ncGK15GJ6?g_st=ic","address":"Al. Svolou 41, Thessaloniki 546 22","categoryIds":["asian","desserts"],"categories":["Asian Restaurants","Dessert Shops"],"legacySlugs":["nagomi-jpn-eccd"]},{"id":"dessertsRestaurants_8263a8db76c8","slug":"valentino-crepes-8263","kind":"restaurant","name":"Valentino Crepes","lat":40.63057112442913,"lng":22.950154633509246,"url":"https://maps.app.goo.gl/nwvSZePQvBQzGocJ6?g_st=ipc","address":"Dim. Gounari 25, Thessaloniki 546 22","categoryIds":["desserts"],"categories":["Dessert Shops"]},{"id":"dessertsRestaurants_11a9a0429f5e","slug":"sugar-confectionery-11a9","kind":"restaurant","name":"Sugar Confectionery","lat":40.63028200470032,"lng":22.948376451004588,"url":"https://maps.app.goo.gl/ZJHSRbMxNSqCmdKCA?g_st=ipc","address":"Lordou Vironos 7, Thessaloniki 546 22","categoryIds":["desserts"],"categories":["Dessert Shops"]},{"id":"dessertsRestaurants_d6293efcb0d5","slug":"sugarela-d629","kind":"restaurant","name":"Sugarela","lat":40.628286349246984,"lng":22.94919276720608,"url":"https://maps.app.goo.gl/BWRmuMRqDoq6N7MH8?g_st=ipc","address":"Nikiforou Foka 12, Thessaloniki 546 21","categoryIds":["desserts"],"categories":["Dessert Shops"]},{"id":"dessertsRestaurants_28a0c1dca6b8","slug":"trigona-elenidi-28a0","kind":"restaurant","name":"Trigona Elenidi","lat":40.62886737433407,"lng":22.948457330769024,"url":"https://maps.app.goo.gl/CrarZvo5GUHnGW4C7?g_st=ipc","address":"Dim. Gounari 13, Thessaloniki 546 22","categoryIds":["desserts"],"categories":["Dessert Shops"]},{"id":"dessertsRestaurants_0815f2566c3c","slug":"galyfianakis-0815","kind":"restaurant","name":"Galyfianakis","lat":40.63202978741134,"lng":22.948953049298385,"url":"https://maps.app.goo.gl/YatTYWeuGDBfasFT7?g_st=ipc","address":"Kon/nou Paleologou 3, Thessaloniki 546 22","categoryIds":["desserts"],"categories":["Dessert Shops"]},{"id":"dessertsRestaurants_90fef645e082","slug":"fatto-a-mano-90fe","kind":"restaurant","name":"Fatto a Mano","lat":40.63009258953706,"lng":22.9479003155248,"url":"https://maps.app.goo.gl/nU8Tq4Vjr5TS7bBeA?g_st=ipc","address":"P. Mela 20, Thessaloniki 546 22","categoryIds":["desserts"],"categories":["Dessert Shops"]},{"id":"dessertsRestaurants_509c5344d793","slug":"armenonville-509c","kind":"restaurant","name":"Armenonville","lat":40.62813210913547,"lng":22.94876500137915,"url":"https://maps.app.goo.gl/3MMykvcTvkcMNqrA6?g_st=ipc","address":"Mitropoleos 102, Thessaloniki 546 21","categoryIds":["desserts"],"categories":["Dessert Shops"]},{"id":"dessertsRestaurants_ba34dec40f28","slug":"magoa-patisserie-chocolaterie-ba34","kind":"restaurant","name":"Magoa Patisserie-Chocolaterie","lat":40.63172247185242,"lng":22.9482457723652,"url":"https://maps.app.goo.gl/M7r6TuYWcBQ1KPRT8?g_st=ipc","address":"Paleon Patron Germanou 29, Thessaloniki 546 22","categoryIds":["desserts"],"categories":["Dessert Shops"]},{"id":"dessertsRestaurants_9bbc0c355797","slug":"agapame-to-katsikisio-gala-9bbc","kind":"restaurant","name":"Αγαπάμε το κατσικίσιο γάλα","lat":40.63062994509152,"lng":22.947679865531065,"url":"https://maps.app.goo.gl/U3wBWwpBXDhPzkpc6?g_st=ipc","address":"P. Mela 28, Thessaloniki 546 22","categoryIds":["desserts"],"categories":["Dessert Shops"]},{"id":"dessertsRestaurants_af6c4ad80b58","slug":"senol-af6c","kind":"restaurant","name":"Senol","lat":40.631655999978115,"lng":22.9479848979778,"url":"https://maps.app.goo.gl/TQFwjdg19bCqCfpz8?g_st=ipc","address":"Paleon Patron Germanou 23, Thessaloniki 546 22","categoryIds":["desserts"],"categories":["Dessert Shops"]},{"id":"dessertsRestaurants_ff4e4669779d","slug":"bombolo-ff4e","kind":"restaurant","name":"BOMBOLO","lat":40.628931168792896,"lng":22.947385328416402,"url":"https://maps.app.goo.gl/KrVfLWu1YhMe94yS8?g_st=ipc","address":"Mitropoleos 88, Thessaloniki 546 22","categoryIds":["desserts"],"categories":["Dessert Shops"]}],"nearby":[{"id":"cheapEatsRestaurants_14153fc76d40","slug":"because-bagel-1415","kind":"restaurant","name":"Because Bagel","lat":40.63057520882739,"lng":22.951254328665513,"url":"https://maps.app.goo.gl/F867e4fDb8YFQcHN9?g_st=ipc","address":"Al. Svolou 41, Thessaloniki 546 21","categoryIds":["cheap-eats","coffee-brunch"],"categories":["Gyros & Cheap Eats","Coffee & Brunch Spots"],"legacySlugs":["because-bagel-f384"],"distanceKm":0.057729446024729146},{"id":"cheapEatsRestaurants_1133d517c2b8","slug":"sun-do-each-1133","kind":"restaurant","name":"SUN DO EACH","lat":40.629855288469905,"lng":22.95097907140209,"url":"https://maps.app.goo.gl/ZU1we2eajmmkHarSA?g_st=ipc","address":"Pl. Ippodromiou 12, Thessaloniki 546 21","categoryIds":["cheap-eats"],"categories":["Gyros & Cheap Eats"],"distanceKm":0.06227467294144745},{"id":"asianRestaurants_aa56878cf133","slug":"nagomi-jpn-aa56","kind":"restaurant","name":"Nagomi Jpn","lat":40.63061239454344,"lng":22.951225233616498,"url":"https://maps.app.goo.gl/8UyTpuy2ncGK15GJ6?g_st=ic","address":"Al. Svolou 41, Thessaloniki 546 22","categoryIds":["asian","desserts"],"categories":["Asian Restaurants","Dessert Shops"],"legacySlugs":["nagomi-jpn-eccd"],"distanceKm":0.06253699321428807},{"id":"cheapEatsRestaurants_76d0caaa7f9f","slug":"giok-balik-76d0","kind":"restaurant","name":"Giok Balik","lat":40.62972191102995,"lng":22.952456612586893,"url":"https://maps.app.goo.gl/1CjK5eGEVn2bdjxz8?g_st=ipc","address":"Eth. Aminis 34, Thessaloniki 546 21","categoryIds":["cheap-eats"],"categories":["Gyros & Cheap Eats"],"distanceKm":0.08439775637982182},{"id":"dessertsRestaurants_8263a8db76c8","slug":"valentino-crepes-8263","kind":"restaurant","name":"Valentino Crepes","lat":40.63057112442913,"lng":22.950154633509246,"url":"https://maps.app.goo.gl/nwvSZePQvBQzGocJ6?g_st=ipc","address":"Dim. Gounari 25, Thessaloniki 546 22","categoryIds":["desserts"],"categories":["Dessert Shops"],"distanceKm":0.13265419671782483},{"id":"fishTavernasRestaurants_58ab1d4f1af2","slug":"ouzerie-lola-58ab","kind":"restaurant","name":"Ouzerie Lola","lat":40.63145175292193,"lng":22.952078380847976,"url":"https://maps.app.goo.gl/idPwmz3cDUMQDRf87?g_st=ipc","address":"Agapinou 10, Thessaloniki 546 21","categoryIds":["fish-tavernas"],"categories":["Fish Tavernas"],"distanceKm":0.15143037667672624},{"id":"cheapEatsRestaurants_360554fc9fc3","slug":"christos-3605","kind":"restaurant","name":"Christos","lat":40.63147006963023,"lng":22.952399705195514,"url":"https://maps.app.goo.gl/NQPjMfCoN4AKJD3m8?g_st=ipc","address":"Egnatia 150, Thessaloniki 546 21","categoryIds":["cheap-eats"],"categories":["Gyros & Cheap Eats"],"distanceKm":0.16239963355142314},{"id":"greekRestaurants_96300d908e41","slug":"massalia-9630","kind":"restaurant","name":"Μασσαλία","lat":40.62879227637267,"lng":22.950820456091158,"url":"https://maps.app.goo.gl/Woet67mPUQvmRPAY6?g_st=ipc","address":"Μανουσογιαννάκη 6, Θεσσαλονίκη 546 21","categoryIds":["greek-restaurants"],"categories":["Greek Restaurants"],"distanceKm":0.16382297387016764},{"id":"cheapEatsRestaurants_88cea0f97a36","slug":"mantri-ae-88ce","kind":"restaurant","name":"ΜΑΝΤΡΙ ΑΕ","lat":40.62840905411716,"lng":22.95104812955137,"url":"https://maps.app.goo.gl/fo4Tf9Q9F4pnn1rn9?g_st=ipc","address":"Eth. Aminis 18, Thessaloniki 546 21","categoryIds":["cheap-eats"],"categories":["Gyros & Cheap Eats"],"distanceKm":0.1979029732884935},{"id":"vegetarianRestaurants_06643fab1947","slug":"the-heavy-melon-to-vari-peponi-0664","kind":"restaurant","name":"The Heavy Melon - To vari peponi","lat":40.6309548038653,"lng":22.94951618640559,"url":"https://maps.app.goo.gl/6ZPuKUN8mPNN6b4C9?g_st=ipc","address":"Apellou 4, Thessaloniki 546 22","categoryIds":["vegetarian"],"categories":["Vegetarian Friendly Restaurants"],"distanceKm":0.1993998467437142},{"id":"cheapEatsRestaurants_3bf8a692d929","slug":"argophageio-3bf8","kind":"restaurant","name":"Argophageío","lat":40.631121382402085,"lng":22.94963262184118,"url":"https://maps.app.goo.gl/hi9XxDarzuTKvZmD8?g_st=ipc","address":"Apellou 6, Thessaloniki 546 22","categoryIds":["cheap-eats"],"categories":["Gyros & Cheap Eats"],"distanceKm":0.20022294285984352},{"id":"greekRestaurants_6540c06dfef8","slug":"argofageio-6540","kind":"restaurant","name":"Αργοφαγείο","lat":40.631130013359666,"lng":22.94963377057043,"url":"https://maps.app.goo.gl/Xdu7zZ8Wq5MhAe6R6?g_st=ipc","address":"Απελλού 6, Θεσσαλονίκη 546 22","categoryIds":["greek-restaurants"],"categories":["Greek Restaurants"],"distanceKm":0.20066911066950593},{"id":"cheapEatsRestaurants_59b46ad1098f","slug":"gouda-luck-59b4","kind":"restaurant","name":"Gouda luck","lat":40.632030062154726,"lng":22.9512395674924,"url":"https://maps.app.goo.gl/w5kby75ZDPeF56mp7?g_st=ic","address":"Egnatia 144, Thessaloniki 546 22","categoryIds":["cheap-eats"],"categories":["Gyros & Cheap Eats"],"distanceKm":0.21307435132975752},{"id":"fishTavernasRestaurants_00693f87c0e2","slug":"new-galerius-0069","kind":"restaurant","name":"New Galerius","lat":40.631035931747235,"lng":22.949361572047398,"url":"https://maps.app.goo.gl/gjbLLdPASWWyhgcMA?g_st=ipc","address":"Apellou 3, Thessaloniki 546 22","categoryIds":["fish-tavernas"],"categories":["Fish Tavernas"],"distanceKm":0.21513746016215343},{"id":"greekRestaurants_a1a2ecf01b90","slug":"neos-galerios-a1a2","kind":"restaurant","name":"Νέος Γαλέριος","lat":40.63104870965081,"lng":22.94936321160579,"url":"https://maps.app.goo.gl/x4M4LyYumCxPakjo7?g_st=ipc","address":"Απελλού 3, Θεσσαλονίκη 546 22","categoryIds":["greek-restaurants"],"categories":["Greek Restaurants"],"distanceKm":0.21568029184108137},{"id":"cheapEatsRestaurants_360afa6ead29","slug":"salu-deli-bar-360a","kind":"restaurant","name":"Salu Deli Bar","lat":40.62815289802217,"lng":22.952006929781376,"url":"https://maps.app.goo.gl/Mew4X3m69PgK4Y2TA?g_st=ipc","address":"Manousagiannaki 20, Thessaloniki 546 21","categoryIds":["cheap-eats","coffee-brunch"],"categories":["Gyros & Cheap Eats","Coffee & Brunch Spots"],"legacySlugs":["salu-deli-bar-e516"],"distanceKm":0.2228833380211903},{"id":"vegetarianRestaurants_43af59721fc8","slug":"omg-in-skg-43af","kind":"restaurant","name":"OMG in SKG","lat":40.63186182844344,"lng":22.953097770969947,"url":"https://maps.app.goo.gl/b6twRtPbJbTuXUe26?g_st=ipc","address":"Episkopou Kitrous Nikolaou 1, Thessaloniki 546 35","categoryIds":["vegetarian"],"categories":["Vegetarian Friendly Restaurants"],"distanceKm":0.22900254902323894},{"id":"mustSeeAttractions_6c182d5c56d9","slug":"arch-of-galerius-6c18","kind":"restaurant","name":"Arch of Galerius","lat":40.6322250425038,"lng":22.95175086035539,"url":"https://maps.app.goo.gl/VHhyUKPZMLXo4AeBA?g_st=ipc","address":"Egnatia 144, Thessaloniki 546 22","categoryIds":["attractions"],"categories":["Must-See Attractions"],"distanceKm":0.23261841364148975},{"id":"burgersRestaurants_d933f81e3617","slug":"pass-the-smashed-d933","kind":"restaurant","name":"Pass The Smashed","lat":40.63217264797822,"lng":22.953233528916606,"url":"https://maps.app.goo.gl/gnzc1t32pqqQF6sQ7?g_st=ic","address":"Episkopou Kitrous Nikolaou 2, Thessaloniki 546 35","categoryIds":["burgers"],"categories":["Burger Spots"],"distanceKm":0.2643821468989},{"id":"burgersRestaurants_f1633ab51896","slug":"pommes-f163","kind":"restaurant","name":"Pommes","lat":40.629725176106746,"lng":22.948477539796873,"url":"https://maps.app.goo.gl/yAwLNa5CdKfv7HBD9?g_st=ipc","address":"Isavron 5, Thessaloniki 546 22","categoryIds":["burgers"],"categories":["Burger Spots"],"distanceKm":0.2689214489394415},{"id":"dessertsRestaurants_11a9a0429f5e","slug":"sugar-confectionery-11a9","kind":"restaurant","name":"Sugar Confectionery","lat":40.63028200470032,"lng":22.948376451004588,"url":"https://maps.app.goo.gl/ZJHSRbMxNSqCmdKCA?g_st=ipc","address":"Lordou Vironos 7, Thessaloniki 546 22","categoryIds":["desserts"],"categories":["Dessert Shops"],"distanceKm":0.27403736343690865},{"id":"coffeeBrunchRestaurants_203d902848ee","slug":"philia-thessaloniki-203d","kind":"restaurant","name":"Philia Thessaloniki","lat":40.63033915762918,"lng":22.94834718792844,"url":"https://maps.app.goo.gl/RLKeacGYRRwh2No58?g_st=ic","address":"Pl. Navarinou 5, Thessaloniki 546 22","categoryIds":["coffee-brunch"],"categories":["Coffee & Brunch Spots"],"distanceKm":0.276949526965394},{"id":"dessertsRestaurants_d6293efcb0d5","slug":"sugarela-d629","kind":"restaurant","name":"Sugarela","lat":40.628286349246984,"lng":22.94919276720608,"url":"https://maps.app.goo.gl/BWRmuMRqDoq6N7MH8?g_st=ipc","address":"Nikiforou Foka 12, Thessaloniki 546 21","categoryIds":["desserts"],"categories":["Dessert Shops"],"distanceKm":0.29011408472981376},{"id":"coffeeBrunchRestaurants_535d5a114e1a","slug":"titania-535d","kind":"restaurant","name":"ΤΙΤΑΝΙΑ","lat":40.62745635041655,"lng":22.95172436992036,"url":"https://maps.app.goo.gl/6d8e2D2YLjsqGz9H8?g_st=ipc","address":"Tsimiski 139, Thessaloniki 546 21","categoryIds":["coffee-brunch"],"categories":["Coffee & Brunch Spots"],"distanceKm":0.2980413837486898}],"sameRegion":[],"mentionedGuides":[],"canonicalSlug":"gelati-e-amore-9d14","enrichment":{"summary_en":"Gelati e Amore is a curated restaurant in Thessaloniki 546 21 in the Dessert Shops collection. It is connected to 129 nearby Googlementor picks to help travelers build a stronger local route.","summary_el":"Gelati e Amore είναι ένα επιλεγμένο σημείο φαγητού στην περιοχή Thessaloniki 546 21 και ανήκει στη συλλογή Dessert Shops. Συνδέεται με 129 κοντινές προτάσεις του Googlementor για πιο ολοκληρωμένη εμπειρία.","vibe_tags":["curated","sweet-stop"],"best_for":["first-time visitors","food lovers"],"visit_moments":["afternoon break","after dinner"],"practical_note":"Address and direct map link are available for easy turn-by-turn access.","nearby_walkable_count":129,"nearby_count_2km":270,"confidence":0.98},"areaContext":{"slug":"triandria","name":"Triandria","nameEl":"Τριανδρία"},"intentContexts":[{"href":"/desserts/triandria","label":"Dessert Shops in Triandria","categorySlug":"desserts","categoryName":"Dessert Shops","areaSlug":"triandria","areaName":"Triandria","areaNameEl":"Τριανδρία"}]},"__N_SSG":true}