{"pageProps":{"entity":{"id":"coffeeBrunchRestaurants_7800a97fe907","slug":"limani-maritime-museum-and-restaurant-7800","kind":"restaurant","name":"Limani Maritime Museum and Restaurant","lat":40.63343048206997,"lng":22.936992932592755,"url":"https://maps.app.goo.gl/GT8Fja523tketn1A7?g_st=ipc","address":"Leof. Nikis, Thessaloniki 546 25","categoryIds":["coffee-brunch"],"categories":["Coffee & Brunch Spots"]},"sameCategory":[{"id":"coffeeBrunchRestaurants_92ee7041cad1","slug":"hush-coffee-brunch-92ee","kind":"restaurant","name":"Hush - Coffee & Brunch","lat":40.63288453550874,"lng":22.935483076967117,"url":"https://maps.app.goo.gl/BHbV75bnMGdxWnv68?g_st=ipc","address":"First pier, Thessaloniki 546 25","categoryIds":["coffee-brunch"],"categories":["Coffee & Brunch Spots"]},{"id":"coffeeBrunchRestaurants_431b964731b7","slug":"kitchen-bar-431b","kind":"restaurant","name":"Kitchen Bar","lat":40.632030588138356,"lng":22.935513540083463,"url":"https://maps.app.goo.gl/knBD4VWoUZYBGGow7?g_st=ipc","address":"Αποθήκη Β2 Α' Προβλήτα Λιμένα, Thessaloniki 541 10","categoryIds":["coffee-brunch"],"categories":["Coffee & Brunch Spots"]},{"id":"coffeeBrunchRestaurants_eb01fc18d144","slug":"mangiare-gastro-pizza-pasta-bar-eb01","kind":"restaurant","name":"Mangiare Gastro Pizza Pasta Bar","lat":40.63353783457787,"lng":22.939678053388604,"url":"https://maps.app.goo.gl/aWDb6qE5HF6MmFreA?g_st=ipc","address":"Mitropoleos 20, Thessaloniki 546 24","categoryIds":["coffee-brunch"],"categories":["Coffee & Brunch Spots"]},{"id":"coffeeBrunchRestaurants_225892e0cbdd","slug":"the-garden-bar-2258","kind":"restaurant","name":"The Garden Bar","lat":40.63514609058183,"lng":22.939331222845976,"url":"https://maps.app.goo.gl/KEZ45GJ89m9DDXvb6?g_st=ipc","address":"Ag. Mina 16, Thessaloniki 546 24","categoryIds":["coffee-brunch"],"categories":["Coffee & Brunch Spots"]},{"id":"coffeeBrunchRestaurants_fd2a487a0b78","slug":"ypsilon-fd2a","kind":"restaurant","name":"Υpsilon","lat":40.636365825174295,"lng":22.93811663555069,"url":"https://maps.app.goo.gl/7LvTZEdhDkTAMmp78?g_st=ipc","address":"Edessis 5, Thessaloniki 546 25","categoryIds":["coffee-brunch"],"categories":["Coffee & Brunch Spots"]},{"id":"coffeeBrunchRestaurants_c5fcdd8f5d50","slug":"slow-kaffe-and-wine-c5fc","kind":"restaurant","name":"Slow Kaffe and Wine","lat":40.63667930749031,"lng":22.937326259309707,"url":"https://maps.app.goo.gl/sudFiDSGGdZvwXaq8?g_st=ipc","address":"Ernestou Emprar 10, Thessaloniki 546 25","categoryIds":["coffee-brunch"],"categories":["Coffee & Brunch Spots"]},{"id":"coffeeBrunchRestaurants_c75ff3cb9f5e","slug":"rafiki-outdoors-c75f","kind":"restaurant","name":"Rafiki Outdoors","lat":40.63384593288072,"lng":22.94144670060357,"url":"https://maps.app.goo.gl/EDFEAtyxnASt6ymy5?g_st=ipc","address":"Tsimiski 33, Thessaloniki 546 34","categoryIds":["coffee-brunch"],"categories":["Coffee & Brunch Spots"]},{"id":"coffeeBrunchRestaurants_3daa295f084c","slug":"olympion-cafe-bar-1951-3daa","kind":"restaurant","name":"Olympion Cafe Bar 1951","lat":40.632694674088896,"lng":22.941732044946015,"url":"https://maps.app.goo.gl/jjCCeEkXCKm7ow7v6?g_st=ipc","address":"Aristotelous Sq 10, Thessaloniki 546 23","categoryIds":["coffee-brunch"],"categories":["Coffee & Brunch Spots"]},{"id":"coffeeBrunchRestaurants_1c6ae917ccf8","slug":"romantzo-1c6a","kind":"restaurant","name":"Romantzo","lat":40.637344096207045,"lng":22.93721658740342,"url":"https://maps.app.goo.gl/xTf6UJFe7tcY4vHU7?g_st=ipc","address":"Veroias 2, Thessaloniki 546 25","categoryIds":["coffee-brunch"],"categories":["Coffee & Brunch Spots"]},{"id":"coffeeBrunchRestaurants_7c923e1edd56","slug":"mi-me-lismonei-art-cafe-7c92","kind":"restaurant","name":"Mi Me Lismonei Art Café","lat":40.63629409662354,"lng":22.940981395583297,"url":"https://maps.app.goo.gl/Wi79HnpxEWDrQr5A8?g_st=ipc","address":"El. Venizelou 23, Thessaloniki 546 24","categoryIds":["coffee-brunch"],"categories":["Coffee & Brunch Spots"]},{"id":"coffeeBrunchRestaurants_ad2114e7ac37","slug":"bannie-ad21","kind":"restaurant","name":"Bannie","lat":40.63708508226566,"lng":22.94022952790158,"url":"https://maps.app.goo.gl/Gn3B2PxeEE5tHcph8?g_st=ipc","address":"Ionos Dragoumi 35, Thessaloniki 546 25","categoryIds":["coffee-brunch"],"categories":["Coffee & Brunch Spots"]},{"id":"coffeeBrunchRestaurants_5c966e24d1c8","slug":"pantheon-bar-5c96","kind":"restaurant","name":"Pantheon Bar","lat":40.631470349652666,"lng":22.942304739075517,"url":"https://maps.app.goo.gl/9EzJNfobuDEBDMXt9?g_st=ipc","address":"Proxenou Koromila 8, Thessaloniki 546 23","categoryIds":["coffee-brunch"],"categories":["Coffee & Brunch Spots"]}],"nearby":[{"id":"greekRestaurants_af0b8e5d51b2","slug":"loupino-af0b","kind":"restaurant","name":"Loupino","lat":40.63421562776771,"lng":22.937015451825886,"url":"https://maps.app.goo.gl/iGLD7SMDZ7Y8N12R8?g_st=ipc","address":"Κατούνη 4, Θεσσαλονίκη 546 25","categoryIds":["greek-restaurants"],"categories":["Greek Restaurants"],"distanceKm":0.08732489656032527},{"id":"greekRestaurants_33ac18ee44f0","slug":"mamaloyka-33ac","kind":"restaurant","name":"Μαμαλούκα","lat":40.634129762929895,"lng":22.937535077448267,"url":"https://maps.app.goo.gl/gGsKj9f95wpoFDj7A?g_st=ipc","address":"Ίωνος Δραγoύμη 3, Θεσσαλονίκη 546 25","categoryIds":["greek-restaurants"],"categories":["Greek Restaurants"],"distanceKm":0.09021643005790005},{"id":"fishTavernasRestaurants_848f1aa03974","slug":"bakaliarakia-tou-aristou-848f","kind":"restaurant","name":"Bakaliarakia tou Aristou","lat":40.634280544207144,"lng":22.93689333971641,"url":"https://maps.app.goo.gl/Y3cfc1d6DqQAP2VX9?g_st=ipc","address":"Katouni 3, Thessaloniki 546 25","categoryIds":["fish-tavernas"],"categories":["Fish Tavernas"],"distanceKm":0.09489546824875515},{"id":"mexicanRestaurants_d80043a5b99e","slug":"la-sirena-d800","kind":"restaurant","name":"La Sirena","lat":40.63444270479013,"lng":22.93646283547866,"url":"https://maps.app.goo.gl/vjssVZ1V39bo4zex6","address":"Fasianou 1, Thessaloniki 546 25","categoryIds":["mexican"],"categories":["Mexican Restaurants"],"distanceKm":0.12111708259481438},{"id":"greekRestaurants_5000cd964e1b","slug":"omikron-5000","kind":"restaurant","name":"Όμικρον","lat":40.63443899234816,"lng":22.937636685469105,"url":"https://maps.app.goo.gl/HVh64N8h1M3abkrM6?g_st=ipc","address":"Οπλοποιού 3, Θεσσαλονίκη 546 25","categoryIds":["greek-restaurants"],"categories":["Greek Restaurants"],"distanceKm":0.12460577637966806},{"id":"greekRestaurants_9e02f77b6b20","slug":"tiganies-kai-schares-9e02","kind":"restaurant","name":"Τηγανιές και Σχάρες","lat":40.634600601276,"lng":22.936919320658006,"url":"https://maps.app.goo.gl/3eYmnpopLWBzSTuj9?g_st=ipc","address":"Katouni 3, Thessaloniki 526 22","categoryIds":["greek-restaurants"],"categories":["Greek Restaurants"],"distanceKm":0.13025951163924918},{"id":"asianRestaurants_50e903fa0513","slug":"empire-sushi-bar-50e9","kind":"restaurant","name":"Εmpire Sushi Bar","lat":40.63454338249302,"lng":22.937599876944155,"url":"https://maps.app.goo.gl/xtgjstGFH9sAG6Ya7?g_st=ipc","address":"Oplopiou 3, Thessaloniki 546 25","categoryIds":["asian"],"categories":["Asian Restaurants"],"distanceKm":0.13392876994057432},{"id":"coffeeBrunchRestaurants_92ee7041cad1","slug":"hush-coffee-brunch-92ee","kind":"restaurant","name":"Hush - Coffee & Brunch","lat":40.63288453550874,"lng":22.935483076967117,"url":"https://maps.app.goo.gl/BHbV75bnMGdxWnv68?g_st=ipc","address":"First pier, Thessaloniki 546 25","categoryIds":["coffee-brunch"],"categories":["Coffee & Brunch Spots"],"distanceKm":0.1411327763185451},{"id":"luxuryDiningRestaurants_098393014e42","slug":"olympos-naoussa-0983","kind":"restaurant","name":"Olympos Naoussa","lat":40.63309915839342,"lng":22.938647906596046,"url":"https://maps.app.goo.gl/dnRtTeQACnMMpm9n9?g_st=ipc","address":"Leof. Nikis 5, Thessaloniki 546 24","categoryIds":["luxury-dining"],"categories":["Luxury Dining"],"distanceKm":0.14443286571837236},{"id":"fishTavernasRestaurants_a41c35691ce2","slug":"kritikos-restaurant-port-a41c","kind":"restaurant","name":"Kritikos Restaurant Port","lat":40.63312219901904,"lng":22.938682406464917,"url":"https://maps.app.goo.gl/4a7sWdZdLkA9MqcNA?g_st=ipc","address":"Leof. Nikis 03, Thessaloniki 546 21","categoryIds":["fish-tavernas","luxury-dining"],"categories":["Fish Tavernas","Luxury Dining"],"legacySlugs":["kritikos-restaurant-port-b8a8"],"distanceKm":0.14662966261523708},{"id":"cheapEatsRestaurants_7d5766fbf936","slug":"sesoula-street-food-7d57","kind":"restaurant","name":"SESOULA Street Food","lat":40.63477422793839,"lng":22.937577409662797,"url":"https://maps.app.goo.gl/831RBk3hM78pZN1a8?g_st=ipc","address":"Mitropoleos 6, Thessaloniki 546 25","categoryIds":["cheap-eats"],"categories":["Gyros & Cheap Eats"],"distanceKm":0.15734729387648974},{"id":"burgersRestaurants_d54ba5e0c0be","slug":"pax-d54b","kind":"restaurant","name":"Pax","lat":40.63378366371667,"lng":22.938802932281405,"url":"https://maps.app.goo.gl/WZscxBG8wSCngxdz8?g_st=ipc","address":"Eleftheriou Venizelou &, Kalapothaki 8, Thessaloniki 546 24","categoryIds":["burgers"],"categories":["Burger Spots"],"distanceKm":0.1577042765619414},{"id":"greekRestaurants_c2e6150deb88","slug":"voukakrato-c2e6","kind":"restaurant","name":"Voukakrato","lat":40.63349594522131,"lng":22.938988829539237,"url":"https://maps.app.goo.gl/cB9vpTY1obWtd2Ck7?g_st=ipc","address":"Kalapothaki 6, Thessaloniki 546 24","categoryIds":["greek-restaurants"],"categories":["Greek Restaurants"],"distanceKm":0.16858067184952788},{"id":"cheapEatsRestaurants_d643220ae6b0","slug":"thess-bao-d643","kind":"restaurant","name":"Thess Bao","lat":40.633724315611715,"lng":22.93899137586201,"url":"https://maps.app.goo.gl/eQJvB2FMkUEghr9y7?g_st=ipc","address":"Kalapothaki 3, Thessaloniki 546 45","categoryIds":["cheap-eats"],"categories":["Gyros & Cheap Eats"],"distanceKm":0.17177396759758573},{"id":"greekRestaurants_ae25b604ff8c","slug":"trofi-sintrofi-ae25","kind":"restaurant","name":"+ ΤροΦή | Sintrofi","lat":40.63496526167509,"lng":22.936331658971874,"url":"https://maps.app.goo.gl/VZEPkfcaPiYufHTL7?g_st=ipc","address":"7, Doxis Street, Thessaloniki 546 25","categoryIds":["greek-restaurants"],"categories":["Greek Restaurants"],"distanceKm":0.17955074630317483},{"id":"asianRestaurants_788113ad98ac","slug":"sushaki-greek-sushi-experience-7881","kind":"restaurant","name":"Sushaki | Greek Sushi Experience","lat":40.63309136297845,"lng":22.939152229553493,"url":"https://maps.app.goo.gl/ggCr6zagpbao1wwt9","address":"Komninon 3, Thessaloniki 546 24","categoryIds":["asian"],"categories":["Asian Restaurants"],"distanceKm":0.18607338769662546},{"id":"fishTavernasRestaurants_d0a79fe35429","slug":"7-thalasses-d0a7","kind":"restaurant","name":"7 Thalasses","lat":40.63335235155445,"lng":22.93920259335502,"url":"https://maps.app.goo.gl/Y7xSN6vCv7jLy7oPA?g_st=ipc","address":"Kalapothaki 10, Thessaloniki 546 24","categoryIds":["fish-tavernas","luxury-dining"],"categories":["Fish Tavernas","Luxury Dining"],"legacySlugs":["7-thalasses-f9b8"],"distanceKm":0.1866643513170927},{"id":"asianRestaurants_169207d89dbd","slug":"sushi-city-1692","kind":"restaurant","name":"Sushi City","lat":40.633479553417104,"lng":22.939350429758118,"url":"https://maps.app.goo.gl/zBAUew3tfQKdJ3yX9","address":"Kalapothaki 7, Thessaloniki 546 45","categoryIds":["asian"],"categories":["Asian Restaurants"],"distanceKm":0.19901186204392626},{"id":"coffeeBrunchRestaurants_431b964731b7","slug":"kitchen-bar-431b","kind":"restaurant","name":"Kitchen Bar","lat":40.632030588138356,"lng":22.935513540083463,"url":"https://maps.app.goo.gl/knBD4VWoUZYBGGow7?g_st=ipc","address":"Αποθήκη Β2 Α' Προβλήτα Λιμένα, Thessaloniki 541 10","categoryIds":["coffee-brunch"],"categories":["Coffee & Brunch Spots"],"distanceKm":0.1995377713407723},{"id":"greekRestaurants_9bcc793811d6","slug":"wonderwall-fun-dining-9bcc","kind":"restaurant","name":"WonderWall Fun Dining","lat":40.63522269434939,"lng":22.937190668731127,"url":"https://maps.app.goo.gl/gWA1A2nYg5nMyK6r8?g_st=ipc","address":"Αἰγύπτου 11, Θεσσαλονίκη 546 25","categoryIds":["greek-restaurants"],"categories":["Greek Restaurants"],"distanceKm":0.19998222337287652},{"id":"fishTavernasRestaurants_8f9bed2e06ef","slug":"mezen-salonica-8f9b","kind":"restaurant","name":"Mezen Salonica","lat":40.634689809940646,"lng":22.93869474433628,"url":"https://maps.app.goo.gl/gwG2QG5GLKMHTAKd8?g_st=ipc","address":"Rogkoti 3, Thessaloniki 546 24","categoryIds":["fish-tavernas"],"categories":["Fish Tavernas"],"distanceKm":0.2005773624989055},{"id":"fishTavernasRestaurants_922d6e12caee","slug":"grada-nuevo-922d","kind":"restaurant","name":"Grada nuevo","lat":40.63326503370027,"lng":22.939389299837984,"url":"https://maps.app.goo.gl/rQ6F7EFgSPvzE7iK6?g_st=ipc","address":"Kalapothaki 14, Thessaloniki 546 24","categoryIds":["fish-tavernas","luxury-dining"],"categories":["Fish Tavernas","Luxury Dining"],"legacySlugs":["grada-nuevo-c78b"],"distanceKm":0.20305253919972088},{"id":"italianRestaurants_e8e93eefa319","slug":"cena-e8e9","kind":"restaurant","name":"Cena","lat":40.63453379937182,"lng":22.938924721124444,"url":"https://maps.app.goo.gl/M6cnfrHcMrMNBhMNA?g_st=ipc","address":"Rogkoti 4, Thessaloniki 546 24","categoryIds":["italian"],"categories":["Italian Restaurants"],"distanceKm":0.2040201730742592},{"id":"asianRestaurants_7b20ac80bba4","slug":"hanaya-sushi-7b20","kind":"restaurant","name":"Hanaya Sushi","lat":40.6345384090758,"lng":22.93892478438703,"url":"https://maps.app.goo.gl/QoHkvVMWp7YGca2T8?g_st=ipc","address":"Rogkoti 4, Thessaloniki 546 24 (Bourla-Levi Building)","categoryIds":["asian"],"categories":["Asian Restaurants"],"distanceKm":0.2043330646981688}],"sameRegion":[],"mentionedGuides":[],"canonicalSlug":"limani-maritime-museum-and-restaurant-7800","enrichment":{"summary_en":"Limani Maritime Museum and Restaurant is a curated restaurant in Thessaloniki 546 25 in the Coffee & Brunch Spots collection. It is connected to 111 nearby Googlementor picks to help travelers build a stronger local route.","summary_el":"Limani Maritime Museum and Restaurant είναι ένα επιλεγμένο σημείο φαγητού στην περιοχή Thessaloniki 546 25 και ανήκει στη συλλογή Coffee & Brunch Spots. Συνδέεται με 111 κοντινές προτάσεις του Googlementor για πιο ολοκληρωμένη εμπειρία.","vibe_tags":["curated","daytime-favorite"],"best_for":["first-time visitors","food lovers"],"visit_moments":["early morning","late brunch"],"practical_note":"Address and direct map link are available for easy turn-by-turn access.","nearby_walkable_count":111,"nearby_count_2km":257,"confidence":0.98},"areaContext":{"slug":"ladadika","name":"Ladadika","nameEl":"Λαδάδικα"},"intentContexts":[{"href":"/brunch/ladadika","label":"Coffee & Brunch Spots in Ladadika","categorySlug":"brunch","categoryName":"Coffee & Brunch Spots","areaSlug":"ladadika","areaName":"Ladadika","areaNameEl":"Λαδάδικα"}]},"__N_SSG":true}