{"pageProps":{"entity":{"id":"greekRestaurants_104d52bd2241","slug":"mpalkoni-estiatorio-kai-mpar-104d","kind":"restaurant","name":"Μπαλκόνι Εστιατόριο και Μπαρ","lat":37.96744106512062,"lng":23.72879886025239,"url":"https://maps.app.goo.gl/7XXsfB27aRZAsikR7","address":"Βεΐκου 1, Αθήνα 117 42","categoryIds":["greek-restaurants"],"categories":["Greek Restaurants"]},"sameCategory":[{"id":"greekRestaurants_c15edd7fcde2","slug":"estiatorio-smile-c15e","kind":"restaurant","name":"Εστιατόριο Smile","lat":37.967615812266935,"lng":23.729979287152204,"url":"https://maps.app.goo.gl/dzqWtwgMFs9Vcqew6","address":"Πλ. Τσώκρη 1, Αθήνα 117 42","categoryIds":["greek-restaurants"],"categories":["Greek Restaurants"]},{"id":"greekRestaurants_fdc308cbed46","slug":"sfika-fdc3","kind":"restaurant","name":"Σφήκα","lat":37.966122619632145,"lng":23.726245016024656,"url":"https://maps.app.goo.gl/WDLKPoT2bayYqor96","address":"Στρ. Κοντούλη 15, Αθήνα 117 42","categoryIds":["greek-restaurants"],"categories":["Greek Restaurants"]},{"id":"greekRestaurants_2cc5d772f006","slug":"onos-taverna-2cc5","kind":"restaurant","name":"Onos Taverna","lat":37.96571079116367,"lng":23.725945276440267,"url":"https://maps.app.goo.gl/ur5XrAoMuE8FsR5c6","address":"Δράκου 14, Αθήνα 117 42","categoryIds":["greek-restaurants"],"categories":["Greek Restaurants"]},{"id":"greekRestaurants_32eb2400b721","slug":"olympion-32eb","kind":"restaurant","name":"Ολύμπιον","lat":37.96661871653892,"lng":23.73449829017252,"url":"https://maps.app.goo.gl/ibRHUhwHzNffs1sC8","address":"Αναπαύσεως 9, Αθήνα 116 36","categoryIds":["greek-restaurants"],"categories":["Greek Restaurants"]},{"id":"greekRestaurants_e299a6be96f9","slug":"to-kafeneio-e299","kind":"restaurant","name":"Το Καφενείο","lat":37.97255962660001,"lng":23.729567011443763,"url":"https://maps.app.goo.gl/3s8YnKNXM61cpsz69","address":"Επιχάρμου 1, Αθήνα 105 58","categoryIds":["greek-restaurants"],"categories":["Greek Restaurants"]},{"id":"greekRestaurants_b3da8ddd3955","slug":"lostre-koyzina-b3da","kind":"restaurant","name":"Λοστρέ κουζίνα","lat":37.96258323945813,"lng":23.732334829769364,"url":"https://maps.app.goo.gl/T4yBbxnNyvkykNoS9","address":"Πυθέου 32, Αθήνα 117 43","categoryIds":["greek-restaurants"],"categories":["Greek Restaurants"]},{"id":"greekRestaurants_4d35ec674015","slug":"taverna-saita-4d35","kind":"restaurant","name":"Taverna Saita","lat":37.97248143588815,"lng":23.732031545694568,"url":"https://maps.app.goo.gl/SCwWcqyGvhz7WVrE8","address":"Κυδαθηναίων 21, Αθήνα 105 58","categoryIds":["greek-restaurants"],"categories":["Greek Restaurants"]},{"id":"greekRestaurants_33a0b55abdc4","slug":"to-trikyklo-33a0","kind":"restaurant","name":"Το Τρικυκλο","lat":37.96243041130632,"lng":23.732361770965667,"url":"https://maps.app.goo.gl/iQ4V71S2t14KAPNM9","address":"Πυθέου 34-Θ.Γεωμετρου 1, Πυθέου 34, Αθήνα 117 43","categoryIds":["greek-restaurants"],"categories":["Greek Restaurants"]},{"id":"greekRestaurants_93f1c5af7d4e","slug":"evgenia-restaurant-93f1","kind":"restaurant","name":"Evgenia Restaurant","lat":37.9738473626084,"lng":23.732008770618236,"url":"https://maps.app.goo.gl/snfb8zhcUBZxSoPx9","address":"Βουλής 44Α, Αθήνα 105 58","categoryIds":["greek-restaurants"],"categories":["Greek Restaurants"]},{"id":"greekRestaurants_60d2190d08b8","slug":"aerides-mezedopoleio-plaka-60d2","kind":"restaurant","name":"Αέρηδες Μεζεδοπωλείο Πλάκα","lat":37.974495755428926,"lng":23.72798871305526,"url":"https://maps.app.goo.gl/Cx6gQQWkCy2n1mXw6","address":"Διογένους 3, Αθήνα 105 56","categoryIds":["greek-restaurants"],"categories":["Greek Restaurants"]},{"id":"greekRestaurants_3e896dd5b050","slug":"spit-jack-3e89","kind":"restaurant","name":"Spit Jack","lat":37.97409123224814,"lng":23.732567622429254,"url":"https://maps.app.goo.gl/WP3HmHeYBBcXxVPM6","address":"Σκούφου 10, Αθήνα 105 57","categoryIds":["greek-restaurants"],"categories":["Greek Restaurants"]},{"id":"greekRestaurants_75bff303ba08","slug":"symposio-restaurant-75bf","kind":"restaurant","name":"Symposio Restaurant","lat":37.97466836386933,"lng":23.73070242967316,"url":"https://maps.app.goo.gl/tMkNDw4cpv1tsuv86?g_st=ipc","address":"Apollonos 22, Athina 105 56","categoryIds":["greek-restaurants"],"categories":["Greek Restaurants"]}],"nearby":[{"id":"italianRestaurants_d5b2689c4a11","slug":"romatella-pinsa-romana-d5b2","kind":"restaurant","name":"Romatella - Pinsa Romana","lat":37.96690380968513,"lng":23.72869589039828,"url":"https://maps.app.goo.gl/qy2UDY83bx3RhcUU9?g_st=ipc","address":"Φαλήρου 4, Αθήνα 117 42","categoryIds":["italian"],"categories":["Italian Restaurants"],"distanceKm":0.060418171977565396},{"id":"dessertsRestaurants_44e6918dfa7f","slug":"alchimistis-cafe-patisserie-44e6","kind":"restaurant","name":"Αλχημιστής Cafe Patisserie","lat":37.96784501160447,"lng":23.7283241033881,"url":"https://maps.app.goo.gl/n2exdkXc6qfVR4fM9?g_st=ipc","address":"Χατζηχρήστου 8, Αθήνα 117 42","categoryIds":["desserts"],"categories":["Dessert Shops"],"distanceKm":0.06123370164366805},{"id":"dessertsRestaurants_22239c987b1a","slug":"patisserie-artemis-gelateria-ice-cream-2223","kind":"restaurant","name":"Patisserie Artemis - Gelateria Ice Cream","lat":37.96786547488155,"lng":23.729346783174314,"url":"https://maps.app.goo.gl/dE6muCbG7gwaWz9H8?g_st=ipc","address":"Μακρυγιάννη 33, Αθήνα 117 42","categoryIds":["desserts"],"categories":["Dessert Shops"],"distanceKm":0.0673360965600222},{"id":"coffeeBrunchRestaurants_da9d2fc56763","slug":"acai-verao-athens-da9d","kind":"restaurant","name":"Açaí Verão Athens","lat":37.966845247384065,"lng":23.728622894774116,"url":"https://maps.app.goo.gl/zSWkUCcCMEwv3K5Y7?g_st=ipc","address":"Φαλήρου 6, Αθήνα 117 42","categoryIds":["coffee-brunch"],"categories":["Coffee & Brunch Spots"],"distanceKm":0.0680239762945283},{"id":"cheapEatsRestaurants_7c127d112eef","slug":"dirty-manh-7c12","kind":"restaurant","name":"Dirty Manh","lat":37.96689597541608,"lng":23.728371721835774,"url":"https://maps.app.goo.gl/LaZcss8aznDJpxm89?g_st=ipc","address":"Νικ. Δημητρακοπούλου 5, Αθήνα 117 42","categoryIds":["cheap-eats"],"categories":["Gyros & Cheap Eats"],"distanceKm":0.07124435315530689},{"id":"luxuryDiningRestaurants_3c6581cd9485","slug":"esthio-athens-3c65","kind":"restaurant","name":"Esthio Athens","lat":37.96676654589047,"lng":23.72827244889686,"url":"https://maps.app.goo.gl/Ldu5GaEmi8GWuxbX6?g_st=ipc","address":"Δημητρακοπούλου 7, Αθήνα 117 42","categoryIds":["luxury-dining"],"categories":["Luxury Dining"],"distanceKm":0.08806219511615382},{"id":"luxuryDiningRestaurants_08d018b1cd7a","slug":"manimani-08d0","kind":"restaurant","name":"ΜΑΝΗΜΑΝΗ","lat":37.96669521915854,"lng":23.72836820432756,"url":"https://maps.app.goo.gl/XJabCFiZNQjmGZzb7?g_st=ipc","address":"Φαλήρου 10, Αθήνα 117 42","categoryIds":["luxury-dining"],"categories":["Luxury Dining"],"distanceKm":0.09112258664199631},{"id":"vegetarianRestaurants_aff422e1c3ba","slug":"mama-tierra-acropolis-vegan-street-food-aff4","kind":"restaurant","name":"Mama Tierra Acropolis - Vegan street food","lat":37.967546083723775,"lng":23.729864462543613,"url":"https://maps.app.goo.gl/3M9tmest5ooaQwtE8?g_st=ipc","address":"Χατζηχρήστου 29, Αθήνα 117 42","categoryIds":["vegetarian"],"categories":["Vegetarian Friendly Restaurants"],"distanceKm":0.09413950446483178},{"id":"dessertsRestaurants_2a3970a71069","slug":"django-gelato-athens-2a39","kind":"restaurant","name":"Django Gelato Athens","lat":37.96685228149483,"lng":23.72787408682893,"url":"https://maps.app.goo.gl/uXMPHW7X8YEMKDvp9?g_st=ipc","address":"Βεΐκου 15, Αθήνα 117 42","categoryIds":["desserts"],"categories":["Dessert Shops"],"distanceKm":0.10420283896142332},{"id":"greekRestaurants_c15edd7fcde2","slug":"estiatorio-smile-c15e","kind":"restaurant","name":"Εστιατόριο Smile","lat":37.967615812266935,"lng":23.729979287152204,"url":"https://maps.app.goo.gl/dzqWtwgMFs9Vcqew6","address":"Πλ. Τσώκρη 1, Αθήνα 117 42","categoryIds":["greek-restaurants"],"categories":["Greek Restaurants"],"distanceKm":0.10528664938374442},{"id":"mustSeeAttractions_8c69e6a7063e","slug":"moyseio-akropolis-8c69","kind":"restaurant","name":"Μουσείο Ακρόπολης","lat":37.96845037815513,"lng":23.728523216398074,"url":"https://maps.app.goo.gl/ZqiBPBtN3PxoeXmY8?g_st=ipc","address":"Διονυσίου Αρεοπαγίτου 15, Αθήνα 117 42","categoryIds":["attractions"],"categories":["Must-See Attractions"],"distanceKm":0.11480219832078206},{"id":"italianRestaurants_354541199b79","slug":"aglio-olio-peperoncino-3545","kind":"restaurant","name":"AGLIO, OLIO & PEPERONCINO","lat":37.96798831953671,"lng":23.7299912754838,"url":"https://maps.app.goo.gl/EgPatpb6TGQzX94s6?g_st=ipc","address":"Πορίνου 13, Αθήνα 117 42","categoryIds":["italian"],"categories":["Italian Restaurants"],"distanceKm":0.12095128364740877},{"id":"cheapEatsRestaurants_ea477a96a248","slug":"ta-soyvlakia-tis-petmeza-souvlakia-petmeza-ea47","kind":"restaurant","name":"Τα ΣΟΥΒΛΑΚΙΑ της Πετμεζά souvlakia petmeza","lat":37.96653318144558,"lng":23.72792783847805,"url":"https://maps.app.goo.gl/wJbToSNnsHXBEELJ7?g_st=ipc","address":"Πετμεζά 2, Αθήνα 117 42","categoryIds":["cheap-eats"],"categories":["Gyros & Cheap Eats"],"distanceKm":0.12657611346557499},{"id":"rooftopLoungesRestaurants_208f904925e8","slug":"stork-rooftop-bar-restaurant-208f","kind":"restaurant","name":"stork rooftop bar restaurant","lat":37.967099364958976,"lng":23.7303307646006,"url":"https://maps.app.goo.gl/AF5AEBzt63j5tves7?g_st=ipc","address":"Λεωφόρος Συγγρού 21, Βούρβαχη 2, Αθήνα 117 43","categoryIds":["rooftop-lounges"],"categories":["Rooftop Lounges"],"distanceKm":0.13956127518297456},{"id":"burgersRestaurants_bebf6534ac83","slug":"tarantino-burgers-athens-bebf","kind":"restaurant","name":"Tarantino Burgers Athens","lat":37.96648556958662,"lng":23.727729975927073,"url":"https://maps.app.goo.gl/SzYTBZRaHtH1zEgv6?g_st=ipc","address":"Δημητρακοπούλου 17, Αθήνα 117 42","categoryIds":["burgers"],"categories":["Burger Spots"],"distanceKm":0.14166195328769005},{"id":"cheapEatsRestaurants_7d6699a91456","slug":"o-gyros-poy-gyreyeis-7d66","kind":"restaurant","name":"ο γύρος που γυρεύεις","lat":37.968706021561665,"lng":23.729791439377735,"url":"https://maps.app.goo.gl/bMFjRtNN6Ztw4H43A?g_st=ipc","address":"Αθανασίου Διάκου 1 Ακρόπολη, Αθήνα 117 42","categoryIds":["cheap-eats"],"categories":["Gyros & Cheap Eats"],"distanceKm":0.16539386202680764},{"id":"dessertsRestaurants_7f61f06e1814","slug":"ice-queen-gelato-7f61","kind":"restaurant","name":"Ice Queen Gelato","lat":37.96875198593791,"lng":23.729719578537868,"url":"https://maps.app.goo.gl/HyCCcJSVYZCw8dMV7?g_st=ipc","address":"Μακρυγιάννη 9, Αθήνα 117 42","categoryIds":["desserts","vegetarian"],"categories":["Dessert Shops","Vegetarian Friendly Restaurants"],"legacySlugs":["ice-queen-gelato-e688"],"distanceKm":0.16662082766880984},{"id":"italianRestaurants_13c8863a9591","slug":"pizza-dough-13c8","kind":"restaurant","name":"Pizza Dough!","lat":37.96630825345609,"lng":23.72750504939054,"url":"https://maps.app.goo.gl/nNiwhy5xKwpgF7Lo6?g_st=ipc","address":"Δημητρακοπούλου 17, Αθήνα 117 42","categoryIds":["italian"],"categories":["Italian Restaurants"],"distanceKm":0.16950048543683238},{"id":"coffeeBrunchRestaurants_63e3afc9669a","slug":"little-tree-books-and-coffee-63e3","kind":"restaurant","name":"Little Tree Books and Coffee","lat":37.968164539601474,"lng":23.727051388410462,"url":"https://maps.app.goo.gl/EJkNXutNZiWJ1hrHA?g_st=ipc","address":"Καβαλλότι 2, Αθήνα 117 42","categoryIds":["coffee-brunch"],"categories":["Coffee & Brunch Spots"],"distanceKm":0.1730245360171334},{"id":"coffeeBrunchRestaurants_ce537fc177ce","slug":"fika-coffee-croissant-ce53","kind":"restaurant","name":"Fika coffee & croissant","lat":37.96693585116076,"lng":23.730676001624726,"url":"https://maps.app.goo.gl/aGhcjD61LQ7BLCn98?g_st=ipc","address":"Βούρβαχη 6, Αθήνα 117 43","categoryIds":["coffee-brunch"],"categories":["Coffee & Brunch Spots"],"distanceKm":0.17387892765907154},{"id":"coffeeBrunchRestaurants_3cb499b8df33","slug":"drupes-spritzeria-3cb4","kind":"restaurant","name":"Drupes Spritzeria","lat":37.96781101754338,"lng":23.726828197185508,"url":"https://maps.app.goo.gl/3UEtVFAU3pPvguxJA?g_st=ipc","address":"Ζήτρου 20, Αθήνα 117 42","categoryIds":["coffee-brunch"],"categories":["Coffee & Brunch Spots"],"distanceKm":0.17758158734975973},{"id":"coffeeBrunchRestaurants_60b919ea4202","slug":"artopoiotis-o-takis-60b9","kind":"restaurant","name":"Αρτοποιότης Ο Τάκης","lat":37.96774042832454,"lng":23.72678404932504,"url":"https://maps.app.goo.gl/kz81zzmehsyvYBbQ6?g_st=ipc","address":"Μισαραλιώτου 14, Αθήνα 117 42","categoryIds":["coffee-brunch"],"categories":["Coffee & Brunch Spots"],"distanceKm":0.17973083972863824},{"id":"luxuryDiningRestaurants_8f9976dae124","slug":"point-a-acropolis-point-8f99","kind":"restaurant","name":"POINT A (Acropolis Point)","lat":37.968415622994755,"lng":23.72706617377212,"url":"https://maps.app.goo.gl/NiwbpnxKE4g22Tzw6?g_st=ipc","address":"Ροβέρτου Γκάλι 4a, Αθήνα 117 42","categoryIds":["luxury-dining","rooftop-lounges"],"categories":["Luxury Dining","Rooftop Lounges"],"legacySlugs":["point-a-acropolis-point-fcea"],"distanceKm":0.18658375749120223},{"id":"coffeeBrunchRestaurants_01aaff71bf45","slug":"pancake-cake-acropolis-01aa","kind":"restaurant","name":"Pancake & CAKE Acropolis","lat":37.967897348905204,"lng":23.726566946010575,"url":"https://maps.app.goo.gl/QuHwWVBbtZh2gYY18?g_st=ipc","address":"Καρυάτιδων 15, Αθήνα 117 42","categoryIds":["coffee-brunch"],"categories":["Coffee & Brunch Spots"],"distanceKm":0.20212418972956717}],"sameRegion":[],"mentionedGuides":[],"canonicalSlug":"mpalkoni-estiatorio-kai-mpar-104d","enrichment":{"summary_en":"Μπαλκόνι Εστιατόριο και Μπαρ is a curated restaurant in Αθήνα 117 42 in the Greek Restaurants collection. It is connected to 117 nearby Googlementor picks to help travelers build a stronger local route.","summary_el":"Μπαλκόνι Εστιατόριο και Μπαρ είναι ένα επιλεγμένο σημείο φαγητού στην περιοχή Αθήνα 117 42 και ανήκει στη συλλογή Greek Restaurants. Συνδέεται με 117 κοντινές προτάσεις του Googlementor για πιο ολοκληρωμένη εμπειρία.","vibe_tags":["curated"],"best_for":["first-time visitors","food lovers"],"visit_moments":["lunch stop","dinner stop"],"practical_note":"Address and direct map link are available for easy turn-by-turn access.","nearby_walkable_count":117,"nearby_count_2km":605,"confidence":0.98},"areaContext":{"slug":"koykaki","name":"Koukaki","nameEl":"Κουκάκι"},"intentContexts":[{"href":"/greek-restaurants/koykaki","label":"Greek Restaurants in Koukaki","categorySlug":"greek-restaurants","categoryName":"Greek Restaurants","areaSlug":"koykaki","areaName":"Koukaki","areaNameEl":"Κουκάκι"}]},"__N_SSG":true}