{"pageProps":{"entity":{"id":"monasteriesChurches_5425be3ea253","slug":"panagia-kastriani-5425","kind":"restaurant","name":"Παναγία Καστριανή","lat":37.66534862683705,"lng":24.39586280375307,"url":"https://maps.app.goo.gl/UAQzNWzNC17GPNm38?g_st=ipc","address":"Κέα 840 02","categoryIds":["monasteries-churches"],"categories":["Monasteries & Spiritual Sites"]},"sameCategory":[{"id":"monasteriesChurches_74cb37d8010a","slug":"ieros-naos-agioy-dimitrioy-saronikoy-11os-ai-74cb","kind":"restaurant","name":"Ιερός Ναός Αγίου Δημητρίου Σαρωνικού (11ος αι.)","lat":37.807214865085356,"lng":23.869268370594398,"url":"https://maps.app.goo.gl/Yg4DX1pMZC5BvTyv9?g_st=ipc","address":"Αγίου Δημητρίου, Αγ. Μαρίνα 194 00","categoryIds":["monasteries-churches"],"categories":["Monasteries & Spiritual Sites"]},{"id":"monasteriesChurches_24b60ec568ad","slug":"iera-moni-tao-ntaoy-pentelis-24b6","kind":"restaurant","name":"Ιερά Μονή Ταώ (Νταού) Πεντέλης","lat":38.03988340784935,"lng":23.948125074372278,"url":"https://maps.app.goo.gl/xtRHYrHMqEtBMfwK9?g_st=ipc","address":"Νταού Πεντέλη 152 36","categoryIds":["monasteries-churches"],"categories":["Monasteries & Spiritual Sites"]},{"id":"monasteriesChurches_adc6b19412ee","slug":"parekklisi-agioy-georgioy-adc6","kind":"restaurant","name":"Παρεκκλήσι Αγίου Γεωργίου","lat":37.81919273575849,"lng":23.773228906832582,"url":"https://maps.app.goo.gl/WhtDbBx2hvZfm5mb9?g_st=ipc","address":"Βουλιαγμένη 166 71","categoryIds":["monasteries-churches"],"categories":["Monasteries & Spiritual Sites"]},{"id":"monasteriesChurches_c2b99534a746","slug":"osioy-fraim-c2b9","kind":"restaurant","name":"Οσίου Ἐφραίμ","lat":38.07494568017478,"lng":23.95319576902227,"url":"https://maps.app.goo.gl/t1Fe5nBcUY3vmfcE7?g_st=ipc","address":"Αγίου Εφραίμ, Νέα Μάκρη 190 05","categoryIds":["monasteries-churches"],"categories":["Monasteries & Spiritual Sites"]},{"id":"monasteriesChurches_ea257ea66588","slug":"ieros-kathedrikos-naos-agias-triados-ano-glyfadas-ea25","kind":"restaurant","name":"Ιερός Καθεδρικός Ναός Αγίας Τριάδος Άνω Γλυφάδας","lat":37.87276703155996,"lng":23.76655825797858,"url":"https://maps.app.goo.gl/SpsszvBBtaBzKcAW9?g_st=ipc","address":"Αγίας ΤΡΙΑΔΑΣ &, Αρετής 78, Γλυφάδα 166 74","categoryIds":["monasteries-churches"],"categories":["Monasteries & Spiritual Sites"]},{"id":"monasteriesChurches_7e1015acfe83","slug":"ieros-mitropolitikos-naos-agion-konstantinoy-kai-elenis-glyfados-7e10","kind":"restaurant","name":"Ιερός Μητροπολιτικός Ναός Αγίων Κωνσταντίνου και Ελένης Γλυφάδος","lat":37.86486928057967,"lng":23.745526823345948,"url":"https://maps.app.goo.gl/qTQwxJXWuuhNBZ4H6?g_st=ipc","address":"Λεωφ. Ποσειδώνος 55, Γλυφάδα 166 75","categoryIds":["monasteries-churches"],"categories":["Monasteries & Spiritual Sites"]},{"id":"monasteriesChurches_f9758a225b79","slug":"iera-moni-taxiarchon-asterioy-f975","kind":"restaurant","name":"Ιερά Μονή Ταξιαρχών Αστερίου","lat":37.96963791637043,"lng":23.811299998354023,"url":"https://maps.app.goo.gl/3bMH4x4NEyFmUZJ97?g_st=ipc","address":"Ζωγράφου 157 72","categoryIds":["monasteries-churches"],"categories":["Monasteries & Spiritual Sites"]},{"id":"monasteriesChurches_20d9168100a7","slug":"iera-moni-agioy-ioannoy-toy-kynigoy-20d9","kind":"restaurant","name":"Ιερά Μονή Αγίου Ιωάννου του Κυνηγού","lat":38.00278956163498,"lng":23.836715813242602,"url":"https://maps.app.goo.gl/TkGr97r8sSTcdTYu9?g_st=ipc","address":"Ανατολικής Μεσογείου, Αγ. Παρασκευή 153 42","categoryIds":["monasteries-churches"],"categories":["Monasteries & Spiritual Sites"]},{"id":"monasteriesChurches_ab2f1ef6db23","slug":"iera-moni-kaisarianis-ab2f","kind":"restaurant","name":"Ιερά Μονή Καισαριανής","lat":37.96085617263528,"lng":23.798163534107264,"url":"https://maps.app.goo.gl/tKzi13MSJeMrbus97?g_st=ipc","address":"Καισαριανή 161 22","categoryIds":["monasteries-churches"],"categories":["Monasteries & Spiritual Sites"]},{"id":"monasteriesChurches_2be0515299ae","slug":"iera-moni-agioy-ioannoy-prodromoy-karea-2be0","kind":"restaurant","name":"Ιερά Μονή Αγίου Ιωάννου Προδρόμου Καρέα","lat":37.94196286966367,"lng":23.778600784098284,"url":"https://maps.app.goo.gl/sjaYoN5Vu2UjZVSx6?g_st=ipc","address":"Καρέας, Βύρωνας 162 33","categoryIds":["monasteries-churches"],"categories":["Monasteries & Spiritual Sites"]},{"id":"monasteriesChurches_2ed5c9c74a50","slug":"iera-moni-pentelis-koimiseos-tis-theotokoy-2ed5","kind":"restaurant","name":"Ιερά Μονή Πεντέλης (Κοιμήσεως της Θεοτόκου)","lat":38.052651924953615,"lng":23.86703856624407,"url":"https://maps.app.goo.gl/Xf9ygVb29EqkAQUs7?g_st=ipc","address":"Πεντέλη 152 36","categoryIds":["monasteries-churches"],"categories":["Monasteries & Spiritual Sites"]},{"id":"monasteriesChurches_532a88c17ded","slug":"ieros-naos-agioy-dimitrioy-532a","kind":"restaurant","name":"Ιερός Ναός Αγίου Δημητρίου","lat":37.939612390639354,"lng":23.731409160406493,"url":"https://maps.app.goo.gl/NQFZSQ6EDz4WiEjk6?g_st=ipc","address":"Λεωφ. Αγίου Δημητρίου 117, Αγ. Δημήτριος Αττικής 173 43","categoryIds":["monasteries-churches"],"categories":["Monasteries & Spiritual Sites"]}],"nearby":[{"id":"greekRestaurants_68a9f7400481","slug":"to-steki-68a9","kind":"restaurant","name":"Το Στέκι","lat":37.64076026825118,"lng":24.343071921982645,"url":"https://maps.app.goo.gl/Jg5K19uN9xk81De17?g_st=ipc","address":"Ιουλίδα, Κέα 840 02","categoryIds":["greek-restaurants"],"categories":["Greek Restaurants"],"distanceKm":5.392069197214117},{"id":"municipalities_6d137de68b2c","slug":"kea-6d13","kind":"municipality","name":"Κέα","lat":37.6333,"lng":24.3333,"aliases":["Kea","Keios","Κέιος","Κεα"],"region":"Κυκλάδες","name_en":"Kea","region_en":"Cyclades","distanceKm":6.560339166905694},{"id":"fishTavernasRestaurants_b7db512b75ba","slug":"arias-restaurant-kythnos-b7db","kind":"restaurant","name":"Arias restaurant Kythnos","lat":37.43805920967631,"lng":24.433681333413276,"url":"https://maps.app.goo.gl/GWWwUXx8q4vncoUU7?g_st=ipc","address":"Unnamed Road, Ag. Irini, Kithnos 840 06","categoryIds":["fish-tavernas"],"categories":["Fish Tavernas"],"distanceKm":25.49237638972057},{"id":"greekRestaurants_df3695f3e140","slug":"koytsikos-estiatorio-df36","kind":"restaurant","name":"Κούτσικος - Εστιατόριο","lat":37.436774168152716,"lng":24.424568422123198,"url":"https://maps.app.goo.gl/PTJMDf8CPhT12on69?g_st=ipc","address":"37°26'11.4\"N 24°25'28., 1, Σιντική 623 00","categoryIds":["greek-restaurants"],"categories":["Greek Restaurants"],"distanceKm":25.541988525089092},{"id":"coffeeBrunchRestaurants_b37184d12246","slug":"margiora-b371","kind":"restaurant","name":"Margiora","lat":37.412930533564115,"lng":24.430074872526156,"url":"https://maps.app.goo.gl/6LXk9Z8yUCSVckb96?g_st=ipc","address":"Κύθνος 840 06","categoryIds":["coffee-brunch"],"categories":["Coffee & Brunch Spots"],"distanceKm":28.22924072481907},{"id":"greekRestaurants_4500da731c6a","slug":"to-steki-toy-ntetzi-4500","kind":"restaurant","name":"Το Στέκι του Ντέτζη","lat":37.412472796893596,"lng":24.43096202247223,"url":"https://maps.app.goo.gl/s21k1zGHkiQiQg4s7?g_st=ipc","address":"Κύθνος 840 06","categoryIds":["greek-restaurants"],"categories":["Greek Restaurants"],"distanceKm":28.288299208937293},{"id":"greekRestaurants_3ecbeb295bc4","slug":"giagia-koykoy-kythnos-3ecb","kind":"restaurant","name":"ΓΙΑΓΙΑ ΚΟΥΚΟΥ Kythnos","lat":37.41258086001589,"lng":24.43247179288349,"url":"https://maps.app.goo.gl/9L488c2BBbXHP1Yz9?g_st=ipc","address":"Ανεμομυλος, Κύθνος 840 06","categoryIds":["greek-restaurants"],"categories":["Greek Restaurants"],"distanceKm":28.291233568965296},{"id":"dessertsRestaurants_1f27ca8b7f3d","slug":"gigil-1f27","kind":"restaurant","name":"gigil","lat":37.41243516402313,"lng":24.430965794947877,"url":"https://maps.app.goo.gl/g3BuCBsD757ceaUU6?g_st=ipc","address":"Κύθνος 840 06","categoryIds":["desserts"],"categories":["Dessert Shops"],"distanceKm":28.292495150925458},{"id":"coffeeBrunchRestaurants_aa05248e4e74","slug":"apokalipsi-kythnos-aa05","kind":"restaurant","name":"Apokalipsi Kythnos","lat":37.4124761463021,"lng":24.431457541279233,"url":"https://maps.app.goo.gl/AbpuvqbsTCXHg2oa7?g_st=ipc","address":"Κυκλαδες, Kithnos 840 06","categoryIds":["coffee-brunch"],"categories":["Coffee & Brunch Spots"],"distanceKm":28.292742074905778},{"id":"coffeeBrunchRestaurants_e658f493120b","slug":"sourloulou-kythnos-e658","kind":"restaurant","name":"Sourloulou Kythnos","lat":37.41243148353528,"lng":24.43143339817302,"url":"https://maps.app.goo.gl/FGzjfcUPBsXsNNqj9?g_st=ipc","address":"Θεολόγος, Kithnos 840 06","categoryIds":["coffee-brunch"],"categories":["Coffee & Brunch Spots"],"distanceKm":28.297441798131533},{"id":"coffeeBrunchRestaurants_c2c74292ab30","slug":"hamsa-beach-bar-restaurant-c2c7","kind":"restaurant","name":"Hamsa Beach Bar - Restaurant","lat":37.39312552655256,"lng":24.3982581144625,"url":"https://maps.app.goo.gl/atz6NCMG1oEDawJu9?g_st=ipc","address":"Μαρτινακια Κυθνος, 840 06","categoryIds":["coffee-brunch"],"categories":["Coffee & Brunch Spots"],"distanceKm":30.270564619074904},{"id":"fishTavernasRestaurants_3dad4b7d5b53","slug":"arodou-seafood-taverna-3dad","kind":"restaurant","name":"Arodou Seafood Taverna","lat":37.39685622322288,"lng":24.459369243856617,"url":"https://maps.app.goo.gl/LBNaRdz7e7zbNDVz5?g_st=ipc","address":"Unnamed Road, Kithnos 840 06","categoryIds":["fish-tavernas"],"categories":["Fish Tavernas"],"distanceKm":30.375656494465815},{"id":"coffeeBrunchRestaurants_b5b417f95cd1","slug":"maistrali-b5b4","kind":"restaurant","name":"Maistrali","lat":37.38947704282166,"lng":24.39834020618754,"url":"https://maps.app.goo.gl/P46Mc4PY3VqCeaVF8?g_st=ipc","address":"Merihas 840 06","categoryIds":["coffee-brunch"],"categories":["Coffee & Brunch Spots"],"distanceKm":30.676298490537718},{"id":"greekRestaurants_cf9861d9b1ba","slug":"fourles-cf98","kind":"restaurant","name":"Fourles","lat":37.38863369970779,"lng":24.397655998320165,"url":"https://maps.app.goo.gl/m4rPqMjHikQUW4So9?g_st=ipc","address":"Λιμάνι Μέριχα ΚΥΘΝΟΣ, Μεριχας 840 06","categoryIds":["greek-restaurants"],"categories":["Greek Restaurants"],"distanceKm":30.76970236510691}],"sameRegion":[],"mentionedGuides":[],"canonicalSlug":"panagia-kastriani-5425","enrichment":{"summary_en":"Παναγία Καστριανή is a curated restaurant in Greece in the Monasteries & Spiritual Sites collection. It is connected to 0 nearby Googlementor picks to help travelers build a stronger local route.","summary_el":"Παναγία Καστριανή είναι ένα επιλεγμένο σημείο φαγητού στην περιοχή Greece και ανήκει στη συλλογή Monasteries & Spiritual Sites. Συνδέεται με 0 κοντινές προτάσεις του Googlementor για πιο ολοκληρωμένη εμπειρία.","vibe_tags":["curated"],"best_for":["first-time visitors","food lovers"],"visit_moments":["lunch stop","dinner stop"],"practical_note":"Address and direct map link are available for easy turn-by-turn access.","nearby_walkable_count":0,"nearby_count_2km":0,"confidence":0.9},"areaContext":null,"intentContexts":[]},"__N_SSG":true}