{"pageProps":{"entity":{"id":"luxuryDiningRestaurants_456832c19fa5","slug":"spianada-meats-greens-4568","kind":"restaurant","name":"Spianada Meats & Greens","lat":39.62310170311375,"lng":19.923385713237856,"url":"https://maps.app.goo.gl/PRwrcwQFNPVZjFsk6?g_st=ipc","address":"Kapodistriou 32, Kerkira 491 00","categoryIds":["luxury-dining"],"categories":["Luxury Dining"]},"sameCategory":[{"id":"luxuryDiningRestaurants_a41bdee807ed","slug":"ora-day-a41b","kind":"restaurant","name":"Ora Day","lat":39.62198349556085,"lng":19.925172942691578,"url":"https://maps.app.goo.gl/XLhEQFknHoz231GF7?g_st=ipc","address":"Agoniston Politechniou, Kerkira 491 00","categoryIds":["luxury-dining"],"categories":["Luxury Dining"]},{"id":"luxuryDiningRestaurants_447de7bad692","slug":"venetian-well-447d","kind":"restaurant","name":"Venetian Well","lat":39.62641881073211,"lng":19.921842707953036,"url":"https://maps.app.goo.gl/HLnA6MPvVh9foYtK6?g_st=ipc","address":"Πλατεια Λίλη Δεσύλλα 1, Kerkira 491 00","categoryIds":["luxury-dining"],"categories":["Luxury Dining"]},{"id":"luxuryDiningRestaurants_c23fed298e67","slug":"etrusco-c23f","kind":"restaurant","name":"Etrusco","lat":39.6891414540143,"lng":19.834904657627558,"url":"https://maps.app.goo.gl/x3VsqPUTtkawiKFC7?g_st=ipc","address":"Κάτω Κορακιάνα 490 83","categoryIds":["luxury-dining"],"categories":["Luxury Dining"]},{"id":"luxuryDiningRestaurants_4ac0f5cb2cce","slug":"makris-restaurant-4ac0","kind":"restaurant","name":"Makris Restaurant","lat":39.490901721836174,"lng":19.92628299466604,"url":"https://maps.app.goo.gl/GPZUEnWWjrQuRVWr7?g_st=ipc","address":"Miramare Beach, Moraitika 491 00","categoryIds":["luxury-dining"],"categories":["Luxury Dining"]},{"id":"luxuryDiningRestaurants_7ec403367977","slug":"restaurant-thymari-7ec4","kind":"restaurant","name":"Restaurant Thymari","lat":38.835357324233975,"lng":20.708797217981044,"url":"https://maps.app.goo.gl/8TWdBgQzLn6EaTaWA?g_st=ipc","address":"Πηνελόπης 19, Lefkada 311 00","categoryIds":["luxury-dining"],"categories":["Luxury Dining"]},{"id":"luxuryDiningRestaurants_8b20ccb20498","slug":"mastelo-restaurant-bar-8b20","kind":"restaurant","name":"Mastelo Restaurant & Bar","lat":38.83239517619771,"lng":20.705692089105533,"url":"https://maps.app.goo.gl/3X5uukpGejXWctER8?g_st=ipc","address":"Mitropoleos 11, Lefkada 311 00","categoryIds":["luxury-dining"],"categories":["Luxury Dining"]},{"id":"luxuryDiningRestaurants_d0c9da73f0ff","slug":"amente-restaurant-cocktail-bar-d0c9","kind":"restaurant","name":"Amente Restaurant & Cocktail bar","lat":38.772581566319595,"lng":20.61911835255244,"url":"https://maps.app.goo.gl/gfJazr3nBs7Z4eio6?g_st=ipc","address":"Varagas, Drimonas 311 00","categoryIds":["luxury-dining"],"categories":["Luxury Dining"]},{"id":"luxuryDiningRestaurants_889a9d30e511","slug":"melia-fine-dining-889a","kind":"restaurant","name":"Melia fine dining","lat":37.828072825552965,"lng":20.841384143587636,"url":"https://maps.app.goo.gl/vE8rWsiQpSVYvijD9?g_st=ipc","address":"Τραγάκι 291 00","categoryIds":["luxury-dining"],"categories":["Luxury Dining"]},{"id":"luxuryDiningRestaurants_297c60e6e419","slug":"prosilio-restaurant-297c","kind":"restaurant","name":"Prosilio Restaurant","lat":37.788001222025756,"lng":20.899925444650034,"url":"https://maps.app.goo.gl/ubyLMAurXvicrjVq5?g_st=ipc","address":"Ag. Panton 15, Zakinthos 291 00","categoryIds":["luxury-dining"],"categories":["Luxury Dining"]},{"id":"fishTavernasRestaurants_f8b7ef1f9834","slug":"mavri-thalassa-f8b7","kind":"restaurant","name":"Mavri Thalassa","lat":40.57843253808032,"lng":22.94322807682347,"url":"https://maps.app.goo.gl/BS4tZgxTYFAhXywDA?g_st=ipc","address":"Nik. Plastira 3, Kalamaria 551 32","categoryIds":["fish-tavernas","luxury-dining"],"categories":["Fish Tavernas","Luxury Dining"],"legacySlugs":["mavri-thalassa-e027"]},{"id":"coffeeBrunchRestaurants_f9825eace7fc","slug":"les-zazous-f982","kind":"restaurant","name":"Les Zazous","lat":40.58600004577793,"lng":22.93944264109209,"url":"https://maps.app.goo.gl/timwhn386UbaBApm7?g_st=ipc","address":"Themistokli Sofouli 108, Kalamaria 551 31","categoryIds":["coffee-brunch","luxury-dining"],"categories":["Coffee & Brunch Spots","Luxury Dining"],"legacySlugs":["les-zazous-fd5e"]},{"id":"luxuryDiningRestaurants_f789c3144485","slug":"marrone-restaurant-f789","kind":"restaurant","name":"Marrone Restaurant","lat":40.587514625354714,"lng":22.942944126653384,"url":"https://maps.app.goo.gl/rYECyH9YH5sKjowm8?g_st=ipc","address":"Themistokli Sofouli 111, Kalamaria 551 31","categoryIds":["luxury-dining"],"categories":["Luxury Dining"]}],"nearby":[{"id":"italianRestaurants_ca939fad1a78","slug":"la-tavola-calda-ca93","kind":"restaurant","name":"La Tavola Calda","lat":39.623370627858776,"lng":19.923005947570733,"url":"https://maps.app.goo.gl/ENRUpZHsLbcTwuH2A?g_st=ipc","address":"Giotopoulou 10-12, Kerkira 491 00","categoryIds":["italian"],"categories":["Italian Restaurants"],"distanceKm":0.04418320196713558},{"id":"cheapEatsRestaurants_22e46faae4a1","slug":"di-santo-premium-sandwiches-22e4","kind":"restaurant","name":"Di Santo Premium Sandwiches","lat":39.6237687550092,"lng":19.923112693259046,"url":"https://maps.app.goo.gl/bBz55JsBTZudAbHR9?g_st=ipc","address":"Evgeniou Voulgareos 3, Kerkira 491 00","categoryIds":["cheap-eats"],"categories":["Gyros & Cheap Eats"],"distanceKm":0.07777144617847888},{"id":"cheapEatsRestaurants_bc792aeec77f","slug":"pitta-pappou-bc79","kind":"restaurant","name":"Pitta pappou","lat":39.62391916981706,"lng":19.9227027256586,"url":"https://maps.app.goo.gl/3x2uABEYb4yf4U9ZA?g_st=ipc","address":"ΑΓΙΩΝ ΠΑΝΤΩΝ 12, agion panton 12, Kerkira 491 00","categoryIds":["cheap-eats"],"categories":["Gyros & Cheap Eats"],"distanceKm":0.10809404404725668},{"id":"dessertsRestaurants_c84a0048c110","slug":"papagiorgis-patiserie-gelateria-c84a","kind":"restaurant","name":"Papagiorgis Patiserie-Gelateria","lat":39.624442580854314,"lng":19.922449483485316,"url":"https://maps.app.goo.gl/tsC3kM3FwzybS2zd6?g_st=ipc","address":"Nikiforou Theotoki 32, Kerkira 491 00","categoryIds":["desserts"],"categories":["Dessert Shops"],"distanceKm":0.1692933625822976},{"id":"municipalities_c2a6f966632a","slug":"kerkyra-c2a6","kind":"municipality","name":"Κέρκυρα","lat":39.6243,"lng":19.9217,"aliases":["Kerkira","Corcyra","Κερκύρα","Κερκύρη","Κερκυρα","Kerkyra","Corfou"],"region":"Ιόνιο","name_en":"Corfu","region_en":"Ionian Islands","distanceKm":0.19646634309266958},{"id":"luxuryDiningRestaurants_a41bdee807ed","slug":"ora-day-a41b","kind":"restaurant","name":"Ora Day","lat":39.62198349556085,"lng":19.925172942691578,"url":"https://maps.app.goo.gl/XLhEQFknHoz231GF7?g_st=ipc","address":"Agoniston Politechniou, Kerkira 491 00","categoryIds":["luxury-dining"],"categories":["Luxury Dining"],"distanceKm":0.19721083439581358},{"id":"dessertsRestaurants_672e57be6b02","slug":"solo-gelato-672e","kind":"restaurant","name":"Solo Gelato","lat":39.62449131411604,"lng":19.92192848556591,"url":"https://maps.app.goo.gl/75zMv1NcKb3QY9T4A?g_st=ipc","address":"Michail Theotoki 3, Kerkira 491 00","categoryIds":["desserts"],"categories":["Dessert Shops"],"distanceKm":0.19862731608733614},{"id":"coffeeBrunchRestaurants_a96c83f91f07","slug":"kumquat-speciality-coffee-brunch-cocktails-a96c","kind":"restaurant","name":"Kumquat / speciality coffee / brunch / cocktails","lat":39.62122356019077,"lng":19.919537643557778,"url":"https://maps.app.goo.gl/3cEBJnGDVun8x3Pu5?g_st=ipc","address":"Σπύρου Σαμαρά 3 και, Kerkira 491 00","categoryIds":["coffee-brunch"],"categories":["Coffee & Brunch Spots"],"distanceKm":0.39018095049915064},{"id":"luxuryDiningRestaurants_447de7bad692","slug":"venetian-well-447d","kind":"restaurant","name":"Venetian Well","lat":39.62641881073211,"lng":19.921842707953036,"url":"https://maps.app.goo.gl/HLnA6MPvVh9foYtK6?g_st=ipc","address":"Πλατεια Λίλη Δεσύλλα 1, Kerkira 491 00","categoryIds":["luxury-dining"],"categories":["Luxury Dining"],"distanceKm":0.391805382188708},{"id":"greekRestaurants_9f5022be5281","slug":"to-tavernaki-tis-marinas-9f50","kind":"restaurant","name":"Το Ταβερνάκι της Μαρίνας","lat":39.62492333562477,"lng":19.9188396620582,"url":"https://maps.app.goo.gl/zBELB5QbZJL4Jsk99?g_st=ipc","address":"Βελισσαρίου 35, Κέρκυρα 491 00","categoryIds":["greek-restaurants"],"categories":["Greek Restaurants"],"distanceKm":0.4388945970452594},{"id":"mustSeeAttractions_95bea16be675","slug":"old-town-of-corfu-95be","kind":"restaurant","name":"Old Town of Corfu","lat":39.62343987783881,"lng":19.92891594231962,"url":"https://maps.app.goo.gl/iFY1Kcc4UwLiyRGc7?g_st=ipc","address":"Corfu 491 00","categoryIds":["attractions"],"categories":["Must-See Attractions"],"distanceKm":0.4751454138512647},{"id":"coffeeBrunchRestaurants_02639bfe1e4a","slug":"cafe-kanoni-0263","kind":"restaurant","name":"Cafe Kanoni","lat":39.59150641307164,"lng":19.917314978086413,"url":"https://maps.app.goo.gl/RBi9fUSj1gvzz2E86?g_st=ipc","address":"κανόνι, Kerkira 491 00","categoryIds":["coffee-brunch"],"categories":["Coffee & Brunch Spots"],"distanceKm":3.551520538589188},{"id":"familyFriendly_e515147a29e0","slug":"aqualand-e515","kind":"restaurant","name":"Aqualand","lat":39.61697908099727,"lng":19.837429719404867,"url":"https://maps.app.goo.gl/NQ1AwXiEg5oZQg359?g_st=ipc","address":"Agios Ioannis 491 00","categoryIds":["family-friendly"],"categories":["Kid Friendly Locations"],"distanceKm":7.393744478260711},{"id":"mexicanRestaurants_09c0e00bc62f","slug":"picante-mexican-cocktail-bar-09c0","kind":"restaurant","name":"Picante Mexican - Cocktail Bar","lat":39.54688963792196,"lng":19.912527827268715,"url":"https://maps.app.goo.gl/gry6ZeCUAGqm9E3X7?g_st=ipc","address":"Benitses 490 84","categoryIds":["mexican"],"categories":["Mexican Restaurants"],"distanceKm":8.52532420278729},{"id":"luxuryDiningRestaurants_c23fed298e67","slug":"etrusco-c23f","kind":"restaurant","name":"Etrusco","lat":39.6891414540143,"lng":19.834904657627558,"url":"https://maps.app.goo.gl/x3VsqPUTtkawiKFC7?g_st=ipc","address":"Κάτω Κορακιάνα 490 83","categoryIds":["luxury-dining"],"categories":["Luxury Dining"],"distanceKm":10.549847336992999},{"id":"luxuryDiningRestaurants_4ac0f5cb2cce","slug":"makris-restaurant-4ac0","kind":"restaurant","name":"Makris Restaurant","lat":39.490901721836174,"lng":19.92628299466604,"url":"https://maps.app.goo.gl/GPZUEnWWjrQuRVWr7?g_st=ipc","address":"Miramare Beach, Moraitika 491 00","categoryIds":["luxury-dining"],"categories":["Luxury Dining"],"distanceKm":14.702065543954344},{"id":"coffeeBrunchRestaurants_8ce44b297b18","slug":"la-grotta-bar-8ce4","kind":"restaurant","name":"La Grotta Bar","lat":39.67381089427264,"lng":19.718606911052376,"url":"https://maps.app.goo.gl/HyZmnveaEpuiN62j8?g_st=ipc","address":"La Grotta Bay, Paleokastritsa 490 83","categoryIds":["coffee-brunch"],"categories":["Coffee & Brunch Spots"],"distanceKm":18.416981954859192},{"id":"municipalities_3976b9119f68","slug":"palaiokastritsa-3976","kind":"municipality","name":"Παλαιοκαστρίτσα","lat":39.6778,"lng":19.7139,"aliases":["Παλαιοκαστριτσα","Palaiokastritsa"],"region":"Ιόνιο","name_en":"Paleokastritsa","region_en":"Ionian Islands","distanceKm":18.938294737655013},{"id":"coffeeBrunchRestaurants_207254fa5966","slug":"bakalokafenio-michalas-kostas-2072","kind":"restaurant","name":"Bakalokafenio - Michalas Kostas","lat":39.681013717064104,"lng":19.71063796584377,"url":"https://maps.app.goo.gl/YrUQcKuXeVaBkqFR7?g_st=ipc","address":"Lakones 490 83","categoryIds":["coffee-brunch"],"categories":["Coffee & Brunch Spots"],"distanceKm":19.318745230011398},{"id":"coffeeBrunchRestaurants_aa7bbba77011","slug":"dolce-cafe-aa7b","kind":"restaurant","name":"Dolce Café","lat":39.68046834433433,"lng":19.703113468558957,"url":"https://maps.app.goo.gl/uW2pukpfg5XpBrAM9?g_st=ipc","address":"Lakones 490 83","categoryIds":["coffee-brunch"],"categories":["Coffee & Brunch Spots"],"distanceKm":19.9078095676761},{"id":"fishTavernasRestaurants_700d8feb6ab1","slug":"andromeda-restaurant-700d","kind":"restaurant","name":"Andromeda Restaurant","lat":39.79259047776619,"lng":19.8046234596079,"url":"https://maps.app.goo.gl/jMHKwGmxZZd6mhuh8?g_st=ipc","address":"Άγιος Στέφανος επίσκεψης, Acharavi 491 00","categoryIds":["fish-tavernas"],"categories":["Fish Tavernas"],"distanceKm":21.41015827558232},{"id":"dessertsRestaurants_51c501b69bcd","slug":"cosy-51c5","kind":"restaurant","name":"Cosy","lat":39.42695341977823,"lng":19.943982019426304,"url":"https://maps.app.goo.gl/tLH5nMQN5TJtaAzM8?g_st=ipc","address":"Αγ. Γεώργιος 490 80","categoryIds":["desserts"],"categories":["Dessert Shops"],"distanceKm":21.88211672534668}],"sameRegion":[],"mentionedGuides":[],"canonicalSlug":"spianada-meats-greens-4568","enrichment":{"summary_en":"Spianada Meats & Greens is a curated restaurant in Kerkira 491 00 in the Luxury Dining collection. It is connected to 11 nearby Googlementor picks to help travelers build a stronger local route.","summary_el":"Spianada Meats & Greens είναι ένα επιλεγμένο σημείο φαγητού στην περιοχή Kerkira 491 00 και ανήκει στη συλλογή Luxury Dining. Συνδέεται με 11 κοντινές προτάσεις του Googlementor για πιο ολοκληρωμένη εμπειρία.","vibe_tags":["curated","premium-dining"],"best_for":["first-time visitors","food lovers","special occasions"],"visit_moments":["lunch stop","dinner stop"],"practical_note":"Address and direct map link are available for easy turn-by-turn access.","nearby_walkable_count":11,"nearby_count_2km":11,"confidence":0.98},"areaContext":{"slug":"kerkyra","name":"Corfu","nameEl":"Κέρκυρα"},"intentContexts":[]},"__N_SSG":true}