{"pageProps":{"entity":{"id":"fishTavernasRestaurants_2332c66868ee","slug":"st-george-s-tavern-2332","kind":"restaurant","name":"St George's Tavern","lat":40.84895697847809,"lng":25.756806933273776,"url":"https://maps.app.goo.gl/Lq4bMhx6VUhzaNx37?g_st=ipc","address":"RQX4+HP, Makri 68150","categoryIds":["fish-tavernas"],"categories":["Fish Tavernas"]},"sameCategory":[{"id":"fishTavernasRestaurants_16a4e67c3c63","slug":"agios-charalampos-taverna-16a4","kind":"restaurant","name":"Άγιος Χαράλαμπος Ταβέρνα","lat":40.01540251451066,"lng":25.41273241641246,"url":"https://maps.app.goo.gl/TDkDp1LztBnJyFX67?g_st=ipc","address":"Λημνος, Plaka 814 01","categoryIds":["fish-tavernas"],"categories":["Fish Tavernas"]},{"id":"fishTavernasRestaurants_038ab4889bb3","slug":"taverna-flomari-038a","kind":"restaurant","name":"Taverna Flomari","lat":39.98832919487252,"lng":25.155079152226218,"url":"https://maps.app.goo.gl/G6hKXeSWoodnwXMF6?g_st=ipc","address":"Gomati Beach, Limnos 814 01","categoryIds":["fish-tavernas"],"categories":["Fish Tavernas"]},{"id":"fishTavernasRestaurants_872df0d46026","slug":"tavern-restaurant-giannakaros-872d","kind":"restaurant","name":"Tavern Restaurant GIANNAKAROS","lat":39.94049535145995,"lng":25.283557993247516,"url":"https://maps.app.goo.gl/Y8y6JAFkf3x52TAJA?g_st=ipc","address":"ΛΙΜΑΝΑΚΙ, Kotsinas 814 01","categoryIds":["fish-tavernas"],"categories":["Fish Tavernas"]},{"id":"fishTavernasRestaurants_aecb96de4396","slug":"savvas-aecb","kind":"restaurant","name":"Savvas","lat":40.942255728565115,"lng":24.425243186310322,"url":"https://maps.app.goo.gl/HRHjPKGDuwcWxApM7?g_st=ipc","address":"Thasou 29, Kavala 652 01","categoryIds":["fish-tavernas"],"categories":["Fish Tavernas"]},{"id":"fishTavernasRestaurants_782c004f6a18","slug":"glykanisos-782c","kind":"restaurant","name":"Glykanisos","lat":39.89189656070638,"lng":25.20287613011476,"url":"https://maps.app.goo.gl/tCAL6L44HZbqrniJ6?g_st=ipc","address":"Unnamed Road, Limnos 814 00","categoryIds":["fish-tavernas"],"categories":["Fish Tavernas"]},{"id":"fishTavernasRestaurants_3f01da32250d","slug":"barbounaki-lemnos-3f01","kind":"restaurant","name":"Barbounaki | Lemnos","lat":39.922645057066866,"lng":25.071051886904925,"url":"https://maps.app.goo.gl/Y8MNEpBKf9pJKHNg8?g_st=ipc","address":"Λημνος, Αγιος Ιωαννης, Kaspakas 814 00","categoryIds":["fish-tavernas"],"categories":["Fish Tavernas"]},{"id":"fishTavernasRestaurants_31d05d8989b3","slug":"riza-31d0","kind":"restaurant","name":"Rizá","lat":39.884706865069624,"lng":25.06758130540464,"url":"https://maps.app.goo.gl/mjn9nrVY8o8u2BtBA?g_st=ipc","address":"Ιωάννη ξυραδη, Mirina 814 00","categoryIds":["fish-tavernas"],"categories":["Fish Tavernas"]},{"id":"fishTavernasRestaurants_f11f3f78b977","slug":"taverna-ta-tria-pitharia-f11f","kind":"restaurant","name":"Taverna Ta Tria Pitharia","lat":40.83585839690305,"lng":24.305213402843865,"url":"https://maps.app.goo.gl/4hp3qTvHqzD6ZvsJ7?g_st=ipc","address":"Nikis, Nea Peramos 640 07","categoryIds":["fish-tavernas"],"categories":["Fish Tavernas"]},{"id":"fishTavernasRestaurants_ec6f8deb686c","slug":"romeo-restaurant-ec6f","kind":"restaurant","name":"Romeo Restaurant","lat":39.877624727759105,"lng":25.0589103454787,"url":"https://maps.app.goo.gl/gcPprUPwwjyMys6K6?g_st=ipc","address":"Navarchou Kountourioti 4, Mirina 814 00","categoryIds":["fish-tavernas"],"categories":["Fish Tavernas"]},{"id":"fishTavernasRestaurants_50ee9738a03b","slug":"giannakaros-50ee","kind":"restaurant","name":"Giannakaros","lat":39.84054300748565,"lng":25.08178620013765,"url":"https://maps.app.goo.gl/pXxiEsVASm4fz94F7?g_st=ipc","address":"Παραλία Θάνους 814 00","categoryIds":["fish-tavernas"],"categories":["Fish Tavernas"]},{"id":"fishTavernasRestaurants_9e4956f003d0","slug":"tzanis-9e49","kind":"restaurant","name":"Tzanis","lat":40.33107915875693,"lng":23.922485829473047,"url":"https://maps.app.goo.gl/gztDX78ELvSAM2Bu8?g_st=ipc","address":"Αμμουλιανή, Ammouliani 630 75","categoryIds":["fish-tavernas"],"categories":["Fish Tavernas"]},{"id":"fishTavernasRestaurants_65768adf2a19","slug":"ta-vrahakia-6576","kind":"restaurant","name":"Ta Vrahakia","lat":40.097540490283095,"lng":23.98106959598484,"url":"https://maps.app.goo.gl/s3bXAQZmTZm8mRD49?g_st=ipc","address":"Sarti, 630 72","categoryIds":["fish-tavernas"],"categories":["Fish Tavernas"]}],"nearby":[{"id":"burgersRestaurants_2c0faaef9d53","slug":"holy-smoke-bbq-streetfood-2c0f","kind":"restaurant","name":"Holy Smoke BBQ Streetfood","lat":40.846110747356505,"lng":25.87110606697465,"url":"https://maps.app.goo.gl/QRyzxeSuPPkZ7om56?g_st=ipc","address":"Eth. Antistaseos 136, Alexandroupoli 681 00","categoryIds":["burgers","cheap-eats"],"categories":["Burger Spots","Gyros & Cheap Eats"],"legacySlugs":["holy-smoke-bbq-streetfood-b910"],"distanceKm":9.619330461868685},{"id":"municipalities_d9c8f1d08440","slug":"alexandroypoli-d9c8","kind":"municipality","name":"Αλεξανδρούπολη","lat":40.85,"lng":25.873,"region":"Ανατολική Μακεδονία και Θράκη","name_en":"Alexandroupoli","region_en":"Eastern Macedonia & Thrace","distanceKm":9.773829693674395}],"sameRegion":[],"mentionedGuides":[],"canonicalSlug":"st-george-s-tavern-2332","enrichment":{"summary_en":"St George's Tavern is a curated restaurant in Makri 68150 in the Fish Tavernas collection. It is connected to 0 nearby Googlementor picks to help travelers build a stronger local route.","summary_el":"St George's Tavern είναι ένα επιλεγμένο σημείο φαγητού στην περιοχή Makri 68150 και ανήκει στη συλλογή Fish Tavernas. Συνδέεται με 0 κοντινές προτάσεις του Googlementor για πιο ολοκληρωμένη εμπειρία.","vibe_tags":["curated","seafood-local"],"best_for":["first-time visitors","food lovers"],"visit_moments":["lunch stop","dinner stop"],"practical_note":"Address and direct map link are available for easy turn-by-turn access.","nearby_walkable_count":0,"nearby_count_2km":0,"confidence":0.9},"areaContext":null,"intentContexts":[]},"__N_SSG":true}