{"pageProps":{"entity":{"id":"mustSeeAttractions_6f694258a5ea","slug":"thiseio-6f69","kind":"restaurant","name":"Θησείο","lat":37.97501242037082,"lng":23.717080869886306,"url":"https://maps.app.goo.gl/i7GUzZ6ceEZCukDC6?g_st=ipc","address":"Αθήνα 118 51","categoryIds":["attractions"],"categories":["Must-See Attractions"]},"sameCategory":[{"id":"familyFriendly_a550b3686c2d","slug":"ethniko-asteroskopeio-athinon-kentro-episkepton-thiseioy-a550","kind":"restaurant","name":"Εθνικό Αστεροσκοπείο Αθηνών - Κέντρο Επισκεπτών Θησείου","lat":37.97274718818258,"lng":23.717946612728728,"url":"https://maps.app.goo.gl/hbZeHeJkN4GXh5tc6?g_st=ipc","address":"Λόφος Νυμφών Θησείο, ΤΘ 20048, Αθήνα 118 10","categoryIds":["family-friendly","attractions"],"categories":["Kid Friendly Locations","Must-See Attractions"],"legacySlugs":["ethniko-asteroskopeio-athinon-kentro-episkepton-thiseioy-26d3"]},{"id":"mustSeeAttractions_31e331c60661","slug":"kerameikos-archaeological-site-31e3","kind":"restaurant","name":"Kerameikos Archaeological Site","lat":37.97803082106626,"lng":23.717271800112048,"url":"https://maps.app.goo.gl/21oaLw9mApwFReVy7?g_st=ipc","address":"Ermou 148, Athina 105 53","categoryIds":["attractions"],"categories":["Must-See Attractions"]},{"id":"mustSeeAttractions_f836a18a6282","slug":"naos-toy-ifaistoy-f836","kind":"restaurant","name":"Ναός του Ηφαίστου","lat":37.9755941105574,"lng":23.721451459878914,"url":"https://maps.app.goo.gl/auHh3GwXgN8RTikx6?g_st=ipc","address":"Αθήνα 105 55","categoryIds":["attractions"],"categories":["Must-See Attractions"]},{"id":"mustSeeAttractions_fa2e6a808026","slug":"archaia-agora-athinon-fa2e","kind":"restaurant","name":"Αρχαία Αγορά Αθηνών","lat":37.97489898202124,"lng":23.722093444133804,"url":"https://maps.app.goo.gl/ofAbPpuVbSmGyHGy7?g_st=ipc","address":"Αθήνα 105 55","categoryIds":["attractions"],"categories":["Must-See Attractions"]},{"id":"mustSeeAttractions_b999049b5fec","slug":"roman-basilica-b999","kind":"restaurant","name":"Roman Basilica","lat":37.97583750461877,"lng":23.723867490000497,"url":"https://maps.app.goo.gl/ij6x92mGVau3FvST9?g_st=ipc","address":"Αδριανού 27, Αθήνα 105 55","categoryIds":["attractions"],"categories":["Must-See Attractions"]},{"id":"mustSeeAttractions_1d05d319a6bb","slug":"psyrri-1d05","kind":"restaurant","name":"Ψυρρή","lat":37.9780643555903,"lng":23.723930742700833,"url":"https://maps.app.goo.gl/JcpJbaRT1V7eBHEa9?g_st=ipc","address":"Αθήνα 105 54","categoryIds":["attractions"],"categories":["Must-See Attractions"]},{"id":"mustSeeAttractions_bf865dc1bff4","slug":"prison-of-socrates-bf86","kind":"restaurant","name":"Prison of Socrates","lat":37.96945283540711,"lng":23.72099752982901,"url":"https://maps.app.goo.gl/431NuRe11zxrUqR89?g_st=ipc","address":"43, Rovertou Galli 39, Athina 117 41","categoryIds":["attractions"],"categories":["Must-See Attractions"]},{"id":"mustSeeAttractions_4e551e61d3d7","slug":"gate-of-athena-archegetis-4e55","kind":"restaurant","name":"Gate of Athena Archegetis","lat":37.974568649716346,"lng":23.725518029561396,"url":"https://maps.app.goo.gl/DQtGJPqpneygKtHk7?g_st=ipc","address":"Διοσκούρων, Epaminonda &, Athina 105 55","categoryIds":["attractions"],"categories":["Must-See Attractions"]},{"id":"mustSeeAttractions_4878dd7452cc","slug":"vivliothiki-toy-adrianoy-4878","kind":"restaurant","name":"Βιβλιοθήκη του Αδριανού","lat":37.975502314737916,"lng":23.726030220996723,"url":"https://maps.app.goo.gl/Mr5MTi9dXGy4Y8Gt5?g_st=ipc","address":"Κ, Άρεως 3, Τ, Αθήνα 105 55","categoryIds":["attractions"],"categories":["Must-See Attractions"]},{"id":"mustSeeAttractions_241beda98c80","slug":"plateia-monastirakioy-241b","kind":"restaurant","name":"Πλατεία Μοναστηρακίου","lat":37.97640816584317,"lng":23.725886410870196,"url":"https://maps.app.goo.gl/BWatUxUvLvu5LHMP9?g_st=ipc","address":"Απόλλωνος 21, Αθήνα 105 57","categoryIds":["attractions"],"categories":["Must-See Attractions"]},{"id":"mustSeeAttractions_c2101de8cfd4","slug":"romaiki-agora-athinon-c210","kind":"restaurant","name":"Ρωμαϊκή Αγορά Αθηνών","lat":37.974304073145795,"lng":23.72610046442621,"url":"https://maps.app.goo.gl/ix2gNhhwsMZiBHES8?g_st=ipc","address":"Πολυγνώτου 3, Αθήνα 105 55","categoryIds":["attractions"],"categories":["Must-See Attractions"]},{"id":"mustSeeAttractions_e73ed47cb5a3","slug":"odeio-irodoy-toy-attikoy-e73e","kind":"restaurant","name":"Ωδείο Ηρώδου του Αττικού","lat":37.97079439393834,"lng":23.724582622108812,"url":"https://maps.app.goo.gl/rjXRZrpDRp5VnNP2A?g_st=ipc","address":"Διονυσίου Αρεοπαγίτου, Αθήνα 105 55","categoryIds":["attractions"],"categories":["Must-See Attractions"]}],"nearby":[{"id":"greekRestaurants_ab98629e5118","slug":"cinapos-ab98","kind":"restaurant","name":"Cinapos","lat":37.975037080566636,"lng":23.71898004749624,"url":"https://maps.app.goo.gl/Ryj3tMNNp7RWvUcs6","address":"Ηρακλειδών 10, Αθήνα 118 51","categoryIds":["greek-restaurants"],"categories":["Greek Restaurants"],"distanceKm":0.16649049616941375},{"id":"coffeeBrunchRestaurants_97adfd0567d5","slug":"the-underdog-flagship-store-thissio-97ad","kind":"restaurant","name":"The Underdog® Flagship Store Thissio","lat":37.97497137545366,"lng":23.719135012325086,"url":"https://maps.app.goo.gl/LEHRwEwwo2yTd8KD9?g_st=ipc","address":"Ηρακλειδών 8, Αθήνα 118 51","categoryIds":["coffee-brunch"],"categories":["Coffee & Brunch Spots"],"distanceKm":0.18010890445047525},{"id":"coffeeBrunchRestaurants_7d6f8bb1e944","slug":"cat-cafe-athens-7-pers-allowed-age-14-7d6f","kind":"restaurant","name":"Cat Cafe Athens (7€/pers, Allowed Age 14+)","lat":37.97535368517015,"lng":23.71475955469486,"url":"https://maps.app.goo.gl/QcdxYRurM98VpWWX7?g_st=ipc","address":"Νηλέως 54, Αθήνα 118 51","categoryIds":["coffee-brunch"],"categories":["Coffee & Brunch Spots"],"distanceKm":0.2069772441854838},{"id":"monasteriesChurches_526ec40757ea","slug":"ieros-naos-agias-marinas-thiseioy-526e","kind":"restaurant","name":"Ιερός Ναός Αγίας Μαρίνας Θησείου","lat":37.97369230338061,"lng":23.718995271203244,"url":"https://maps.app.goo.gl/RzkAj7rMQNDfRMKN8?g_st=ipc","address":"Αγίας Μαρίνας 1, Αθήνα 118 51","categoryIds":["monasteries-churches"],"categories":["Monasteries & Spiritual Sites"],"distanceKm":0.22294736443004107},{"id":"greekRestaurants_7a0990462c96","slug":"to-steki-toy-ilia-7a09","kind":"restaurant","name":"Το Στέκι Του Ηλία","lat":37.97686050854808,"lng":23.718458701649066,"url":"https://maps.app.goo.gl/1XoTtwx2q6EitZZi8","address":"Επταχάλκου 5, Αθήνα 118 51","categoryIds":["greek-restaurants"],"categories":["Greek Restaurants"],"distanceKm":0.23835815566348934},{"id":"greekRestaurants_e9caa161f872","slug":"to-steki-toy-ilia-e9ca","kind":"restaurant","name":"Το Στέκι του Ηλία","lat":37.977110249497095,"lng":23.715901670048872,"url":"https://maps.app.goo.gl/wSbCCiegqHvWj8KcA","address":"Θεσσαλονίκης 7, Αθήνα 118 51","categoryIds":["greek-restaurants"],"categories":["Greek Restaurants"],"distanceKm":0.2551409814426369},{"id":"familyFriendly_a550b3686c2d","slug":"ethniko-asteroskopeio-athinon-kentro-episkepton-thiseioy-a550","kind":"restaurant","name":"Εθνικό Αστεροσκοπείο Αθηνών - Κέντρο Επισκεπτών Θησείου","lat":37.97274718818258,"lng":23.717946612728728,"url":"https://maps.app.goo.gl/hbZeHeJkN4GXh5tc6?g_st=ipc","address":"Λόφος Νυμφών Θησείο, ΤΘ 20048, Αθήνα 118 10","categoryIds":["family-friendly","attractions"],"categories":["Kid Friendly Locations","Must-See Attractions"],"legacySlugs":["ethniko-asteroskopeio-athinon-kentro-episkepton-thiseioy-26d3"],"distanceKm":0.26306532368940144},{"id":"rooftopLoungesRestaurants_f6776fb8dcd6","slug":"hill-athens-rooftop-restaurant-f677","kind":"restaurant","name":"Hill Athens Rooftop Restaurant","lat":37.97419365813568,"lng":23.719905442723636,"url":"https://maps.app.goo.gl/3QDHt2qN9bAbpZCo6?g_st=ipc","address":"Αποστόλου Παύλου 27, Αθήνα 118 51","categoryIds":["rooftop-lounges"],"categories":["Rooftop Lounges"],"distanceKm":0.2637913152045106},{"id":"rooftopLoungesRestaurants_f3813d39259f","slug":"thissio-view-rooftop-estiatorio-mpar-f381","kind":"restaurant","name":"THISSIO VIEW - Rooftop Εστιατόριο & Μπάρ","lat":37.974080279276336,"lng":23.719915035860108,"url":"https://maps.app.goo.gl/fQ8YQr8FRL5GzrPm7?g_st=ipc","address":"Αποστόλου Παύλου 25, Αθήνα 118 51","categoryIds":["rooftop-lounges"],"categories":["Rooftop Lounges"],"distanceKm":0.26917937483363436},{"id":"municipalities_b85b54408d92","slug":"thiseio-b85b","kind":"municipality","name":"Θησείο","lat":37.9747,"lng":23.7206,"aliases":["Thiseio","Thisseio"],"region":"Κέντρο Αθήνας","name_en":"Thisio","region_en":"Athens Center","distanceKm":0.31041177488965527},{"id":"mustSeeAttractions_31e331c60661","slug":"kerameikos-archaeological-site-31e3","kind":"restaurant","name":"Kerameikos Archaeological Site","lat":37.97803082106626,"lng":23.717271800112048,"url":"https://maps.app.goo.gl/21oaLw9mApwFReVy7?g_st=ipc","address":"Ermou 148, Athina 105 53","categoryIds":["attractions"],"categories":["Must-See Attractions"],"distanceKm":0.33604780931714656},{"id":"coffeeBrunchRestaurants_f2909cf2cf63","slug":"fresko-yogurt-bar-f290","kind":"restaurant","name":"Fresko Yogurt Bar","lat":37.97293031928317,"lng":23.72030106020887,"url":"https://maps.app.goo.gl/i3qPMdgczqaXz45r8?g_st=ipc","address":"Ιουλίου Σμιθ 2, Αθήνα 118 51","categoryIds":["coffee-brunch","desserts"],"categories":["Coffee & Brunch Spots","Dessert Shops"],"legacySlugs":["fresko-yogurt-bar-7bd0"],"distanceKm":0.36506579534673056},{"id":"mustSeeAttractions_f836a18a6282","slug":"naos-toy-ifaistoy-f836","kind":"restaurant","name":"Ναός του Ηφαίστου","lat":37.9755941105574,"lng":23.721451459878914,"url":"https://maps.app.goo.gl/auHh3GwXgN8RTikx6?g_st=ipc","address":"Αθήνα 105 55","categoryIds":["attractions"],"categories":["Must-See Attractions"],"distanceKm":0.38851423223930703},{"id":"cheapEatsRestaurants_9ef22bd13da7","slug":"gyristroyla-9ef2","kind":"restaurant","name":"Γυριστρούλα","lat":37.97711548768267,"lng":23.72128560665997,"url":"https://maps.app.goo.gl/rUqbZBRjNZ4twFu59?g_st=ipc","address":"Square (across from \"Thissio\" ISAP station, Αγίων Ασωμάτων 9, Αθήνα 105 54","categoryIds":["cheap-eats"],"categories":["Gyros & Cheap Eats"],"distanceKm":0.4364812391952224},{"id":"mustSeeAttractions_fa2e6a808026","slug":"archaia-agora-athinon-fa2e","kind":"restaurant","name":"Αρχαία Αγορά Αθηνών","lat":37.97489898202124,"lng":23.722093444133804,"url":"https://maps.app.goo.gl/ofAbPpuVbSmGyHGy7?g_st=ipc","address":"Αθήνα 105 55","categoryIds":["attractions"],"categories":["Must-See Attractions"],"distanceKm":0.4395467598009405},{"id":"municipalities_af1f7d07cb18","slug":"gkazi-af1f","kind":"municipality","name":"Γκάζι","lat":37.9785,"lng":23.7144,"aliases":["Gkazi"],"region":"Κέντρο Αθήνας","name_en":"Gazi","region_en":"Athens Center","distanceKm":0.4534371242357443},{"id":"luxuryDiningRestaurants_e1b949521388","slug":"kuzina-e1b9","kind":"restaurant","name":"Kuzina","lat":37.97641837479381,"lng":23.722069175394093,"url":"https://maps.app.goo.gl/SEiQ4TaHrnqFedUp9?g_st=ipc","address":"Αδριανού 9, Αθήνα 105 55","categoryIds":["luxury-dining"],"categories":["Luxury Dining"],"distanceKm":0.4643427511542527},{"id":"coffeeBrunchRestaurants_d3ad015b2f14","slug":"candycat-d3ad","kind":"restaurant","name":"CandyCat","lat":37.9775897353217,"lng":23.712604313955598,"url":"https://maps.app.goo.gl/bi9guRdYDSpWYmxn9?g_st=ipc","address":"Περσεφόνης 23, Αθήνα 118 54","categoryIds":["coffee-brunch","desserts"],"categories":["Coffee & Brunch Spots","Dessert Shops"],"legacySlugs":["candycat-50a1"],"distanceKm":0.48588969091032813},{"id":"dessertsRestaurants_7b2e78fd0a01","slug":"gelato-di-nonna-athens-7b2e","kind":"restaurant","name":"Gelato di nonna athens","lat":37.97720359295253,"lng":23.7219062023344,"url":"https://maps.app.goo.gl/bwiTBxSxMuZzG31X9?g_st=ipc","address":"Ερμού 129, Αθήνα 105 55","categoryIds":["desserts"],"categories":["Dessert Shops"],"distanceKm":0.48810657084250536},{"id":"rooftopLoungesRestaurants_a05f7e0fe4fe","slug":"mira-me-athens-a05f","kind":"restaurant","name":"Mira Me Athens","lat":37.977359535612116,"lng":23.72186806927444,"url":"https://maps.app.goo.gl/yeJpvac8bRksiNEV9?g_st=ipc","address":"Ερμού 118, Αθήνα 105 54","categoryIds":["rooftop-lounges"],"categories":["Rooftop Lounges"],"distanceKm":0.49414762532561707},{"id":"asianRestaurants_f1cd493b50d2","slug":"zafran-indian-kitchen-f1cd","kind":"restaurant","name":"Zafran Indian Kitchen","lat":37.977657888236905,"lng":23.712403701256626,"url":"https://maps.app.goo.gl/JyaNzBjgKky4afGL8?g_st=ipc","address":"Περσεφόνης 25, Αθήνα 118 54","categoryIds":["asian"],"categories":["Asian Restaurants"],"distanceKm":0.5045769203692775},{"id":"coffeeBrunchRestaurants_2452f7594f0b","slug":"minu-2452","kind":"restaurant","name":"Minu","lat":37.97817591370217,"lng":23.721282309779998,"url":"https://maps.app.goo.gl/1aZiacmQUVysdZ976?g_st=ipc","address":"Σαρρή 50, Αθήνα 105 53","categoryIds":["coffee-brunch"],"categories":["Coffee & Brunch Spots"],"distanceKm":0.5092672912861244},{"id":"dessertsRestaurants_09255d7a464f","slug":"gellissimo-biscoto-athens-0925","kind":"restaurant","name":"Gellissimo Biscoto Athens","lat":37.976849802530815,"lng":23.72255119140275,"url":"https://maps.app.goo.gl/bhDcxgYzcsmRG16T9?g_st=ipc","address":"Άστιγγος 11, Αθήνα 105 55","categoryIds":["desserts"],"categories":["Dessert Shops"],"distanceKm":0.5211954698053104},{"id":"vegetarianRestaurants_e12f835ae279","slug":"fairytale-athens-cafe-suites-e12f","kind":"restaurant","name":"Fairytale Athens Café & Suites","lat":37.97804693538564,"lng":23.721754929553363,"url":"https://maps.app.goo.gl/JXiyguWxrWe1Wgrf9?g_st=ipc","address":"Leokoriou 16, Athina 105 54","categoryIds":["vegetarian"],"categories":["Vegetarian Friendly Restaurants"],"distanceKm":0.5307504548174179}],"sameRegion":[],"mentionedGuides":[{"slug":"athens-live-greek-music-guide-el","title":"Ζωντανή Ελληνική Μουσική Αθήνα: Οδηγός για Μπουζούκια"},{"slug":"athens-live-greek-music-guide","title":"Athens Live Greek Music: Bouzoukia and Tavernas"},{"slug":"acropolis-complete-guide-el","title":"Επίσκεψη στην Ακρόπολη & το Μουσείο Ακρόπολης"}],"canonicalSlug":"thiseio-6f69","enrichment":{"summary_en":"Θησείο is a curated restaurant in Greece in the Must-See Attractions collection. It is connected to 113 nearby Googlementor picks to help travelers build a stronger local route.","summary_el":"Θησείο είναι ένα επιλεγμένο σημείο φαγητού στην περιοχή Greece και ανήκει στη συλλογή Must-See Attractions. Συνδέεται με 113 κοντινές προτάσεις του Googlementor για πιο ολοκληρωμένη εμπειρία.","vibe_tags":["curated"],"best_for":["first-time visitors","food lovers"],"visit_moments":["lunch stop","dinner stop"],"practical_note":"Address and direct map link are available for easy turn-by-turn access.","nearby_walkable_count":113,"nearby_count_2km":548,"confidence":0.98},"areaContext":{"slug":"thiseio","name":"Thisio","nameEl":"Θησείο"},"intentContexts":[{"href":"/attractions/thiseio","label":"Must-See Attractions in Thisio","categorySlug":"attractions","categoryName":"Must-See Attractions","areaSlug":"thiseio","areaName":"Thisio","areaNameEl":"Θησείο"}]},"__N_SSG":true}