{"pageProps":{"payload":{"area":{"id":"municipalities_08be13136639","name":"Κορυδαλλός","nameEn":"Korydallos","region":"Δυτικά Προάστια","regionEn":"Western Suburbs","lat":37.9844,"lng":23.6476,"urlSlug":"korydallos","aliases":["Κορυδαλλός","Korydallos","Κορυδαλλός Western Suburbs","Korydallos Western Suburbs","Koridallos","korydallos-08be","korydallos"]},"category":null,"entities":[{"entity":{"id":"greekRestaurants_71ccb1aa4b83","slug":"taverna-o-vasilis-71cc","kind":"restaurant","name":"Ταβέρνα Ο Βασίλης","lat":37.983639078803165,"lng":23.65172200450781,"url":"https://maps.app.goo.gl/P3D4J5ff2iNtoGc99","address":"Κολοκοτρώνη 160, Κορυδαλλός 181 21","categoryIds":["greek-restaurants"],"categories":["Greek Restaurants"]},"distanceKm":0.37103628447549797},{"entity":{"id":"cheapEatsRestaurants_e6d18e573896","slug":"to-kochyli-afoi-rekka-e6d1","kind":"restaurant","name":"ΤΟ ΚΟΧΥΛΙ (Αφοί Ρέκκα)","lat":37.97958803504725,"lng":23.650262049500654,"url":"https://maps.app.goo.gl/dW3a2SovSeGnxXCRA?g_st=ipc","address":"Κορυδαλλός 181 20","categoryIds":["cheap-eats"],"categories":["Gyros & Cheap Eats"]},"distanceKm":0.5837215971148871},{"entity":{"id":"cheapEatsRestaurants_91979e529e27","slug":"aganaktisi-9197","kind":"restaurant","name":"Αγανάκτηση","lat":37.978045238767244,"lng":23.651711441065746,"url":"https://maps.app.goo.gl/eNiYkaAyndviywoc9?g_st=ipc","address":"Σερρών 44 &, Ταξιαρχών, Κορυδαλλός 181 20","categoryIds":["cheap-eats"],"categories":["Gyros & Cheap Eats"]},"distanceKm":0.7931952472852846},{"entity":{"id":"cheapEatsRestaurants_194354552c25","slug":"toy-savvidi-1943","kind":"restaurant","name":"Του... Σαββίδη","lat":37.98532436234628,"lng":23.65728485284073,"url":"https://maps.app.goo.gl/NoNkrUm2DjN83eAw7?g_st=ipc","address":"Λεωφ. Ελ. Βενιζέλου 158, Αγ. Βαρβάρα 123 51","categoryIds":["cheap-eats"],"categories":["Gyros & Cheap Eats"]},"distanceKm":0.8549897511752393},{"entity":{"id":"cheapEatsRestaurants_1416b33a5bdb","slug":"dealers-real-street-food-1416","kind":"restaurant","name":"Dealers Real Street Food","lat":37.97630275309409,"lng":23.649623466165345,"url":"https://maps.app.goo.gl/6hPX1uNfh9QEYJND7?g_st=ipc","address":"Ταξιαρχών 18, Κορυδαλλός 181 20","categoryIds":["cheap-eats"],"categories":["Gyros & Cheap Eats"]},"distanceKm":0.9176730874405684},{"entity":{"id":"burgersRestaurants_c5b9db65b8f8","slug":"ala-burger-c5b9","kind":"restaurant","name":"Ala Burger","lat":37.976136624110225,"lng":23.64953319647224,"url":"https://maps.app.goo.gl/magEHZdr4AeKTeT69?g_st=ipc","address":"Ταξιαρχών 14, Κορυδαλλός 181 20","categoryIds":["burgers"],"categories":["Burger Spots"]},"distanceKm":0.9343372656139207},{"entity":{"id":"dessertsRestaurants_fc8742eefd51","slug":"loukoumothers-korydallos-fc87","kind":"restaurant","name":"Loukoumothers Korydallos","lat":37.97603620585146,"lng":23.64943855450405,"url":"https://maps.app.goo.gl/vMqPzYGSApLyRm1NA?g_st=ipc","address":"Ταξιαρχών &, Καψάλη 12, Κορυδαλλός 181 20","categoryIds":["desserts"],"categories":["Dessert Shops"]},"distanceKm":0.9438688088305159},{"entity":{"id":"dessertsRestaurants_3dbefba5d853","slug":"galaktopoleio-stamoy-3dbe","kind":"restaurant","name":"Γαλακτοπωλείο ΣΤΑΜΟΥ","lat":37.98009558422181,"lng":23.657555522495652,"url":"https://maps.app.goo.gl/39ZNM4A7nfLV7BTBA?g_st=ipc","address":"Γρ. Λαμπράκη 120, Κορυδαλλός 181 21","categoryIds":["desserts"],"categories":["Dessert Shops"]},"distanceKm":0.9951960616903631},{"entity":{"id":"coffeeBrunchRestaurants_267612a1ea40","slug":"tolis-sweet-s-n-eats-2676","kind":"restaurant","name":"Τόλης sweet's n' eats","lat":37.97589864090017,"lng":23.642161221415883,"url":"https://maps.app.goo.gl/Q5js7BApZATn8jx1A?g_st=ipc","address":"Πλ. Δημοκρατίας, Νίκαια 184 51","categoryIds":["coffee-brunch"],"categories":["Coffee & Brunch Spots"]},"distanceKm":1.0586975677144008},{"entity":{"id":"familyFriendly_bfc72d329d31","slug":"hado-agia-varvara-bfc7","kind":"restaurant","name":"HADO AGIA VARVARA","lat":37.98824441492673,"lng":23.659086481003886,"url":"https://maps.app.goo.gl/aP4Lewjodvss5zHY9?g_st=ipc","address":"Λεωφ. Ελ. Βενιζέλου 73, Αγ. Βαρβάρα 123 51","categoryIds":["family-friendly"],"categories":["Kid Friendly Locations"]},"distanceKm":1.093669822109492},{"entity":{"id":"cheapEatsRestaurants_0e387e0faffb","slug":"panagiotis-apo-to-1970-0e38","kind":"restaurant","name":"ΠΑΝΑΓΙΩΤΗΣ από το 1970","lat":37.979572870802095,"lng":23.658766060140504,"url":"https://maps.app.goo.gl/cGoUBmVXHRpFeeeR6?g_st=ipc","address":"Γρ. Λαμπράκη 104, Κορυδαλλός 181 21","categoryIds":["cheap-eats"],"categories":["Gyros & Cheap Eats"]},"distanceKm":1.1161731955715144},{"entity":{"id":"cheapEatsRestaurants_5adc759d28ee","slug":"soyvlatzidiko-makedonas-5adc","kind":"restaurant","name":"ΣΟΥΒΛΑΤΖΙΔΙΚΟ ΜΑΚΕΔΟΝΑΣ","lat":37.98418614658137,"lng":23.66055565137486,"url":"https://maps.app.goo.gl/GywP2se78BN7JkRc8?g_st=ipc","address":"Γ. Γεννηματα 52, Αγ. Βαρβάρα 123 51","categoryIds":["cheap-eats"],"categories":["Gyros & Cheap Eats"]},"distanceKm":1.1357024929339412},{"entity":{"id":"cheapEatsRestaurants_a7b0441198ed","slug":"kempaptzidikon-aivali-nikaia-a7b0","kind":"restaurant","name":"Κεμπαπτζίδικον Αϊβαλί Νίκαια","lat":37.97771284812105,"lng":23.63690051700111,"url":"https://maps.app.goo.gl/v85fF9CDnUXK4e4e6?g_st=ipc","address":"Ελλησπόντου 43, Νίκαια 184 51","categoryIds":["cheap-eats"],"categories":["Gyros & Cheap Eats"]},"distanceKm":1.196788425085211},{"entity":{"id":"cheapEatsRestaurants_3d78bb5a465c","slug":"makis-psitopoleio-soyvlatzidiko-3d78","kind":"restaurant","name":"\"Μάκης\" Ψητοπωλείο-Σουβλατζίδικο","lat":37.97402598918491,"lng":23.643093504500488,"url":"https://maps.app.goo.gl/43quDvAwPQhkbk6t5?g_st=ipc","address":"Π. Τσαλδάρη 262, Νίκαια 184 53","categoryIds":["cheap-eats"],"categories":["Gyros & Cheap Eats"]},"distanceKm":1.2192869009300946},{"entity":{"id":"cheapEatsRestaurants_50faa8efdb7a","slug":"alexandrino-50fa","kind":"restaurant","name":"Αλεξανδρινό","lat":37.988352964195414,"lng":23.66083903239818,"url":"https://maps.app.goo.gl/29w8wVCTHrf1eEoi7?g_st=ipc","address":"143, Λεωφ. Μεγ. Αλεξάνδρου 141, Αγ. Βαρβάρα 123 51","categoryIds":["cheap-eats"],"categories":["Gyros & Cheap Eats"]},"distanceKm":1.2407252028048945},{"entity":{"id":"asianRestaurants_50f99f81698e","slug":"shisan-sushi-bar-50f9","kind":"restaurant","name":"Shisan Sushi Bar","lat":37.975094554437,"lng":23.656036676629217,"url":"https://maps.app.goo.gl/76f6tSxZ2NXCApc48?g_st=ipc","address":"Πλ. Παγκόσμιας Ειρήνης 4, Κορυδαλλός 181 20","categoryIds":["asian"],"categories":["Asian Restaurants"]},"distanceKm":1.2717811641586347},{"entity":{"id":"cheapEatsRestaurants_93e5a087f2a2","slug":"soyvlakia-o-mpilis-93e5","kind":"restaurant","name":"Σουβλάκια \"ο ΜΠΙΛΗΣ\"","lat":37.97112327966262,"lng":23.64443348855245,"url":"https://maps.app.goo.gl/pWZio4wYos7hfNkq6?g_st=ipc","address":"Προύσης 22, Νίκαια 184 53","categoryIds":["cheap-eats"],"categories":["Gyros & Cheap Eats"]},"distanceKm":1.5021661990038844},{"entity":{"id":"fishTavernasRestaurants_a8b54e1ce79d","slug":"kempaptzidiko-machalas-a8b5","kind":"restaurant","name":"ΚΕΜΠΑΠΤΖΙΔΙΚΟ ΜΑΧΑΛΑΣ","lat":37.97098229288963,"lng":23.644519445693433,"url":"https://maps.app.goo.gl/ynWdVgiTz6C4H7y9A?g_st=ipc","address":"Π. Τσαλδάρη, 241-243, Νίκαια 184 50","categoryIds":["fish-tavernas"],"categories":["Fish Tavernas"]},"distanceKm":1.516216334463102},{"entity":{"id":"italianRestaurants_deede59c2ee6","slug":"la-greca-nikaia-deed","kind":"restaurant","name":"La Greca Νίκαια","lat":37.96989287630008,"lng":23.649375358414368,"url":"https://maps.app.goo.gl/TRUJmqRbfNqYTojR9?g_st=ipc","address":"Ανακρέοντος 5, Νίκαια 184 53","categoryIds":["italian"],"categories":["Italian Restaurants"]},"distanceKm":1.6206066923263087},{"entity":{"id":"asianRestaurants_cb2b61b87e3c","slug":"toukta-thai-food-cb2b","kind":"restaurant","name":"Toukta Thai food","lat":37.96875566688742,"lng":23.650805513802922,"url":"https://maps.app.goo.gl/U33KjMR5URvuLe1m6?g_st=ipc","address":"Ιωνίας 3, Νίκαια 184 50","categoryIds":["asian"],"categories":["Asian Restaurants"]},"distanceKm":1.762114409982386},{"entity":{"id":"cheapEatsRestaurants_9166d63b45f7","slug":"enty-9166","kind":"restaurant","name":"ΕΝΤΥ","lat":37.96700050503918,"lng":23.65031239624474,"url":"https://maps.app.goo.gl/TJbtwJ75EUsRPcRt8?g_st=ipc","address":"Δημ. Καρακουλουξή 4, Νίκαια 184 54","categoryIds":["cheap-eats"],"categories":["Gyros & Cheap Eats"]},"distanceKm":1.9492883563895607},{"entity":{"id":"fishTavernasRestaurants_ae0677e73373","slug":"zarkadoylas-ta-kavoyrakia-ae06","kind":"restaurant","name":"ΖΑΡΚΑΔΟΥΛΑΣ - ΤΑ ΚΑΒΟΥΡΑΚΙΑ","lat":37.966878654895595,"lng":23.649066817348377,"url":"https://maps.app.goo.gl/NBfwV1GcmoeRk6M28?g_st=ipc","address":"Βιθυνίας 32, Νίκαια 184 50","categoryIds":["fish-tavernas"],"categories":["Fish Tavernas"]},"distanceKm":1.9525222863625253},{"entity":{"id":"cheapEatsRestaurants_e1efa6cc4eb9","slug":"kebab-hub-e1ef","kind":"restaurant","name":"KEBAB HUB","lat":37.96544893408382,"lng":23.64762675898248,"url":"https://maps.app.goo.gl/1jU1MDHhWUfkjuNTA?g_st=ipc","address":"Εφέσου 49, Νίκαια 184 50","categoryIds":["cheap-eats"],"categories":["Gyros & Cheap Eats"]},"distanceKm":2.107263689719918},{"entity":{"id":"dessertsRestaurants_785eeca94828","slug":"zacharoplasteia-kosmikon-ag-marina-iera-odos-335-785e","kind":"restaurant","name":"ΖΑΧΑΡΟΠΛΑΣΤΕΙΑ ΚΟΣΜΙΚΟΝ ΑΓ.ΜΑΡΙΝΑ ΙΕΡΑ ΟΔΟΣ 335","lat":37.997674954706554,"lng":23.667015535582053,"url":"https://maps.app.goo.gl/dYPUKHVLHxCx5BKd6?g_st=ipc","address":"Ιερά Οδός 335, Αγ. Βαρβάρα 123 51","categoryIds":["desserts"],"categories":["Dessert Shops"]},"distanceKm":2.252516517471012},{"entity":{"id":"greekRestaurants_b6bacb590b9a","slug":"to-yiasemi-food-wine-experience-b6ba","kind":"restaurant","name":"To Yiasemi Food & Wine Experience","lat":38.00142234618658,"lng":23.662754824513232,"url":"https://maps.app.goo.gl/72YzkYeb6xxkDt68A","address":"Στρ. Καραϊσκάκη 1, Β, Χαϊδάρι 124 61","categoryIds":["greek-restaurants"],"categories":["Greek Restaurants"]},"distanceKm":2.3122212560751367},{"entity":{"id":"coffeeBrunchRestaurants_639c2aabee9d","slug":"qahwa-chaidari-639c","kind":"restaurant","name":"Qahwa Chaidari","lat":38.00126380773835,"lng":23.663252642859884,"url":"https://maps.app.goo.gl/vAwUeBwjnVB6oM6A7?g_st=ipc","address":"Στρ. Καραϊσκάκη 12, Χαϊδάρι 124 61","categoryIds":["coffee-brunch"],"categories":["Coffee & Brunch Spots"]},"distanceKm":2.323299323529352},{"entity":{"id":"cheapEatsRestaurants_ff6ed582468d","slug":"kantina-mpoylis-ff6e","kind":"restaurant","name":"Καντίνα Μπούλης","lat":37.99687794724643,"lng":23.669076776828845,"url":"https://maps.app.goo.gl/xe2rY6uCMrsoqN6Z6?g_st=ipc","address":"Δελφών 1, Αιγάλεω 122 43","categoryIds":["cheap-eats"],"categories":["Gyros & Cheap Eats"]},"distanceKm":2.338246420423324},{"entity":{"id":"dessertsRestaurants_1148b5deca52","slug":"galaktopoleio-stamoy-1148","kind":"restaurant","name":"Γαλακτοπωλείο ΣΤΑΜΟΥ","lat":37.9652037202668,"lng":23.635596413779496,"url":"https://maps.app.goo.gl/rrTmftHWRasbJb7aA?g_st=ipc","address":"Πέτρου Ράλλη 438, Νίκαια 184 51","categoryIds":["desserts"],"categories":["Dessert Shops"]},"distanceKm":2.3797544840132003},{"entity":{"id":"cheapEatsRestaurants_e88cecd313d4","slug":"kempatzidiko-o-nikos-e88c","kind":"restaurant","name":"Κεμπατζίδικο ο Νίκος","lat":37.99463818746986,"lng":23.672052339400672,"url":"https://maps.app.goo.gl/aSgB8uZ7Vn2JHks67?g_st=ipc","address":"Πλ. Δαβάκη 2, Αιγάλεω 122 44","categoryIds":["cheap-eats"],"categories":["Gyros & Cheap Eats"]},"distanceKm":2.4265210674810413},{"entity":{"id":"cheapEatsRestaurants_2f84b1901b79","slug":"soyvlakia-o-serkos-2f84","kind":"restaurant","name":"Σουβλάκια ο Σέρκος","lat":37.96321249323642,"lng":23.6546161405587,"url":"https://maps.app.goo.gl/g55ZF34fH7dzCpi29?g_st=ipc","address":"Ίωνος Δραγούμη 39-41, Πειραιάς 185 42","categoryIds":["cheap-eats"],"categories":["Gyros & Cheap Eats"]},"distanceKm":2.434889216900195}],"counts":{"totalEntities":4118,"totalInArea":75,"totalInCategory":0,"totalCategoryArea":75},"relatedCategories":[{"categoryId":"cheap-eats","categorySlug":"cheap-eats","categoryName":"Gyros & Cheap Eats","count":21,"passesThreshold":true},{"categoryId":"desserts","categorySlug":"desserts","categoryName":"Dessert Shops","count":13,"passesThreshold":true},{"categoryId":"greek-restaurants","categorySlug":"greek-restaurants","categoryName":"Greek Restaurants","count":10,"passesThreshold":true},{"categoryId":"coffee-brunch","categorySlug":"brunch","categoryName":"Coffee & Brunch Spots","count":9,"passesThreshold":true},{"categoryId":"family-friendly","categorySlug":"family-friendly","categoryName":"Kid Friendly Locations","count":5,"passesThreshold":true},{"categoryId":"fish-tavernas","categorySlug":"fish-tavernas","categoryName":"Fish Tavernas","count":5,"passesThreshold":false},{"categoryId":"italian","categorySlug":"italian","categoryName":"Italian Restaurants","count":3,"passesThreshold":false},{"categoryId":"burgers","categorySlug":"burgers","categoryName":"Burger Spots","count":2,"passesThreshold":false},{"categoryId":"asian","categorySlug":"asian-restaurants","categoryName":"Asian Restaurants","count":2,"passesThreshold":false},{"categoryId":"mexican","categorySlug":"mexican","categoryName":"Mexican Restaurants","count":2,"passesThreshold":false}],"relatedAreas":[{"areaId":"municipalities_5bc013791cf8","areaName":"Πλάκα","areaSlug":"plaka","count":873,"passesThreshold":true,"nearestDistanceKm":0.012491754607387504},{"areaId":"municipalities_877c3bc81df5","areaName":"Σύνταγμα","areaSlug":"syntagma","count":868,"passesThreshold":true,"nearestDistanceKm":0.009392084429921843},{"areaId":"municipalities_0cae2c00b932","areaName":"Κολωνάκι","areaSlug":"kolonaki","count":859,"passesThreshold":true,"nearestDistanceKm":0.019551496670837543},{"areaId":"municipalities_d7e1aaaed4f9","areaName":"Μοναστηράκι","areaSlug":"monastiraki","count":858,"passesThreshold":true,"nearestDistanceKm":0.0015439249117317326},{"areaId":"municipalities_4149fa79e27b","areaName":"Ακρόπολη","areaSlug":"akropoli","count":857,"passesThreshold":true,"nearestDistanceKm":0.005729795337023071},{"areaId":"municipalities_0fd1d03201a0","areaName":"Μετς","areaSlug":"mets","count":857,"passesThreshold":true,"nearestDistanceKm":0.0655206557127576},{"areaId":"municipalities_2bcfcb8b899f","areaName":"Ψυρρή","areaSlug":"psyrri","count":856,"passesThreshold":true,"nearestDistanceKm":0.047074153549061026},{"areaId":"municipalities_616efd2a0d9b","areaName":"Κουκάκι","areaSlug":"koykaki","count":855,"passesThreshold":true,"nearestDistanceKm":0.03240357443173243},{"areaId":"municipalities_b85b54408d92","areaName":"Θησείο","areaSlug":"thiseio","count":849,"passesThreshold":true,"nearestDistanceKm":0.08292401975417248},{"areaId":"municipalities_2f324ee27306","areaName":"Εξάρχεια","areaSlug":"exarcheia","count":848,"passesThreshold":true,"nearestDistanceKm":0.08690050688547628}],"passesThreshold":true},"topGuides":[]},"__N_SSG":true}