{"pageProps":{"payload":{"area":{"id":"municipalities_e743acc9b81e","name":"Βαρδάρης","nameEn":"Vardaris","region":"Θεσσαλονίκη","regionEn":"Thessaloniki","lat":40.6447,"lng":22.9381,"urlSlug":"vardaris","aliases":["Βαρδάρης","Vardaris","Βαρδάρης Thessaloniki","Vardaris Thessaloniki","Βαρδαρης","vardaris-e743","vardaris"]},"category":null,"entities":[{"entity":{"id":"greekRestaurants_8f48f269fd50","slug":"koru-inspired-cuisine-8f48","kind":"restaurant","name":"KORU INSPIRED CUISINE","lat":40.6419170569474,"lng":22.93912654198058,"url":"https://maps.app.goo.gl/z6JvmY8nTC7yzJmFA?g_st=ipc","address":"Ολύμπου 15, Θεσσαλονίκη 546 30","categoryIds":["greek-restaurants"],"categories":["Greek Restaurants"]},"distanceKm":0.3213415325813618},{"entity":{"id":"dessertsRestaurants_0eed40d3488f","slug":"helios-pastry-shop-0eed","kind":"restaurant","name":"Helios Pastry Shop","lat":40.639377492095335,"lng":22.93909008861793,"url":"https://maps.app.goo.gl/wxVoFxomNfq7egVX7?g_st=ipc","address":"Adigonidon 7, Thessaloniki 546 30","categoryIds":["desserts"],"categories":["Dessert Shops"]},"distanceKm":0.5977024826828267},{"entity":{"id":"dessertsRestaurants_72b74e57e81d","slug":"pastelopoiion-72b7","kind":"restaurant","name":"Pastelopoiḯon","lat":40.63949021546042,"lng":22.936170041434007,"url":"https://maps.app.goo.gl/QqgTsF7F3e7rFPXh6?g_st=ipc","address":"Dodekanisou 3, Thessaloniki 546 26","categoryIds":["desserts"],"categories":["Dessert Shops"]},"distanceKm":0.6017529647325964},{"entity":{"id":"cheapEatsRestaurants_6807fa813ea0","slug":"porkitto-gyradiko-soyvlaki-stefanoy-parthena-thessaloniki-6807","kind":"restaurant","name":"PORKITTO - ΓΥΡΑΔΙΚΟ - ΣΟΥΒΛΑΚΙ - ΣΤΕΦΑΝΟΥ ΠΑΡΘΕΝΑ - ΘΕΣΣΑΛΟΝΙΚΗ","lat":40.64044750261407,"lng":22.942776573082938,"url":"https://maps.app.goo.gl/GvH8vhGT4BrR9x9WA?g_st=ipc","address":"Καραολή και Δημητρίου 52, Thessaloniki 546 30","categoryIds":["cheap-eats"],"categories":["Gyros & Cheap Eats"]},"distanceKm":0.6158609723399529},{"entity":{"id":"greekRestaurants_7ff4b23f5102","slug":"extravaganza-7ff4","kind":"restaurant","name":"Extravaganza","lat":40.639336618089786,"lng":22.940241453783848,"url":"https://maps.app.goo.gl/j6N8yd7wQi8DJTxU8?g_st=ipc","address":"Επισκοπου Αμβροσιου 8, Θεσσαλονίκη 546 30","categoryIds":["greek-restaurants"],"categories":["Greek Restaurants"]},"distanceKm":0.6231504656336786},{"entity":{"id":"cheapEatsRestaurants_41498834b457","slug":"crats-fried-chicken-egnatia-4149","kind":"restaurant","name":"Crats Fried Chicken Egnatia","lat":40.63898844732417,"lng":22.938638631354078,"url":"https://maps.app.goo.gl/ck9L5Pz4C9MGKVbV7?g_st=ipc","address":"Egnatia 27, Thessaloniki 546 30","categoryIds":["cheap-eats"],"categories":["Gyros & Cheap Eats"]},"distanceKm":0.6367196546246195},{"entity":{"id":"luxuryDiningRestaurants_4bd79f37c4c9","slug":"maestranza-skg-4bd7","kind":"restaurant","name":"Maestranza.skg","lat":40.63893402490513,"lng":22.939949733334775,"url":"https://maps.app.goo.gl/sEppZY8VozoSaAt86?g_st=ipc","address":"Ptolemeon 29Β, Thessaloniki 546 30","categoryIds":["luxury-dining"],"categories":["Luxury Dining"]},"distanceKm":0.6598693230796615},{"entity":{"id":"greekRestaurants_776ec954209f","slug":"maestranza-skg-776e","kind":"restaurant","name":"Maestranza.skg","lat":40.6389335540748,"lng":22.939948700094217,"url":"https://maps.app.goo.gl/9dU4LoJrsfE8osv2A?g_st=ipc","address":"Ptolemeon 29Β, Thessaloniki 546 30","categoryIds":["greek-restaurants"],"categories":["Greek Restaurants"]},"distanceKm":0.6598995796369398},{"entity":{"id":"coffeeBrunchRestaurants_9f516ac09de5","slug":"tsitsanki-9f51","kind":"restaurant","name":"Tsitsanki","lat":40.65105910915655,"lng":22.93545214874879,"url":"https://maps.app.goo.gl/fcosc9VFnpPap1qs5?g_st=ipc","address":"Λαγκαδά 116, Neapoli 567 27","categoryIds":["coffee-brunch"],"categories":["Coffee & Brunch Spots"]},"distanceKm":0.7415487654224096},{"entity":{"id":"fishTavernasRestaurants_a0a70eb01c99","slug":"ouzeri-kosmas-a0a7","kind":"restaurant","name":"Ouzeri \"Kosmas\"","lat":40.64801268123014,"lng":22.93043130003418,"url":"https://maps.app.goo.gl/vEURBm27mFZ4pGJfA?g_st=ipc","address":"Vasilikis Papathanasiou 74, Thessaloniki 546 29","categoryIds":["fish-tavernas"],"categories":["Fish Tavernas"]},"distanceKm":0.7445061190672997},{"entity":{"id":"coffeeBrunchRestaurants_dd910adc2566","slug":"beyond-the-walls-dd91","kind":"restaurant","name":"BEYOND The Walls","lat":40.63839199621431,"lng":22.934457510684794,"url":"https://maps.app.goo.gl/p8QR7tTcw9DAMN2e9?g_st=ipc","address":"Fragkon 2, Thessaloniki 546 26","categoryIds":["coffee-brunch"],"categories":["Coffee & Brunch Spots"]},"distanceKm":0.7657945012057712},{"entity":{"id":"greekRestaurants_20a08b488f9b","slug":"verges-lagies-20a0","kind":"restaurant","name":"Βέργες Λάγιες","lat":40.639047485030176,"lng":22.943515702588808,"url":"https://maps.app.goo.gl/ArjVMDpRBXxzMQ7h9?g_st=ipc","address":"Ελ. Βενιζέλου 63, Θεσσαλονίκη 546 31","categoryIds":["greek-restaurants"],"categories":["Greek Restaurants"]},"distanceKm":0.7770781851257349},{"entity":{"id":"luxuryDiningRestaurants_615ed60929b5","slug":"l-albero-615e","kind":"restaurant","name":"L'Albero","lat":40.6387415311347,"lng":22.94294998162837,"url":"https://maps.app.goo.gl/X4RLEkPp4XfoJhpx9?g_st=ipc","address":"Filippou 17, Thessaloniki 546 31","categoryIds":["luxury-dining"],"categories":["Luxury Dining"]},"distanceKm":0.7787366996404416},{"entity":{"id":"italianRestaurants_39b739bc42fb","slug":"salento-wood-fired-street-food-39b7","kind":"restaurant","name":"Salento Wood Fired Street Food","lat":40.639269195238484,"lng":22.94398924661335,"url":"https://maps.app.goo.gl/KJDU4WMhcL2vXfup6?g_st=ipc","address":"El. Venizelou 76, Thessaloniki 546 31","categoryIds":["italian"],"categories":["Italian Restaurants"]},"distanceKm":0.782034447204795},{"entity":{"id":"cheapEatsRestaurants_e80e8a708de9","slug":"salento-wood-fired-street-food-e80e","kind":"restaurant","name":"Salento Wood Fired Street Food","lat":40.639269734572295,"lng":22.943990430297482,"url":"https://maps.app.goo.gl/6mWAWHUbEwXuAb589?g_st=ipc","address":"El. Venizelou 76, Thessaloniki 546 31","categoryIds":["cheap-eats"],"categories":["Gyros & Cheap Eats"]},"distanceKm":0.78205160355347},{"entity":{"id":"coffeeBrunchRestaurants_fb908cdb56f2","slug":"beetroot-fb90","kind":"restaurant","name":"Beetroot","lat":40.637551412889685,"lng":22.939748987657307,"url":"https://maps.app.goo.gl/v2Xnqi1U2R9tS4bz7?g_st=ipc","address":"Siggrou 8, Thessaloniki 546 25","categoryIds":["coffee-brunch"],"categories":["Coffee & Brunch Spots"]},"distanceKm":0.8069714327088771},{"entity":{"id":"cheapEatsRestaurants_9e348b58c806","slug":"plateia-bit-pazar-9e34","kind":"restaurant","name":"Plateia Bit pazar","lat":40.63891956491642,"lng":22.94393646377273,"url":"https://maps.app.goo.gl/HfoTaA81WJgTcqWp6?g_st=ipc","address":"Προσφυγική Αγορά 16 Β, Thessaloniki 546 31","categoryIds":["cheap-eats"],"categories":["Gyros & Cheap Eats"]},"distanceKm":0.8097151287548212},{"entity":{"id":"dessertsRestaurants_31d6f488c2f0","slug":"terkenlis-ose-31d6","kind":"restaurant","name":"Terkenlis OSE","lat":40.64470252527838,"lng":22.92850176756682,"url":"https://maps.app.goo.gl/6mo1DJtrfFXMber56?g_st=ipc","address":"Monastiriou, Thessaloniki 546 27","categoryIds":["desserts"],"categories":["Dessert Shops"]},"distanceKm":0.8098090166736813},{"entity":{"id":"greekRestaurants_03068c7e0a94","slug":"o-loytros-0306","kind":"restaurant","name":"Ο Λουτρός","lat":40.638466462915126,"lng":22.94314610009663,"url":"https://maps.app.goo.gl/4ZWFM4EN2V31EBwc7?g_st=ipc","address":"El. Venizelou 55, Thessaloniki 546 31","categoryIds":["greek-restaurants"],"categories":["Greek Restaurants"]},"distanceKm":0.8134578209405089},{"entity":{"id":"cheapEatsRestaurants_763f0b4ef33d","slug":"pizza-poselli-763f","kind":"restaurant","name":"Pízza Poselli","lat":40.63738632422352,"lng":22.938994583377827,"url":"https://maps.app.goo.gl/msSh5RZw3k81mKHWA?g_st=ipc","address":"Vilara 2, Thessaloniki 546 25","categoryIds":["cheap-eats"],"categories":["Gyros & Cheap Eats"]},"distanceKm":0.8167389773526641},{"entity":{"id":"cheapEatsRestaurants_2a2e59392a41","slug":"pizza-poselli-2a2e","kind":"restaurant","name":"Pízza Poselli","lat":40.63738614523292,"lng":22.938994770654872,"url":"https://maps.app.goo.gl/GHNR3JPnavP3hDJJ8?g_st=ipc","address":"Vilara 2, Thessaloniki 546 25","categoryIds":["cheap-eats"],"categories":["Gyros & Cheap Eats"]},"distanceKm":0.8167602554849992},{"entity":{"id":"italianRestaurants_5cd46803a13d","slug":"pizza-poselli-5cd4","kind":"restaurant","name":"Pízza Poselli","lat":40.63738570521256,"lng":22.93899269726352,"url":"https://maps.app.goo.gl/i1hQW24s88nE2YPJ6?g_st=ipc","address":"Vilara 2, Thessaloniki 546 25","categoryIds":["italian"],"categories":["Italian Restaurants"]},"distanceKm":0.8167928229265747},{"entity":{"id":"coffeeBrunchRestaurants_cb81e6db9390","slug":"the-caravan-cafe-brunch-cb81","kind":"restaurant","name":"The Caravan Cafe | Brunch","lat":40.637809490842486,"lng":22.9414945910073,"url":"https://maps.app.goo.gl/zZG88R3tqQ4iE2m6A?g_st=ipc","address":"Βαμβακά 3, Thessaloniki 546 31","categoryIds":["coffee-brunch"],"categories":["Coffee & Brunch Spots"]},"distanceKm":0.8179744515415562},{"entity":{"id":"coffeeBrunchRestaurants_1c6ae917ccf8","slug":"romantzo-1c6a","kind":"restaurant","name":"Romantzo","lat":40.637344096207045,"lng":22.93721658740342,"url":"https://maps.app.goo.gl/xTf6UJFe7tcY4vHU7?g_st=ipc","address":"Veroias 2, Thessaloniki 546 25","categoryIds":["coffee-brunch"],"categories":["Coffee & Brunch Spots"]},"distanceKm":0.8213284655765523},{"entity":{"id":"cheapEatsRestaurants_59e2b6d2677d","slug":"to-prytaneio-59e2","kind":"restaurant","name":"Το Πρυτανείο","lat":40.64303995879506,"lng":22.947630622213342,"url":"https://maps.app.goo.gl/p1mkurFCqsY7XC3w5?g_st=ipc","address":"Alexandras Papadopoulou 72, Thessaloniki 546 33","categoryIds":["cheap-eats"],"categories":["Gyros & Cheap Eats"]},"distanceKm":0.8250292022379112},{"entity":{"id":"cheapEatsRestaurants_a9f190908032","slug":"i-vromiara-the-gourmet-street-food-thessaloniki-a9f1","kind":"restaurant","name":"Η Βρωμιάρα - The Gourmet Street Food | Θεσσαλονικη","lat":40.63730784042486,"lng":22.939114096509012,"url":"https://maps.app.goo.gl/Z7BYjUBJYcnFTaEm9?g_st=ipc","address":"Siggrou 7, Thessaloniki 546 25","categoryIds":["cheap-eats"],"categories":["Gyros & Cheap Eats"]},"distanceKm":0.8264121579200003},{"entity":{"id":"cheapEatsRestaurants_5cdb8c7a5460","slug":"favela-bit-bazar-5cdb","kind":"restaurant","name":"FAVELA Bit Bazar","lat":40.63897345242983,"lng":22.94448760793796,"url":"https://maps.app.goo.gl/Pr2NGoHPa59C1JPVA?g_st=ipc","address":"Olympou 72, Thessaloniki 546 31","categoryIds":["cheap-eats"],"categories":["Gyros & Cheap Eats"]},"distanceKm":0.8342265343673867},{"entity":{"id":"burgersRestaurants_939dba9e46a3","slug":"pratina-burger-project-939d","kind":"restaurant","name":"PRATINA Burger Project","lat":40.63713830910427,"lng":22.937597071503742,"url":"https://maps.app.goo.gl/diihnNazYDBSNQP77?g_st=ic","address":"Veroias 5, Thessaloniki 546 25","categoryIds":["burgers"],"categories":["Burger Spots"]},"distanceKm":0.8418917886323208},{"entity":{"id":"burgersRestaurants_90d16bd5f050","slug":"pratina-burger-project-90d1","kind":"restaurant","name":"PRATINA Burger Project","lat":40.63713764523389,"lng":22.937597600102066,"url":"https://maps.app.goo.gl/rE8kgxhDvdzbh9hw7","address":"Veroias 5, Thessaloniki 546 25","categoryIds":["burgers"],"categories":["Burger Spots"]},"distanceKm":0.8419632671551571},{"entity":{"id":"cheapEatsRestaurants_47ac0ee57ead","slug":"pratina-burger-project-47ac","kind":"restaurant","name":"PRATINA Burger Project","lat":40.63713687744245,"lng":22.93759768195784,"url":"https://maps.app.goo.gl/K3sutrhR1ozDJoT67?g_st=ipc","address":"Veroias 5, Thessaloniki 546 25","categoryIds":["cheap-eats"],"categories":["Gyros & Cheap Eats"]},"distanceKm":0.8420481857559506}],"counts":{"totalEntities":4118,"totalInArea":335,"totalInCategory":0,"totalCategoryArea":335},"relatedCategories":[{"categoryId":"cheap-eats","categorySlug":"cheap-eats","categoryName":"Gyros & Cheap Eats","count":73,"passesThreshold":true},{"categoryId":"coffee-brunch","categorySlug":"brunch","categoryName":"Coffee & Brunch Spots","count":62,"passesThreshold":true},{"categoryId":"greek-restaurants","categorySlug":"greek-restaurants","categoryName":"Greek Restaurants","count":48,"passesThreshold":true},{"categoryId":"desserts","categorySlug":"desserts","categoryName":"Dessert Shops","count":38,"passesThreshold":true},{"categoryId":"burgers","categorySlug":"burgers","categoryName":"Burger Spots","count":23,"passesThreshold":true},{"categoryId":"fish-tavernas","categorySlug":"fish-tavernas","categoryName":"Fish Tavernas","count":18,"passesThreshold":true},{"categoryId":"italian","categorySlug":"italian","categoryName":"Italian Restaurants","count":17,"passesThreshold":true},{"categoryId":"vegetarian","categorySlug":"vegetarian","categoryName":"Vegetarian Friendly Restaurants","count":13,"passesThreshold":true},{"categoryId":"asian","categorySlug":"asian-restaurants","categoryName":"Asian Restaurants","count":12,"passesThreshold":true},{"categoryId":"luxury-dining","categorySlug":"luxury-dining","categoryName":"Luxury Dining","count":10,"passesThreshold":true}],"relatedAreas":[{"areaId":"municipalities_5bc013791cf8","areaName":"Πλάκα","areaSlug":"plaka","count":873,"passesThreshold":true,"nearestDistanceKm":0.012491754607387504},{"areaId":"municipalities_877c3bc81df5","areaName":"Σύνταγμα","areaSlug":"syntagma","count":868,"passesThreshold":true,"nearestDistanceKm":0.009392084429921843},{"areaId":"municipalities_0cae2c00b932","areaName":"Κολωνάκι","areaSlug":"kolonaki","count":859,"passesThreshold":true,"nearestDistanceKm":0.019551496670837543},{"areaId":"municipalities_d7e1aaaed4f9","areaName":"Μοναστηράκι","areaSlug":"monastiraki","count":858,"passesThreshold":true,"nearestDistanceKm":0.0015439249117317326},{"areaId":"municipalities_4149fa79e27b","areaName":"Ακρόπολη","areaSlug":"akropoli","count":857,"passesThreshold":true,"nearestDistanceKm":0.005729795337023071},{"areaId":"municipalities_0fd1d03201a0","areaName":"Μετς","areaSlug":"mets","count":857,"passesThreshold":true,"nearestDistanceKm":0.0655206557127576},{"areaId":"municipalities_2bcfcb8b899f","areaName":"Ψυρρή","areaSlug":"psyrri","count":856,"passesThreshold":true,"nearestDistanceKm":0.047074153549061026},{"areaId":"municipalities_616efd2a0d9b","areaName":"Κουκάκι","areaSlug":"koykaki","count":855,"passesThreshold":true,"nearestDistanceKm":0.03240357443173243},{"areaId":"municipalities_b85b54408d92","areaName":"Θησείο","areaSlug":"thiseio","count":849,"passesThreshold":true,"nearestDistanceKm":0.08292401975417248},{"areaId":"municipalities_2f324ee27306","areaName":"Εξάρχεια","areaSlug":"exarcheia","count":848,"passesThreshold":true,"nearestDistanceKm":0.08690050688547628}],"passesThreshold":true},"topGuides":[{"slug":"tap-water-safe-greece-el","title":"Είναι Ασφαλές να Πίνετε Νερό Βρύσης στην Ελλάδα;","date":"2026-03-04"},{"slug":"greek-bakeries-brunch-coffee-guide-el","title":"Ελληνική Αρτοποιία, Brunch & Κουλτούρα Καφέ","date":"2025-02-15"},{"slug":"greek-bakeries-brunch-coffee-guide","title":"Greek Bakeries, Brunch & Coffee Culture","date":"2025-02-15"}]},"__N_SSG":true}