{"pageProps":{"entity":{"id":"coffeeBrunchRestaurants_e35f2fd907c7","slug":"aeriko-cafe-bar-makrinitsa-e35f","kind":"restaurant","name":"Aeriko cafe bar - Makrinitsa","lat":39.396275519682625,"lng":22.994190417214696,"url":"https://maps.app.goo.gl/uEvFEaZxa3VWrgDA7?g_st=ipc","address":"1o km PORTARIAS-MAKRINITSAS, PELION 370 11","categoryIds":["coffee-brunch"],"categories":["Coffee & Brunch Spots"]},"sameCategory":[{"id":"coffeeBrunchRestaurants_8f68ea1d28c9","slug":"isalos-beach-club-8f68","kind":"restaurant","name":"Isalos Beach Club","lat":39.35159082602954,"lng":22.9581356571748,"url":"https://maps.app.goo.gl/whtVq9izZXDLCZ8k7?g_st=ipc","address":"Plastira 17b, Volos 382 22","categoryIds":["coffee-brunch"],"categories":["Coffee & Brunch Spots"]},{"id":"coffeeBrunchRestaurants_149629d79d89","slug":"paranga-1496","kind":"restaurant","name":"Paranga","lat":39.69289300756039,"lng":22.880848477388575,"url":"https://maps.app.goo.gl/Er8efE1gu29TMxxG9?g_st=ipc","address":"Epar.Od. Agiokampou-Sklithrou, Agiokampos 400 03","categoryIds":["coffee-brunch"],"categories":["Coffee & Brunch Spots"]},{"id":"coffeeBrunchRestaurants_a6de03ead415","slug":"bourtzi-skiathos-a6de","kind":"restaurant","name":"Bourtzi Skiathos","lat":39.16082655884958,"lng":23.49110174510934,"url":"https://maps.app.goo.gl/biyFuX6UBoZ8TcJc9?g_st=ipc","address":"Port of, Skiathos 370 02","categoryIds":["coffee-brunch"],"categories":["Coffee & Brunch Spots"]},{"id":"coffeeBrunchRestaurants_e16b7b061028","slug":"decimo-coffee-brunch-e16b","kind":"restaurant","name":"Decimo Coffee & Brunch","lat":39.11943395916134,"lng":23.73078206958329,"url":"https://maps.app.goo.gl/L1JDBzithBcgv3Qj7?g_st=ipc","address":"Σκόπελος 370 03","categoryIds":["coffee-brunch"],"categories":["Coffee & Brunch Spots"]},{"id":"coffeeBrunchRestaurants_f243ffc9ef50","slug":"kanela-homemade-delicacies-f243","kind":"restaurant","name":"Kanela | Homemade Delicacies","lat":39.119057575812455,"lng":23.730567589663472,"url":"https://maps.app.goo.gl/ToCtxBp1UXx9DGvx7?g_st=ipc","address":"El. Venizelou, Skopelos 370 03","categoryIds":["coffee-brunch"],"categories":["Coffee & Brunch Spots"]},{"id":"coffeeBrunchRestaurants_f963fc29535a","slug":"eldoris-restaurant-beach-bar-possidi-f963","kind":"restaurant","name":"Eldoris Restaurant Beach Bar Possidi","lat":39.971163869266604,"lng":23.3680455032056,"url":"https://maps.app.goo.gl/XPRD9cmkNsd1XQCDA?g_st=ipc","address":"Possidi 630 77","categoryIds":["coffee-brunch"],"categories":["Coffee & Brunch Spots"]},{"id":"coffeeBrunchRestaurants_c8f5eed1bfbd","slug":"encore-beach-bar-c8f5","kind":"restaurant","name":"Encore Beach Bar","lat":39.97745669933178,"lng":23.37333323221752,"url":"https://maps.app.goo.gl/USkZzCwrNThX7hj88?g_st=ipc","address":"Αιγαιοπελαγίτικα, Posidi 630 77","categoryIds":["coffee-brunch"],"categories":["Coffee & Brunch Spots"]},{"id":"coffeeBrunchRestaurants_f9a995ba9231","slug":"zattero-seaside-bar-f9a9","kind":"restaurant","name":"Zattero Seaside Bar","lat":39.989902440234324,"lng":23.37887042765103,"url":"https://maps.app.goo.gl/d978qu99YawDBboB8?g_st=ipc","address":"Σκάλα Φούρκας 630 77","categoryIds":["coffee-brunch"],"categories":["Coffee & Brunch Spots"]}],"nearby":[{"id":"greekRestaurants_f1609d667006","slug":"kritsa-restaurant-f160","kind":"restaurant","name":"KRITSA Restaurant","lat":39.390714981206585,"lng":22.99890427348712,"url":"https://maps.app.goo.gl/nVaAkJVNsbHGrwKh9?g_st=ipc","address":"CENTRAL SQUARE PORTARIA PELION, 370 11","categoryIds":["greek-restaurants"],"categories":["Greek Restaurants"],"distanceKm":0.739176750355341},{"id":"greekRestaurants_f894a7783597","slug":"kardamo-oinomageireion-f894","kind":"restaurant","name":"Κάρδαμο Οινομαγειρείον","lat":39.402083128717685,"lng":22.984980722142236,"url":"https://maps.app.goo.gl/2BVduXtmC112zqJN8?g_st=ipc","address":"Πηλίου, Μακρινίτσα 370 11","categoryIds":["greek-restaurants"],"categories":["Greek Restaurants"],"distanceKm":1.021397203204878},{"id":"municipalities_3598a91927f2","slug":"makrinitsa-3598","kind":"municipality","name":"Μακρινίτσα","lat":39.3858,"lng":23.0556,"aliases":["Μακρινιτσα","Balcony of Pelion"],"region":"Θεσσαλία","name_en":"Makrinitsa","region_en":"Thessaly","distanceKm":5.404262906318702},{"id":"burgersRestaurants_1efcdff68c36","slug":"urban-burger-co-1efc","kind":"restaurant","name":"Urban Burger Co.","lat":39.359716759351,"lng":22.950932981495203,"url":"https://maps.app.goo.gl/Hj1LZsKmFMwoeDYk8?g_st=ipc","address":"Δημάρχου Κονταράτου 8, Βόλος 382 21","categoryIds":["burgers"],"categories":["Burger Spots"],"distanceKm":5.5090064921794895},{"id":"municipalities_8f859bc809a7","slug":"volos-8f85","kind":"municipality","name":"Βόλος","lat":39.36,"lng":22.95,"aliases":["Βολος"],"region":"Θεσσαλία","name_en":"Volos","region_en":"Thessaly","distanceKm":5.54046537966923},{"id":"greekRestaurants_f8c7fc9e1119","slug":"mezen-mezen-f8c7","kind":"restaurant","name":"Μεζέν - Mezen","lat":39.360202586197914,"lng":22.94855189327868,"url":"https://maps.app.goo.gl/8kEStDeZbgxBjzsH6?g_st=ipc","address":"Αλοννήσου 8, Βόλος 382 21","categoryIds":["greek-restaurants"],"categories":["Greek Restaurants"],"distanceKm":5.6103903419653625},{"id":"burgersRestaurants_07d450e3e91f","slug":"shoreditch-burgers-sandwiches-07d4","kind":"restaurant","name":"Shoreditch Burgers & Sandwiches","lat":39.358294664127236,"lng":22.9508396365885,"url":"https://maps.app.goo.gl/1QRrTYXfUm7MCQ5cA?g_st=ipc","address":"Δημητριάδος 186, Βόλος 382 21","categoryIds":["burgers"],"categories":["Burger Spots"],"distanceKm":5.632033995614122},{"id":"cheapEatsRestaurants_9135e360a957","slug":"shoreditch-burgers-sandwiches-9135","kind":"restaurant","name":"Shoreditch Burgers & Sandwiches","lat":39.358292162660355,"lng":22.950837613452617,"url":"https://maps.app.goo.gl/5xzuz9k7GPVzTJnDA?g_st=ipc","address":"Dimitriados 186, Volos 382 21","categoryIds":["cheap-eats"],"categories":["Gyros & Cheap Eats"],"distanceKm":5.6323576612473}],"sameRegion":[],"mentionedGuides":[]},"__N_SSG":true}