{"pageProps":{"entity":{"id":"cheapEatsRestaurants_0f0ae09c0d4e","slug":"guerilla-chef-burgers-0f0a","kind":"restaurant","name":"Guerilla Chef Burgers","lat":37.98671993993366,"lng":23.731787435580728,"url":"https://maps.app.goo.gl/K2QVLnm9vHS1E3cF9?g_st=ipc","address":"37.98671993993366, 23.731787435580728","categoryIds":["cheap-eats"],"categories":["Gyros & Cheap Eats"]},"sameCategory":[{"id":"cheapEatsRestaurants_cab7e72e3b11","slug":"psitopoleion-giorgos-manos-cab7","kind":"restaurant","name":"Ψητοπωλείον Γιώργος - Μάνος","lat":37.9855993281782,"lng":23.733208439532696,"url":"https://maps.app.goo.gl/jYKrRJuSFDD632N47?g_st=ipc","address":"Θεμιστοκλέους 39, Αθήνα 106 77","categoryIds":["cheap-eats"],"categories":["Gyros & Cheap Eats"]},{"id":"cheapEatsRestaurants_724c8ca91031","slug":"mangal-724c","kind":"restaurant","name":"Mangal","lat":37.98648075392058,"lng":23.733903117356245,"url":"https://maps.app.goo.gl/fZ3o2N67Ya2WA1aQA?g_st=ipc","address":"Σολωμού 12, Αθήνα 106 83","categoryIds":["cheap-eats"],"categories":["Gyros & Cheap Eats"]},{"id":"cheapEatsRestaurants_5338053c1323","slug":"cocoretsi-5338","kind":"restaurant","name":"Cocoretsi","lat":37.984933091622935,"lng":23.73142125517845,"url":"https://maps.app.goo.gl/sz7bawT1imNu9L696?g_st=ipc","address":"Ακαδημίας 95, Αθήνα 106 77","categoryIds":["cheap-eats"],"categories":["Gyros & Cheap Eats"]},{"id":"cheapEatsRestaurants_cda079c65f38","slug":"lorda-cda0","kind":"restaurant","name":"Λόρδα","lat":37.986574816164286,"lng":23.734456878858524,"url":"https://maps.app.goo.gl/nBaQ33jw6JEZQp7X9?g_st=ipc","address":"Σπύρου Τρικούπη 3, Αθήνα 106 83","categoryIds":["cheap-eats"],"categories":["Gyros & Cheap Eats"]},{"id":"cheapEatsRestaurants_7a147c673f5b","slug":"soyvlaki-i-leivadia-7a14","kind":"restaurant","name":"Σουβλάκι Η Λειβαδιά","lat":37.984552486382015,"lng":23.7305119942548,"url":"https://maps.app.goo.gl/DMoZEUMYCkZLa2k59?g_st=ipc","address":"Κάνιγγος 2-4, Αθήνα 106 77","categoryIds":["cheap-eats"],"categories":["Gyros & Cheap Eats"]},{"id":"cheapEatsRestaurants_6b9bfc66a8e4","slug":"lacantina-streetfood-6b9b","kind":"restaurant","name":"Lacantina streetfood","lat":37.98418112510836,"lng":23.734735469259256,"url":"https://maps.app.goo.gl/in5jozRVDDW97jJc8?g_st=ipc","address":"Ζωοδόχου Πηγής 24, Αθήνα 106 81","categoryIds":["cheap-eats"],"categories":["Gyros & Cheap Eats"]},{"id":"cheapEatsRestaurants_f678b7a854d0","slug":"prigkipas-f678","kind":"restaurant","name":"Πρiγκιπας","lat":37.98367685276512,"lng":23.73451397788728,"url":"https://maps.app.goo.gl/v9CtcwcCChGuLbxQ7?g_st=ipc","address":"Χαρ. Τρικούπη 23, Αθήνα 106 81","categoryIds":["cheap-eats"],"categories":["Gyros & Cheap Eats"]},{"id":"cheapEatsRestaurants_bbf053953e0b","slug":"leyteris-o-politis-ap-to-1951-bbf0","kind":"restaurant","name":"Λευτέρης ο Πολίτης (Απ'το 1951)","lat":37.98519549438972,"lng":23.72733221380902,"url":"https://maps.app.goo.gl/ChqL23bz9HeKVK9L8?g_st=ipc","address":"Σατωβριάνδου 20, Αθήνα 104 32","categoryIds":["cheap-eats"],"categories":["Gyros & Cheap Eats"]}],"nearby":[{"id":"burgersRestaurants_cd431d540de7","slug":"guerilla-chef-burgers-cd43","kind":"restaurant","name":"Guerilla Chef Burgers","lat":37.98670260429295,"lng":23.731789751446545,"url":"https://maps.app.goo.gl/dpwZgAJWWe2cfPeG9?g_st=ipc","address":"Σολωμού 33, Αθήνα 106 82","categoryIds":["burgers"],"categories":["Burger Spots"],"distanceKm":0.0019382905762730597},{"id":"vegetarianRestaurants_ea997a3c2b69","slug":"handwich-athens-ea99","kind":"restaurant","name":"Handwich Athens","lat":37.98638339493441,"lng":23.731698144915832,"url":"https://maps.app.goo.gl/WwKS8hQTt3PyFTcN9?g_st=ipc","address":"Τζώρτζ 3, Αθήνα 106 82","categoryIds":["vegetarian"],"categories":["Vegetarian Friendly Restaurants"],"distanceKm":0.038231520168963445},{"id":"greekRestaurants_eec032d0bea1","slug":"atitamos-eec0","kind":"restaurant","name":"Ατίταμος","lat":37.98622715652684,"lng":23.73236663557607,"url":"https://maps.app.goo.gl/VfeckYbAHrSRw3Qo8","address":"Καποδιστρίου 2, Αθήνα 106 83","categoryIds":["greek-restaurants"],"categories":["Greek Restaurants"],"distanceKm":0.07469350937008158},{"id":"dessertsRestaurants_ba20d8faff31","slug":"craquelin-ba20","kind":"restaurant","name":"Craquelin","lat":37.9865815151158,"lng":23.732749024802267,"url":"https://maps.app.goo.gl/m9Z1VRpp25owhfSz8?g_st=ipc","address":"Σολωμού 23, Αθήνα 106 82","categoryIds":["desserts"],"categories":["Dessert Shops"],"distanceKm":0.08566660743499174},{"id":"luxuryDiningRestaurants_3c3010cb0fe8","slug":"pharaoh-3c30","kind":"restaurant","name":"Pharaoh","lat":37.986974430593506,"lng":23.73075500920587,"url":"https://maps.app.goo.gl/1WxR8XYsFmsyuWyp7?g_st=ipc","address":"Solomou 54, Athina 106 82","categoryIds":["luxury-dining"],"categories":["Luxury Dining"],"distanceKm":0.09480225369439431},{"id":"italianRestaurants_ed5df50f2107","slug":"dilien-ed5d","kind":"restaurant","name":"Dilien","lat":37.98733679240523,"lng":23.730994400110465,"url":"https://maps.app.goo.gl/yeGNTXa4VUk4Paqs5","address":"Stournari 43, Athina 106 82","categoryIds":["italian"],"categories":["Italian Restaurants"],"distanceKm":0.09764729994362863},{"id":"greekRestaurants_5d1d35aa177d","slug":"gioysoyroym-5d1d","kind":"restaurant","name":"Γιουσουρούμ","lat":37.98634442442922,"lng":23.733413179378076,"url":"https://maps.app.goo.gl/jh9iV3W2AMUY6Pev5","address":"Σουλτάνη 11, Αθήνα 106 82","categoryIds":["greek-restaurants"],"categories":["Greek Restaurants"],"distanceKm":0.14847088268819633},{"id":"vegetarianRestaurants_49bc3b76300b","slug":"falafelo-street-food-49bc","kind":"restaurant","name":"Falafelo Street Food","lat":37.98589482225123,"lng":23.733448804787468,"url":"https://maps.app.goo.gl/R4ear5h1EDzpwe8Y8?g_st=ipc","address":"Σουλτάνη 2-4, Αθήνα 106 83","categoryIds":["vegetarian"],"categories":["Vegetarian Friendly Restaurants"],"distanceKm":0.17209738614113165}],"sameRegion":[],"mentionedGuides":[]},"__N_SSG":true}