{"pageProps":{"entity":{"id":"municipalities_15e687326170","slug":"kastraki-15e6","kind":"municipality","name":"Καστράκι","lat":39.7156,"lng":21.6303,"aliases":["Καστρακι"],"region":"Θεσσαλία","name_en":"Kastraki","region_en":"Thessaly"},"sameCategory":[],"nearby":[{"id":"mustSeeAttractions_cfae99e77bd9","slug":"meteora-cfae","kind":"restaurant","name":"Meteora","lat":39.72170879350903,"lng":21.63058881507582,"url":"https://maps.app.goo.gl/onMRfAUqEwFjaiVWA?g_st=ipc","address":"Kalabaka 422 00","categoryIds":["attractions"],"categories":["Must-See Attractions"],"distanceKm":0.679715865138311},{"id":"greekRestaurants_05c7d7fb8213","slug":"fortoynis-tsipoyradiko-05c7","kind":"restaurant","name":"Φορτούνης, Τσιπουράδικο.","lat":39.707884842626186,"lng":21.625293841539552,"url":"https://maps.app.goo.gl/sULQJWCWbd9v5WuA9?g_st=ipc","address":"z, Βλαχάβα 23, Καλαμπάκα 422 00","categoryIds":["greek-restaurants"],"categories":["Greek Restaurants"],"distanceKm":0.958823190550898},{"id":"mustSeeAttractions_974fae2e3103","slug":"kalabaka-974f","kind":"restaurant","name":"Kalabaka","lat":39.70661305298489,"lng":21.628881662192715,"url":"https://maps.app.goo.gl/zpazCjEdJ5HpowTp6?g_st=ipc","address":"Kalabaka 422 00","categoryIds":["attractions"],"categories":["Must-See Attractions"],"distanceKm":1.0066408615102487},{"id":"greekRestaurants_3b8e67bf08cc","slug":"estiatorio-panellinio-3b8e","kind":"restaurant","name":"Εστιατόριο Πανελλήνιο","lat":39.7071570806949,"lng":21.62351645286361,"url":"https://maps.app.goo.gl/hqPauRQr76VYpZir6?g_st=ipc","address":"Πλατεία Δημαρχείου, Καλαμπάκα 422 00","categoryIds":["greek-restaurants"],"categories":["Greek Restaurants"],"distanceKm":1.103659691391859},{"id":"municipalities_8b6865e1bc7a","slug":"kalampaka-8b68","kind":"municipality","name":"Καλαμπάκα","lat":39.704,"lng":21.627,"aliases":["Kalabaka"],"region":"Θεσσαλία","name_en":"Kalampaka","region_en":"Thessaly","distanceKm":1.3203889970677078},{"id":"wineriesVineyards_e97e72184f55","slug":"tsililis-k-s-a-distillery-estate-theopetra-e97e","kind":"restaurant","name":"TSILILIS K. S.A. Distillery & Estate Theopetra","lat":39.61912675215486,"lng":21.740677017641424,"url":"https://maps.app.goo.gl/SFX3z7LyEVrtDLUN8?g_st=ipc","address":"Epar.Od. Trikalon-Rizomatos 31, Raxa 421 00","categoryIds":["wineries-vineyards"],"categories":["Wineries & Vineyards"],"distanceKm":14.294492749020158},{"id":"greekRestaurants_6061ec9bd174","slug":"mezedokamomata-6061","kind":"restaurant","name":"Μεζεδοκαμώματα","lat":39.557518520300846,"lng":21.766766768830163,"url":"https://maps.app.goo.gl/dQpJGQzyaRUqPvee7?g_st=ipc","address":"Υψηλάντου 16, Τρίκαλα 421 00","categoryIds":["greek-restaurants"],"categories":["Greek Restaurants"],"distanceKm":21.107850336027834},{"id":"greekRestaurants_846c365b6b10","slug":"taverna-katogi-846c","kind":"restaurant","name":"ΤΑΒΕΡΝΑ ΚΑΤΩΓΙ","lat":39.557459431229404,"lng":21.767052390581174,"url":"https://maps.app.goo.gl/1Ms5yTQVGkoNajR96?g_st=ipc","address":"Καραϊσκάκη 58, Τρίκαλα 421 00","categoryIds":["greek-restaurants"],"categories":["Greek Restaurants"],"distanceKm":21.126872131766497}],"sameRegion":[{"id":"municipalities_20d3dae1213c","slug":"larisa-20d3","kind":"municipality","name":"Λάρισα","lat":39.64,"lng":22.42,"aliases":["Larissa","Λάρισσα","Λαρισα"],"region":"Θεσσαλία","name_en":"Larissa","region_en":"Thessaly"},{"id":"municipalities_2909a9376e1f","slug":"pilio-2909","kind":"municipality","name":"Πήλιο","lat":39.4167,"lng":23.0833,"aliases":["Πηλιο"],"region":"Θεσσαλία","name_en":"Pelion","region_en":"Thessaly"},{"id":"municipalities_3345708eb61e","slug":"portaria-3345","kind":"municipality","name":"Πορταριά","lat":39.3931,"lng":23.0681,"aliases":["Πορταρια"],"region":"Θεσσαλία","name_en":"Portaria","region_en":"Thessaly"},{"id":"municipalities_3598a91927f2","slug":"makrinitsa-3598","kind":"municipality","name":"Μακρινίτσα","lat":39.3858,"lng":23.0556,"aliases":["Μακρινιτσα","Balcony of Pelion"],"region":"Θεσσαλία","name_en":"Makrinitsa","region_en":"Thessaly"},{"id":"municipalities_50332bb56229","slug":"elassona-5033","kind":"municipality","name":"Ελασσόνα","lat":39.89,"lng":22.19,"region":"Θεσσαλία","name_en":"Elassona","region_en":"Thessaly"},{"id":"municipalities_5a21ee6d3ece","slug":"skopelos-5a21","kind":"municipality","name":"Σκόπελος","lat":39.121,"lng":23.725,"region":"Θεσσαλία","name_en":"Skopelos","region_en":"Thessaly"},{"id":"municipalities_719868db1f0f","slug":"karditsa-7198","kind":"municipality","name":"Καρδίτσα","lat":39.3667,"lng":21.9167,"region":"Θεσσαλία","name_en":"Karditsa","region_en":"Thessaly"},{"id":"municipalities_778d49aa06b7","slug":"agia-778d","kind":"municipality","name":"Αγιά","lat":39.7333,"lng":22.757,"region":"Θεσσαλία","name_en":"Agia","region_en":"Thessaly"}],"mentionedGuides":[{"slug":"meteora-complete-guide-el","title":"Μετέωρα, Ελλάδα: Πλήρης Οδηγός Ταξιδιού"},{"slug":"meteora-complete-guide","title":"Meteora, Greece: Complete Travel Guide"}]},"__N_SSG":true}