{"pageProps":{"entity":{"id":"greekRestaurants_6208e477b281","slug":"pappu-athens-6208","kind":"restaurant","name":"Pāppu Athens","lat":38.01046990272616,"lng":23.68965527636987,"url":"https://maps.app.goo.gl/QKrjcz5bwnJE9QXA6","address":"Μεσολογγίου 100, Περιστέρι 121 31","categoryIds":["greek-restaurants"],"categories":["Greek Restaurants"]},"sameCategory":[{"id":"greekRestaurants_894000c6e69f","slug":"arch-beer-house-8940","kind":"restaurant","name":"Arch Beer House","lat":38.01418942631727,"lng":23.68836608869776,"url":"https://maps.app.goo.gl/LiRMqJ6hgSpNtgJ99","address":"Εθ. Αντιστάσεως 91, Περιστέρι 121 34","categoryIds":["greek-restaurants"],"categories":["Greek Restaurants"]},{"id":"greekRestaurants_e84451b3cebc","slug":"taverna-psistaria-o-thomas-apo-to-1980-e844","kind":"restaurant","name":"Ταβέρνα - Ψησταριά ο Θωμάς απο το 1980","lat":38.015942140522725,"lng":23.686390666199237,"url":"https://maps.app.goo.gl/ZYNUbquE3yHM5E837","address":"Χαλκοκονδύλη 39, Περιστέρι 121 35","categoryIds":["greek-restaurants"],"categories":["Greek Restaurants"]},{"id":"greekRestaurants_3bf98dd0eb38","slug":"anemologio-enallaktiko-kafe-3bf9","kind":"restaurant","name":"Ανεμολόγιο εναλλακτικό καφέ","lat":38.016523540675394,"lng":23.68057325145113,"url":"https://maps.app.goo.gl/jpKMuFsoZ998HnQE8","address":"Πελοπίδα 106, Περιστέρι 121 35","categoryIds":["greek-restaurants"],"categories":["Greek Restaurants"]},{"id":"greekRestaurants_9c5c07b28afc","slug":"schinos-mpistro-9c5c","kind":"restaurant","name":"Σχίνος Μπιστρό","lat":38.01228323858559,"lng":23.703471319893453,"url":"https://maps.app.goo.gl/VEoaxecqRaF6Y2in8","address":"Μεγ. Αλεξάνδρου 88, Περιστέρι 121 32","categoryIds":["greek-restaurants"],"categories":["Greek Restaurants"]},{"id":"greekRestaurants_66d5a57225f6","slug":"taverna-o-karagkiozis-66d5","kind":"restaurant","name":"Ταβέρνα Ο Καραγκιόζης","lat":38.01836729151931,"lng":23.702104419170855,"url":"https://maps.app.goo.gl/zhCvjvwCT9rbixAE6","address":"Τρώων 9, Bournazi 121 33","categoryIds":["greek-restaurants"],"categories":["Greek Restaurants"]},{"id":"greekRestaurants_d28823b9eec2","slug":"myrtia-peristeri-d288","kind":"restaurant","name":"Μυρτιά - Περιστέρι","lat":38.00643775276086,"lng":23.706964574646523,"url":"https://maps.app.goo.gl/ZmkpQ1J6yj1b1iUX6","address":"Αγίας Παρασκευής 24, Περιστέρι 121 32","categoryIds":["greek-restaurants"],"categories":["Greek Restaurants"]},{"id":"greekRestaurants_8f61506d1171","slug":"basegrill-athens-8f61","kind":"restaurant","name":"Basegrill Athens","lat":38.01200938597209,"lng":23.7082215195935,"url":"https://maps.app.goo.gl/4HcYYs1yQVdq1giy8","address":"Λεωφ. Κωνσταντινουπόλεως 64, Περιστέρι 121 33","categoryIds":["greek-restaurants"],"categories":["Greek Restaurants"]},{"id":"greekRestaurants_c4daeb8f4d66","slug":"malanos-c4da","kind":"restaurant","name":"Μαλανος","lat":38.0129537569984,"lng":23.7103246194612,"url":"https://maps.app.goo.gl/RHBwmAA2mvG3Eie58","address":"Ιωλκού 2, Περιστέρι 121 33","categoryIds":["greek-restaurants"],"categories":["Greek Restaurants"]}],"nearby":[{"id":"cheapEatsRestaurants_e447034a05ff","slug":"o-oraios-tis-geitonias-ovelistirio-e447","kind":"restaurant","name":"Ο ΩΡΑΙΟΣ ΤΗΣ ΓΕΙΤΟΝΙΑΣ ΟΒΕΛΙΣΤΗΡΙΟ","lat":38.01006375373495,"lng":23.6881134895059,"url":"https://maps.app.goo.gl/MTNygxiVF9e3viYE9?g_st=ipc","address":"Θηβών 119, Περιστέρι 121 36","categoryIds":["cheap-eats"],"categories":["Gyros & Cheap Eats"],"distanceKm":0.14242651381677032},{"id":"asianRestaurants_530d2b0642c6","slug":"koi-sushi-bar-peristeri-530d","kind":"restaurant","name":"Koi Sushi Bar | Peristeri","lat":38.01186121788653,"lng":23.689184297983758,"url":"https://maps.app.goo.gl/88pCTr6wSS31ANgE6?g_st=ipc","address":"Πελασγίας 6, Περιστέρι 121 36","categoryIds":["asian"],"categories":["Asian Restaurants"],"distanceKm":0.16011520730544218},{"id":"cheapEatsRestaurants_f4852478be70","slug":"kantina-mpilis-f485","kind":"restaurant","name":"Καντίνα Μπίλης","lat":38.01164780075542,"lng":23.6884871707283,"url":"https://maps.app.goo.gl/CHy9bu3k15qybj71A?g_st=ipc","address":"Πελασγίας 7, Περιστέρι 121 31","categoryIds":["cheap-eats"],"categories":["Gyros & Cheap Eats"],"distanceKm":0.16621582223445994},{"id":"coffeeBrunchRestaurants_c560ff32aef8","slug":"sempre-coffee-cocktail-bar-c560","kind":"restaurant","name":"sempre coffee & cocktail bar","lat":38.01143610501892,"lng":23.691242502233425,"url":"https://maps.app.goo.gl/AJY2nLTvRqUqFGG26?g_st=ipc","address":"Σαρανταπόρου 51, Περιστέρι 121 34","categoryIds":["coffee-brunch"],"categories":["Coffee & Brunch Spots"],"distanceKm":0.17572520013505347},{"id":"italianRestaurants_b8dec0e1044a","slug":"makaroynes-exceptional-cuisine-b8de","kind":"restaurant","name":"Μακαρούνες (exceptional cuisine)","lat":38.01172277822911,"lng":23.691017826226332,"url":"https://maps.app.goo.gl/h2o6228dtCcx8xr98?g_st=ipc","address":"Αιμιλίου Βεάκη 70, Περιστέρι 121 34","categoryIds":["italian"],"categories":["Italian Restaurants"],"distanceKm":0.18346112532605566},{"id":"mexicanRestaurants_cccdda88c52d","slug":"la-casa-azul-cccd","kind":"restaurant","name":"La Casa Azul","lat":38.01237602759444,"lng":23.68855969778912,"url":"https://maps.app.goo.gl/HmeGfenDmu6xhBo27","address":"Thivon 143, Peristeri 121 34","categoryIds":["mexican"],"categories":["Mexican Restaurants"],"distanceKm":0.23267161855777932},{"id":"mexicanRestaurants_249dc358fb68","slug":"item-249d","kind":"restaurant","name":"𝖫𝖠 𝖢𝖠𝖲𝖠 𝖠𝖹𝖴𝖫","lat":38.01238167042839,"lng":23.68855888974166,"url":"https://maps.app.goo.gl/w4rjy3ViFe7tB9vZ8?g_st=ipc","address":"Θηβών 143, Περιστέρι 121 34","categoryIds":["mexican"],"categories":["Mexican Restaurants"],"distanceKm":0.23327247910178106},{"id":"burgersRestaurants_d4b7de9746f1","slug":"butcher-s-burger-peristeri-steak-house-d4b7","kind":"restaurant","name":"Butcher's Burger Peristeri & Steak House","lat":38.01156289236995,"lng":23.69228404120557,"url":"https://maps.app.goo.gl/HZTQZzXmyYMQ3mzX9?g_st=ipc","address":"Αιμιλίου Βεάκη 41, Περιστέρι 121 34","categoryIds":["burgers"],"categories":["Burger Spots"],"distanceKm":0.26040580436334915}],"sameRegion":[],"mentionedGuides":[{"slug":"tap-water-safe-greece-el","title":"Είναι Ασφαλές να Πίνετε Νερό Βρύσης στην Ελλάδα;"},{"slug":"tap-water-safe-greece","title":"Is Tap Water Safe to Drink in Greece?"},{"slug":"traveling-to-greece-on-a-budget-el","title":"Ταξιδι στην Ελλαδα με μικρο budget"},{"slug":"traveling-to-greece-on-a-budget","title":"Traveling to Greece on a Budget"}]},"__N_SSG":true}