{"pageProps":{"entity":{"id":"municipalities_43ae67a78abe","slug":"agios-georgios-lasithioy-43ae","kind":"municipality","name":"Άγιος Γεώργιος Λασιθίου","lat":35.207,"lng":25.511,"region":"Κρήτη","name_en":"Agios Georgios Lasithiou","region_en":"Crete"},"sameCategory":[],"nearby":[{"id":"municipalities_0abaeb44cae9","slug":"malia-0aba","kind":"municipality","name":"Μάλια","lat":35.283,"lng":25.462,"region":"Κρήτη","name_en":"Malia","region_en":"Crete","distanceKm":9.550752279332663},{"id":"municipalities_847eab0fe55c","slug":"stalida-847e","kind":"municipality","name":"Σταλίδα","lat":35.2932,"lng":25.4426,"region":"Κρήτη","name_en":"Stalida","region_en":"Crete","distanceKm":11.421499039272017},{"id":"greekRestaurants_d8e66ee61d19","slug":"taverna-agias-paraskeyis-d8e6","kind":"restaurant","name":"Ταβέρνα Αγίας Παρασκευής","lat":35.08283189053066,"lng":25.576266926635412,"url":"https://maps.app.goo.gl/SEFLyBqoAyReomC66?g_st=ipc","address":"Χριστός 720 56","categoryIds":["greek-restaurants"],"categories":["Greek Restaurants"],"distanceKm":15.028163066801529},{"id":"municipalities_d1ff977f1393","slug":"chersonisos-d1ff","kind":"municipality","name":"Χερσόνησος","lat":35.3167,"lng":25.3833,"aliases":["Xersonissos","Hersonissos"],"region":"Κεντρική Κρήτη","name_en":"Hersonissos","region_en":"Central Crete","distanceKm":16.82915592924688},{"id":"familyFriendly_1ddd662e5e58","slug":"labyrinth-park-1ddd","kind":"restaurant","name":"Labyrinth Park","lat":35.2948469322292,"lng":25.35746794187921,"url":"https://maps.app.goo.gl/hzfaUBDJZ9VG57An9?g_st=ipc","address":"Hersonissos 700 14","categoryIds":["family-friendly"],"categories":["Kid Friendly Locations"],"distanceKm":17.023004194390115},{"id":"greekRestaurants_e7edc905ec04","slug":"taverna-afroditi-e7ed","kind":"restaurant","name":"Ταβέρνα Αφροδίτη","lat":35.04824214563024,"lng":25.489380915090635,"url":"https://maps.app.goo.gl/Hd6w5ARoLxjc8sSE7?g_st=ipc","address":"Κατω Σύμη Βιάννου, 1, Κάτω Σύμη 700 04","categoryIds":["greek-restaurants"],"categories":["Greek Restaurants"],"distanceKm":17.76221809779787},{"id":"familyFriendly_1f20e7775883","slug":"pantheon-water-park-crete-1f20","kind":"restaurant","name":"PANTHEON WATER PARK | CRETE","lat":35.33123334208483,"lng":25.379236274931273,"url":"https://maps.app.goo.gl/HkckbLGJwUu91L4a6?g_st=ic","address":"Σολωμού Τέρμα, Anissaras 700 14","categoryIds":["family-friendly"],"categories":["Kid Friendly Locations"],"distanceKm":18.27356347478113},{"id":"municipalities_0cae5b3ad249","slug":"viannos-0cae","kind":"municipality","name":"Βιάννος","lat":35.05,"lng":25.45,"region":"Νότια Κρήτη","name_en":"Viannos","region_en":"South Crete","distanceKm":18.317816370264673},{"id":"municipalities_ccbf4358d2e3","slug":"agios-nikolaos-ccbf","kind":"municipality","name":"Άγιος Νικόλαος","lat":35.191,"lng":25.715,"aliases":["Αγιος Νικολαος"],"region":"Ανατολική Κρήτη","name_en":"Agios Nikolaos","region_en":"East Crete","distanceKm":18.621332783882945},{"id":"greekRestaurants_88aa93e2ed98","slug":"gioma-meze-88aa","kind":"restaurant","name":"Gioma Meze","lat":35.19092879373842,"lng":25.71639633645474,"url":"https://maps.app.goo.gl/Rv7Nyy9Pu5iTxP4R6?g_st=ipc","address":"Διονυσίου Σολωμού 12, Αγ. Νικόλαος 721 00","categoryIds":["greek-restaurants"],"categories":["Greek Restaurants"],"distanceKm":18.7483934080794},{"id":"greekRestaurants_e12720049bff","slug":"p-i-a-t-o-creative-greek-cuisine-e127","kind":"restaurant","name":"P I A T O Creative Greek Cuisine","lat":35.191014456442474,"lng":25.720317471781893,"url":"https://maps.app.goo.gl/EPLHpPqWCPBvDpjd9?g_st=ipc","address":"Ακτή Ιωσήφ, Κούνδουρου 8, Αγ. Νικόλαος 721 00","categoryIds":["greek-restaurants"],"categories":["Greek Restaurants"],"distanceKm":19.102190705518115},{"id":"luxuryDiningRestaurants_de6ed2283d49","slug":"dionysos-restaurant-elounda-de6e","kind":"restaurant","name":"Dionysos restaurant elounda","lat":35.24868944871254,"lng":25.730385349919736,"url":"https://maps.app.goo.gl/XzHLEvGxzDciEKDY8?g_st=ipc","address":"Unnamed Road, Ag. Nikolaos 720 53","categoryIds":["luxury-dining"],"categories":["Luxury Dining"],"distanceKm":20.459126559084435},{"id":"municipalities_b05858be497e","slug":"eloynta-b058","kind":"municipality","name":"Ελούντα","lat":35.2581,"lng":25.7286,"aliases":["Ελουντα","Elounda Bay"],"region":"Ανατολική Κρήτη","name_en":"Elounda","region_en":"East Crete","distanceKm":20.564298970883797},{"id":"luxuryDiningRestaurants_e1d805e6a099","slug":"makris-elounda-fine-dining-restaurant-by-domes-e1d8","kind":"restaurant","name":"Makris Elounda Fine Dining Restaurant by Domes","lat":35.289457611664844,"lng":25.729231449277293,"url":"https://maps.app.goo.gl/5ZKMq3CQuLYPt9qu7?g_st=ipc","address":"Domes of Elounda, Tsifliki, Schisma Elountas 720 53","categoryIds":["luxury-dining"],"categories":["Luxury Dining"],"distanceKm":21.835544491651852},{"id":"familyFriendly_b97882ce1ef1","slug":"gouves-water-park-water-slides-b978","kind":"restaurant","name":"Gouves Water Park Water Slides","lat":35.330529620260506,"lng":25.30109647574127,"url":"https://maps.app.goo.gl/VVxJNmLN85fw55Gd7?g_st=ipc","address":"88J2+J7, Kato Gouves 700 14","categoryIds":["family-friendly"],"categories":["Kid Friendly Locations"],"distanceKm":23.490661499291114},{"id":"familyFriendly_f556661b0d5a","slug":"dinosaur-park-f556","kind":"restaurant","name":"Dinosaur Park","lat":35.32673458782771,"lng":25.287539183910724,"url":"https://maps.app.goo.gl/Bv4uWJJC4Gk8ssCE8?g_st=ipc","address":"DEKK, Gournes 715 00","categoryIds":["family-friendly"],"categories":["Kid Friendly Locations"],"distanceKm":24.266013466937455},{"id":"familyFriendly_073dab707c07","slug":"cretaquarium-thalassokosmos-073d","kind":"restaurant","name":"CRETAquarium Thalassokosmos","lat":35.332361553594524,"lng":25.282456113974675,"url":"https://maps.app.goo.gl/4Hf2kigPt77kQGn87?g_st=ipc","address":"Heraklion 710 03","categoryIds":["family-friendly"],"categories":["Kid Friendly Locations"],"distanceKm":24.9959813597143},{"id":"greekRestaurants_85761cad61c2","slug":"madame-meze-8576","kind":"restaurant","name":"Madame Meze","lat":35.01115019973434,"lng":25.74036253218556,"url":"https://maps.app.goo.gl/6cPcQrvXzwudXHiH8?g_st=ipc","address":"Ὁπλαρχηγοῦ Λακέρδα, Ιεράπετρα 722 00","categoryIds":["greek-restaurants"],"categories":["Greek Restaurants"],"distanceKm":30.158805058718954},{"id":"municipalities_b8d5fd091f43","slug":"ierapetra-b8d5","kind":"municipality","name":"Ιεράπετρα","lat":35.0119,"lng":25.7424,"region":"Ανατολική Κρήτη","name_en":"Ierapetra","region_en":"East Crete","distanceKm":30.2273548399038},{"id":"municipalities_5f283b2642e4","slug":"mpali-5f28","kind":"municipality","name":"Μπαλί","lat":35.4124,"lng":24.786,"region":"Κρήτη","name_en":"Bali","region_en":"Crete","distanceKm":69.6377986677792},{"id":"municipalities_a0cd23d8e321","slug":"matala-a0cd","kind":"municipality","name":"Μάταλα","lat":34.9953,"lng":24.7496,"region":"Κρήτη","name_en":"Matala","region_en":"Crete","distanceKm":73.15715251518911},{"id":"municipalities_cb8d047a94ef","slug":"plakias-cb8d","kind":"municipality","name":"Πλακιάς","lat":35.176,"lng":24.3935,"region":"Κρήτη","name_en":"Plakias","region_en":"Crete","distanceKm":101.60727008406256},{"id":"municipalities_d3b3bd48a579","slug":"agia-marina-d3b3","kind":"municipality","name":"Αγία Μαρίνα","lat":35.515,"lng":23.915,"region":"Κρήτη","name_en":"Agia Marina","region_en":"Crete","distanceKm":148.72333967387996},{"id":"municipalities_4e60225f7fa0","slug":"falasarna-4e60","kind":"municipality","name":"Φαλάσαρνα","lat":35.49,"lng":23.588,"region":"Κρήτη","name_en":"Falasarna","region_en":"Crete","distanceKm":177.22128642486987}],"sameRegion":[{"id":"municipalities_0abaeb44cae9","slug":"malia-0aba","kind":"municipality","name":"Μάλια","lat":35.283,"lng":25.462,"region":"Κρήτη","name_en":"Malia","region_en":"Crete"},{"id":"municipalities_4e60225f7fa0","slug":"falasarna-4e60","kind":"municipality","name":"Φαλάσαρνα","lat":35.49,"lng":23.588,"region":"Κρήτη","name_en":"Falasarna","region_en":"Crete"},{"id":"municipalities_5f283b2642e4","slug":"mpali-5f28","kind":"municipality","name":"Μπαλί","lat":35.4124,"lng":24.786,"region":"Κρήτη","name_en":"Bali","region_en":"Crete"},{"id":"municipalities_847eab0fe55c","slug":"stalida-847e","kind":"municipality","name":"Σταλίδα","lat":35.2932,"lng":25.4426,"region":"Κρήτη","name_en":"Stalida","region_en":"Crete"},{"id":"municipalities_a0cd23d8e321","slug":"matala-a0cd","kind":"municipality","name":"Μάταλα","lat":34.9953,"lng":24.7496,"region":"Κρήτη","name_en":"Matala","region_en":"Crete"},{"id":"municipalities_cb8d047a94ef","slug":"plakias-cb8d","kind":"municipality","name":"Πλακιάς","lat":35.176,"lng":24.3935,"region":"Κρήτη","name_en":"Plakias","region_en":"Crete"},{"id":"municipalities_d3b3bd48a579","slug":"agia-marina-d3b3","kind":"municipality","name":"Αγία Μαρίνα","lat":35.515,"lng":23.915,"region":"Κρήτη","name_en":"Agia Marina","region_en":"Crete"},{"id":"municipalities_ebc0891e3ed9","slug":"elafonisi-ebc0","kind":"municipality","name":"Ελαφονήσι","lat":35.2722,"lng":23.542,"region":"Κρήτη","name_en":"Elafonisi","region_en":"Crete"}],"mentionedGuides":[],"canonicalSlug":"agios-georgios-lasithioy-43ae","isCanonicalEntity":true,"enrichment":{"summary_en":"Άγιος Γεώργιος Λασιθίου is a curated neighborhood area in Κρήτη. It is connected to 0 nearby Googlementor picks to help travelers build a stronger local route.","summary_el":"Άγιος Γεώργιος Λασιθίου είναι ένα επιλεγμένο σημείο ενδιαφέροντος στην περιοχή Κρήτη. Συνδέεται με 0 κοντινές προτάσεις του Googlementor για πιο ολοκληρωμένη εμπειρία.","vibe_tags":["local-neighborhood","base-for-exploring"],"best_for":["first-time visitors","walk-and-explore days","return visitors"],"visit_moments":["late morning walks","sunset exploration"],"practical_note":"0 curated places are within walkable distance from this area center.","nearby_walkable_count":0,"nearby_count_2km":0,"confidence":0.55}},"__N_SSG":true}