{"pageProps":{"entity":{"id":"coffeeBrunchRestaurants_6c5cf7a87a7e","slug":"ammos-beach-cocktail-bar-kos-6c5c","kind":"restaurant","name":"Ammos Beach Cocktail Bar Kos","lat":36.87331617313251,"lng":27.35149999959042,"url":"https://maps.app.goo.gl/AMMGdvJMkRwqCrFP6?g_st=ipc","address":"Psalidi, Kos 853 00","categoryIds":["coffee-brunch"],"categories":["Coffee & Brunch Spots"]},"sameCategory":[{"id":"coffeeBrunchRestaurants_d1e128561b78","slug":"mylos-beach-bar-kos-d1e1","kind":"restaurant","name":"Mylos Beach Bar Kos","lat":36.910338645379476,"lng":27.282292405147036,"url":"https://maps.app.goo.gl/6uVUCsAW9roKZ7jd6?g_st=ipc","address":"Akti Zouroudi, Kos 853 00","categoryIds":["coffee-brunch"],"categories":["Coffee & Brunch Spots"]},{"id":"coffeeBrunchRestaurants_224b4f18bc1d","slug":"metoxi-cafe-224b","kind":"restaurant","name":"Metoxi Cafe","lat":36.84261561910303,"lng":27.207757730254055,"url":"https://maps.app.goo.gl/xLPQPWyVrDszRuA8A?g_st=ipc","address":"Κως ζια, Lagoudi Zia 853 00","categoryIds":["coffee-brunch"],"categories":["Coffee & Brunch Spots"]},{"id":"coffeeBrunchRestaurants_2788ef940f49","slug":"lovly-bar-2788","kind":"restaurant","name":"Lovly Bar","lat":36.8298552621884,"lng":27.052523615328724,"url":"https://maps.app.goo.gl/tqo3zEFB2jssR8Md9?g_st=ipc","address":"Mastihari","categoryIds":["coffee-brunch"],"categories":["Coffee & Brunch Spots"]},{"id":"coffeeBrunchRestaurants_e533a6bcb85f","slug":"naval-cafe-bar-restaurant-e533","kind":"restaurant","name":"NAVAL Cafe Bar Restaurant","lat":36.43323816273261,"lng":28.237832164715215,"url":"https://maps.app.goo.gl/LEtJZTyLhqkrZEGE7?g_st=ipc","address":"Rhodes","categoryIds":["coffee-brunch"],"categories":["Coffee & Brunch Spots"]},{"id":"coffeeBrunchRestaurants_a3547d8efbea","slug":"kolokytha-a354","kind":"restaurant","name":"Kolokytha","lat":36.54726990012019,"lng":26.353646413648903,"url":"https://maps.app.goo.gl/6FaxgMCjdWj9EPA48?g_st=ipc","address":"Unnamed Rd, Astipalea 859 00","categoryIds":["coffee-brunch","desserts"],"categories":["Coffee & Brunch Spots","Dessert Shops"],"legacySlugs":["kolokytha-3090"]},{"id":"coffeeBrunchRestaurants_81babb19d554","slug":"anax-brunch-all-day-bar-81ba","kind":"restaurant","name":"Anax - Brunch & All day bar","lat":36.54881053562097,"lng":26.352767048461835,"url":"https://maps.app.goo.gl/Fog59qRdXL1VwbPKA?g_st=ipc","address":"Island, Astipalea 859 00","categoryIds":["coffee-brunch"],"categories":["Coffee & Brunch Spots"]},{"id":"coffeeBrunchRestaurants_64018e74309c","slug":"meltemi-6401","kind":"restaurant","name":"Meltemi","lat":36.545359250189506,"lng":26.352356416685993,"url":"https://maps.app.goo.gl/nFrvN47758pZXWzT8?g_st=ipc","address":"Astypalaia 859 00","categoryIds":["coffee-brunch","desserts"],"categories":["Coffee & Brunch Spots","Dessert Shops"],"legacySlugs":["meltemi-57c8"]},{"id":"coffeeBrunchRestaurants_fa8dbaffc7b9","slug":"pergalidi-fa8d","kind":"restaurant","name":"Pergalídi","lat":36.9063101851879,"lng":25.998609552916683,"url":"https://maps.app.goo.gl/JbLEpGNTnyAChWqY7?g_st=ipc","address":"Lagada 840 08","categoryIds":["coffee-brunch"],"categories":["Coffee & Brunch Spots"]},{"id":"coffeeBrunchRestaurants_23961ab696ae","slug":"seladi-cafe-bar-2396","kind":"restaurant","name":"Seladi cafe bar","lat":36.91575288586461,"lng":25.98223632900659,"url":"https://maps.app.goo.gl/K7ieijzQ2tNdrR3y5?g_st=ipc","address":"Epar.Od. Katapola-Thalarias, Lagada 840 08","categoryIds":["coffee-brunch"],"categories":["Coffee & Brunch Spots"]},{"id":"coffeeBrunchRestaurants_7ba1b6bfb809","slug":"embassa-cafe-bar-7ba1","kind":"restaurant","name":"embassa cafe bar","lat":36.901100293710016,"lng":25.976110975169213,"url":"https://maps.app.goo.gl/EQeLPXrV9KJNt6Ut5?g_st=ipc","address":"Aigiali, Ormos Egialis 840 08","categoryIds":["coffee-brunch"],"categories":["Coffee & Brunch Spots"]},{"id":"coffeeBrunchRestaurants_15f758934efb","slug":"jazzmin-15f7","kind":"restaurant","name":"Jazzmin","lat":36.83137874729602,"lng":25.898307325862916,"url":"https://maps.app.goo.gl/YcQVqpGJyQtWEuk59?g_st=ipc","address":"Χώρα 840 08","categoryIds":["coffee-brunch"],"categories":["Coffee & Brunch Spots"]},{"id":"coffeeBrunchRestaurants_e2f6b0012785","slug":"arleta-e2f6","kind":"restaurant","name":"Arleta","lat":36.82638304281154,"lng":25.864058083086626,"url":"https://maps.app.goo.gl/W2NJQiPuDrDGXEQw5?g_st=ipc","address":"Κατάπολα 840 08","categoryIds":["coffee-brunch"],"categories":["Coffee & Brunch Spots"]}],"nearby":[{"id":"fishTavernasRestaurants_d1da2c677cc7","slug":"mavromatis-d1da","kind":"restaurant","name":"Mavromatis","lat":36.88606447717142,"lng":27.309477185520073,"url":"https://maps.app.goo.gl/msTJXXzwPB9WeT5y5?g_st=ipc","address":"Vasileos Georgiou V', Kos 853 00","categoryIds":["fish-tavernas"],"categories":["Fish Tavernas"],"distanceKm":3.9974789242252844},{"id":"greekRestaurants_6a7cb041b6a3","slug":"lofaki-bar-restaurant-6a7c","kind":"restaurant","name":"Lofaki Bar Restaurant","lat":36.86930721267751,"lng":27.301216496116595,"url":"https://maps.app.goo.gl/5rrtKqr7UWXvM3gQ7?g_st=ipc","address":"Agios Nektarios, Κως 853 00","categoryIds":["greek-restaurants"],"categories":["Greek Restaurants"],"distanceKm":4.495091845281958},{"id":"dessertsRestaurants_970ac0b21043","slug":"gelateria-nonno-enzo-970a","kind":"restaurant","name":"Gelateria Nonno Enzo","lat":36.89292607123432,"lng":27.29412898356443,"url":"https://maps.app.goo.gl/h4veUyYdxhyumq1b7?g_st=ipc","address":"Vasileos Georgiou V' 7, Kos 853 00","categoryIds":["desserts"],"categories":["Dessert Shops"],"distanceKm":5.54899017001658},{"id":"greekRestaurants_657796817a74","slug":"mom-s-kitchen-6577","kind":"restaurant","name":"MOM'S KITCHEN","lat":36.89405035289658,"lng":27.290210141099532,"url":"https://maps.app.goo.gl/ytaQukqzhdm73UXj7?g_st=ipc","address":"Ναυκλήρου 13, Κως 853 00","categoryIds":["greek-restaurants"],"categories":["Greek Restaurants"],"distanceKm":5.9186253443706045},{"id":"municipalities_23af7cf13cb7","slug":"kos-23af","kind":"municipality","name":"Κως","lat":36.892,"lng":27.287,"aliases":["Kos","Κώς","Κω","Κος"],"region":"Δωδεκάνησα","name_en":"Kos","region_en":"Dodecanese","distanceKm":6.101304893945606},{"id":"dessertsRestaurants_89c58fd42061","slug":"hans-gretel-kos-89c5","kind":"restaurant","name":"Hans & Gretel | Kos","lat":36.89661462547778,"lng":27.285723193546904,"url":"https://maps.app.goo.gl/rQDc5X2QHbgntYvk8?g_st=ipc","address":"Kanari 4, Kos 853 00","categoryIds":["desserts"],"categories":["Dessert Shops"],"distanceKm":6.398049927594453},{"id":"fishTavernasRestaurants_86ac9cfdbba1","slug":"barbouni-86ac","kind":"restaurant","name":"Barbouni","lat":36.89866949363194,"lng":27.286449875003193,"url":"https://maps.app.goo.gl/h4RrYHzL4aEiHani7?g_st=ipc","address":"26 G, Geor. Averof st, Kos 853 00","categoryIds":["fish-tavernas"],"categories":["Fish Tavernas"],"distanceKm":6.4357000876898525},{"id":"greekRestaurants_ac3620c081a5","slug":"paradosiako-mezedopoleio-patriko-patriko-ac36","kind":"restaurant","name":"Παραδοσιακό Μεζεδοπωλείο Πατρικό, Patriko","lat":36.89739810614618,"lng":27.284779736766605,"url":"https://maps.app.goo.gl/UDQufYxBg1Qoohua9?g_st=ipc","address":"Αλικαρνασσού 35, Κως 853 00","categoryIds":["greek-restaurants"],"categories":["Greek Restaurants"],"distanceKm":6.5101813248702305},{"id":"greekRestaurants_a93aa32752f0","slug":"lampros-steakhouse-a93a","kind":"restaurant","name":"Lampros Steakhouse","lat":36.896322136693854,"lng":27.283402198970883,"url":"https://maps.app.goo.gl/Sh3PpX1qM4Rdx2rU8?g_st=ipc","address":"Ψαρών, Κως 853 00","categoryIds":["greek-restaurants"],"categories":["Greek Restaurants"],"distanceKm":6.574614164571306},{"id":"fishTavernasRestaurants_e81adc52e910","slug":"agkyra-fish-restaurant-in-kos-town-e81a","kind":"restaurant","name":"Agkyra Fish Restaurant in Kos Town","lat":36.90011061296023,"lng":27.285534090346363,"url":"https://maps.app.goo.gl/KGXyYVAfE8JET5vr6?g_st=ipc","address":"Dimokritou, Kos 853 00","categoryIds":["fish-tavernas"],"categories":["Fish Tavernas"],"distanceKm":6.579955788739846},{"id":"italianRestaurants_3c7247930b69","slug":"pizzeria-mamarosa-3c72","kind":"restaurant","name":"Pizzeria MamaRosa","lat":36.89985042997736,"lng":27.283591451459408,"url":"https://maps.app.goo.gl/obmeLmF2dusw8e6LA?g_st=ipc","address":"Κανάρη 48, Κως 853 00","categoryIds":["italian"],"categories":["Italian Restaurants"],"distanceKm":6.721714950350388},{"id":"italianRestaurants_0e8f8291b62e","slug":"pizzeria-mamarosa-0e8f","kind":"restaurant","name":"Pizzeria MamaRosa","lat":36.899851240204136,"lng":27.283589360751858,"url":"https://maps.app.goo.gl/74rh4sPu3LvCHuk77?g_st=ipc","address":"Kanari 48, Kos 853 00","categoryIds":["italian"],"categories":["Italian Restaurants"],"distanceKm":6.721921537336636},{"id":"coffeeBrunchRestaurants_d1e128561b78","slug":"mylos-beach-bar-kos-d1e1","kind":"restaurant","name":"Mylos Beach Bar Kos","lat":36.910338645379476,"lng":27.282292405147036,"url":"https://maps.app.goo.gl/6uVUCsAW9roKZ7jd6?g_st=ipc","address":"Akti Zouroudi, Kos 853 00","categoryIds":["coffee-brunch"],"categories":["Coffee & Brunch Spots"],"distanceKm":7.404534577510185},{"id":"municipalities_3aeefc631d3e","slug":"peykakia-3aee","kind":"municipality","name":"Πευκάκια","lat":36.858,"lng":27.265,"region":"Κως","name_en":"Pefkakia","region_en":"Kos","distanceKm":7.881325242320509},{"id":"mustSeeAttractions_ef451c3fb153","slug":"asclepieion-at-kos-ef45","kind":"restaurant","name":"Asclepieion at Kos","lat":36.87634063821304,"lng":27.25929156442587,"url":"https://maps.app.goo.gl/KY1PY5mwkiEPn6JS6?g_st=ipc","address":"Kos 853 00","categoryIds":["attractions"],"categories":["Must-See Attractions"],"distanceKm":8.208850248984955},{"id":"dessertsRestaurants_bbd3b3b571f4","slug":"special-zipari-bbd3","kind":"restaurant","name":"Special Zipari","lat":36.87693633011065,"lng":27.208733925340766,"url":"https://maps.app.goo.gl/y1ujiW8koq2bhg1NA?g_st=ipc","address":"Zipari 853 00","categoryIds":["desserts"],"categories":["Dessert Shops"],"distanceKm":12.70539852663751},{"id":"municipalities_7277cdde3ccf","slug":"zia-7277","kind":"municipality","name":"Ζιά","lat":36.8285,"lng":27.2144,"region":"Κως","name_en":"Zia","region_en":"Kos","distanceKm":13.177498621784201},{"id":"coffeeBrunchRestaurants_224b4f18bc1d","slug":"metoxi-cafe-224b","kind":"restaurant","name":"Metoxi Cafe","lat":36.84261561910303,"lng":27.207757730254055,"url":"https://maps.app.goo.gl/xLPQPWyVrDszRuA8A?g_st=ipc","address":"Κως ζια, Lagoudi Zia 853 00","categoryIds":["coffee-brunch"],"categories":["Coffee & Brunch Spots"],"distanceKm":13.236507267690257},{"id":"greekRestaurants_8485c6e3a6b4","slug":"olympia-zia-8485","kind":"restaurant","name":"Olympia Zia","lat":36.846359220438664,"lng":27.20601879367517,"url":"https://maps.app.goo.gl/R49wPJn6AyfTkV788?g_st=ipc","address":"Λαγουδι Ζία 853 00","categoryIds":["greek-restaurants"],"categories":["Greek Restaurants"],"distanceKm":13.285677276168641},{"id":"greekRestaurants_7709915bb0d1","slug":"oromedon-7709","kind":"restaurant","name":"Ωρομέδων","lat":36.84611734603098,"lng":27.20392445508704,"url":"https://maps.app.goo.gl/mZnsac8ZMBoCsgqg6?g_st=ipc","address":"Επαρ.Οδ. Ζιπάριου-Ασφενδιού, Λαγουδι Ζία 853 00","categoryIds":["greek-restaurants"],"categories":["Greek Restaurants"],"distanceKm":13.473298895675246},{"id":"greekRestaurants_b918155cc589","slug":"taverna-zia-b918","kind":"restaurant","name":"Ταβέρνα Ζιά","lat":36.84395435587276,"lng":27.204103754260537,"url":"https://maps.app.goo.gl/s7wipUzwGwhGaAfw7?g_st=ipc","address":"Λαγουδι Ζία 853 00","categoryIds":["greek-restaurants"],"categories":["Greek Restaurants"],"distanceKm":13.514017760055728},{"id":"fishTavernasRestaurants_1d3fc9d83bcf","slug":"anemos-restaurant-1d3f","kind":"restaurant","name":"Anemos Restaurant","lat":36.78756037978204,"lng":27.14925448197459,"url":"https://maps.app.goo.gl/ETfcRkUohCySZ7987?g_st=ipc","address":"Kardamaina 853 02","categoryIds":["fish-tavernas"],"categories":["Fish Tavernas"],"distanceKm":20.36997293023151},{"id":"greekRestaurants_6c6e03362962","slug":"ayli-6c6e","kind":"restaurant","name":"Αυλή","lat":36.7827762709017,"lng":27.143380768775845,"url":"https://maps.app.goo.gl/moQsTZ9NgNoeFoC59?g_st=ipc","address":"Central square, Καρδάμαινα 853 02","categoryIds":["greek-restaurants"],"categories":["Greek Restaurants"],"distanceKm":21.082665639160492},{"id":"municipalities_c60cde881d21","slug":"nisyros-c60c","kind":"municipality","name":"Νίσυρος","lat":36.6,"lng":27.1667,"aliases":["Νισυρος"],"region":"Δωδεκάνησα","name_en":"Nisyros","region_en":"Dodecanese","distanceKm":34.56614915241855}],"sameRegion":[],"mentionedGuides":[],"canonicalSlug":"ammos-beach-cocktail-bar-kos-6c5c","isCanonicalEntity":true,"enrichment":{"summary_en":"Ammos Beach Cocktail Bar Kos is a curated restaurant in Kos 853 00 in the Coffee & Brunch Spots collection. It is connected to 0 nearby Googlementor picks to help travelers build a stronger local route.","summary_el":"Ammos Beach Cocktail Bar Kos είναι ένα επιλεγμένο σημείο φαγητού στην περιοχή Kos 853 00 και ανήκει στη συλλογή Coffee & Brunch Spots. Συνδέεται με 0 κοντινές προτάσεις του Googlementor για πιο ολοκληρωμένη εμπειρία.","vibe_tags":["curated","daytime-favorite"],"best_for":["first-time visitors","food lovers"],"visit_moments":["early morning","late brunch"],"practical_note":"Address and direct map link are available for easy turn-by-turn access.","nearby_walkable_count":0,"nearby_count_2km":0,"confidence":0.9}},"__N_SSG":true}