{"pageProps":{"entity":{"id":"mustSeeAttractions_1762cb7f3f45","slug":"archaio-theatro-asklipieioy-epidayroy-1762","kind":"restaurant","name":"Αρχαίο Θέατρο Ασκληπιείου Επιδαύρου","lat":37.59612250456949,"lng":23.079285116251615,"url":"https://maps.app.goo.gl/4dZguixUu49kmP199?g_st=ipc","address":"Επίδαυρος 210 52","categoryIds":["attractions"],"categories":["Must-See Attractions"]},"sameCategory":[{"id":"mustSeeAttractions_def8cbb6aa41","slug":"archaiologikos-choros-asklipieioy-epidayroy-def8","kind":"restaurant","name":"Αρχαιολογικός Χώρος Ασκληπιείου Επιδαύρου","lat":37.596069935653894,"lng":23.077204053695286,"url":"https://maps.app.goo.gl/b4Z6adjUcQFQhcNL7?g_st=ipc","address":"Επίδαυρος 210 52","categoryIds":["attractions"],"categories":["Must-See Attractions"]},{"id":"mustSeeAttractions_81109b384881","slug":"archaia-epidayros-vythismeni-politeia-sunken-city-8110","kind":"restaurant","name":"Αρχαία Επίδαυρος,  Βυθισμένη πολιτεία sunken city","lat":37.62558699316192,"lng":23.15824375963821,"url":"https://maps.app.goo.gl/4DoJ6SnBtgDpmScf7?g_st=ipc","address":"Παραλία Γκλιατη 1, Αρχαία Επίδαυρος 210 59","categoryIds":["attractions"],"categories":["Must-See Attractions"]},{"id":"mustSeeAttractions_17b8ded02742","slug":"froyrio-palamidioy-17b8","kind":"restaurant","name":"Φρούριο Παλαμηδίου","lat":37.562018953170636,"lng":22.803816386211206,"url":"https://maps.app.goo.gl/JVvCKFqv1vyzhKAP7?g_st=ipc","address":"Παλαμηδίου, Ναύπλιο 211 00","categoryIds":["attractions"],"categories":["Must-See Attractions"]},{"id":"mustSeeAttractions_280c2fbdfcc2","slug":"tiryntha-280c","kind":"restaurant","name":"Τίρυνθα","lat":37.596581091934894,"lng":22.800009234306064,"url":"https://maps.app.goo.gl/qq546eKqcWFHVGyWA?g_st=ipc","address":"Tirintha 211 00","categoryIds":["attractions"],"categories":["Must-See Attractions"]},{"id":"mustSeeAttractions_c7dd65dae274","slug":"kastro-akronayplias-c7dd","kind":"restaurant","name":"Κάστρο Ακροναυπλίας","lat":37.56407670573787,"lng":22.793195253729316,"url":"https://maps.app.goo.gl/DkbZi8R48n8E7Qu76?g_st=ipc","address":"Άγγελου Τερζάκη 25, Ναύπλιο 211 00","categoryIds":["attractions"],"categories":["Must-See Attractions"]},{"id":"mustSeeAttractions_fdd5af362f6e","slug":"archaiologikoy-choroy-mykinon-fdd5","kind":"restaurant","name":"Αρχαιολογικού Χώρου Μυκηνών","lat":37.73086788150969,"lng":22.75613319936325,"url":"https://maps.app.goo.gl/BqhWK8uyZVNjhnRG8?g_st=ipc","address":"Μυκήνες 212 00","categoryIds":["attractions"],"categories":["Must-See Attractions"]},{"id":"mustSeeAttractions_6da28e1f03a6","slug":"mykines-6da2","kind":"restaurant","name":"Μυκήνες","lat":37.719549554552074,"lng":22.745771038100788,"url":"https://maps.app.goo.gl/wvmKvmFpppdNJFd78?g_st=ipc","address":"Μυκήνες 212 00","categoryIds":["attractions"],"categories":["Must-See Attractions"]},{"id":"mustSeeAttractions_548e87d4f0b8","slug":"dioryga-tis-korinthoy-548e","kind":"restaurant","name":"Διώρυγα της Κορίνθου","lat":37.934260646159885,"lng":22.98428860726812,"url":"https://maps.app.goo.gl/cmoYHbzQvg5Nv9KN7?g_st=ipc","address":"Λουτράκι 203 00","categoryIds":["attractions"],"categories":["Must-See Attractions"]},{"id":"mustSeeAttractions_6f7525d9828a","slug":"naos-toy-apollona-6f75","kind":"restaurant","name":"Ναός του Απόλλωνα","lat":37.905934819191934,"lng":22.879090197503242,"url":"https://maps.app.goo.gl/8vWipRURHj9oGwSj8?g_st=ipc","address":"Άργους 105, Αρχαία Κόρινθος 200 07","categoryIds":["attractions"],"categories":["Must-See Attractions"]},{"id":"mustSeeAttractions_10ed76689ca7","slug":"archaia-korinthos-10ed","kind":"restaurant","name":"Αρχαία Κόρινθος","lat":37.90716292407013,"lng":22.881429703730713,"url":"https://maps.app.goo.gl/Wa4GWgjzXVLMVAyZ7?g_st=ipc","address":"Αρχαία Κόρινθος 200 07","categoryIds":["attractions"],"categories":["Must-See Attractions"]},{"id":"mustSeeAttractions_bf66b7fd059d","slug":"archaiologikos-choros-nemeas-bf66","kind":"restaurant","name":"Αρχαιολογικός Χώρος Νεμέας","lat":37.808169165276894,"lng":22.71117627010056,"url":"https://maps.app.goo.gl/PrH4BXCt62jqPBys9?g_st=ipc","address":"Koutsomidi, Nemea 205 00","categoryIds":["attractions"],"categories":["Must-See Attractions"]},{"id":"mustSeeAttractions_dff5abd15b84","slug":"naos-tis-afaias-dff5","kind":"restaurant","name":"Ναός της Αφαίας","lat":37.75437516471331,"lng":23.533121298393443,"url":"https://maps.app.goo.gl/TEdzv6vPybFxQzP18?g_st=ipc","address":"Αίγινα 180 10","categoryIds":["attractions"],"categories":["Must-See Attractions"]}],"nearby":[{"id":"mustSeeAttractions_def8cbb6aa41","slug":"archaiologikos-choros-asklipieioy-epidayroy-def8","kind":"restaurant","name":"Αρχαιολογικός Χώρος Ασκληπιείου Επιδαύρου","lat":37.596069935653894,"lng":23.077204053695286,"url":"https://maps.app.goo.gl/b4Z6adjUcQFQhcNL7?g_st=ipc","address":"Επίδαυρος 210 52","categoryIds":["attractions"],"categories":["Must-See Attractions"],"distanceKm":0.18344144972521423},{"id":"mustSeeAttractions_81109b384881","slug":"archaia-epidayros-vythismeni-politeia-sunken-city-8110","kind":"restaurant","name":"Αρχαία Επίδαυρος,  Βυθισμένη πολιτεία sunken city","lat":37.62558699316192,"lng":23.15824375963821,"url":"https://maps.app.goo.gl/4DoJ6SnBtgDpmScf7?g_st=ipc","address":"Παραλία Γκλιατη 1, Αρχαία Επίδαυρος 210 59","categoryIds":["attractions"],"categories":["Must-See Attractions"],"distanceKm":7.688171477074756},{"id":"greekRestaurants_194196a775f8","slug":"taverna-mpatzavalis-1941","kind":"restaurant","name":"Ταβέρνα Μπατζάβαλης","lat":37.538801302509206,"lng":23.20804103233561,"url":"https://maps.app.goo.gl/PctHkeeHVJEeQDux6?g_st=ipc","address":"Καρατζάς 180 20","categoryIds":["greek-restaurants"],"categories":["Greek Restaurants"],"distanceKm":13.015631405050813},{"id":"monasteriesChurches_853ade4b065f","slug":"iera-moni-koimiseos-tis-theotokoy-agnoyntos-853a","kind":"restaurant","name":"Ιερά Μονή Κοιμήσεως της Θεοτόκου Αγνούντος","lat":37.71054987478057,"lng":23.131785879590392,"url":"https://maps.app.goo.gl/hdbTG2TdzToXT6nz8?g_st=ipc","address":"Επίδαυρος 210 54","categoryIds":["monasteries-churches"],"categories":["Monasteries & Spiritual Sites"],"distanceKm":13.537200999142994},{"id":"greekRestaurants_730d57299d9e","slug":"t-alonia-paradosiaki-elliniki-taverna-730d","kind":"restaurant","name":"«Τ' ΑΛΩΝΙΑ» Παραδοσιακή Ελληνική Ταβέρνα","lat":37.5821792332292,"lng":22.878688681857938,"url":"https://maps.app.goo.gl/NA8tRJoQnezLcqzT6?g_st=ipc","address":"Γεωρ. Γεννηματά 8, Πυργιώτικα 211 00","categoryIds":["greek-restaurants"],"categories":["Greek Restaurants"],"distanceKm":17.742706455621587},{"id":"greekRestaurants_3deccfb243c6","slug":"maria-s-restaurant-3dec","kind":"restaurant","name":"Maria's Restaurant","lat":37.52164513322119,"lng":22.86050581823376,"url":"https://maps.app.goo.gl/QbgkBU617RxRPjsA9?g_st=ipc","address":"Μπουμπουλίνας 48, Τολό 210 56","categoryIds":["greek-restaurants"],"categories":["Greek Restaurants"],"distanceKm":20.987765648004423},{"id":"greekRestaurants_456e04c6f039","slug":"taverna-akrogiali-456e","kind":"restaurant","name":"Ταβέρνα Ακρογιάλι","lat":37.52046536124531,"lng":22.859758080550037,"url":"https://maps.app.goo.gl/ozgqdAjUGP2zDfVP7?g_st=ipc","address":"Ακτης 10, Τολό 210 56","categoryIds":["greek-restaurants"],"categories":["Greek Restaurants"],"distanceKm":21.100444438275083},{"id":"municipalities_7a743f4f2d77","slug":"tolo-7a74","kind":"municipality","name":"Τολό","lat":37.5211,"lng":22.8583,"region":"Αργολίδα","name_en":"Tolo","region_en":"Argolis","distanceKm":21.19041960861991},{"id":"greekRestaurants_2ba865e52e42","slug":"romvi-restaurant-2ba8","kind":"restaurant","name":"Romvi Restaurant","lat":37.51773326708392,"lng":22.85851725425822,"url":"https://maps.app.goo.gl/e71iANV4U9yZU48u9?g_st=ipc","address":"Τολό 210 56","categoryIds":["greek-restaurants"],"categories":["Greek Restaurants"],"distanceKm":21.32349398894003},{"id":"fishTavernasRestaurants_772314841aeb","slug":"tripia-sayionara-tavern-7723","kind":"restaurant","name":"Tripia Sayionara Tavern","lat":37.51747745166334,"lng":22.85839744503769,"url":"https://maps.app.goo.gl/EEU9XawrL4yhTEhm7?g_st=ipc","address":"εισοδος απο παραλια, Elevtheriou Veniavelou 4, Tolo 210 56","categoryIds":["fish-tavernas"],"categories":["Fish Tavernas"],"distanceKm":21.344801606702653},{"id":"greekRestaurants_22138bcb321f","slug":"taverna-kokoromytis-2213","kind":"restaurant","name":"Ταβέρνα Κοκορομύτης","lat":37.57233337813603,"lng":22.83006926532932,"url":"https://maps.app.goo.gl/BSHNHo6Xw2QuP8Kw5?g_st=ipc","address":"Μουσών, Άρια 211 00","categoryIds":["greek-restaurants"],"categories":["Greek Restaurants"],"distanceKm":22.118954041808855},{"id":"coffeeBrunchRestaurants_1d9f7f941901","slug":"liberty-view-of-nafplio-1d9f","kind":"restaurant","name":"Liberty View Of Nafplio","lat":37.56620305969031,"lng":22.806201213990434,"url":"https://maps.app.goo.gl/ZB4UYRxyx55zXBkS9?g_st=ipc","address":"Sidiras Merarchias 39, Nafplio 211 00","categoryIds":["coffee-brunch"],"categories":["Coffee & Brunch Spots"],"distanceKm":24.293269216699976},{"id":"rooftopLoungesRestaurants_3af9241259c9","slug":"liberty-view-of-nafplio-3af9","kind":"restaurant","name":"Liberty View Of Nafplio","lat":37.56620313105519,"lng":22.806200235013893,"url":"https://maps.app.goo.gl/rQCJ25nGMgqPtznc9?g_st=ipc","address":"Σιδηράς Μεραρχίας 39, Ναύπλιο 211 00","categoryIds":["rooftop-lounges"],"categories":["Rooftop Lounges"],"distanceKm":24.293353573958903},{"id":"greekRestaurants_0e937f9c9d72","slug":"pidalio-restaurant-0e93","kind":"restaurant","name":"Πηδάλιο -Restaurant","lat":37.56488349870354,"lng":22.8061371647206,"url":"https://maps.app.goo.gl/gpipbAd1f2YeqATv9?g_st=ipc","address":"25ης Μαρτίου 5, Ναύπλιο 211 00","categoryIds":["greek-restaurants"],"categories":["Greek Restaurants"],"distanceKm":24.31959492249925},{"id":"mustSeeAttractions_17b8ded02742","slug":"froyrio-palamidioy-17b8","kind":"restaurant","name":"Φρούριο Παλαμηδίου","lat":37.562018953170636,"lng":22.803816386211206,"url":"https://maps.app.goo.gl/JVvCKFqv1vyzhKAP7?g_st=ipc","address":"Παλαμηδίου, Ναύπλιο 211 00","categoryIds":["attractions"],"categories":["Must-See Attractions"],"distanceKm":24.569630441612528},{"id":"coffeeBrunchRestaurants_4eafd9c8fe54","slug":"ar-ko-4eaf","kind":"restaurant","name":"Ar&Ko","lat":37.565832099209665,"lng":22.80288803557191,"url":"https://maps.app.goo.gl/VsqimzGRSLvrL3FN7?g_st=ipc","address":"Πάρκο Κολοκοτρώνη, Vasileos Pavlou, Nafplio 211 00","categoryIds":["coffee-brunch"],"categories":["Coffee & Brunch Spots"],"distanceKm":24.588187408614232},{"id":"mustSeeAttractions_280c2fbdfcc2","slug":"tiryntha-280c","kind":"restaurant","name":"Τίρυνθα","lat":37.596581091934894,"lng":22.800009234306064,"url":"https://maps.app.goo.gl/qq546eKqcWFHVGyWA?g_st=ipc","address":"Tirintha 211 00","categoryIds":["attractions"],"categories":["Must-See Attractions"],"distanceKm":24.605061247123082},{"id":"cheapEatsRestaurants_af2ed2b481d6","slug":"trendy-grill-limani-nayplioy-af2e","kind":"restaurant","name":"Trendy Grill Λιμάνι Ναυπλίου","lat":37.56727361524451,"lng":22.801083825814366,"url":"https://maps.app.goo.gl/9EusCQot9r26ZXTs5?g_st=ipc","address":"Μπουμπουλίνας 41, Ναύπλιο 211 00","categoryIds":["cheap-eats"],"categories":["Gyros & Cheap Eats"],"distanceKm":24.72414478402197},{"id":"cheapEatsRestaurants_2ea89cfd165d","slug":"stavropoulos-meat-grill-nafplio-2ea8","kind":"restaurant","name":"Stavropoulos Meat & Grill Nafplio","lat":37.56729472413989,"lng":22.801012947686594,"url":"https://maps.app.goo.gl/iaJ7WLVkfAWX8uMY7?g_st=ipc","address":"Μπουμπουλίνας 43, Ναύπλιο 211 00","categoryIds":["cheap-eats"],"categories":["Gyros & Cheap Eats"],"distanceKm":24.73002999585582},{"id":"municipalities_6a56a10792f1","slug":"nayplio-6a56","kind":"municipality","name":"Ναύπλιο","lat":37.567,"lng":22.801,"aliases":["Nafplio","Nauplia","Ναυπλία","Ναυπλίων","Ναυπλιο","Ναυπλια"],"region":"Αργολίδα","name_en":"Nafplio","region_en":"Argolis","distanceKm":24.7354784599249},{"id":"italianRestaurants_74b63c612882","slug":"il-porto-74b6","kind":"restaurant","name":"Il Porto","lat":37.56732416244355,"lng":22.800888651268885,"url":"https://maps.app.goo.gl/vWaWFumGBn6ey64P6?g_st=ipc","address":"Μπουμπουλίνας 43, Ναύπλιο 211 00","categoryIds":["italian"],"categories":["Italian Restaurants"],"distanceKm":24.74046194741761},{"id":"greekRestaurants_7230005d3481","slug":"skarpeta-skarpeta-7230","kind":"restaurant","name":"Σκαρπέτα | Skarpeta","lat":37.56454091062987,"lng":22.80102416836778,"url":"https://maps.app.goo.gl/y1tbJ7Ka9yN8RJXn7?g_st=ipc","address":"Πάρκο, Σταϊκοπούλου, Ναύπλιο 211 00","categoryIds":["greek-restaurants"],"categories":["Greek Restaurants"],"distanceKm":24.771051744115884},{"id":"municipalities_f635a4bd67b3","slug":"agkistri-f635","kind":"municipality","name":"Αγκίστρι","lat":37.7124,"lng":23.3447,"region":"Νησιά Αργοσαρωνικού","name_en":"Agistri","region_en":"Saronic Islands","distanceKm":26.704346242887127},{"id":"municipalities_50a65bde2637","slug":"ermioni-50a6","kind":"municipality","name":"Ερμιόνη","lat":37.3881,"lng":23.2431,"aliases":["Ερμιονη","Hermione"],"region":"Αργολίδα","name_en":"Ermioni","region_en":"Argolis","distanceKm":27.275025094693987}],"sameRegion":[],"mentionedGuides":[],"canonicalSlug":"archaio-theatro-asklipieioy-epidayroy-1762","isCanonicalEntity":true,"enrichment":{"summary_en":"Αρχαίο Θέατρο Ασκληπιείου Επιδαύρου is a curated restaurant in Greece in the Must-See Attractions collection. It is connected to 1 nearby Googlementor picks to help travelers build a stronger local route.","summary_el":"Αρχαίο Θέατρο Ασκληπιείου Επιδαύρου είναι ένα επιλεγμένο σημείο φαγητού στην περιοχή Greece και ανήκει στη συλλογή Must-See Attractions. Συνδέεται με 1 κοντινές προτάσεις του Googlementor για πιο ολοκληρωμένη εμπειρία.","vibe_tags":["curated"],"best_for":["first-time visitors","food lovers"],"visit_moments":["lunch stop","dinner stop"],"practical_note":"Address and direct map link are available for easy turn-by-turn access.","nearby_walkable_count":1,"nearby_count_2km":1,"confidence":0.9}},"__N_SSG":true}