{"pageProps":{"entity":{"id":"coffeeBrunchRestaurants_80f636c96420","slug":"azimouthio-80f6","kind":"restaurant","name":"Azimouthio","lat":37.968862186258185,"lng":23.621767789991836,"url":"https://maps.app.goo.gl/5pGu2NryRiA9Qcms5?g_st=ipc","address":"Ταϋγέτου 4, Κερατσίνι 187 57","categoryIds":["coffee-brunch"],"categories":["Coffee & Brunch Spots"]},"sameCategory":[{"id":"coffeeBrunchRestaurants_267612a1ea40","slug":"tolis-sweet-s-n-eats-2676","kind":"restaurant","name":"Τόλης sweet's n' eats","lat":37.97589864090017,"lng":23.642161221415883,"url":"https://maps.app.goo.gl/Q5js7BApZATn8jx1A?g_st=ipc","address":"Πλ. Δημοκρατίας, Νίκαια 184 51","categoryIds":["coffee-brunch"],"categories":["Coffee & Brunch Spots"]},{"id":"coffeeBrunchRestaurants_fe42c1fe0d07","slug":"la-belle-epoque-fe42","kind":"restaurant","name":"La Belle Époque","lat":37.94126457803724,"lng":23.646089165937596,"url":"https://maps.app.goo.gl/BAXbDkZ2it9TjYv19?g_st=ipc","address":"Αριστοτέλους 10, Πειραιάς 185 35","categoryIds":["coffee-brunch"],"categories":["Coffee & Brunch Spots"]},{"id":"coffeeBrunchRestaurants_dede4a68abbb","slug":"temps-perdu-dede","kind":"restaurant","name":"Temps Perdu","lat":37.94112588112371,"lng":23.646526456108827,"url":"https://maps.app.goo.gl/ABEv497Uv63A5df28?g_st=ipc","address":"Καραΐσκου 114, Πειραιάς 185 35","categoryIds":["coffee-brunch"],"categories":["Coffee & Brunch Spots"]},{"id":"coffeeBrunchRestaurants_4ee8e575619a","slug":"modish-coffee-graze-and-booze-4ee8","kind":"restaurant","name":"modish coffee, graze and booze","lat":37.936912830564985,"lng":23.639147286687205,"url":"https://maps.app.goo.gl/Fa2QfE64sQhorAFE9?g_st=ipc","address":"Ακτή Μιαούλη 81, Πειραιάς 185 38","categoryIds":["coffee-brunch"],"categories":["Coffee & Brunch Spots"]},{"id":"coffeeBrunchRestaurants_6619baa2337c","slug":"istioploikos-6619","kind":"restaurant","name":"Ιστιοπλοϊκός","lat":37.93594003787034,"lng":23.659959429233506,"url":"https://maps.app.goo.gl/SwZBGSrcnHzSh6sz8?g_st=ipc","address":"T.K, Ακτή Μικρολίμανου, Πειραιάς 185 33","categoryIds":["coffee-brunch"],"categories":["Coffee & Brunch Spots"]},{"id":"coffeeBrunchRestaurants_7dd888878942","slug":"botanical-garden-bistrot-7dd8","kind":"restaurant","name":"Botanical Garden Bistrot","lat":38.01082910356087,"lng":23.64241923148242,"url":"https://maps.app.goo.gl/K8biwYq9RLoEXdZZA?g_st=ipc","address":"Βοτανικός Κήπος, Ιερά Οδός 403, Χαϊδάρι 124 61","categoryIds":["coffee-brunch"],"categories":["Coffee & Brunch Spots"]},{"id":"coffeeBrunchRestaurants_639c2aabee9d","slug":"qahwa-chaidari-639c","kind":"restaurant","name":"Qahwa Chaidari","lat":38.00126380773835,"lng":23.663252642859884,"url":"https://maps.app.goo.gl/vAwUeBwjnVB6oM6A7?g_st=ipc","address":"Στρ. Καραϊσκάκη 12, Χαϊδάρι 124 61","categoryIds":["coffee-brunch"],"categories":["Coffee & Brunch Spots"]},{"id":"coffeeBrunchRestaurants_21280d2fc2ee","slug":"telescope-cafe-bar-restaurant-2128","kind":"restaurant","name":"Telescope Cafe Bar Restaurant","lat":38.00692418431941,"lng":23.65623593846488,"url":"https://maps.app.goo.gl/qq7xzW7bEsPcyJT1A?g_st=ipc","address":"Φιλικής Εταιρείας, Χαϊδάρι 124 61","categoryIds":["coffee-brunch","rooftop-lounges"],"categories":["Coffee & Brunch Spots","Rooftop Lounges"],"legacySlugs":["telescope-cafe-bar-restaurant-0981"]},{"id":"coffeeBrunchRestaurants_44bd3c6a7140","slug":"theoria-tou-house-44bd","kind":"restaurant","name":"Theoria Tou House","lat":37.99483558716702,"lng":23.67242611231958,"url":"https://maps.app.goo.gl/xJYXm4QXBt9wx7wx5?g_st=ipc","address":"Πλ. Δαβάκη 1, Αιγάλεω 122 44","categoryIds":["coffee-brunch","desserts"],"categories":["Coffee & Brunch Spots","Dessert Shops"],"legacySlugs":["theoria-tou-house-74b7"]},{"id":"coffeeBrunchRestaurants_a7d2f7f99d61","slug":"flaked-croissanterie-moschato-a7d2","kind":"restaurant","name":"Flaked Croissanterie Moschato","lat":37.950290767501926,"lng":23.678176231264157,"url":"https://maps.app.goo.gl/dnEf78CD1KTT1Ewu8?g_st=ipc","address":"Ομήρου 67, Μοσχάτο 183 45","categoryIds":["coffee-brunch"],"categories":["Coffee & Brunch Spots"]},{"id":"coffeeBrunchRestaurants_0d51f4763466","slug":"kafeteria-qahwa-0d51","kind":"restaurant","name":"Καφετέρια \"Qahwa\"","lat":37.99158829780308,"lng":23.678085829142972,"url":"https://maps.app.goo.gl/TbdwQmd1xnGniKgk8?g_st=ipc","address":"Μαρκ. Μπότσαρη 1, Αιγάλεω 122 41","categoryIds":["coffee-brunch"],"categories":["Coffee & Brunch Spots"]},{"id":"coffeeBrunchRestaurants_d00352ea6d8c","slug":"du-pain-boulangerie-patisserie-cafe-chaidari-d003","kind":"restaurant","name":"Du Pain - Boulangerie | Patisserie | Cafe - Χαϊδάρι","lat":38.01212694777047,"lng":23.65373933583571,"url":"https://maps.app.goo.gl/F7BPdSmhWeNtbKZVA?g_st=ipc","address":"Λεωφ. Αθηνών 308, Χαϊδάρι 124 62","categoryIds":["coffee-brunch","desserts"],"categories":["Coffee & Brunch Spots","Dessert Shops"],"legacySlugs":["du-pain-boulangerie-patisserie-cafe-chaidari-9c33"]}],"nearby":[{"id":"fishTavernasRestaurants_8d6cb659e1a2","slug":"psarokokkalo-tis-annas-8d6c","kind":"restaurant","name":"ΨΑΡΟΚΟΚΚΑΛΟ ΤΗΣ ΑΝΝΑΣ","lat":37.969120176200505,"lng":23.623070103225206,"url":"https://maps.app.goo.gl/Fqinu6WnUcLK6Pe87?g_st=ipc","address":"Τσακάλωφ, Βίκτωρος Ουγκώ και, Κερατσίνι 187 57","categoryIds":["fish-tavernas"],"categories":["Fish Tavernas"],"distanceKm":0.1177097622279329},{"id":"municipalities_14b2964f3eeb","slug":"keratsini-14b2","kind":"municipality","name":"Κερατσίνι","lat":37.9639,"lng":23.6194,"aliases":["Κερατσινι"],"region":"Πειραιάς","name_en":"Keratsini","region_en":"Piraeus","distanceKm":0.5895204097096022},{"id":"fishTavernasRestaurants_0d1e86dc9c98","slug":"psarotaverna-o-vasilis-0d1e","kind":"restaurant","name":"ΨΑΡΟΤΑΒΕΡΝΑ \"Ο ΒΑΣΙΛΗΣ\"","lat":37.963242750995164,"lng":23.620073628540776,"url":"https://maps.app.goo.gl/aW7neYrejPJDa4ZB6?g_st=ipc","address":"Κουντουριώτου 12, Κερατσίνι 187 56","categoryIds":["fish-tavernas"],"categories":["Fish Tavernas"],"distanceKm":0.6422599524558835},{"id":"dessertsRestaurants_2ce344200b32","slug":"artozacharoplasteia-gavriilidis-2ce3","kind":"restaurant","name":"Αρτοζαχαροπλαστεία Γαβριηλίδης","lat":37.964134303993816,"lng":23.626317751280503,"url":"https://maps.app.goo.gl/JyTzpkU2ifwrGv839?g_st=ipc","address":"Λεωφ. Σαλαμίνος 71, Κερατσίνι 187 56","categoryIds":["desserts"],"categories":["Dessert Shops"],"distanceKm":0.6599008066691665},{"id":"cheapEatsRestaurants_45ca9e952a78","slug":"bella-vista-45ca","kind":"restaurant","name":"Bella Vista","lat":37.96390003095981,"lng":23.626189441266973,"url":"https://maps.app.goo.gl/C4Pcs9AmY91g2TWr8?g_st=ipc","address":"Κωνσταντινουπόλεως 65, Κερατσίνι 187 56","categoryIds":["cheap-eats"],"categories":["Gyros & Cheap Eats"],"distanceKm":0.6743082777488856},{"id":"burgersRestaurants_4906276397a1","slug":"godgilla-keratsini-4906","kind":"restaurant","name":"GODGILLA ΚΕΡΑΤΣΙΝΙ","lat":37.95895954039208,"lng":23.62512429010796,"url":"https://maps.app.goo.gl/XPM5TwgWvpZmGQUh6?g_st=ipc","address":"Θεόφραστου 54, Κερατσίνι 187 56","categoryIds":["burgers","cheap-eats"],"categories":["Burger Spots","Gyros & Cheap Eats"],"legacySlugs":["godgilla-keratsini-e67b"],"distanceKm":1.139762009969001},{"id":"dessertsRestaurants_1148b5deca52","slug":"galaktopoleio-stamoy-1148","kind":"restaurant","name":"Γαλακτοπωλείο ΣΤΑΜΟΥ","lat":37.9652037202668,"lng":23.635596413779496,"url":"https://maps.app.goo.gl/rrTmftHWRasbJb7aA?g_st=ipc","address":"Πέτρου Ράλλη 438, Νίκαια 184 51","categoryIds":["desserts"],"categories":["Dessert Shops"],"distanceKm":1.2786836475999068},{"id":"fishTavernasRestaurants_3d632b6f2123","slug":"oinomageireio-o-vasilis-3d63","kind":"restaurant","name":"ΟΙΝΟΜΑΓΕΙΡΕΙΟ Ο ΒΑΣΙΛΗΣ","lat":37.95641057665237,"lng":23.61228914458667,"url":"https://maps.app.goo.gl/a3BE4Jby4PK3CikYA?g_st=ipc","address":"Ιχθυόσκαλα, Κερατσίνι 187 55","categoryIds":["fish-tavernas"],"categories":["Fish Tavernas"],"distanceKm":1.61477654769284},{"id":"cheapEatsRestaurants_a7b0441198ed","slug":"kempaptzidikon-aivali-nikaia-a7b0","kind":"restaurant","name":"Κεμπαπτζίδικον Αϊβαλί Νίκαια","lat":37.97771284812105,"lng":23.63690051700111,"url":"https://maps.app.goo.gl/v85fF9CDnUXK4e4e6?g_st=ipc","address":"Ελλησπόντου 43, Νίκαια 184 51","categoryIds":["cheap-eats"],"categories":["Gyros & Cheap Eats"],"distanceKm":1.6516751432560712},{"id":"dessertsRestaurants_bd4141abfc88","slug":"paylakis-zacharoplasteio-bd41","kind":"restaurant","name":"Παυλάκης Ζαχαροπλαστείο","lat":37.95571450585217,"lng":23.63113250439145,"url":"https://maps.app.goo.gl/uG9ew76UW6orfg278?g_st=ipc","address":"Σπάρτης 129, Πειραιάς 185 46","categoryIds":["desserts"],"categories":["Dessert Shops"],"distanceKm":1.6767017089130645},{"id":"fishTavernasRestaurants_ce3d409f9fbd","slug":"e-g-taxideyontas-ce3d","kind":"restaurant","name":"Ε/Γ Ταξιδεύοντας","lat":37.953699461411354,"lng":23.621203196911647,"url":"https://maps.app.goo.gl/sYJ5yzi7qXwu1PYh8?g_st=ipc","address":"Πλάτωνος 72, Κερατσίνι 187 55","categoryIds":["fish-tavernas"],"categories":["Fish Tavernas"],"distanceKm":1.686744480418524},{"id":"burgersRestaurants_108c8d4114f6","slug":"bbc-burger-barbeque-corner-108c","kind":"restaurant","name":"BBC Burger Barbeque Corner","lat":37.952390409927204,"lng":23.625437904614223,"url":"https://maps.app.goo.gl/G6x3d2ZUCEMQrN3k7?g_st=ipc","address":"Ἀναπαύσεως 90, Κερατσίνι 187 55","categoryIds":["burgers"],"categories":["Burger Spots"],"distanceKm":1.8596252916218907},{"id":"coffeeBrunchRestaurants_267612a1ea40","slug":"tolis-sweet-s-n-eats-2676","kind":"restaurant","name":"Τόλης sweet's n' eats","lat":37.97589864090017,"lng":23.642161221415883,"url":"https://maps.app.goo.gl/Q5js7BApZATn8jx1A?g_st=ipc","address":"Πλ. Δημοκρατίας, Νίκαια 184 51","categoryIds":["coffee-brunch"],"categories":["Coffee & Brunch Spots"],"distanceKm":1.9513328792546003},{"id":"cheapEatsRestaurants_3d78bb5a465c","slug":"makis-psitopoleio-soyvlatzidiko-3d78","kind":"restaurant","name":"\"Μάκης\" Ψητοπωλείο-Σουβλατζίδικο","lat":37.97402598918491,"lng":23.643093504500488,"url":"https://maps.app.goo.gl/43quDvAwPQhkbk6t5?g_st=ipc","address":"Π. Τσαλδάρη 262, Νίκαια 184 53","categoryIds":["cheap-eats"],"categories":["Gyros & Cheap Eats"],"distanceKm":1.9555428129860977},{"id":"greekRestaurants_e914468cc862","slug":"oinopantopoleio-to-eidikon-e914","kind":"restaurant","name":"Οινοπαντοπωλείο Tο Ειδικόν","lat":37.953880471733605,"lng":23.63384583394419,"url":"https://maps.app.goo.gl/PMXGHCEV52xT7G7w7","address":"Ψαρών 38, Πειραιάς 185 46","categoryIds":["greek-restaurants"],"categories":["Greek Restaurants"],"distanceKm":1.9739289895565315},{"id":"cheapEatsRestaurants_93e5a087f2a2","slug":"soyvlakia-o-mpilis-93e5","kind":"restaurant","name":"Σουβλάκια \"ο ΜΠΙΛΗΣ\"","lat":37.97112327966262,"lng":23.64443348855245,"url":"https://maps.app.goo.gl/pWZio4wYos7hfNkq6?g_st=ipc","address":"Προύσης 22, Νίκαια 184 53","categoryIds":["cheap-eats"],"categories":["Gyros & Cheap Eats"],"distanceKm":2.002689021128608},{"id":"fishTavernasRestaurants_a8b54e1ce79d","slug":"kempaptzidiko-machalas-a8b5","kind":"restaurant","name":"ΚΕΜΠΑΠΤΖΙΔΙΚΟ ΜΑΧΑΛΑΣ","lat":37.97098229288963,"lng":23.644519445693433,"url":"https://maps.app.goo.gl/ynWdVgiTz6C4H7y9A?g_st=ipc","address":"Π. Τσαλδάρη, 241-243, Νίκαια 184 50","categoryIds":["fish-tavernas"],"categories":["Fish Tavernas"],"distanceKm":2.0082658418898736},{"id":"greekRestaurants_899916cf9819","slug":"izampela-armenikes-nostimies-8999","kind":"restaurant","name":"Ιζαμπέλα - Αρμένικες νοστιμιές","lat":37.95153993965958,"lng":23.631088706562064,"url":"https://maps.app.goo.gl/r3twrz7bwRr76j8n8","address":"Αναπαύσεως 36, Δραπετσώνα 185 46","categoryIds":["greek-restaurants"],"categories":["Greek Restaurants"],"distanceKm":2.0923196278517042},{"id":"municipalities_40326566c574","slug":"nikaia-4032","kind":"municipality","name":"Νίκαια","lat":37.9667,"lng":23.6472,"aliases":["Nikaia","Nikea"],"region":"Δυτικά Προάστια","name_en":"Nikaia","region_en":"Western Suburbs","distanceKm":2.2423464596478637},{"id":"cheapEatsRestaurants_e1efa6cc4eb9","slug":"kebab-hub-e1ef","kind":"restaurant","name":"KEBAB HUB","lat":37.96544893408382,"lng":23.64762675898248,"url":"https://maps.app.goo.gl/1jU1MDHhWUfkjuNTA?g_st=ipc","address":"Εφέσου 49, Νίκαια 184 50","categoryIds":["cheap-eats"],"categories":["Gyros & Cheap Eats"],"distanceKm":2.2984027179843816},{"id":"greekRestaurants_f42ac62c3249","slug":"bounty-all-aboard-f42a","kind":"restaurant","name":"Bounty all aboard","lat":37.949723445369806,"lng":23.63332963263093,"url":"https://maps.app.goo.gl/2iShe5bzo7qg3ohc6","address":"Εθ. Αντιστάσεως 10, Δραπετσώνα 186 48","categoryIds":["greek-restaurants"],"categories":["Greek Restaurants"],"distanceKm":2.3572045662730052},{"id":"fishTavernasRestaurants_ae0677e73373","slug":"zarkadoylas-ta-kavoyrakia-ae06","kind":"restaurant","name":"ΖΑΡΚΑΔΟΥΛΑΣ - ΤΑ ΚΑΒΟΥΡΑΚΙΑ","lat":37.966878654895595,"lng":23.649066817348377,"url":"https://maps.app.goo.gl/NBfwV1GcmoeRk6M28?g_st=ipc","address":"Βιθυνίας 32, Νίκαια 184 50","categoryIds":["fish-tavernas"],"categories":["Fish Tavernas"],"distanceKm":2.403207244464614},{"id":"burgersRestaurants_d46a3e1807bd","slug":"what-they-said-d46a","kind":"restaurant","name":"What They Said","lat":37.94935179980419,"lng":23.633928811446484,"url":"https://maps.app.goo.gl/1hcPfQeHfJrzqf8KA","address":"Eth. Antistaseos 37, Drapetsona 186 48","categoryIds":["burgers"],"categories":["Burger Spots"],"distanceKm":2.417286059499791},{"id":"cheapEatsRestaurants_06c18b2e0a28","slug":"o-polyvios-06c1","kind":"restaurant","name":"ο Πολύβιος","lat":37.94989609662676,"lng":23.635292950073545,"url":"https://maps.app.goo.gl/hykabQee4Gtqnvuk9?g_st=ipc","address":"Αγίου Δημητρίου 28, Πειραιάς 185 45","categoryIds":["cheap-eats"],"categories":["Gyros & Cheap Eats"],"distanceKm":2.4194307375391317}],"sameRegion":[],"mentionedGuides":[],"canonicalSlug":"azimouthio-80f6","isCanonicalEntity":true,"enrichment":{"summary_en":"Azimouthio is a curated restaurant in Κερατσίνι 187 57 in the Coffee & Brunch Spots collection. It is connected to 5 nearby Googlementor picks to help travelers build a stronger local route.","summary_el":"Azimouthio είναι ένα επιλεγμένο σημείο φαγητού στην περιοχή Κερατσίνι 187 57 και ανήκει στη συλλογή Coffee & Brunch Spots. Συνδέεται με 5 κοντινές προτάσεις του Googlementor για πιο ολοκληρωμένη εμπειρία.","vibe_tags":["curated","daytime-favorite"],"best_for":["first-time visitors","food lovers"],"visit_moments":["early morning","late brunch"],"practical_note":"Address and direct map link are available for easy turn-by-turn access.","nearby_walkable_count":5,"nearby_count_2km":15,"confidence":0.98}},"__N_SSG":true}