{"pageProps":{"entity":{"id":"greekRestaurants_8f61506d1171","slug":"basegrill-athens-8f61","kind":"restaurant","name":"Basegrill Athens","lat":38.01200938597209,"lng":23.7082215195935,"url":"https://maps.app.goo.gl/4HcYYs1yQVdq1giy8","address":"Λεωφ. Κωνσταντινουπόλεως 64, Περιστέρι 121 33","categoryIds":["greek-restaurants","luxury-dining"],"categories":["Greek Restaurants","Luxury Dining"],"legacySlugs":["basegrill-athens-1a54"]},"sameCategory":[{"id":"greekRestaurants_be06a546e935","slug":"giantes-be06","kind":"restaurant","name":"Γιάντες","lat":37.98561482975353,"lng":23.735926375159003,"url":"https://maps.app.goo.gl/LuGL5j7KgtCFWxmA8","address":"Βαλτετσίου 44, Αθήνα 106 81","categoryIds":["greek-restaurants","luxury-dining"],"categories":["Greek Restaurants","Luxury Dining"],"legacySlugs":["giantes-2f3a"]},{"id":"greekRestaurants_9a0e0e6e3a9d","slug":"feedel-urban-gastronomy-9a0e","kind":"restaurant","name":"Feedέλ Urban Gastronomy","lat":37.976600766846424,"lng":23.729911306320325,"url":"https://maps.app.goo.gl/Uppwoqd1GbSaLvCe7","address":"Κτενά 1, Αθήνα 105 63","categoryIds":["greek-restaurants","luxury-dining"],"categories":["Greek Restaurants","Luxury Dining"],"legacySlugs":["feedel-urban-gastronomy-858d"]},{"id":"greekRestaurants_2c46fb9be459","slug":"basegrill-2c46","kind":"restaurant","name":"Basegrill","lat":37.860629906056765,"lng":23.752227328267114,"url":"https://maps.app.goo.gl/Mg499qYpRgDUfYMg9","address":"Ζησιμοπούλου 5, Γλυφάδα 166 74","categoryIds":["greek-restaurants","luxury-dining"],"categories":["Greek Restaurants","Luxury Dining"],"legacySlugs":["basegrill-e825"]},{"id":"greekRestaurants_776ec954209f","slug":"maestranza-skg-776e","kind":"restaurant","name":"Maestranza.skg","lat":40.6389335540748,"lng":22.939948700094217,"url":"https://maps.app.goo.gl/9dU4LoJrsfE8osv2A?g_st=ipc","address":"Ptolemeon 29Β, Thessaloniki 546 30","categoryIds":["greek-restaurants","luxury-dining"],"categories":["Greek Restaurants","Luxury Dining"],"legacySlugs":["maestranza-skg-4bd7"]},{"id":"greekRestaurants_c4daeb8f4d66","slug":"malanos-c4da","kind":"restaurant","name":"Μαλανος","lat":38.0129537569984,"lng":23.7103246194612,"url":"https://maps.app.goo.gl/RHBwmAA2mvG3Eie58","address":"Ιωλκού 2, Περιστέρι 121 33","categoryIds":["greek-restaurants"],"categories":["Greek Restaurants"]},{"id":"greekRestaurants_9c5c07b28afc","slug":"schinos-mpistro-9c5c","kind":"restaurant","name":"Σχίνος Μπιστρό","lat":38.01228323858559,"lng":23.703471319893453,"url":"https://maps.app.goo.gl/VEoaxecqRaF6Y2in8","address":"Μεγ. Αλεξάνδρου 88, Περιστέρι 121 32","categoryIds":["greek-restaurants"],"categories":["Greek Restaurants"]},{"id":"greekRestaurants_d28823b9eec2","slug":"myrtia-peristeri-d288","kind":"restaurant","name":"Μυρτιά - Περιστέρι","lat":38.00643775276086,"lng":23.706964574646523,"url":"https://maps.app.goo.gl/ZmkpQ1J6yj1b1iUX6","address":"Αγίας Παρασκευής 24, Περιστέρι 121 32","categoryIds":["greek-restaurants"],"categories":["Greek Restaurants"]},{"id":"greekRestaurants_66d5a57225f6","slug":"taverna-o-karagkiozis-66d5","kind":"restaurant","name":"Ταβέρνα Ο Καραγκιόζης","lat":38.01836729151931,"lng":23.702104419170855,"url":"https://maps.app.goo.gl/zhCvjvwCT9rbixAE6","address":"Τρώων 9, Bournazi 121 33","categoryIds":["greek-restaurants"],"categories":["Greek Restaurants"]},{"id":"luxuryDiningRestaurants_0fe20ce95de7","slug":"travolta-athens-0fe2","kind":"restaurant","name":"Travolta Athens","lat":38.005280171628534,"lng":23.702492953168832,"url":"https://maps.app.goo.gl/SyrzTdSeaJcSZMj28?g_st=ipc","address":"Αγίου Παύλου 33, Περιστέρι 121 32","categoryIds":["luxury-dining"],"categories":["Luxury Dining"]},{"id":"greekRestaurants_cf4d36c85e78","slug":"paradosiaki-taverna-o-spanos-cf4d","kind":"restaurant","name":"Παραδοσιακή Ταβέρνα ο Σπανός","lat":38.01128559769368,"lng":23.722291820236695,"url":"https://maps.app.goo.gl/M1LDEQBwqFbK8g7Y6","address":"Αριστείδου Οικονόμου 12, Αθήνα 104 45","categoryIds":["greek-restaurants"],"categories":["Greek Restaurants"]},{"id":"greekRestaurants_6208e477b281","slug":"pappu-athens-6208","kind":"restaurant","name":"Pāppu Athens","lat":38.01046990272616,"lng":23.68965527636987,"url":"https://maps.app.goo.gl/QKrjcz5bwnJE9QXA6","address":"Μεσολογγίου 100, Περιστέρι 121 31","categoryIds":["greek-restaurants"],"categories":["Greek Restaurants"]},{"id":"luxuryDiningRestaurants_fc72bbd8d95c","slug":"thanasis-1948-fc72","kind":"restaurant","name":"Θανάσης 1948","lat":38.01944995786154,"lng":23.725569046206015,"url":"https://maps.app.goo.gl/Dz6PnDZaCe8Db55q7?g_st=ipc","address":"Κων/νου Καβάφη 48, Αθήνα 111 43","categoryIds":["luxury-dining"],"categories":["Luxury Dining"]}],"nearby":[{"id":"burgersRestaurants_7bcb47e330c5","slug":"tryfonas-kempaptzidikon-hamburgerie-7bcb","kind":"restaurant","name":"Τρύφωνας Κεμπαπτζίδικoν - Hamburgerie","lat":38.0125506362582,"lng":23.70608974489792,"url":"https://maps.app.goo.gl/cE9CbEn5LYoZ6WKj7?g_st=ipc","address":"Παρασκευοπούλου 51, Περιστέρι 121 34","categoryIds":["burgers","cheap-eats"],"categories":["Burger Spots","Gyros & Cheap Eats"],"legacySlugs":["tryfonas-kempaptzidikon-hamburgerie-390d"],"distanceKm":0.19621859616555198},{"id":"greekRestaurants_c4daeb8f4d66","slug":"malanos-c4da","kind":"restaurant","name":"Μαλανος","lat":38.0129537569984,"lng":23.7103246194612,"url":"https://maps.app.goo.gl/RHBwmAA2mvG3Eie58","address":"Ιωλκού 2, Περιστέρι 121 33","categoryIds":["greek-restaurants"],"categories":["Greek Restaurants"],"distanceKm":0.21207149307365633},{"id":"cheapEatsRestaurants_27095ef62808","slug":"jackaroo-2709","kind":"restaurant","name":"Jackaroo","lat":38.0124039916799,"lng":23.705649430022987,"url":"https://maps.app.goo.gl/ZVfeByxQrS6SFYyH6?g_st=ipc","address":"Παρασκευοπούλου 45, Περιστέρι 121 35","categoryIds":["cheap-eats"],"categories":["Gyros & Cheap Eats"],"distanceKm":0.2295684647653032},{"id":"greekRestaurants_9c5c07b28afc","slug":"schinos-mpistro-9c5c","kind":"restaurant","name":"Σχίνος Μπιστρό","lat":38.01228323858559,"lng":23.703471319893453,"url":"https://maps.app.goo.gl/VEoaxecqRaF6Y2in8","address":"Μεγ. Αλεξάνδρου 88, Περιστέρι 121 32","categoryIds":["greek-restaurants"],"categories":["Greek Restaurants"],"distanceKm":0.41726943434320973},{"id":"municipalities_6d3b56c27da3","slug":"peristeri-6d3b","kind":"municipality","name":"Περιστέρι","lat":38.015,"lng":23.7035,"aliases":["Peristeria"],"region":"Δυτικά Προάστια","name_en":"Peristeri","region_en":"Western Suburbs","distanceKm":0.5307342011404331},{"id":"cheapEatsRestaurants_093f463c1994","slug":"krepes-gorillas-093f","kind":"restaurant","name":"Κρέπες Gorillas","lat":38.011039639297316,"lng":23.701212318200714,"url":"https://maps.app.goo.gl/Us2VxvnWiFa4zh7E6?g_st=ipc","address":"Παρασκευοπούλου 14, Περιστέρι 121 32","categoryIds":["cheap-eats"],"categories":["Gyros & Cheap Eats"],"distanceKm":0.6234650128820225},{"id":"greekRestaurants_d28823b9eec2","slug":"myrtia-peristeri-d288","kind":"restaurant","name":"Μυρτιά - Περιστέρι","lat":38.00643775276086,"lng":23.706964574646523,"url":"https://maps.app.goo.gl/ZmkpQ1J6yj1b1iUX6","address":"Αγίας Παρασκευής 24, Περιστέρι 121 32","categoryIds":["greek-restaurants"],"categories":["Greek Restaurants"],"distanceKm":0.6292484707810051},{"id":"municipalities_843525938864","slug":"sepolia-8435","kind":"municipality","name":"Σεπόλια","lat":38.0056,"lng":23.7139,"aliases":["Σεπολια"],"region":"Κέντρο Αθήνας","name_en":"Sepolia","region_en":"Athens Center","distanceKm":0.8691602697259089},{"id":"greekRestaurants_66d5a57225f6","slug":"taverna-o-karagkiozis-66d5","kind":"restaurant","name":"Ταβέρνα Ο Καραγκιόζης","lat":38.01836729151931,"lng":23.702104419170855,"url":"https://maps.app.goo.gl/zhCvjvwCT9rbixAE6","address":"Τρώων 9, Bournazi 121 33","categoryIds":["greek-restaurants"],"categories":["Greek Restaurants"],"distanceKm":0.8871168890262412},{"id":"dessertsRestaurants_dee89939fc01","slug":"fatto-a-mano-dee8","kind":"restaurant","name":"Fatto a mano","lat":38.01285925597916,"lng":23.69800274614105,"url":"https://maps.app.goo.gl/pLS84iDcmv72Qzqa6?g_st=ipc","address":"Κώστα Βάρναλη 21, Περιστέρι 121 34","categoryIds":["desserts"],"categories":["Dessert Shops"],"distanceKm":0.9002195914350041},{"id":"luxuryDiningRestaurants_0fe20ce95de7","slug":"travolta-athens-0fe2","kind":"restaurant","name":"Travolta Athens","lat":38.005280171628534,"lng":23.702492953168832,"url":"https://maps.app.goo.gl/SyrzTdSeaJcSZMj28?g_st=ipc","address":"Αγίου Παύλου 33, Περιστέρι 121 32","categoryIds":["luxury-dining"],"categories":["Luxury Dining"],"distanceKm":0.9009895769371026},{"id":"coffeeBrunchRestaurants_311880d8c64b","slug":"the-roosters-3118","kind":"restaurant","name":"The Roosters","lat":38.01136673827295,"lng":23.697881523081808,"url":"https://maps.app.goo.gl/4RrZxNGRywBkjvdY7?g_st=ipc","address":"25ης Μαρτίου 7, Περιστέρι 121 32","categoryIds":["coffee-brunch"],"categories":["Coffee & Brunch Spots"],"distanceKm":0.908689131711934},{"id":"cheapEatsRestaurants_bcddf7ad717f","slug":"wolfie-s-west-side-bcdd","kind":"restaurant","name":"Wolfie’s West Side","lat":38.01077144638466,"lng":23.697740028763043,"url":"https://maps.app.goo.gl/LdnLWyeBqVd2Tcme7?g_st=ipc","address":"Kosta Varnali 6, Peristeri 121 32","categoryIds":["cheap-eats"],"categories":["Gyros & Cheap Eats"],"distanceKm":0.9285348701654185},{"id":"cheapEatsRestaurants_e8ef6d026703","slug":"i-vromiara-the-gourmet-street-food-peristeri-e8ef","kind":"restaurant","name":"Η Βρωμιάρα - The Gourmet Street Food Περιστέρι","lat":38.0121286185235,"lng":23.696851045660715,"url":"https://maps.app.goo.gl/zuoR5Z99oiyHXZs26?g_st=ipc","address":"Λεωφ. Παναγή Τσαλδάρη 16, Περιστέρι 121 34","categoryIds":["cheap-eats"],"categories":["Gyros & Cheap Eats"],"distanceKm":0.9962369749176638},{"id":"coffeeBrunchRestaurants_1af20f440d3d","slug":"farin-moya-farin-moua-1af2","kind":"restaurant","name":"Φαρίν Μουά (Farin Moua)","lat":38.01222147430599,"lng":23.696769307184784,"url":"https://maps.app.goo.gl/JTr1zxCGMeDfbPnm6?g_st=ipc","address":"Ερυθραίας 2, Περιστέρι 121 34","categoryIds":["coffee-brunch"],"categories":["Coffee & Brunch Spots"],"distanceKm":1.0035862176229684},{"id":"dessertsRestaurants_d015844307c4","slug":"melissa-define-pastry-d015","kind":"restaurant","name":"Melissa Define Pastry","lat":38.005374786794874,"lng":23.70042813616108,"url":"https://maps.app.goo.gl/2dgPEnwHsxFhZdUv8?g_st=ipc","address":"Εθνάρχου Μακαρίου 43, Περιστέρι 121 31","categoryIds":["desserts"],"categories":["Dessert Shops"],"distanceKm":1.005217893269815},{"id":"dessertsRestaurants_96d806e54fdc","slug":"zacharoplasteia-konstantinidis-96d8","kind":"restaurant","name":"ΖΑΧΑΡΟΠΛΑΣΤΕΙΑ ΚΩΝΣΤΑΝΤΙΝΙΔΗΣ","lat":38.00389002360962,"lng":23.70225603913556,"url":"https://maps.app.goo.gl/41mNPJi23HwsoihK8?g_st=ipc","address":"Εθνάρχου Μακαρίου 17, Περιστέρι 121 31","categoryIds":["desserts"],"categories":["Dessert Shops"],"distanceKm":1.0432037821573659},{"id":"cheapEatsRestaurants_e43c2854d472","slug":"armeniko-kempap-to-rodi-the-pomegranate-armenian-kebab-e43c","kind":"restaurant","name":"Αρμένικο Κεμπάπ Το Ρόδι - The pomegranate Armenian kebab","lat":38.00448088015914,"lng":23.715736478884928,"url":"https://maps.app.goo.gl/sFPUNxMQJRmui3Sh7?g_st=ipc","address":"Κρέοντος 163, Αθήνα 104 43","categoryIds":["cheap-eats"],"categories":["Gyros & Cheap Eats"],"distanceKm":1.0650305745774948},{"id":"cheapEatsRestaurants_aa9fa501d8da","slug":"billy-s-sandwich-peristeri-billy-s-kantina-aa9f","kind":"restaurant","name":"Billy's sandwich Peristeri (Billy’s Kantina)","lat":38.00300791270127,"lng":23.702770148654015,"url":"https://maps.app.goo.gl/kQSFCYCMduFPwVhw9?g_st=ipc","address":"Π. Μελά 11, Περιστέρι 121 31","categoryIds":["cheap-eats"],"categories":["Gyros & Cheap Eats"],"distanceKm":1.1090327733390302},{"id":"asianRestaurants_0fe2688bf847","slug":"shisan-sushi-bar-0fe2","kind":"restaurant","name":"Shisan Sushi Bar","lat":38.01157900293343,"lng":23.695417186581494,"url":"https://maps.app.goo.gl/W1ubxVBTLcx41Yqd8?g_st=ipc","address":"Αιμιλίου Βεάκη 36, Περιστέρι 121 34","categoryIds":["asian"],"categories":["Asian Restaurants"],"distanceKm":1.1227913695556275},{"id":"greekRestaurants_cf4d36c85e78","slug":"paradosiaki-taverna-o-spanos-cf4d","kind":"restaurant","name":"Παραδοσιακή Ταβέρνα ο Σπανός","lat":38.01128559769368,"lng":23.722291820236695,"url":"https://maps.app.goo.gl/M1LDEQBwqFbK8g7Y6","address":"Αριστείδου Οικονόμου 12, Αθήνα 104 45","categoryIds":["greek-restaurants"],"categories":["Greek Restaurants"],"distanceKm":1.235307788599429},{"id":"cheapEatsRestaurants_64ecfbc2f3f4","slug":"mayro-alati-64ec","kind":"restaurant","name":"Μαύρο Αλάτι","lat":38.011756038342455,"lng":23.693312637532987,"url":"https://maps.app.goo.gl/WBopamZ7xeysedvt5?g_st=ipc","address":"Αιμιλίου Βεάκη 44, Περιστέρι 121 34","categoryIds":["cheap-eats"],"categories":["Gyros & Cheap Eats"],"distanceKm":1.3064500186046384},{"id":"coffeeBrunchRestaurants_6a62e770d50a","slug":"mind-the-cup-6a62","kind":"restaurant","name":"Mind The Cup","lat":38.01157944836187,"lng":23.693274104432696,"url":"https://maps.app.goo.gl/ztF6fFTkc58DpW1r6?g_st=ipc","address":"Αιμιλίου Βεάκη 29, Περιστέρι 121 34","categoryIds":["coffee-brunch","vegetarian"],"categories":["Coffee & Brunch Spots","Vegetarian Friendly Restaurants"],"legacySlugs":["mind-the-cup-0167"],"distanceKm":1.3103960204685001},{"id":"dessertsRestaurants_fe0eaa42452f","slug":"iceroll-peristeri-fe0e","kind":"restaurant","name":"Iceroll Peristeri","lat":38.01176430122643,"lng":23.693145391813818,"url":"https://maps.app.goo.gl/vjP8tAUnWK58Uq5x7?g_st=ipc","address":"Αιμιλίου Βεάκη 46, Περιστέρι 121 34","categoryIds":["desserts"],"categories":["Dessert Shops"],"distanceKm":1.3210794653491926}],"sameRegion":[],"mentionedGuides":[{"slug":"tap-water-safe-greece-el","title":"Είναι Ασφαλές να Πίνετε Νερό Βρύσης στην Ελλάδα;"},{"slug":"tap-water-safe-greece","title":"Is Tap Water Safe to Drink in Greece?"},{"slug":"traveling-to-greece-on-a-budget-el","title":"Ταξιδι στην Ελλαδα με μικρο budget"},{"slug":"traveling-to-greece-on-a-budget","title":"Traveling to Greece on a Budget"}],"canonicalSlug":"basegrill-athens-8f61","isCanonicalEntity":false,"enrichment":{"summary_en":"Basegrill Athens is a curated restaurant in Περιστέρι 121 33 in the Greek Restaurants collection. It is connected to 7 nearby Googlementor picks to help travelers build a stronger local route.","summary_el":"Basegrill Athens είναι ένα επιλεγμένο σημείο φαγητού στην περιοχή Περιστέρι 121 33 και ανήκει στη συλλογή Greek Restaurants. Συνδέεται με 7 κοντινές προτάσεις του Googlementor για πιο ολοκληρωμένη εμπειρία.","vibe_tags":["curated","premium-dining"],"best_for":["first-time visitors","food lovers","special occasions"],"visit_moments":["lunch stop","dinner stop"],"practical_note":"Address and direct map link are available for easy turn-by-turn access.","nearby_walkable_count":7,"nearby_count_2km":52,"confidence":0.98}},"__N_SSG":true}