{"pageProps":{"entity":{"id":"dessertsRestaurants_1535883517fb","slug":"chalvadopoiia-papagiannopoylospapagiannopoylos-ioannis-1535","kind":"restaurant","name":"Χαλβαδοποιία ΠαπαγιαννόπουλοςΠαπαγιαννόπουλος Ιωάννης","lat":39.36370657984136,"lng":22.937869092104165,"url":"https://maps.app.goo.gl/N1XMSFR7tEBpbki29?g_st=ipc","address":"4, Vassani 2, Volos 383 33","categoryIds":["desserts"],"categories":["Dessert Shops"]},"sameCategory":[{"id":"dessertsRestaurants_c5d32b51622f","slug":"minerva-c5d3","kind":"restaurant","name":"Minerva","lat":39.35839004627972,"lng":22.94810636993991,"url":"https://maps.app.goo.gl/LYYj8A3erRuK1dFDA?g_st=ipc","address":"Argonafton 53, Volos 383 33","categoryIds":["desserts"],"categories":["Dessert Shops"]},{"id":"dessertsRestaurants_ddfd2ed8f8da","slug":"glyko-styllas-ddfd","kind":"restaurant","name":"Glyko Styllas","lat":39.358756123978736,"lng":22.949172631183142,"url":"https://maps.app.goo.gl/C2qoG9g6ogZM9U2H6?g_st=ipc","address":"Iasonos 135, Volos 382 21","categoryIds":["desserts"],"categories":["Dessert Shops"]},{"id":"dessertsRestaurants_fab74267c12c","slug":"anna-na-ena-milo-fab7","kind":"restaurant","name":"Άννα να ένα μήλο","lat":39.32818241324449,"lng":23.15069435375763,"url":"https://maps.app.goo.gl/pFdSDfbmt9PYS4wT9?g_st=ic","address":"Epar.Od. Agrias-Mileon 107, Milies 370 10","categoryIds":["desserts"],"categories":["Dessert Shops"]},{"id":"dessertsRestaurants_18c800bb34dd","slug":"apalou-bistro-18c8","kind":"restaurant","name":"Apalou bistro","lat":39.38733910168991,"lng":23.17288978772186,"url":"https://maps.app.goo.gl/8B5hS4CF5VjiJNweA?g_st=ic","address":"EO Neochoriou Tsagkaradas 26, Tsagkarada 370 12","categoryIds":["desserts"],"categories":["Dessert Shops"]},{"id":"dessertsRestaurants_80d05b4a9112","slug":"dafni-s-sweets-80d0","kind":"restaurant","name":"Dafni's Sweets","lat":39.16451312827066,"lng":23.484321078437517,"url":"https://maps.app.goo.gl/qZaYAac8rhBH69sC8?g_st=ipc","address":"Τέρμα Παπαδιαμάντη, Skiathos 370 02","categoryIds":["desserts"],"categories":["Dessert Shops"]},{"id":"dessertsRestaurants_ee7a9d284945","slug":"in-out-patisserie-ee7a","kind":"restaurant","name":"In Out Patisserie","lat":38.62013328510681,"lng":23.231732554049056,"url":"https://maps.app.goo.gl/pezBgDeH43iQLTiq9?g_st=ipc","address":"Νέα Μαστού 1, Μαλεσίνα 350 01","categoryIds":["desserts"],"categories":["Dessert Shops"]},{"id":"dessertsRestaurants_edd942eb31a3","slug":"rook-s-pastry-lab-edd9","kind":"restaurant","name":"Rook's Pastry Lab","lat":39.36032541859575,"lng":21.926312209067312,"url":"https://maps.app.goo.gl/Qok4Wd3kZZnJC6xv9?g_st=ipc","address":"Γαμβέτα, Dim. Lappa 12 - 16, Karditsa 431 00","categoryIds":["desserts"],"categories":["Dessert Shops"]},{"id":"dessertsRestaurants_4d9f43af452c","slug":"patisserie-achlatis-4d9f","kind":"restaurant","name":"patisserie Achlatis","lat":40.0008948533071,"lng":23.574509488353804,"url":"https://maps.app.goo.gl/LLNEhXXp3PJCCKgu7?g_st=ipc","address":"Chaniotis 630 85","categoryIds":["desserts"],"categories":["Dessert Shops"]},{"id":"dessertsRestaurants_3b5bf46add7e","slug":"terkenlis-3b5b","kind":"restaurant","name":"Terkenlis","lat":40.07236945700872,"lng":23.44461611117606,"url":"https://maps.app.goo.gl/HGnMQLpSqcLam8fR7?g_st=ipc","address":"Δημόσια, Θεσσαλονικής, Kallithea 630 77","categoryIds":["desserts"],"categories":["Dessert Shops"]},{"id":"dessertsRestaurants_29d96cbe3da8","slug":"glykoplasteio-29d9","kind":"restaurant","name":"Glykoplasteío","lat":38.91264896054346,"lng":21.80246572954374,"url":"https://maps.app.goo.gl/c3y6StatonhrUYj26?g_st=ipc","address":"1ο χιλιόμετρο Εθνικής Οδού Καρπενησίου Λαμίας, Καρπενήσι, Karpenisi 361 00","categoryIds":["desserts"],"categories":["Dessert Shops"]},{"id":"dessertsRestaurants_98dd00cbac34","slug":"gelateria-ksilaki-98dd","kind":"restaurant","name":"Gelateria Ksilaki","lat":40.21685753813557,"lng":23.667097053863888,"url":"https://maps.app.goo.gl/YNZtpmoKz7NF28Uy9?g_st=ipc","address":"Unnamed Road, Nikiti 630 88","categoryIds":["desserts"],"categories":["Dessert Shops"]},{"id":"dessertsRestaurants_2e19f32f107c","slug":"revani-me-pagoto-patisserie-anatoli-2e19","kind":"restaurant","name":"Revani me Pagoto - Patisserie Anatoli","lat":40.21741442419358,"lng":23.666604738726736,"url":"https://maps.app.goo.gl/h2Tc6Wrf9W1Td7877?g_st=ipc","address":"Nikiti 630 88","categoryIds":["desserts"],"categories":["Dessert Shops"]}],"nearby":[{"id":"familyFriendly_cfb0c8ab9a64","slug":"hado-volos-cfb0","kind":"restaurant","name":"HADO Volos","lat":39.36503171785606,"lng":22.930285891313282,"url":"https://maps.app.goo.gl/iHrSULP8wTnmG78AA?g_st=ipc","address":"Sachtouri 3, Volos 383 34","categoryIds":["family-friendly"],"categories":["Kid Friendly Locations"],"distanceKm":0.6683569007471724},{"id":"cheapEatsRestaurants_6442c1dc3a96","slug":"to-souvlaki-tis-alexandras-6442","kind":"restaurant","name":"To souvlaki tis Alexandras","lat":39.360700263391244,"lng":22.945330534308695,"url":"https://maps.app.goo.gl/i3EkwXq8bXbY5rfm8?g_st=ipc","address":"El. Venizelou 3, Volos 383 33","categoryIds":["cheap-eats"],"categories":["Gyros & Cheap Eats"],"distanceKm":0.72334275437314},{"id":"cheapEatsRestaurants_14fc216d1bd2","slug":"makis-14fc","kind":"restaurant","name":"Makis","lat":39.35994931747672,"lng":22.947511340680645,"url":"https://maps.app.goo.gl/Dd1J2caUfwteeWVJA?g_st=ipc","address":"Dimitriados 126, Volos 382 21","categoryIds":["cheap-eats"],"categories":["Gyros & Cheap Eats"],"distanceKm":0.9282846823315045},{"id":"greekRestaurants_f8c7fc9e1119","slug":"mezen-mezen-f8c7","kind":"restaurant","name":"Μεζέν - Mezen","lat":39.360202586197914,"lng":22.94855189327868,"url":"https://maps.app.goo.gl/8kEStDeZbgxBjzsH6?g_st=ipc","address":"Αλοννήσου 8, Βόλος 382 21","categoryIds":["greek-restaurants"],"categories":["Greek Restaurants"],"distanceKm":0.9976400371749128},{"id":"dessertsRestaurants_c5d32b51622f","slug":"minerva-c5d3","kind":"restaurant","name":"Minerva","lat":39.35839004627972,"lng":22.94810636993991,"url":"https://maps.app.goo.gl/LYYj8A3erRuK1dFDA?g_st=ipc","address":"Argonafton 53, Volos 383 33","categoryIds":["desserts"],"categories":["Dessert Shops"],"distanceKm":1.0602329824158871},{"id":"dessertsRestaurants_ddfd2ed8f8da","slug":"glyko-styllas-ddfd","kind":"restaurant","name":"Glyko Styllas","lat":39.358756123978736,"lng":22.949172631183142,"url":"https://maps.app.goo.gl/C2qoG9g6ogZM9U2H6?g_st=ipc","address":"Iasonos 135, Volos 382 21","categoryIds":["desserts"],"categories":["Dessert Shops"],"distanceKm":1.1168613964460072},{"id":"cheapEatsRestaurants_6c680d57fcca","slug":"r-the-original-fast-food-6c68","kind":"restaurant","name":"R The Original fast food","lat":39.35863953139754,"lng":22.949097785508563,"url":"https://maps.app.goo.gl/c4a3sw59T33zdhDU8?g_st=ipc","address":"Iasonos 118, Volos 382 21","categoryIds":["cheap-eats"],"categories":["Gyros & Cheap Eats"],"distanceKm":1.117746531539375},{"id":"municipalities_8f859bc809a7","slug":"volos-8f85","kind":"municipality","name":"Βόλος","lat":39.36,"lng":22.95,"aliases":["Βολος"],"region":"Θεσσαλία","name_en":"Volos","region_en":"Thessaly","distanceKm":1.1213938285572795},{"id":"cheapEatsRestaurants_4de5fd1f21ea","slug":"rainbow-4de5","kind":"restaurant","name":"Rainbow","lat":39.358716294857,"lng":22.949235444566693,"url":"https://maps.app.goo.gl/RfPoKrLrjoUUEA32A?g_st=ipc","address":"Iasonos 135, Volos 382 21","categoryIds":["cheap-eats"],"categories":["Gyros & Cheap Eats"],"distanceKm":1.123743801054932},{"id":"fishTavernasRestaurants_2384089ac0c0","slug":"tsipouradiko-jim-2384","kind":"restaurant","name":"Tsipouradiko Jim","lat":39.369800719515084,"lng":22.92725362558626,"url":"https://maps.app.goo.gl/12A4RBbA4PBszZC29?g_st=ipc","address":"Miaouli 75, Volos 383 34","categoryIds":["fish-tavernas"],"categories":["Fish Tavernas"],"distanceKm":1.1366421937260316},{"id":"burgersRestaurants_1efcdff68c36","slug":"urban-burger-co-1efc","kind":"restaurant","name":"Urban Burger Co.","lat":39.359716759351,"lng":22.950932981495203,"url":"https://maps.app.goo.gl/Hj1LZsKmFMwoeDYk8?g_st=ipc","address":"Δημάρχου Κονταράτου 8, Βόλος 382 21","categoryIds":["burgers"],"categories":["Burger Spots"],"distanceKm":1.2075669431861786},{"id":"fishTavernasRestaurants_437fe44ea5d0","slug":"bokos-ouzeri-437f","kind":"restaurant","name":"BOKOS OUZERI","lat":39.37238019955491,"lng":22.928830138574348,"url":"https://maps.app.goo.gl/oxZs4qMQgE4Km14y6?g_st=ipc","address":"Meandrou 143, Nea Ionia 384 45","categoryIds":["fish-tavernas"],"categories":["Fish Tavernas"],"distanceKm":1.2385260578015111},{"id":"greekRestaurants_5dc20ab83ca7","slug":"mpokos-oyzeri-5dc2","kind":"restaurant","name":"ΜΠΟΚΟΣ ΟΥΖΕΡΙ","lat":39.37241914499682,"lng":22.928826450978278,"url":"https://maps.app.goo.gl/cXQP3wmZ2PgCjwePA?g_st=ipc","address":"Μαιάνδρου 143, Νέα Ιωνία 384 45","categoryIds":["greek-restaurants"],"categories":["Greek Restaurants"],"distanceKm":1.2420995204835168},{"id":"cheapEatsRestaurants_9135e360a957","slug":"shoreditch-burgers-sandwiches-9135","kind":"restaurant","name":"Shoreditch Burgers & Sandwiches","lat":39.358292162660355,"lng":22.950837613452617,"url":"https://maps.app.goo.gl/5xzuz9k7GPVzTJnDA?g_st=ipc","address":"Dimitriados 186, Volos 382 21","categoryIds":["cheap-eats"],"categories":["Gyros & Cheap Eats"],"distanceKm":1.2670996568954764},{"id":"burgersRestaurants_07d450e3e91f","slug":"shoreditch-burgers-sandwiches-07d4","kind":"restaurant","name":"Shoreditch Burgers & Sandwiches","lat":39.358294664127236,"lng":22.9508396365885,"url":"https://maps.app.goo.gl/1QRrTYXfUm7MCQ5cA?g_st=ipc","address":"Δημητριάδος 186, Βόλος 382 21","categoryIds":["burgers"],"categories":["Burger Spots"],"distanceKm":1.2671205650568298},{"id":"coffeeBrunchRestaurants_8f68ea1d28c9","slug":"isalos-beach-club-8f68","kind":"restaurant","name":"Isalos Beach Club","lat":39.35159082602954,"lng":22.9581356571748,"url":"https://maps.app.goo.gl/whtVq9izZXDLCZ8k7?g_st=ipc","address":"Plastira 17b, Volos 382 22","categoryIds":["coffee-brunch"],"categories":["Coffee & Brunch Spots"],"distanceKm":2.2025168888437365},{"id":"greekRestaurants_f894a7783597","slug":"kardamo-oinomageireion-f894","kind":"restaurant","name":"Κάρδαμο Οινομαγειρείον","lat":39.402083128717685,"lng":22.984980722142236,"url":"https://maps.app.goo.gl/2BVduXtmC112zqJN8?g_st=ipc","address":"Πηλίου, Μακρινίτσα 370 11","categoryIds":["greek-restaurants"],"categories":["Greek Restaurants"],"distanceKm":5.882531370245865},{"id":"greekRestaurants_f1609d667006","slug":"kritsa-restaurant-f160","kind":"restaurant","name":"KRITSA Restaurant","lat":39.390714981206585,"lng":22.99890427348712,"url":"https://maps.app.goo.gl/nVaAkJVNsbHGrwKh9?g_st=ipc","address":"CENTRAL SQUARE PORTARIA PELION, 370 11","categoryIds":["greek-restaurants"],"categories":["Greek Restaurants"],"distanceKm":6.044897783986703},{"id":"coffeeBrunchRestaurants_e35f2fd907c7","slug":"aeriko-cafe-bar-makrinitsa-e35f","kind":"restaurant","name":"Aeriko cafe bar - Makrinitsa","lat":39.396275519682625,"lng":22.994190417214696,"url":"https://maps.app.goo.gl/uEvFEaZxa3VWrgDA7?g_st=ipc","address":"1o km PORTARIAS-MAKRINITSAS, PELION 370 11","categoryIds":["coffee-brunch"],"categories":["Coffee & Brunch Spots"],"distanceKm":6.045500183664623},{"id":"municipalities_3598a91927f2","slug":"makrinitsa-3598","kind":"municipality","name":"Μακρινίτσα","lat":39.3858,"lng":23.0556,"aliases":["Μακρινιτσα","Balcony of Pelion"],"region":"Θεσσαλία","name_en":"Makrinitsa","region_en":"Thessaly","distanceKm":10.413504801946823},{"id":"greekRestaurants_267ed799993c","slug":"platanus-orientalis-267e","kind":"restaurant","name":"Platanus Orientalis","lat":39.36160028394274,"lng":23.05970176441853,"url":"https://maps.app.goo.gl/CeNcPhtv8mJKEc4q7?g_st=ipc","address":"Αγ. Λαυρέντιος 373 00","categoryIds":["greek-restaurants"],"categories":["Greek Restaurants"],"distanceKm":10.476577118976326},{"id":"municipalities_3345708eb61e","slug":"portaria-3345","kind":"municipality","name":"Πορταριά","lat":39.3931,"lng":23.0681,"aliases":["Πορταρια"],"region":"Θεσσαλία","name_en":"Portaria","region_en":"Thessaly","distanceKm":11.660845007141832},{"id":"municipalities_2909a9376e1f","slug":"pilio-2909","kind":"municipality","name":"Πήλιο","lat":39.4167,"lng":23.0833,"aliases":["Πηλιο"],"region":"Θεσσαλία","name_en":"Pelion","region_en":"Thessaly","distanceKm":13.817266866440388},{"id":"italianRestaurants_c53ee4efcd79","slug":"pasta-la-vista-kala-nera-c53e","kind":"restaurant","name":"Pasta La Vista KALA NERA","lat":39.3056996345145,"lng":23.120100052879696,"url":"https://maps.app.goo.gl/tYaU41CZfgnnQu8V7","address":"Kala Nera 370 10","categoryIds":["italian"],"categories":["Italian Restaurants"],"distanceKm":16.948036876623505}],"sameRegion":[],"mentionedGuides":[],"canonicalSlug":"chalvadopoiia-papagiannopoylospapagiannopoylos-ioannis-1535","isCanonicalEntity":true,"enrichment":{"summary_en":"Χαλβαδοποιία ΠαπαγιαννόπουλοςΠαπαγιαννόπουλος Ιωάννης is a curated restaurant in Volos 383 33 in the Dessert Shops collection. It is connected to 2 nearby Googlementor picks to help travelers build a stronger local route.","summary_el":"Χαλβαδοποιία ΠαπαγιαννόπουλοςΠαπαγιαννόπουλος Ιωάννης είναι ένα επιλεγμένο σημείο φαγητού στην περιοχή Volos 383 33 και ανήκει στη συλλογή Dessert Shops. Συνδέεται με 2 κοντινές προτάσεις του Googlementor για πιο ολοκληρωμένη εμπειρία.","vibe_tags":["curated","sweet-stop"],"best_for":["first-time visitors","food lovers"],"visit_moments":["afternoon break","after dinner"],"practical_note":"Address and direct map link are available for easy turn-by-turn access.","nearby_walkable_count":2,"nearby_count_2km":15,"confidence":0.9}},"__N_SSG":true}