{"pageProps":{"entity":{"id":"greekRestaurants_d0434bb7301e","slug":"ena-ena-d043","kind":"restaurant","name":"Ένα & Ένα","lat":38.008987140141066,"lng":23.65280105299395,"url":"https://maps.app.goo.gl/ndrwbvbypJGEEjum6","address":"Κύπρου 19, Χαϊδάρι 124 61","categoryIds":["greek-restaurants"],"categories":["Greek Restaurants"]},"sameCategory":[{"id":"greekRestaurants_9f4c1147cab2","slug":"ellinon-ta-xydia-9f4c","kind":"restaurant","name":"Ελλήνων Τα..ξυδια","lat":38.00596041944379,"lng":23.66399500584869,"url":"https://maps.app.goo.gl/oC72DF6MLMBssYjU7","address":"Νικ. Πλαστήρα 32, Χαϊδάρι 124 61","categoryIds":["greek-restaurants"],"categories":["Greek Restaurants"]},{"id":"greekRestaurants_741518abaa86","slug":"the-meaters-urban-beer-garden-7415","kind":"restaurant","name":"The Meaters Urban Beer Garden","lat":38.003598614109904,"lng":23.66346778642219,"url":"https://maps.app.goo.gl/zrm7vsMu18rMsZFJA","address":"Στρ. Καραϊσκάκη 25, Χαϊδάρι 124 61","categoryIds":["greek-restaurants"],"categories":["Greek Restaurants"]},{"id":"greekRestaurants_2f9a21e4ef01","slug":"pesto-ki-egine-2f9a","kind":"restaurant","name":"Πέστο Κι Έγινε","lat":38.00286560260897,"lng":23.663110435533067,"url":"https://maps.app.goo.gl/xWbZXEXeN5pg16TG9","address":"Στρ. Καραϊσκάκη 17, Χαϊδάρι 124 61","categoryIds":["greek-restaurants"],"categories":["Greek Restaurants"]},{"id":"greekRestaurants_b6bacb590b9a","slug":"to-yiasemi-food-wine-experience-b6ba","kind":"restaurant","name":"To Yiasemi Food & Wine Experience","lat":38.00142234618658,"lng":23.662754824513232,"url":"https://maps.app.goo.gl/72YzkYeb6xxkDt68A","address":"Στρ. Καραϊσκάκη 1, Β, Χαϊδάρι 124 61","categoryIds":["greek-restaurants"],"categories":["Greek Restaurants"]},{"id":"coffeeBrunchRestaurants_ebe61501db3c","slug":"anemologio-enallaktiko-kafe-ebe6","kind":"restaurant","name":"Ανεμολόγιο εναλλακτικό καφέ","lat":38.01553415279337,"lng":23.680397259584772,"url":"https://maps.app.goo.gl/CdGAWQcCNoqhMaoLA?g_st=ipc","address":"Πελοπίδα 106, Περιστέρι 121 35","categoryIds":["coffee-brunch","greek-restaurants"],"categories":["Coffee & Brunch Spots","Greek Restaurants"],"legacySlugs":["anemologio-enallaktiko-kafe-3bf9"]},{"id":"greekRestaurants_71ccb1aa4b83","slug":"taverna-o-vasilis-71cc","kind":"restaurant","name":"Ταβέρνα Ο Βασίλης","lat":37.983639078803165,"lng":23.65172200450781,"url":"https://maps.app.goo.gl/P3D4J5ff2iNtoGc99","address":"Κολοκοτρώνη 160, Κορυδαλλός 181 21","categoryIds":["greek-restaurants"],"categories":["Greek Restaurants"]},{"id":"greekRestaurants_5f1c7c67f828","slug":"remeze-5f1c","kind":"restaurant","name":"Ρεμεζέ","lat":37.99150355248482,"lng":23.676971347564844,"url":"https://maps.app.goo.gl/XpGuqMmfj7kNQaD17","address":"Αγίας Λαύρας 14, Αιγάλεω 122 42","categoryIds":["greek-restaurants"],"categories":["Greek Restaurants"]},{"id":"greekRestaurants_e84451b3cebc","slug":"taverna-psistaria-o-thomas-apo-to-1980-e844","kind":"restaurant","name":"Ταβέρνα - Ψησταριά ο Θωμάς απο το 1980","lat":38.015942140522725,"lng":23.686390666199237,"url":"https://maps.app.goo.gl/ZYNUbquE3yHM5E837","address":"Χαλκοκονδύλη 39, Περιστέρι 121 35","categoryIds":["greek-restaurants"],"categories":["Greek Restaurants"]},{"id":"greekRestaurants_7ac3119d5e13","slug":"meze-meze-7ac3","kind":"restaurant","name":"Meze Meze","lat":37.991476631105556,"lng":23.679783507694246,"url":"https://maps.app.goo.gl/w2k4XzSbicFJD4K48","address":"Γρ. Κυδωνιών 10, Αιγάλεω 122 41","categoryIds":["greek-restaurants"],"categories":["Greek Restaurants"]},{"id":"burgersRestaurants_61f30a1a8896","slug":"arch-beer-house-61f3","kind":"restaurant","name":"Arch Beer House","lat":38.013998175642,"lng":23.688328178434592,"url":"https://maps.app.goo.gl/ESAdNAhkQW7WvLqWA?g_st=ipc","address":"Εθ. Αντιστάσεως 91, Περιστέρι 121 34","categoryIds":["burgers","greek-restaurants"],"categories":["Burger Spots","Greek Restaurants"],"legacySlugs":["arch-beer-house-8940"]},{"id":"greekRestaurants_6208e477b281","slug":"pappu-athens-6208","kind":"restaurant","name":"Pāppu Athens","lat":38.01046990272616,"lng":23.68965527636987,"url":"https://maps.app.goo.gl/QKrjcz5bwnJE9QXA6","address":"Μεσολογγίου 100, Περιστέρι 121 31","categoryIds":["greek-restaurants"],"categories":["Greek Restaurants"]},{"id":"greekRestaurants_66d5a57225f6","slug":"taverna-o-karagkiozis-66d5","kind":"restaurant","name":"Ταβέρνα Ο Καραγκιόζης","lat":38.01836729151931,"lng":23.702104419170855,"url":"https://maps.app.goo.gl/zhCvjvwCT9rbixAE6","address":"Τρώων 9, Bournazi 121 33","categoryIds":["greek-restaurants"],"categories":["Greek Restaurants"]}],"nearby":[{"id":"familyFriendly_dd451e30d935","slug":"strike-kiddo-dd45","kind":"restaurant","name":"Strike Kiddo","lat":38.01119139287315,"lng":23.650703428601517,"url":"https://maps.app.goo.gl/zpYyze4k5z1xryNd8?g_st=ipc","address":"Λεωφ. Αθηνών 336, Χαϊδάρι 124 62","categoryIds":["family-friendly"],"categories":["Kid Friendly Locations"],"distanceKm":0.30634603673494587},{"id":"coffeeBrunchRestaurants_d00352ea6d8c","slug":"du-pain-boulangerie-patisserie-cafe-chaidari-d003","kind":"restaurant","name":"Du Pain - Boulangerie | Patisserie | Cafe - Χαϊδάρι","lat":38.01212694777047,"lng":23.65373933583571,"url":"https://maps.app.goo.gl/F7BPdSmhWeNtbKZVA?g_st=ipc","address":"Λεωφ. Αθηνών 308, Χαϊδάρι 124 62","categoryIds":["coffee-brunch","desserts"],"categories":["Coffee & Brunch Spots","Dessert Shops"],"legacySlugs":["du-pain-boulangerie-patisserie-cafe-chaidari-9c33"],"distanceKm":0.35867755129387374},{"id":"coffeeBrunchRestaurants_21280d2fc2ee","slug":"telescope-cafe-bar-restaurant-2128","kind":"restaurant","name":"Telescope Cafe Bar Restaurant","lat":38.00692418431941,"lng":23.65623593846488,"url":"https://maps.app.goo.gl/qq7xzW7bEsPcyJT1A?g_st=ipc","address":"Φιλικής Εταιρείας, Χαϊδάρι 124 61","categoryIds":["coffee-brunch","rooftop-lounges"],"categories":["Coffee & Brunch Spots","Rooftop Lounges"],"legacySlugs":["telescope-cafe-bar-restaurant-0981"],"distanceKm":0.37839890775315754},{"id":"dessertsRestaurants_1765ea0649e8","slug":"zacharoplasteio-andreadakis-dasos-chaidarioy-1765","kind":"restaurant","name":"Ζαχαροπλαστείο Ανδρεαδάκης Δάσος Χαϊδαρίου","lat":38.01441009164151,"lng":23.65246594622769,"url":"https://maps.app.goo.gl/vsbKYJMV6rWGy5Uc8?g_st=ipc","address":"Γεωρ. Παπανδρέου 33, Χαϊδάρι 124 63","categoryIds":["desserts"],"categories":["Dessert Shops"],"distanceKm":0.6037189508118483},{"id":"mexicanRestaurants_67556fc4ed45","slug":"foinikas-cocina-y-cocteleria-mexicana-6755","kind":"restaurant","name":"Foinikas Cocina Y Cocteleria Mexicana","lat":38.015441217507856,"lng":23.650413232343997,"url":"https://maps.app.goo.gl/opzLk9C1z99QsEwW7?g_st=ipc","address":"Ηρ. Πολυτεχνείου 76, Χαϊδάρι 124 62","categoryIds":["mexican"],"categories":["Mexican Restaurants"],"distanceKm":0.7475281913016559},{"id":"dessertsRestaurants_60263203c5ab","slug":"zacharoplasteio-loyx-6026","kind":"restaurant","name":"Ζαχαροπλαστείο Λουξ","lat":38.00559008775559,"lng":23.66029440436054,"url":"https://maps.app.goo.gl/QWGZuk9nzJoeC9xf6?g_st=ipc","address":"Αγωνιστών Στρατοπέδου Χαϊδαρίου 32, Χαϊδάρι 124 61","categoryIds":["desserts"],"categories":["Dessert Shops"],"distanceKm":0.7574340697632939},{"id":"coffeeBrunchRestaurants_ed186b21821d","slug":"grand-cafe-ed18","kind":"restaurant","name":"Grand Cafe","lat":38.01669030501736,"lng":23.65067849733212,"url":"https://maps.app.goo.gl/4ikkZmtmj8GogkUe7?g_st=ipc","address":"Γεωρ. Παπανδρέου 53, Χαϊδάρι 124 62","categoryIds":["coffee-brunch"],"categories":["Coffee & Brunch Spots"],"distanceKm":0.8765048919395061},{"id":"familyFriendly_7539abe09fd5","slug":"votanikos-kipos-diomidoys-7539","kind":"restaurant","name":"Βοτανικός Κήπος Διομήδους","lat":38.010895961889986,"lng":23.642935426625115,"url":"https://maps.app.goo.gl/WsLFbFUaXSS2rGMR6?g_st=ipc","address":"Ιερά Οδός 403, Χαϊδάρι 124 61","categoryIds":["family-friendly"],"categories":["Kid Friendly Locations"],"distanceKm":0.8900159229052599},{"id":"coffeeBrunchRestaurants_7dd888878942","slug":"botanical-garden-bistrot-7dd8","kind":"restaurant","name":"Botanical Garden Bistrot","lat":38.01082910356087,"lng":23.64241923148242,"url":"https://maps.app.goo.gl/K8biwYq9RLoEXdZZA?g_st=ipc","address":"Βοτανικός Κήπος, Ιερά Οδός 403, Χαϊδάρι 124 61","categoryIds":["coffee-brunch"],"categories":["Coffee & Brunch Spots"],"distanceKm":0.9323367473233438},{"id":"greekRestaurants_9f4c1147cab2","slug":"ellinon-ta-xydia-9f4c","kind":"restaurant","name":"Ελλήνων Τα..ξυδια","lat":38.00596041944379,"lng":23.66399500584869,"url":"https://maps.app.goo.gl/oC72DF6MLMBssYjU7","address":"Νικ. Πλαστήρα 32, Χαϊδάρι 124 61","categoryIds":["greek-restaurants"],"categories":["Greek Restaurants"],"distanceKm":1.03688556090353},{"id":"cheapEatsRestaurants_eb9e5b7b1e69","slug":"nostimies-eb9e","kind":"restaurant","name":"Νοστιμιές","lat":38.006695342963845,"lng":23.664393083804136,"url":"https://maps.app.goo.gl/dWSfhPqcebsnfQNf9?g_st=ipc","address":"Γεωργίου Καραϊσκάκη 73 & Σάμου, Χαϊδάρι 124 61","categoryIds":["cheap-eats"],"categories":["Gyros & Cheap Eats"],"distanceKm":1.0471010091402806},{"id":"mexicanRestaurants_4fd2b517e59f","slug":"chicos-tequileria-mexicana-4fd2","kind":"restaurant","name":"Chicos Tequileria Mexicana","lat":38.00505726765837,"lng":23.664098826548518,"url":"https://maps.app.goo.gl/EqAGEAoJuRooejLJA?g_st=ipc","address":"Στρ. Καραϊσκάκη 49, Χαϊδάρι 124 61","categoryIds":["mexican"],"categories":["Mexican Restaurants"],"distanceKm":1.0820127966923696},{"id":"italianRestaurants_2e4b8b331a1f","slug":"trattoria-casa-bianca-2e4b","kind":"restaurant","name":"Trattoria Casa Bianca","lat":38.004704945340144,"lng":23.664059272009183,"url":"https://maps.app.goo.gl/akcP8bTGNqFh27cR9?g_st=ipc","address":"Στρ. Καραϊσκάκη 43, Χαϊδάρι 124 61","categoryIds":["italian"],"categories":["Italian Restaurants"],"distanceKm":1.0952996142451523},{"id":"greekRestaurants_741518abaa86","slug":"the-meaters-urban-beer-garden-7415","kind":"restaurant","name":"The Meaters Urban Beer Garden","lat":38.003598614109904,"lng":23.66346778642219,"url":"https://maps.app.goo.gl/zrm7vsMu18rMsZFJA","address":"Στρ. Καραϊσκάκη 25, Χαϊδάρι 124 61","categoryIds":["greek-restaurants"],"categories":["Greek Restaurants"],"distanceKm":1.1101493876537907},{"id":"greekRestaurants_2f9a21e4ef01","slug":"pesto-ki-egine-2f9a","kind":"restaurant","name":"Πέστο Κι Έγινε","lat":38.00286560260897,"lng":23.663110435533067,"url":"https://maps.app.goo.gl/xWbZXEXeN5pg16TG9","address":"Στρ. Καραϊσκάκη 17, Χαϊδάρι 124 61","categoryIds":["greek-restaurants"],"categories":["Greek Restaurants"],"distanceKm":1.1310244616892653},{"id":"greekRestaurants_b6bacb590b9a","slug":"to-yiasemi-food-wine-experience-b6ba","kind":"restaurant","name":"To Yiasemi Food & Wine Experience","lat":38.00142234618658,"lng":23.662754824513232,"url":"https://maps.app.goo.gl/72YzkYeb6xxkDt68A","address":"Στρ. Καραϊσκάκη 1, Β, Χαϊδάρι 124 61","categoryIds":["greek-restaurants"],"categories":["Greek Restaurants"],"distanceKm":1.211671040832608},{"id":"coffeeBrunchRestaurants_639c2aabee9d","slug":"qahwa-chaidari-639c","kind":"restaurant","name":"Qahwa Chaidari","lat":38.00126380773835,"lng":23.663252642859884,"url":"https://maps.app.goo.gl/vAwUeBwjnVB6oM6A7?g_st=ipc","address":"Στρ. Καραϊσκάκη 12, Χαϊδάρι 124 61","categoryIds":["coffee-brunch"],"categories":["Coffee & Brunch Spots"],"distanceKm":1.2554271829059556},{"id":"municipalities_5aa1ce67a878","slug":"chaidari-5aa1","kind":"municipality","name":"Χαϊδάρι","lat":38.0117,"lng":23.6689,"aliases":["Xaidari","Haidari"],"region":"Δυτικά Προάστια","name_en":"Chaidari","region_en":"Western Suburbs","distanceKm":1.4423333941136476},{"id":"monasteriesChurches_9012455a363d","slug":"iera-moni-dafnioy-9012","kind":"restaurant","name":"Ιερά Μονή Δαφνίου","lat":38.012995167161115,"lng":23.63601896606369,"url":"https://maps.app.goo.gl/idE6eKcfBqTpZbE78?g_st=ipc","address":"Ιερά Οδός, Χαϊδάρι 124 61","categoryIds":["monasteries-churches","attractions"],"categories":["Monasteries & Spiritual Sites","Must-See Attractions"],"legacySlugs":["iera-moni-dafnioy-2115"],"distanceKm":1.5363353936872},{"id":"municipalities_856f4c0ff4e6","slug":"agia-varvara-856f","kind":"municipality","name":"Αγία Βαρβάρα","lat":38.0065,"lng":23.6715,"region":"Δυτικά Προάστια","name_en":"Agia Varvara","region_en":"Western Suburbs","distanceKm":1.6614598133859386},{"id":"cheapEatsRestaurants_85d33bf344bd","slug":"psistaria-mparmpa-q-85d3","kind":"restaurant","name":"Ψησταριά ΜΠΑΡΜΠΑ-Q","lat":38.00370912884522,"lng":23.671659527057734,"url":"https://maps.app.goo.gl/hUJucEmJmMyQKCdo7?g_st=ipc","address":"Ηρακλείτου 68, Αιγάλεω 122 43","categoryIds":["cheap-eats"],"categories":["Gyros & Cheap Eats"],"distanceKm":1.7534244334415086},{"id":"dessertsRestaurants_785eeca94828","slug":"zacharoplasteia-kosmikon-ag-marina-iera-odos-335-785e","kind":"restaurant","name":"ΖΑΧΑΡΟΠΛΑΣΤΕΙΑ ΚΟΣΜΙΚΟΝ ΑΓ.ΜΑΡΙΝΑ ΙΕΡΑ ΟΔΟΣ 335","lat":37.997674954706554,"lng":23.667015535582053,"url":"https://maps.app.goo.gl/dYPUKHVLHxCx5BKd6?g_st=ipc","address":"Ιερά Οδός 335, Αγ. Βαρβάρα 123 51","categoryIds":["desserts"],"categories":["Dessert Shops"],"distanceKm":1.770131872104967},{"id":"cheapEatsRestaurants_ff6ed582468d","slug":"kantina-mpoylis-ff6e","kind":"restaurant","name":"Καντίνα Μπούλης","lat":37.99687794724643,"lng":23.669076776828845,"url":"https://maps.app.goo.gl/xe2rY6uCMrsoqN6Z6?g_st=ipc","address":"Δελφών 1, Αιγάλεω 122 43","categoryIds":["cheap-eats"],"categories":["Gyros & Cheap Eats"],"distanceKm":1.961295204171853},{"id":"dessertsRestaurants_05b930fb8ac7","slug":"zacharoplasteio-andreadakis-peristeri-05b9","kind":"restaurant","name":"Ζαχαροπλαστείο Ανδρεαδάκης Περιστέρι","lat":38.01702641407976,"lng":23.675166561774304,"url":"https://maps.app.goo.gl/zRyi93GrVsyvFdqa8?g_st=ipc","address":"Πελοπίδα 172, Περιστέρι 121 37","categoryIds":["desserts"],"categories":["Dessert Shops"],"distanceKm":2.153666115356689}],"sameRegion":[],"mentionedGuides":[],"canonicalSlug":"ena-ena-d043","isCanonicalEntity":true,"enrichment":{"summary_en":"Ένα & Ένα is a curated restaurant in Χαϊδάρι 124 61 in the Greek Restaurants collection. It is connected to 6 nearby Googlementor picks to help travelers build a stronger local route.","summary_el":"Ένα & Ένα είναι ένα επιλεγμένο σημείο φαγητού στην περιοχή Χαϊδάρι 124 61 και ανήκει στη συλλογή Greek Restaurants. Συνδέεται με 6 κοντινές προτάσεις του Googlementor για πιο ολοκληρωμένη εμπειρία.","vibe_tags":["curated"],"best_for":["first-time visitors","food lovers"],"visit_moments":["lunch stop","dinner stop"],"practical_note":"Address and direct map link are available for easy turn-by-turn access.","nearby_walkable_count":6,"nearby_count_2km":23,"confidence":0.98}},"__N_SSG":true}