{"pageProps":{"entity":{"id":"italianRestaurants_e7c94ca15e1b","slug":"granello-pizza-italiana-e7c9","kind":"restaurant","name":"Granello - Pizza Italiana","lat":37.97667761548528,"lng":23.73173801660532,"url":"https://maps.app.goo.gl/nkhWXfUCf8UqXp5W9?g_st=ipc","address":"Περικλέους 18, Αθήνα 105 62","categoryIds":["italian"],"categories":["Italian Restaurants"]},"sameCategory":[{"id":"italianRestaurants_41ab3f71a154","slug":"aliola-s-ermou-41ab","kind":"restaurant","name":"Aliola’s Ermou","lat":37.97633249966058,"lng":23.7318293724108,"url":"https://maps.app.goo.gl/4FHfDnNt7PhJxhxK6?g_st=ipc","address":"Ερμού 18 &, Διομείας 2, Αθήνα 105 63","categoryIds":["italian"],"categories":["Italian Restaurants"]},{"id":"italianRestaurants_15f54ac83ec4","slug":"gloria-gati-15f5","kind":"restaurant","name":"Gloria Gati","lat":37.97802514944533,"lng":23.731662994218254,"url":"https://maps.app.goo.gl/VyAef5tB1eVm8LECA?g_st=ipc","address":"Πλ. Αγίου Γεωργίου Καρύτση 6, Αθήνα 105 61","categoryIds":["italian"],"categories":["Italian Restaurants"]},{"id":"italianRestaurants_ecac45aa4447","slug":"2h-restaurant-ecac","kind":"restaurant","name":"\"+2H Restaurant\"","lat":37.97531452405919,"lng":23.73121660311007,"url":"https://maps.app.goo.gl/gjaqkvxWUZYGRAXB9?g_st=ipc","address":"Rooftop of ERGON Bakehouse, Μητροπόλεως 27, Αθήνα 105 57","categoryIds":["italian"],"categories":["Italian Restaurants"]},{"id":"italianRestaurants_9735f36161b6","slug":"pracsitele-9735","kind":"restaurant","name":"Pracsitele","lat":37.978075255049035,"lng":23.730655699973674,"url":"https://maps.app.goo.gl/uY33YuN8n7TKUXd86?g_st=ipc","address":"Πραξιτέλους 7, Αθήνα 105 62","categoryIds":["italian"],"categories":["Italian Restaurants"]},{"id":"italianRestaurants_ef8284fad678","slug":"v1935-roof-garden-ef82","kind":"restaurant","name":"V1935 Roof Garden","lat":37.974997891356715,"lng":23.732428069404467,"url":"https://maps.app.goo.gl/TKodgxdpAuijQZCk7?g_st=ipc","address":"Βουλής 29, Αθήνα 105 57","categoryIds":["italian"],"categories":["Italian Restaurants"]},{"id":"italianRestaurants_4213a3098622","slug":"ami-italian-bistrot-4213","kind":"restaurant","name":"Ami Italian Bistrot","lat":37.97469248298705,"lng":23.732316050865755,"url":"https://maps.app.goo.gl/ddcDFfjhHBSTkLzH8?g_st=ipc","address":"Βουλής, Απόλλωνος &, Αθήνα 105 57","categoryIds":["italian"],"categories":["Italian Restaurants"]},{"id":"italianRestaurants_8dc12f0e929e","slug":"ovio-8dc1","kind":"restaurant","name":"OVIO","lat":37.974772406489194,"lng":23.732726038133688,"url":"https://maps.app.goo.gl/YsVGa9MzZPoFLxFs9?g_st=ipc","address":"Απόλλωνος 4, Αθήνα 105 57","categoryIds":["italian"],"categories":["Italian Restaurants"]},{"id":"coffeeBrunchRestaurants_03891d56076e","slug":"odori-0389","kind":"restaurant","name":"Odori","lat":37.97922436265169,"lng":23.729754698272135,"url":"https://maps.app.goo.gl/Wa5G5txL7dyLZjDX9?g_st=ipc","address":"Σκουλενίου 2, Αθήνα 105 61","categoryIds":["coffee-brunch","italian"],"categories":["Coffee & Brunch Spots","Italian Restaurants"],"legacySlugs":["odori-0301"]},{"id":"italianRestaurants_a85b9e4df417","slug":"brigante-syntagma-a85b","kind":"restaurant","name":"Brigante (Σύνταγμα)","lat":37.97426577787846,"lng":23.734179177201504,"url":"https://maps.app.goo.gl/RmErpGj8TndJSV9v7?g_st=ipc","address":"Ξενοφώντος 6, Αθήνα 105 57","categoryIds":["italian"],"categories":["Italian Restaurants"]},{"id":"italianRestaurants_f8696119f84a","slug":"dr-8-f869","kind":"restaurant","name":"DR.8","lat":37.97961742890019,"lng":23.730308681463843,"url":"https://maps.app.goo.gl/e4S1yWk4AQ9uuCD96?g_st=ipc","address":"Δραγατσανίου 8, Αθήνα 105 59","categoryIds":["italian"],"categories":["Italian Restaurants"]},{"id":"italianRestaurants_c9470358a12d","slug":"la-pasteria-c947","kind":"restaurant","name":"La Pasteria","lat":37.97832911911956,"lng":23.73614187652223,"url":"https://maps.app.goo.gl/4tmrg1wVrWp5rgjx6?g_st=ipc","address":"Βαλαωρίτου 15, Αθήνα 106 71","categoryIds":["italian"],"categories":["Italian Restaurants"]},{"id":"italianRestaurants_b4580bbde39a","slug":"piadina-lumbro-b458","kind":"restaurant","name":"Piadina Lumbro","lat":37.97943796124596,"lng":23.735657958882037,"url":"https://maps.app.goo.gl/uGAbtwYha4Eeb7c56?g_st=ipc","address":"Ομήρου 15, Αθήνα 106 72","categoryIds":["italian"],"categories":["Italian Restaurants"]}],"nearby":[{"id":"coffeeBrunchRestaurants_75593e6eed28","slug":"pura-vida-athens-7559","kind":"restaurant","name":"PURA VIDA athens","lat":37.97668183849927,"lng":23.73150959247157,"url":"https://maps.app.goo.gl/e9ktUnuxp3FdRJyF8?g_st=ipc","address":"Περικλέους 24-26, Αθήνα 105 62","categoryIds":["coffee-brunch"],"categories":["Coffee & Brunch Spots"],"distanceKm":0.020027030685432847},{"id":"luxuryDiningRestaurants_c75b4f75eed4","slug":"geco-athens-c75b","kind":"restaurant","name":"Geco Athens","lat":37.97686179118327,"lng":23.732026538746123,"url":"https://maps.app.goo.gl/p3ytMHs2cKCwK2j76?g_st=ipc","address":"Λέκκα 14, Αθήνα 105 62","categoryIds":["luxury-dining"],"categories":["Luxury Dining"],"distanceKm":0.03254144619297234},{"id":"italianRestaurants_41ab3f71a154","slug":"aliola-s-ermou-41ab","kind":"restaurant","name":"Aliola’s Ermou","lat":37.97633249966058,"lng":23.7318293724108,"url":"https://maps.app.goo.gl/4FHfDnNt7PhJxhxK6?g_st=ipc","address":"Ερμού 18 &, Διομείας 2, Αθήνα 105 63","categoryIds":["italian"],"categories":["Italian Restaurants"],"distanceKm":0.03920164804199535},{"id":"dessertsRestaurants_eb9f02ba5b47","slug":"choureal-choux-profiterole-eb9f","kind":"restaurant","name":"CHOUREAL - Choux & Profiterole","lat":37.97617972861017,"lng":23.73180056203846,"url":"https://maps.app.goo.gl/qEAK3Nkr3LyPuUwh9?g_st=ipc","address":"Διομείας 2 &, Ερμού 18, Αθήνα 105 63","categoryIds":["desserts"],"categories":["Dessert Shops"],"distanceKm":0.05563326304640413},{"id":"rooftopLoungesRestaurants_986af6d41f8f","slug":"ermou-18-beyond-the-horizon-986a","kind":"restaurant","name":"Ermou 18 Beyond the Horizon","lat":37.97612467035227,"lng":23.731892472806617,"url":"https://maps.app.goo.gl/29x8TUkS1Zi5ckeK6?g_st=ipc","address":"Ermou 18 Beyond the Horizon","categoryIds":["rooftop-lounges"],"categories":["Rooftop Lounges"],"distanceKm":0.06295753677465786},{"id":"coffeeBrunchRestaurants_eb79294668c4","slug":"ermou-18-beyond-the-horizon-eb79","kind":"restaurant","name":"Ermou 18 Beyond the Horizon","lat":37.97612271055357,"lng":23.731891623776487,"url":"https://maps.app.goo.gl/2L1MqjzdZCmDsrCj6?g_st=ipc","address":"Ερμού 18, Αθήνα 105 63","categoryIds":["coffee-brunch"],"categories":["Coffee & Brunch Spots"],"distanceKm":0.06315446881313078},{"id":"cheapEatsRestaurants_1bc4d9fd56dd","slug":"harry-s-kitchen-1bc4","kind":"restaurant","name":"Harry's Kitchen","lat":37.97623023407263,"lng":23.732424722550896,"url":"https://maps.app.goo.gl/4ThbHca8EWSeyv4f9?g_st=ipc","address":"Αθανασίου Αξαρλιάν 2, Αθήνα 105 63","categoryIds":["cheap-eats"],"categories":["Gyros & Cheap Eats"],"distanceKm":0.07808715713027722},{"id":"dessertsRestaurants_c341ccbd87e0","slug":"ariston-lompotesis-c341","kind":"restaurant","name":"ΑΡΙΣΤΟΝ ΛΟΜΠΟΤΕΣΗΣ","lat":37.97670511785389,"lng":23.732649290748736,"url":"https://maps.app.goo.gl/GQVtxtBLY3rpmzsa9?g_st=ipc","address":"Βουλής 10, Αθήνα 105 62","categoryIds":["desserts","vegetarian"],"categories":["Dessert Shops","Vegetarian Friendly Restaurants"],"legacySlugs":["ariston-lompotesis-daef"],"distanceKm":0.07993228397767108},{"id":"coffeeBrunchRestaurants_34ae78424cdb","slug":"abuelo-34ae","kind":"restaurant","name":"Abuelo","lat":37.977278007040915,"lng":23.732254640031748,"url":"https://maps.app.goo.gl/mtDzW4EBiKS3shLM8?g_st=ipc","address":"Κολοκοτρώνη 11, Αθήνα 105 62","categoryIds":["coffee-brunch"],"categories":["Coffee & Brunch Spots"],"distanceKm":0.08066871201418134},{"id":"cheapEatsRestaurants_7f568e47c0a8","slug":"fuddy-duddy-7f56","kind":"restaurant","name":"FUDDY DUDDY","lat":37.97744212384706,"lng":23.73144118284602,"url":"https://maps.app.goo.gl/vVmR4bTFHYKewmjK9?g_st=ipc","address":"Λέκκα 32, Αθήνα 105 62","categoryIds":["cheap-eats"],"categories":["Gyros & Cheap Eats"],"distanceKm":0.08890173846990237},{"id":"coffeeBrunchRestaurants_10f7636fb183","slug":"fillo-10f7","kind":"restaurant","name":"Fillo","lat":37.97664924966537,"lng":23.732881855883917,"url":"https://maps.app.goo.gl/kXhn28aSgrw8SgU47?g_st=ipc","address":"105 62, Βουλής 11, Αθήνα 105 62","categoryIds":["coffee-brunch"],"categories":["Coffee & Brunch Spots"],"distanceKm":0.10030788590416112},{"id":"dessertsRestaurants_ce9de85fc0a1","slug":"aristokratikon-epich-ap-to-1928-syntagma-athina-ce9d","kind":"restaurant","name":"Αριστοκρατικόν (Επιχ. απ'το 1928) - Σύνταγμα, Αθήνα","lat":37.97685312862056,"lng":23.732864293474787,"url":"https://maps.app.goo.gl/ZpgyyzyeJjW4e7Y58?g_st=ipc","address":"Βουλής 7, Αθήνα 105 62","categoryIds":["desserts"],"categories":["Dessert Shops"],"distanceKm":0.10062942052136933},{"id":"dessertsRestaurants_ecf6d66518c8","slug":"oggi-officina-gelato-gusto-italiano-athens-ecf6","kind":"restaurant","name":"Oggi - Officina Gelato Gusto Italiano, Athens","lat":37.97609425961556,"lng":23.73264733165775,"url":"https://maps.app.goo.gl/tFchspxKZcFEKXjf6?g_st=ipc","address":"Βουλής 17, Αθήνα 105 63","categoryIds":["desserts"],"categories":["Dessert Shops"],"distanceKm":0.1027623215193056},{"id":"rooftopLoungesRestaurants_fb4de5c9639b","slug":"elysium-athens-rooftop-dining-cocktails-fb4d","kind":"restaurant","name":"Elysium Athens Rooftop | Dining & Cocktails","lat":37.97568079594514,"lng":23.731930908514958,"url":"https://maps.app.goo.gl/XadarqG8B9MPBT9e7?g_st=ipc","address":"15-17, Ερμού 105 63, Αθήνα","categoryIds":["rooftop-lounges"],"categories":["Rooftop Lounges"],"distanceKm":0.11212333560066724},{"id":"asianRestaurants_c5be8384da5c","slug":"hanoi-athens-authentic-vietnamese-food-c5be","kind":"restaurant","name":"HANOI ATHENS - AUTHENTIC VIETNAMESE FOOD","lat":37.97561643327209,"lng":23.73154671347612,"url":"https://maps.app.goo.gl/WvsC9Ebt7yScnxNH8?g_st=ipc","address":"Πετράκη 12, Αθήνα 105 63","categoryIds":["asian","vegetarian"],"categories":["Asian Restaurants","Vegetarian Friendly Restaurants"],"legacySlugs":["hanoi-athens-authentic-vietnamese-food-1e56"],"distanceKm":0.11918351892588466},{"id":"burgersRestaurants_f300f2c4a7ef","slug":"starlight-burgers-f300","kind":"restaurant","name":"Starlight Burgers","lat":37.97768708628673,"lng":23.730973383072776,"url":"https://maps.app.goo.gl/tRpSe3harTyJVBVg7?g_st=ipc","address":"Πραξιτέλους 1, Αθήνα 105 62","categoryIds":["burgers"],"categories":["Burger Spots"],"distanceKm":0.13073379010886982},{"id":"coffeeBrunchRestaurants_a3e6dda2655d","slug":"tazza-caffe-a3e6","kind":"restaurant","name":"Tazza caffe","lat":37.975499371808404,"lng":23.73172660898901,"url":"https://maps.app.goo.gl/uGLfA2cFXs7RueeS6?g_st=ipc","address":"Πετράκη 5, Αθήνα 105 63","categoryIds":["coffee-brunch"],"categories":["Coffee & Brunch Spots"],"distanceKm":0.13101853471312302},{"id":"dessertsRestaurants_dd2783c4061c","slug":"my-cookie-dough-athens-dd27","kind":"restaurant","name":"My Cookie Dough Athens","lat":37.97549732457017,"lng":23.731646460060947,"url":"https://maps.app.goo.gl/h3es1mjnAZfnhipp6?g_st=ipc","address":"Petraki 7, Athina 105 63","categoryIds":["desserts"],"categories":["Dessert Shops"],"distanceKm":0.1314874862156722},{"id":"vegetarianRestaurants_7a48cadc1cba","slug":"sugar-killer-7a48","kind":"restaurant","name":"Sugar Killer","lat":37.976654957150416,"lng":23.730157941231223,"url":"https://maps.app.goo.gl/326sYhMHWCiSjUJW9?g_st=ipc","address":"Περικλέους 33, Αθήνα 105 63","categoryIds":["vegetarian"],"categories":["Vegetarian Friendly Restaurants"],"distanceKm":0.13851758116485113},{"id":"vegetarianRestaurants_dd280fa872e6","slug":"not-just-falafel-vegeterian-food-athens-vegan-friendly-dd28","kind":"restaurant","name":"Not Just Falafel | Vegeterian food Athens | Vegan Friendly","lat":37.97672606756175,"lng":23.730150682547393,"url":"https://maps.app.goo.gl/rugWqM8JRvoZaHPm9?g_st=ipc","address":"Ρόμβης 16, Αθήνα 105 62","categoryIds":["vegetarian"],"categories":["Vegetarian Friendly Restaurants"],"distanceKm":0.1392351015254895},{"id":"cheapEatsRestaurants_fb9d26e8cad9","slug":"meat-the-greek-fb9d","kind":"restaurant","name":"Meat the Greek","lat":37.97583452449836,"lng":23.730527268129777,"url":"https://maps.app.goo.gl/4GCcGcuQpLTaTXZf8?g_st=ipc","address":"Φωκίωνος 2-4, Αθήνα 105 63","categoryIds":["cheap-eats"],"categories":["Gyros & Cheap Eats"],"distanceKm":0.14160078276803933},{"id":"fishTavernasRestaurants_4f63eacbb9ca","slug":"athinaikon-4f63","kind":"restaurant","name":"Αθηναϊκόν","lat":37.97539194175071,"lng":23.731456162944593,"url":"https://maps.app.goo.gl/4i8vjPk72WB5DQgR6?g_st=ipc","address":"34, Μητροπόλεως str, Αθήνα 105 63","categoryIds":["fish-tavernas"],"categories":["Fish Tavernas"],"distanceKm":0.14507930879206504},{"id":"coffeeBrunchRestaurants_d761c46075d4","slug":"le-petit-village-d761","kind":"restaurant","name":"Le Petit Village","lat":37.97573184070448,"lng":23.730557151684366,"url":"https://maps.app.goo.gl/yQDokn8qrofNRvbN9?g_st=ipc","address":"Φωκίωνος 2, Αθήνα 105 63","categoryIds":["coffee-brunch"],"categories":["Coffee & Brunch Spots"],"distanceKm":0.14755637141471},{"id":"asianRestaurants_427d94265987","slug":"shisan-sushi-bar-427d","kind":"restaurant","name":"Shisan Sushi Bar","lat":37.977337086650145,"lng":23.730266018891072,"url":"https://maps.app.goo.gl/nPpYrXs7ZyBAs7gx9?g_st=ipc","address":"Ρόμβης 24Α, Αθήνα 105 62","categoryIds":["asian"],"categories":["Asian Restaurants"],"distanceKm":0.1484037790619519}],"sameRegion":[],"mentionedGuides":[],"canonicalSlug":"granello-pizza-italiana-e7c9","isCanonicalEntity":true,"enrichment":{"summary_en":"Granello - Pizza Italiana is a curated restaurant in Αθήνα 105 62 in the Italian Restaurants collection. It is connected to 310 nearby Googlementor picks to help travelers build a stronger local route.","summary_el":"Granello - Pizza Italiana είναι ένα επιλεγμένο σημείο φαγητού στην περιοχή Αθήνα 105 62 και ανήκει στη συλλογή Italian Restaurants. Συνδέεται με 310 κοντινές προτάσεις του Googlementor για πιο ολοκληρωμένη εμπειρία.","vibe_tags":["curated"],"best_for":["first-time visitors","food lovers"],"visit_moments":["lunch stop","dinner stop"],"practical_note":"Address and direct map link are available for easy turn-by-turn access.","nearby_walkable_count":310,"nearby_count_2km":658,"confidence":0.98}},"__N_SSG":true}