{"pageProps":{"entity":{"id":"greekRestaurants_2a52e887a9bb","slug":"i-oraia-ydra-2a52","kind":"restaurant","name":"Η Ωραία Ύδρα","lat":37.34994288805934,"lng":23.466175945881538,"url":"https://maps.app.goo.gl/rkvAbXZyRA6uxizH8?g_st=ipc","address":"Ύδρας, Ύδρα 180 40","categoryIds":["greek-restaurants"],"categories":["Greek Restaurants"]},"sameCategory":[{"id":"greekRestaurants_957bfb0c0005","slug":"psaropoyla-g-mayrommatis-i-mayrommatis-g-eystathioy-oe-o-e-957b","kind":"restaurant","name":"ΨΑΡΟΠΟΥΛΑ Γ.ΜΑΥΡΟΜΜΑΤΗΣ-Η.ΜΑΥΡΟΜΜΑΤΗΣ-Γ.ΕΥΣΤΑΘΙΟΥ ΟΕ Ο.Ε","lat":37.34973982167689,"lng":23.46495374540123,"url":"https://maps.app.goo.gl/Xci6cmF7LRrnCad59?g_st=ipc","address":"Μιαούλη 454, Ύδρα 180 40","categoryIds":["greek-restaurants"],"categories":["Greek Restaurants"]},{"id":"greekRestaurants_37c38a309ff6","slug":"castello-hydra-37c3","kind":"restaurant","name":"Castello Hydra","lat":37.34652415693392,"lng":23.455436035571626,"url":"https://maps.app.goo.gl/ZWwvNsRtXjXrDC2j9?g_st=ipc","address":"Kamini Hydra Island Hydra Island, 180 40","categoryIds":["greek-restaurants"],"categories":["Greek Restaurants"]},{"id":"greekRestaurants_5cc6a0ad45a2","slug":"dimitris-family-butcher-taverna-5cc6","kind":"restaurant","name":"DIMITRIS FAMILY BUTCHER TAVERNA","lat":37.49998863137907,"lng":23.454951269041434,"url":"https://maps.app.goo.gl/rVV7dw6UQwPvjHip9?g_st=ipc","address":"25 ΜΑΡΤΙΟΥ 12, Πόρος 180 20","categoryIds":["greek-restaurants"],"categories":["Greek Restaurants"]},{"id":"greekRestaurants_542454bebe35","slug":"to-pachni-5424","kind":"restaurant","name":"Το Παχνί","lat":37.258940457050436,"lng":23.158493356055367,"url":"https://maps.app.goo.gl/Tmcgsc72ZpK8WBnD7?g_st=ipc","address":"Σπέτσες 180 50","categoryIds":["greek-restaurants"],"categories":["Greek Restaurants"]},{"id":"greekRestaurants_194196a775f8","slug":"taverna-mpatzavalis-1941","kind":"restaurant","name":"Ταβέρνα Μπατζάβαλης","lat":37.538801302509206,"lng":23.20804103233561,"url":"https://maps.app.goo.gl/PctHkeeHVJEeQDux6?g_st=ipc","address":"Καρατζάς 180 20","categoryIds":["greek-restaurants"],"categories":["Greek Restaurants"]},{"id":"greekRestaurants_4c0797e5b05b","slug":"to-steki-toy-kynigoy-4c07","kind":"restaurant","name":"Το Στέκι του Κυνηγού","lat":37.70692578125452,"lng":23.504550200008005,"url":"https://maps.app.goo.gl/eRHkBsaWKHX368U76?g_st=ipc","address":"Ανίτσαιο 180 10","categoryIds":["greek-restaurants"],"categories":["Greek Restaurants"]},{"id":"greekRestaurants_fe33131c983d","slug":"toxotis-fe33","kind":"restaurant","name":"ΤΟΞΟΤΗΣ","lat":37.70895258892911,"lng":23.363446090303647,"url":"https://maps.app.goo.gl/y4Wvco9rEc1QfYUM6?g_st=ipc","address":"Σκάλα 180 10","categoryIds":["greek-restaurants"],"categories":["Greek Restaurants"]},{"id":"greekRestaurants_7e47ce5f873d","slug":"o-manitas-sto-kyma-7e47","kind":"restaurant","name":"Ο Μάνιτας στο Κύμα","lat":37.72802490000876,"lng":23.436258793291216,"url":"https://maps.app.goo.gl/mdpRWqsEC1ekDdu26?g_st=ipc","address":"Άγιος Βασίλης Περιβόλα, Αίγινα 180 10","categoryIds":["greek-restaurants"],"categories":["Greek Restaurants"]},{"id":"greekRestaurants_2017008c1880","slug":"paradosiaki-taverna-vatzoylias-2017","kind":"restaurant","name":"Παραδοσιακή Ταβέρνα Βατζούλιας","lat":37.74554524402309,"lng":23.44741816441979,"url":"https://maps.app.goo.gl/mXN4oehYWbVxscvt8?g_st=ipc","address":"Αφαίας 215, Αίγινα 180 10","categoryIds":["greek-restaurants"],"categories":["Greek Restaurants"]},{"id":"greekRestaurants_7b2f8cec89e8","slug":"estiatorio-thymari-7b2f","kind":"restaurant","name":"Εστιατόριο Θυμάρι","lat":37.74409980963869,"lng":23.53632010673103,"url":"https://maps.app.goo.gl/rzpZZmk1oVw5HpXk9?g_st=ipc","address":"Λεωφ. Αφαίας, Αγ. Μαρίνα 180 10","categoryIds":["greek-restaurants"],"categories":["Greek Restaurants"]},{"id":"greekRestaurants_3deccfb243c6","slug":"maria-s-restaurant-3dec","kind":"restaurant","name":"Maria's Restaurant","lat":37.52164513322119,"lng":22.86050581823376,"url":"https://maps.app.goo.gl/QbgkBU617RxRPjsA9?g_st=ipc","address":"Μπουμπουλίνας 48, Τολό 210 56","categoryIds":["greek-restaurants"],"categories":["Greek Restaurants"]},{"id":"greekRestaurants_456e04c6f039","slug":"taverna-akrogiali-456e","kind":"restaurant","name":"Ταβέρνα Ακρογιάλι","lat":37.52046536124531,"lng":22.859758080550037,"url":"https://maps.app.goo.gl/ozgqdAjUGP2zDfVP7?g_st=ipc","address":"Ακτης 10, Τολό 210 56","categoryIds":["greek-restaurants"],"categories":["Greek Restaurants"]}],"nearby":[{"id":"municipalities_5b2ddd41014c","slug":"ydra-5b2d","kind":"municipality","name":"Ύδρα","lat":37.35,"lng":23.4667,"aliases":["Υδρα"],"region":"Νησιά Αργοσαρωνικού","name_en":"Hydra","region_en":"Saronic Islands","distanceKm":0.04675642237920238},{"id":"coffeeBrunchRestaurants_6a007e672d77","slug":"the-pirate-bar-6a00","kind":"restaurant","name":"The Pirate Bar","lat":37.34970734644238,"lng":23.46509825080948,"url":"https://maps.app.goo.gl/kHR9XPEtdhdttpmr9?g_st=ipc","address":"Βότση, Ύδρα 180 40","categoryIds":["coffee-brunch"],"categories":["Coffee & Brunch Spots"],"distanceKm":0.09879662696298544},{"id":"greekRestaurants_957bfb0c0005","slug":"psaropoyla-g-mayrommatis-i-mayrommatis-g-eystathioy-oe-o-e-957b","kind":"restaurant","name":"ΨΑΡΟΠΟΥΛΑ Γ.ΜΑΥΡΟΜΜΑΤΗΣ-Η.ΜΑΥΡΟΜΜΑΤΗΣ-Γ.ΕΥΣΤΑΘΙΟΥ ΟΕ Ο.Ε","lat":37.34973982167689,"lng":23.46495374540123,"url":"https://maps.app.goo.gl/Xci6cmF7LRrnCad59?g_st=ipc","address":"Μιαούλη 454, Ύδρα 180 40","categoryIds":["greek-restaurants"],"categories":["Greek Restaurants"],"distanceKm":0.11036959413171034},{"id":"fishTavernasRestaurants_83ba819e5d0a","slug":"psaropoula-83ba","kind":"restaurant","name":"Psaropoula","lat":37.349711329596715,"lng":23.46495669234671,"url":"https://maps.app.goo.gl/iEjEefYGNPNwNDDy6?g_st=ipc","address":"Miaouli 454, Idra 180 40","categoryIds":["fish-tavernas"],"categories":["Fish Tavernas"],"distanceKm":0.11080770164302006},{"id":"fishTavernasRestaurants_a1376fc53fb5","slug":"omilos-restaurant-bar-a137","kind":"restaurant","name":"Omilos Restaurant Bar","lat":37.35145736724594,"lng":23.46444594181709,"url":"https://maps.app.goo.gl/WChcxQZZeaRjrCgLA?g_st=ipc","address":"Epar.Od. Mandrakiou-Molou, Idra 180 40","categoryIds":["fish-tavernas"],"categories":["Fish Tavernas"],"distanceKm":0.22747296036267045},{"id":"fishTavernasRestaurants_23eb511b3910","slug":"sunset-restaurant-23eb","kind":"restaurant","name":"Sunset Restaurant","lat":37.35168822648852,"lng":23.46274301702218,"url":"https://maps.app.goo.gl/24WnQ3Q4oomRkZm38?g_st=ipc","address":"Eparxiaki odos Hydra, 180 40","categoryIds":["fish-tavernas"],"categories":["Fish Tavernas"],"distanceKm":0.36019977133241265},{"id":"coffeeBrunchRestaurants_24def4a9906d","slug":"ydroneta-24de","kind":"restaurant","name":"Υδρονέτα","lat":37.35156953668086,"lng":23.462454743451826,"url":"https://maps.app.goo.gl/JdZyRYb4EEJyr1MGA?g_st=ipc","address":"Επαρ.Οδ. Μανδρακίου-Μωλόυ, Ύδρα 180 40","categoryIds":["coffee-brunch"],"categories":["Coffee & Brunch Spots"],"distanceKm":0.37537889016930315},{"id":"fishTavernasRestaurants_d190706d0f4c","slug":"techne-restaurant-social-d190","kind":"restaurant","name":"Téchnē Restaurant & Social","lat":37.3499478063,"lng":23.461255663187938,"url":"https://maps.app.goo.gl/LkcL3YyhTtP2AGh39?g_st=ipc","address":"Epar.Od. Mandrakiou-Molou, Idra 180 40","categoryIds":["fish-tavernas"],"categories":["Fish Tavernas"],"distanceKm":0.43492304173250984},{"id":"greekRestaurants_37c38a309ff6","slug":"castello-hydra-37c3","kind":"restaurant","name":"Castello Hydra","lat":37.34652415693392,"lng":23.455436035571626,"url":"https://maps.app.goo.gl/ZWwvNsRtXjXrDC2j9?g_st=ipc","address":"Kamini Hydra Island Hydra Island, 180 40","categoryIds":["greek-restaurants"],"categories":["Greek Restaurants"],"distanceKm":1.0226445521380763},{"id":"municipalities_fabe4f2e7a38","slug":"poros-fabe","kind":"municipality","name":"Πόρος","lat":37.4996,"lng":23.4534,"aliases":["Πορος"],"region":"Νησιά Αργοσαρωνικού","name_en":"Poros","region_en":"Saronic Islands","distanceKm":16.679310594332186},{"id":"greekRestaurants_5cc6a0ad45a2","slug":"dimitris-family-butcher-taverna-5cc6","kind":"restaurant","name":"DIMITRIS FAMILY BUTCHER TAVERNA","lat":37.49998863137907,"lng":23.454951269041434,"url":"https://maps.app.goo.gl/rVV7dw6UQwPvjHip9?g_st=ipc","address":"25 ΜΑΡΤΙΟΥ 12, Πόρος 180 20","categoryIds":["greek-restaurants"],"categories":["Greek Restaurants"],"distanceKm":16.713742570044264},{"id":"fishTavernasRestaurants_1990237d6026","slug":"poseidon-restaurant-1990","kind":"restaurant","name":"Poseidon Restaurant","lat":37.50071286982713,"lng":23.45417804690704,"url":"https://maps.app.goo.gl/1Th6rJgnvtfqZg6q7?g_st=ipc","address":"Πλατεία Βιρβίλη, Πόρος 180 20","categoryIds":["fish-tavernas"],"categories":["Fish Tavernas"],"distanceKm":16.798301015267214},{"id":"rooftopLoungesRestaurants_b9086fd9d613","slug":"oceanis-rooftop-garden-cocktails-b908","kind":"restaurant","name":"Oceanis Rooftop Garden Cocktails","lat":37.501996070488,"lng":23.45562913585347,"url":"https://maps.app.goo.gl/jsTmkoKprsWbmQrL7?g_st=ipc","address":"Πόρος 180 20","categoryIds":["rooftop-lounges"],"categories":["Rooftop Lounges"],"distanceKm":16.933173449263087},{"id":"municipalities_50a65bde2637","slug":"ermioni-50a6","kind":"municipality","name":"Ερμιόνη","lat":37.3881,"lng":23.2431,"aliases":["Ερμιονη","Hermione"],"region":"Αργολίδα","name_en":"Ermioni","region_en":"Argolis","distanceKm":20.164944967068703},{"id":"greekRestaurants_194196a775f8","slug":"taverna-mpatzavalis-1941","kind":"restaurant","name":"Ταβέρνα Μπατζάβαλης","lat":37.538801302509206,"lng":23.20804103233561,"url":"https://maps.app.goo.gl/PctHkeeHVJEeQDux6?g_st=ipc","address":"Καρατζάς 180 20","categoryIds":["greek-restaurants"],"categories":["Greek Restaurants"],"distanceKm":30.98922734584303}],"sameRegion":[],"mentionedGuides":[],"canonicalSlug":"i-oraia-ydra-2a52","isCanonicalEntity":true,"enrichment":{"summary_en":"Η Ωραία Ύδρα is a curated restaurant in Ύδρα 180 40 in the Greek Restaurants collection. It is connected to 8 nearby Googlementor picks to help travelers build a stronger local route.","summary_el":"Η Ωραία Ύδρα είναι ένα επιλεγμένο σημείο φαγητού στην περιοχή Ύδρα 180 40 και ανήκει στη συλλογή Greek Restaurants. Συνδέεται με 8 κοντινές προτάσεις του Googlementor για πιο ολοκληρωμένη εμπειρία.","vibe_tags":["curated"],"best_for":["first-time visitors","food lovers"],"visit_moments":["lunch stop","dinner stop"],"practical_note":"Address and direct map link are available for easy turn-by-turn access.","nearby_walkable_count":8,"nearby_count_2km":9,"confidence":0.98}},"__N_SSG":true}