{"pageProps":{"entity":{"id":"municipalities_fd8232e20785","slug":"ios-fd82","kind":"municipality","name":"Ίος","lat":36.7333,"lng":25.2833,"aliases":["Ios","Ios island","Ιος"],"region":"Κυκλάδες","name_en":"Ios","region_en":"Cyclades"},"sameCategory":[],"nearby":[{"id":"greekRestaurants_7df46f2d33f8","slug":"taverna-vilaeti-7df4","kind":"restaurant","name":"Ταβέρνα Βιλαέτι","lat":36.74797589012075,"lng":25.29254143751964,"url":"https://maps.app.goo.gl/YzqRc8pVvtFzcna37?g_st=ipc","address":"Επάνω Κάμπος 840 01","categoryIds":["greek-restaurants"],"categories":["Greek Restaurants"],"distanceKm":1.8278811097108545},{"id":"fishTavernasRestaurants_1b4735e87a52","slug":"koubara-seafood-bar-restaurant-1b47","kind":"restaurant","name":"Koubara Seafood Bar Restaurant","lat":36.72514063337273,"lng":25.257265066552723,"url":"https://maps.app.goo.gl/kT2ULB9zvGfgQDHr6?g_st=ipc","address":"Κουμπάρα 840 01","categoryIds":["fish-tavernas"],"categories":["Fish Tavernas"],"distanceKm":2.491300282185927},{"id":"municipalities_7b6436cb2406","slug":"sikinos-7b64","kind":"municipality","name":"Σίκινος","lat":36.6833,"lng":25.1333,"region":"Κυκλάδες","name_en":"Sikinos","region_en":"Cyclades","distanceKm":14.481347390848587},{"id":"wineriesVineyards_c4b8aaa71f14","slug":"manalis-c4b8","kind":"restaurant","name":"Μάναλης","lat":36.681144681918035,"lng":25.100751857820168,"url":"https://maps.app.goo.gl/3DPBf6dGCNTLKikN6?g_st=ipc","address":"Σίκινος 840 10","categoryIds":["wineries-vineyards"],"categories":["Wineries & Vineyards"],"distanceKm":17.275758433678128},{"id":"municipalities_8e551d6fe098","slug":"irakleia-8e55","kind":"municipality","name":"Ηρακλειά","lat":36.8333,"lng":25.45,"region":"Κυκλάδες","name_en":"Heraklia","region_en":"Cyclades","distanceKm":18.54829224082377},{"id":"municipalities_27d97a869977","slug":"schoinoysa-27d9","kind":"municipality","name":"Σχοινούσα","lat":36.8667,"lng":25.5167,"region":"Κυκλάδες","name_en":"Schinoussa","region_en":"Cyclades","distanceKm":25.53216513122152},{"id":"greekRestaurants_d2b708170d7f","slug":"deli-restaurant-and-cafe-bar-d2b7","kind":"restaurant","name":"Deli Restaurant and cafe bar","lat":36.869590262270314,"lng":25.518770921181957,"url":"https://maps.app.goo.gl/ZNHHURiAn33ARUcg7?g_st=ipc","address":"Σχοινούσσα 843 00","categoryIds":["greek-restaurants"],"categories":["Greek Restaurants"],"distanceKm":25.86909736806756},{"id":"greekRestaurants_9a173dd91bb8","slug":"kira-pothiti-9a17","kind":"restaurant","name":"Kira Pothiti","lat":36.869449747116555,"lng":25.519666821787904,"url":"https://maps.app.goo.gl/483iYa8hPsWmV2He8?g_st=ipc","address":"Chora, Schinoussa, Χώρα, Σχοινούσα, Chora, Σχοινούσσα 843 00","categoryIds":["greek-restaurants"],"categories":["Greek Restaurants"],"distanceKm":25.924673881880885},{"id":"greekRestaurants_aaff692063fa","slug":"bizeli-greek-restaurant-aaff","kind":"restaurant","name":"Bizeli Greek Restaurant","lat":36.86948697879524,"lng":25.51980769097378,"url":"https://maps.app.goo.gl/QUY5UC2bDWXfny3i7?g_st=ipc","address":"Χωρα, Σχοινούσσα 843 00","categoryIds":["greek-restaurants"],"categories":["Greek Restaurants"],"distanceKm":25.937269238002553},{"id":"cheapEatsRestaurants_492ec545e3cb","slug":"fbi-food-truck-492e","kind":"restaurant","name":"FBI Food Truck","lat":36.98018032275085,"lng":25.38911877245444,"url":"https://maps.app.goo.gl/tVknNoCtf1VeNxVy7?g_st=ipc","address":"X9JQ+3J, Naxos 843 02","categoryIds":["cheap-eats"],"categories":["Gyros & Cheap Eats"],"distanceKm":29.021408004490443},{"id":"greekRestaurants_90c18905dda5","slug":"restaurant-anna-90c1","kind":"restaurant","name":"Restaurant Anna","lat":37.004432167225445,"lng":25.223293064427825,"url":"https://maps.app.goo.gl/q682NKoAC4uBTxx19?g_st=ipc","address":"Δρυός 844 00","categoryIds":["greek-restaurants"],"categories":["Greek Restaurants"],"distanceKm":30.61744488799354},{"id":"wineriesVineyards_f66d3d921eed","slug":"domaine-sigalas-f66d","kind":"restaurant","name":"Domaine Sigalas","lat":36.47144515332007,"lng":25.394233805271192,"url":"https://maps.app.goo.gl/kxHf2McGP81at7gq9?g_st=ipc","address":"Baxes, Oia, Santorini 847 02","categoryIds":["wineries-vineyards"],"categories":["Wineries & Vineyards"],"distanceKm":30.754805572215492},{"id":"luxuryDiningRestaurants_1dc2bd6a8064","slug":"elements-restaurant-bar-1dc2","kind":"restaurant","name":"Elements Restaurant Bar","lat":36.46364006260335,"lng":25.371104539849476,"url":"https://maps.app.goo.gl/ehAKLfSTD13fa851A?g_st=ipc","address":"Oia 847 02","categoryIds":["luxury-dining"],"categories":["Luxury Dining"],"distanceKm":30.992409450264244},{"id":"dessertsRestaurants_ebef2944eed9","slug":"lolita-s-gelato-ebef","kind":"restaurant","name":"Lolita's Gelato","lat":36.46273695850675,"lng":25.376386479037105,"url":"https://maps.app.goo.gl/c2iaJjfqekF4QV9w5?g_st=ipc","address":"Oia 847 02","categoryIds":["desserts"],"categories":["Dessert Shops"],"distanceKm":31.211805508824636},{"id":"cheapEatsRestaurants_de78a5847b53","slug":"pitogyros-traditional-grill-house-gyros-souvlaki-kebab-de78","kind":"restaurant","name":"Pitogyros Traditional Grill House - Gyros, souvlaki, kebab.","lat":36.462570266691884,"lng":25.37797515114607,"url":"https://maps.app.goo.gl/Xyq1DhyUhw2mJaPq9?g_st=ipc","address":"Oia 847 02","categoryIds":["cheap-eats"],"categories":["Gyros & Cheap Eats"],"distanceKm":31.26771133863872},{"id":"luxuryDiningRestaurants_92281f88cd62","slug":"lauda-restaurant-9228","kind":"restaurant","name":"Lauda Restaurant","lat":36.461955784508554,"lng":25.377938602582883,"url":"https://maps.app.goo.gl/qsriKPJsQcgJ43x46?g_st=ipc","address":"Oia 847 02","categoryIds":["luxury-dining"],"categories":["Luxury Dining"],"distanceKm":31.33262972769025},{"id":"vegetarianRestaurants_e61f564cf6f0","slug":"melitini-e61f","kind":"restaurant","name":"Melitini","lat":36.46251191786666,"lng":25.380930558895514,"url":"https://maps.app.goo.gl/diHJtayCn8kgFPxW7?g_st=ipc","address":"Oia 847 02","categoryIds":["vegetarian"],"categories":["Vegetarian Friendly Restaurants"],"distanceKm":31.346289036240467},{"id":"luxuryDiningRestaurants_ab3674135abd","slug":"lycabettus-restaurant-ab36","kind":"restaurant","name":"Lycabettus Restaurant","lat":36.4620987049079,"lng":25.379910060169035,"url":"https://maps.app.goo.gl/2mrH4kakyMDha6iV9?g_st=ipc","address":"Nik. Nomikou, Oía 847 02","categoryIds":["luxury-dining"],"categories":["Luxury Dining"],"distanceKm":31.365261003967206},{"id":"municipalities_55c07bf61bfe","slug":"oia-55c0","kind":"municipality","name":"Οία","lat":36.461,"lng":25.375,"region":"Σαντορίνη","name_en":"Oia","region_en":"Santorini","distanceKm":31.36551009354931},{"id":"luxuryDiningRestaurants_473c799c8410","slug":"botrini-s-santorini-473c","kind":"restaurant","name":"Botrini's Santorini","lat":36.46201811215205,"lng":25.382543844805166,"url":"https://maps.app.goo.gl/e9tmihEjv2QRq6DKA?g_st=ipc","address":"Main Street, Nik. Nomikou, Oía 847 02","categoryIds":["luxury-dining"],"categories":["Luxury Dining"],"distanceKm":31.439325323797735},{"id":"greekRestaurants_19a1aff10d3b","slug":"lefkes-santorini-19a1","kind":"restaurant","name":"Lefkes ΣΑΝΤΟΡΙΝΗ","lat":36.46311561251902,"lng":25.393685023435904,"url":"https://maps.app.goo.gl/6kjSiC5Bk9fdfy1b8?g_st=ipc","address":"Φοινικιά 847 02","categoryIds":["greek-restaurants"],"categories":["Greek Restaurants"],"distanceKm":31.617952397730175},{"id":"greekRestaurants_aa0e1af7bc56","slug":"thalassamou-open-fire-cuisine-aa0e","kind":"restaurant","name":"THALASSAMOU Open fire cuisine","lat":36.99421802833398,"lng":25.136146022142626,"url":"https://maps.app.goo.gl/DfsAxthWgbjoKtec7?g_st=ipc","address":"Overlooking the Marina, Αλυκή 844 00","categoryIds":["greek-restaurants"],"categories":["Greek Restaurants"],"distanceKm":31.82955993254216},{"id":"greekRestaurants_63896ef45064","slug":"taverna-axiotissa-6389","kind":"restaurant","name":"Taverna Axiotissa","lat":37.00531817331461,"lng":25.39495449152434,"url":"https://maps.app.goo.gl/TfCQXtRYj4ztLf7s8?g_st=ipc","address":"Νάξος 843 00","categoryIds":["greek-restaurants"],"categories":["Greek Restaurants"],"distanceKm":31.83607508401331},{"id":"fishTavernasRestaurants_027f6761e133","slug":"apoplous-greek-restaurant-027f","kind":"restaurant","name":"Apoplous Greek Restaurant","lat":36.99681929753503,"lng":25.136496141109756,"url":"https://maps.app.goo.gl/Akkg1SwxQNzQ7Qxb7?g_st=ipc","address":"Αλυκη Παρος, Aliki 844 00","categoryIds":["fish-tavernas"],"categories":["Fish Tavernas"],"distanceKm":32.08064742327735}],"sameRegion":[{"id":"municipalities_094e7414e11a","slug":"mykonos-094e","kind":"municipality","name":"Μύκονος","lat":37.4467,"lng":25.3289,"aliases":["Mikonos","Μύκονα","Μυκονος","Mykonos","Myconos"],"region":"Κυκλάδες","name_en":"Mykonos","region_en":"Cyclades"},{"id":"municipalities_10c41fed1584","slug":"syros-10c4","kind":"municipality","name":"Σύρος","lat":37.4442,"lng":24.9428,"aliases":["Syros","Siros","Σύρα","Συρος","Συρο"],"region":"Κυκλάδες","name_en":"Syros","region_en":"Cyclades"},{"id":"municipalities_27d97a869977","slug":"schoinoysa-27d9","kind":"municipality","name":"Σχοινούσα","lat":36.8667,"lng":25.5167,"region":"Κυκλάδες","name_en":"Schinoussa","region_en":"Cyclades"},{"id":"municipalities_3cbd90a19d63","slug":"andros-3cbd","kind":"municipality","name":"Άνδρος","lat":37.8333,"lng":24.9333,"region":"Κυκλάδες","name_en":"Andros","region_en":"Cyclades"},{"id":"municipalities_402e7912632b","slug":"serifos-402e","kind":"municipality","name":"Σέριφος","lat":37.1537,"lng":24.5197,"aliases":["Σεριφος"],"region":"Κυκλάδες","name_en":"Serifos","region_en":"Cyclades"},{"id":"municipalities_444e7b37bb5a","slug":"koyfonisi-444e","kind":"municipality","name":"Κουφονήσι","lat":36.9333,"lng":25.6,"region":"Κυκλάδες","name_en":"Koufonisia","region_en":"Cyclades"},{"id":"municipalities_56cba484379e","slug":"anafi-56cb","kind":"municipality","name":"Ανάφη","lat":36.35,"lng":25.7667,"region":"Κυκλάδες","name_en":"Anafi","region_en":"Cyclades"},{"id":"municipalities_5b32b43e93f7","slug":"santorini-5b32","kind":"municipality","name":"Σαντορίνη","lat":36.3932,"lng":25.4615,"aliases":["Thira","Thera","Santorin","Σαντορίνα","Σαντορινη","Θήρα","Θηρα"],"region":"Κυκλάδες","name_en":"Santorini","region_en":"Cyclades"},{"id":"municipalities_6d137de68b2c","slug":"kea-6d13","kind":"municipality","name":"Κέα","lat":37.6333,"lng":24.3333,"aliases":["Kea","Keios","Κέιος","Κεα"],"region":"Κυκλάδες","name_en":"Kea","region_en":"Cyclades"},{"id":"municipalities_72366b2ec926","slug":"sifnos-7236","kind":"municipality","name":"Σίφνος","lat":36.9717,"lng":24.7036,"aliases":["Σιφνος"],"region":"Κυκλάδες","name_en":"Sifnos","region_en":"Cyclades"},{"id":"municipalities_7b6436cb2406","slug":"sikinos-7b64","kind":"municipality","name":"Σίκινος","lat":36.6833,"lng":25.1333,"region":"Κυκλάδες","name_en":"Sikinos","region_en":"Cyclades"},{"id":"municipalities_7f2e13a4b7d2","slug":"donoysa-7f2e","kind":"municipality","name":"Δονούσα","lat":37.1,"lng":25.8,"region":"Κυκλάδες","name_en":"Donousa","region_en":"Cyclades"},{"id":"municipalities_8e551d6fe098","slug":"irakleia-8e55","kind":"municipality","name":"Ηρακλειά","lat":36.8333,"lng":25.45,"region":"Κυκλάδες","name_en":"Heraklia","region_en":"Cyclades"},{"id":"municipalities_9268ba4d6ee8","slug":"paros-9268","kind":"municipality","name":"Πάρος","lat":37.085,"lng":25.15,"aliases":["Paros","Πάριος","Παρος"],"region":"Κυκλάδες","name_en":"Paros","region_en":"Cyclades"},{"id":"municipalities_927aa23a9fc7","slug":"kimolos-927a","kind":"municipality","name":"Κίμωλος","lat":36.7783,"lng":24.575,"aliases":["Κιμωλος"],"region":"Κυκλάδες","name_en":"Kimolos","region_en":"Cyclades"},{"id":"municipalities_b0831f971d7e","slug":"folegandros-b083","kind":"municipality","name":"Φολέγανδρος","lat":36.6167,"lng":24.9167,"aliases":["Φολεγανδρος"],"region":"Κυκλάδες","name_en":"Folegandros","region_en":"Cyclades"}],"mentionedGuides":[],"canonicalSlug":"ios-fd82","isCanonicalEntity":true,"enrichment":{"summary_en":"Ίος is a curated neighborhood area in Κυκλάδες. It is connected to 0 nearby Googlementor picks to help travelers build a stronger local route.","summary_el":"Ίος είναι ένα επιλεγμένο σημείο ενδιαφέροντος στην περιοχή Κυκλάδες. Συνδέεται με 0 κοντινές προτάσεις του Googlementor για πιο ολοκληρωμένη εμπειρία.","vibe_tags":["local-neighborhood","base-for-exploring"],"best_for":["first-time visitors","walk-and-explore days","return visitors"],"visit_moments":["late morning walks","sunset exploration"],"practical_note":"0 curated places are within walkable distance from this area center.","nearby_walkable_count":0,"nearby_count_2km":1,"confidence":0.55}},"__N_SSG":true}