{"pageProps":{"entity":{"id":"familyFriendly_db07c7976a87","slug":"jumicar-db07","kind":"restaurant","name":"Jumicar","lat":38.07454902492717,"lng":23.982372514870235,"url":"https://maps.app.goo.gl/b5HKTfYuBC6WE3XP7?g_st=ipc","address":"Λεωφ. Μαραθώνος 1, Νέα Μάκρη 190 05","categoryIds":["family-friendly"],"categories":["Kid Friendly Locations"]},"sameCategory":[{"id":"familyFriendly_dd0083476ddc","slug":"farmamoo-dd00","kind":"restaurant","name":"Farmamoo","lat":38.095267950428,"lng":23.93118868435028,"url":"https://maps.app.goo.gl/6XzwEHQN7jNiKh5K7?g_st=ipc","address":"Λεωφ. Διονύσου, Νέα Μάκρη 190 05","categoryIds":["family-friendly"],"categories":["Kid Friendly Locations"]},{"id":"familyFriendly_840d2fe28674","slug":"ktima-kokotoy-840d","kind":"restaurant","name":"ΚΤΗΜΑ ΚΟΚΟΤΟΥ","lat":38.12312970101472,"lng":23.891798090837362,"url":"https://maps.app.goo.gl/9xRLBKhZXYMexEQX8?g_st=ipc","address":"Κτήμα Γ. Κοκοτού 1, Σταμάτα 145 75","categoryIds":["family-friendly","wineries-vineyards"],"categories":["Kid Friendly Locations","Wineries & Vineyards"],"legacySlugs":["ktima-kokotoy-a927"]},{"id":"familyFriendly_0326a78aaa56","slug":"leontario-entertainment-center-0326","kind":"restaurant","name":"Leontario Entertainment Center","lat":37.996183572327645,"lng":23.899494670938427,"url":"https://maps.app.goo.gl/Qjmb6xRCJvU3Lj87A?g_st=ipc","address":"Αμαζονoσ 15, Παλληνη 15344","categoryIds":["family-friendly"],"categories":["Kid Friendly Locations"]},{"id":"familyFriendly_b5b6b464edb9","slug":"planet-cosmos-b5b6","kind":"restaurant","name":"Planet Cosmos","lat":38.036967894838305,"lng":23.858200213835428,"url":"https://maps.app.goo.gl/p7oh1sqhz5MkfN978?g_st=ipc","address":"Κλεισθένους 399, Γέρακας 153 44","categoryIds":["family-friendly"],"categories":["Kid Friendly Locations"]},{"id":"familyFriendly_9cc1c30ecd05","slug":"designer-outlet-athens-9cc1","kind":"restaurant","name":"Designer Outlet Athens","lat":37.98621935732948,"lng":23.91050612444449,"url":"https://maps.app.goo.gl/FiJWknWTB14td3ra9?g_st=ipc","address":"D-Oikodomiko Tetragono, Γυαλού E71, Σπάτα 190 04","categoryIds":["family-friendly"],"categories":["Kid Friendly Locations"]},{"id":"familyFriendly_0ccded432145","slug":"smart-park-0ccd","kind":"restaurant","name":"Smart Park","lat":37.98478188179295,"lng":23.913104747091037,"url":"https://maps.app.goo.gl/JecbscmoWg1c4Snw5?g_st=ipc","address":"Εμπορικό Πάρκο Smart Park, Ε. Πουλακη, OT 71, & 72, Σπάτα 190 04","categoryIds":["family-friendly"],"categories":["Kid Friendly Locations"]},{"id":"familyFriendly_5510b3f1c00f","slug":"the-wall-5510","kind":"restaurant","name":"THE WALL","lat":38.00928367382339,"lng":23.8721127138081,"url":"https://maps.app.goo.gl/ikBxVbssGYshQenA7?g_st=ipc","address":"Αγίου Αθανασίου 12, Παλλήνη 153 51","categoryIds":["family-friendly"],"categories":["Kid Friendly Locations"]},{"id":"familyFriendly_72e5a0b3386d","slug":"sports-park-72e5","kind":"restaurant","name":"SPORTS PARK","lat":37.97421350979179,"lng":23.929458278036556,"url":"https://maps.app.goo.gl/Jbrq2A31UzDnM1Ro7?g_st=ipc","address":"1 χλμ Σπατών, Πικερμίου, Σπάτα 190 04","categoryIds":["family-friendly"],"categories":["Kid Friendly Locations"]},{"id":"familyFriendly_8ed15a9c84d5","slug":"attica-zoological-park-8ed1","kind":"restaurant","name":"Attica Zoological Park","lat":37.98044022083859,"lng":23.910805906852257,"url":"https://maps.app.goo.gl/f6rw3vWAJG1aAtPU6?g_st=ipc","address":"Spata 190 04","categoryIds":["family-friendly"],"categories":["Kid Friendly Locations"]},{"id":"familyFriendly_db6ace0662f1","slug":"aquapolis-athens-db6a","kind":"restaurant","name":"Aquapolis Athens","lat":37.97858312845216,"lng":23.91151007116057,"url":"https://maps.app.goo.gl/5Ru3eXW4yXz7efi98?g_st=ic","address":"Θέση Γιαλού, Spata 190 04","categoryIds":["family-friendly"],"categories":["Kid Friendly Locations"]},{"id":"familyFriendly_86f9e83bcddf","slug":"parko-proin-naytikis-vasis-86f9","kind":"restaurant","name":"Πάρκο Πρώην Ναυτικής Βάσης","lat":38.045491355804536,"lng":23.838523859146985,"url":"https://maps.app.goo.gl/bVGsyiVv6EgBKgQg7?g_st=ipc","address":"Λεωφ. Πεντέλης 41, Βριλήσσια 152 35","categoryIds":["family-friendly"],"categories":["Kid Friendly Locations"]},{"id":"familyFriendly_aade95e892c7","slug":"parko-mikis-theodorakis-typet-aade","kind":"restaurant","name":"Πάρκο Μίκης Θεοδωράκης - ΤΥΠΕΤ","lat":38.0376288072202,"lng":23.83650236719041,"url":"https://maps.app.goo.gl/pvC5VhagjzGcsF3b7?g_st=ipc","address":"Υμηττού 57, Βριλήσσια 152 35","categoryIds":["family-friendly"],"categories":["Kid Friendly Locations"]}],"nearby":[{"id":"coffeeBrunchRestaurants_6aac58356d58","slug":"dimitris-kasimis-foyrnos-6aac","kind":"restaurant","name":"ΔΗΜΗΤΡΗΣ ΚΑΣΙΜΗΣ Φούρνος","lat":38.0797197655773,"lng":23.980827928192117,"url":"https://maps.app.goo.gl/HVgjvMDChspNvrjy7?g_st=ipc","address":"44 Marathonos Ave, Enanti DEI, Nea Makri, 19005","categoryIds":["coffee-brunch"],"categories":["Coffee & Brunch Spots"],"distanceKm":0.5906418465017905},{"id":"dessertsRestaurants_5958ec3ad958","slug":"to-plesti-5958","kind":"restaurant","name":"Το Πλέστι","lat":38.06758002269708,"lng":23.98228118791333,"url":"https://maps.app.goo.gl/8uS8BHW1y7vuZtMn8?g_st=ipc","address":"Λεωφ. Μαραθώνος 31ο, Νέα Μάκρη 190 05","categoryIds":["desserts"],"categories":["Dessert Shops"],"distanceKm":0.7749589292589953},{"id":"municipalities_dba8e62f5c2c","slug":"nea-makri-dba8","kind":"municipality","name":"Νέα Μάκρη","lat":38.083,"lng":23.983,"aliases":["Nea Makri","Nea Makry"],"region":"Ανατολικά Προάστια","name_en":"Nea Makri","region_en":"Eastern Suburbs","distanceKm":0.9413092216777013},{"id":"italianRestaurants_2acf318486cb","slug":"toto-s-little-italy-2acf","kind":"restaurant","name":"Toto's Little Italy","lat":38.083162778426875,"lng":23.980726245351242,"url":"https://maps.app.goo.gl/oSFQmUYzAW2nsJ8z6?g_st=ipc","address":"Νικ. Πλαστήρα 29, Νέα Μάκρη 190 05","categoryIds":["italian"],"categories":["Italian Restaurants"],"distanceKm":0.9685841463431412},{"id":"coffeeBrunchRestaurants_cdd028e1f028","slug":"indianos-cdd0","kind":"restaurant","name":"Indianos","lat":38.07177701154969,"lng":23.99543112392712,"url":"https://maps.app.goo.gl/fQgSyiTZjMscc9UW9?g_st=ipc","address":"Μιαούλη 12, Νέα Μάκρη 190 05","categoryIds":["coffee-brunch"],"categories":["Coffee & Brunch Spots"],"distanceKm":1.183917831284651},{"id":"fishTavernasRestaurants_d1fdd80a5c4e","slug":"akrogiali-d1fd","kind":"restaurant","name":"Ακρογιάλι","lat":38.07176023911009,"lng":23.99585573289976,"url":"https://maps.app.goo.gl/xsBV1faj5k58gwi47?g_st=ipc","address":"Μιαούλη 8, Νέα Μάκρη 190 05","categoryIds":["fish-tavernas"],"categories":["Fish Tavernas"],"distanceKm":1.2203154328638872},{"id":"greekRestaurants_e13d6a44e9be","slug":"stoy-ladokosta-e13d","kind":"restaurant","name":"Στου Λαδόκωστα","lat":38.08813666230261,"lng":23.982996365102682,"url":"https://maps.app.goo.gl/mXkB4S51cYRYxwCe8","address":"Λεωφ. Ποσειδώνος, Νέα Μάκρη 190 05","categoryIds":["greek-restaurants"],"categories":["Greek Restaurants"],"distanceKm":1.5118626875226744},{"id":"fishTavernasRestaurants_0b56e36ee289","slug":"trata-i-0b56","kind":"restaurant","name":"ΤΡΑΤΑ (Η)","lat":38.09030258735327,"lng":23.982252068927664,"url":"https://maps.app.goo.gl/4cT7yir2FyLEmVPB8?g_st=ipc","address":"Λεωφ. Ποσειδώνος 30, Νέα Μάκρη 190 05","categoryIds":["fish-tavernas"],"categories":["Fish Tavernas"],"distanceKm":1.7517479390917092},{"id":"fishTavernasRestaurants_120bf543e9c4","slug":"to-plokami-120b","kind":"restaurant","name":"Το πλοκάμι","lat":38.09102735114395,"lng":23.981804303325717,"url":"https://maps.app.goo.gl/QuJBtKF3QD3n78sW8?g_st=ipc","address":"Λεωφ. Ποσειδώνος, Νέα Μάκρη 190 05","categoryIds":["fish-tavernas"],"categories":["Fish Tavernas"],"distanceKm":1.8329810581499624},{"id":"fishTavernasRestaurants_c8d79ddce787","slug":"ayra-c8d7","kind":"restaurant","name":"Αύρα","lat":38.09393032588583,"lng":23.981355142971612,"url":"https://maps.app.goo.gl/Qd74p6vmhVLEfQxg7?g_st=ipc","address":"Τέρμα, Λεωφ. Ποσειδώνος, Νέα Μάκρη 190 05","categoryIds":["fish-tavernas"],"categories":["Fish Tavernas"],"distanceKm":2.1569410402575815},{"id":"monasteriesChurches_c2b99534a746","slug":"osioy-fraim-c2b9","kind":"restaurant","name":"Οσίου Ἐφραίμ","lat":38.07494568017478,"lng":23.95319576902227,"url":"https://maps.app.goo.gl/t1Fe5nBcUY3vmfcE7?g_st=ipc","address":"Αγίου Εφραίμ, Νέα Μάκρη 190 05","categoryIds":["monasteries-churches"],"categories":["Monasteries & Spiritual Sites"],"distanceKm":2.5543209683712598},{"id":"fishTavernasRestaurants_cfc96ee9ddf3","slug":"isidora-cfc9","kind":"restaurant","name":"Ισιδώρα","lat":38.11335499841936,"lng":23.98507325460099,"url":"https://maps.app.goo.gl/USycaJUwTZTzMdADA?g_st=ipc","address":"Περικλέους ΠΑΡΑΛΙΑ, Μαραθώνας 190 07","categoryIds":["fish-tavernas"],"categories":["Fish Tavernas"],"distanceKm":4.321495019611052},{"id":"fishTavernasRestaurants_0618ada54b19","slug":"o-psaras-restaurant-0618","kind":"restaurant","name":"Ο Ψαράς Restaurant","lat":38.11793561687655,"lng":23.99065580006594,"url":"https://maps.app.goo.gl/fSjcPNAg9aRVEF926?g_st=ipc","address":"Παραλία Μαραθώνα, Λεωφ. Ποσειδώνος 3, Αγ. Παντελεήμων 190 07","categoryIds":["fish-tavernas"],"categories":["Fish Tavernas"],"distanceKm":4.878518667977433},{"id":"monasteriesChurches_24b60ec568ad","slug":"iera-moni-tao-ntaoy-pentelis-24b6","kind":"restaurant","name":"Ιερά Μονή Ταώ (Νταού) Πεντέλης","lat":38.03988340784935,"lng":23.948125074372278,"url":"https://maps.app.goo.gl/xtRHYrHMqEtBMfwK9?g_st=ipc","address":"Νταού Πεντέλη 152 36","categoryIds":["monasteries-churches"],"categories":["Monasteries & Spiritual Sites"],"distanceKm":4.883578542443737},{"id":"familyFriendly_dd0083476ddc","slug":"farmamoo-dd00","kind":"restaurant","name":"Farmamoo","lat":38.095267950428,"lng":23.93118868435028,"url":"https://maps.app.goo.gl/6XzwEHQN7jNiKh5K7?g_st=ipc","address":"Λεωφ. Διονύσου, Νέα Μάκρη 190 05","categoryIds":["family-friendly"],"categories":["Kid Friendly Locations"],"distanceKm":5.0373747072261015},{"id":"greekRestaurants_f6d227505896","slug":"i-gonia-toy-torva-f6d2","kind":"restaurant","name":"Η Γωνία του Τόρβα","lat":38.03925979288046,"lng":23.9433795766678,"url":"https://maps.app.goo.gl/LZohHFYr2FaVdjY49","address":"Πλαστηρα & Καραΐσκακη, Νταου Πεντελη - Ραφηνας 190 09","categoryIds":["greek-restaurants"],"categories":["Greek Restaurants"],"distanceKm":5.2012653571150995},{"id":"fishTavernasRestaurants_4a2d79882f36","slug":"panormitis-4a2d","kind":"restaurant","name":"Πανορμίτης","lat":38.121572702191,"lng":23.99671729866393,"url":"https://maps.app.goo.gl/aXSXemiooEkkE8AKA?g_st=ipc","address":"Λεωφ. Ποσειδώνος 55, Αγ. Παντελεήμων 190 07","categoryIds":["fish-tavernas"],"categories":["Fish Tavernas"],"distanceKm":5.377354034769509},{"id":"wineriesVineyards_07784b315d36","slug":"oinopoieio-zegginis-0778","kind":"restaurant","name":"Οινοποιείο Ζεγγίνης","lat":38.14341389755598,"lng":23.983053677151467,"url":"https://maps.app.goo.gl/ZRuTWvGbiLUcFQZw7?g_st=ipc","address":"Λεωφόρος Κάτω Σουλίου 62, Μαραθώνας 190 07","categoryIds":["wineries-vineyards"],"categories":["Wineries & Vineyards"],"distanceKm":7.657656372045088},{"id":"municipalities_0633126f3d11","slug":"rafina-0633","kind":"municipality","name":"Ραφήνα","lat":38,"lng":24,"region":"Ανατολικά Προάστια","name_en":"Rafina","region_en":"Eastern Suburbs","distanceKm":8.43200078105864},{"id":"luxuryDiningRestaurants_d905caa27f80","slug":"meat-the-stars-d905","kind":"restaurant","name":"Meat the Stars","lat":38.00243883538717,"lng":23.941476693248035,"url":"https://maps.app.goo.gl/wrkHDhigdmHrrokL8?g_st=ipc","address":"Λεωφ. Μαραθώνος 63, Πικέρμι 190 09","categoryIds":["luxury-dining"],"categories":["Luxury Dining"],"distanceKm":8.781813217862648},{"id":"municipalities_3b0d7e6ae7e7","slug":"marathonas-3b0d","kind":"municipality","name":"Μαραθώνας","lat":38.15,"lng":23.95,"region":"Ανατολικά Προάστια","name_en":"Marathon","region_en":"Eastern Suburbs","distanceKm":8.854922161168062},{"id":"familyFriendly_840d2fe28674","slug":"ktima-kokotoy-840d","kind":"restaurant","name":"ΚΤΗΜΑ ΚΟΚΟΤΟΥ","lat":38.12312970101472,"lng":23.891798090837362,"url":"https://maps.app.goo.gl/9xRLBKhZXYMexEQX8?g_st=ipc","address":"Κτήμα Γ. Κοκοτού 1, Σταμάτα 145 75","categoryIds":["family-friendly","wineries-vineyards"],"categories":["Kid Friendly Locations","Wineries & Vineyards"],"legacySlugs":["ktima-kokotoy-a927"],"distanceKm":9.591512817380618},{"id":"coffeeBrunchRestaurants_7dfa5bb5c12c","slug":"argithea-7dfa","kind":"restaurant","name":"Αργιθέα","lat":38.15948282094037,"lng":23.95837767969574,"url":"https://maps.app.goo.gl/w98y2hBDroKUDcwZ7?g_st=ipc","address":"Λεωφ. Μαραθώνος 11, Μαραθώνας 190 07","categoryIds":["coffee-brunch"],"categories":["Coffee & Brunch Spots"],"distanceKm":9.674679173256465},{"id":"dessertsRestaurants_a5a68f44450d","slug":"pagota-glyka-alma-a5a6","kind":"restaurant","name":"Παγωτά - Γλυκά ALMA","lat":37.99764401288888,"lng":23.928554302603118,"url":"https://maps.app.goo.gl/5u8wGdMD9tri8wLBA?g_st=ipc","address":"19o ΧΛΜ, Λεωφ. Μαραθώνος, Ήμερος Πεύκος 190 09","categoryIds":["desserts"],"categories":["Dessert Shops"],"distanceKm":9.76438386635493}],"sameRegion":[],"mentionedGuides":[],"canonicalSlug":"jumicar-db07","isCanonicalEntity":true,"enrichment":{"summary_en":"Jumicar is a curated restaurant in Νέα Μάκρη 190 05 in the Kid Friendly Locations collection. It is connected to 2 nearby Googlementor picks to help travelers build a stronger local route.","summary_el":"Jumicar είναι ένα επιλεγμένο σημείο φαγητού στην περιοχή Νέα Μάκρη 190 05 και ανήκει στη συλλογή Kid Friendly Locations. Συνδέεται με 2 κοντινές προτάσεις του Googlementor για πιο ολοκληρωμένη εμπειρία.","vibe_tags":["curated","family-ready"],"best_for":["first-time visitors","food lovers","families"],"visit_moments":["lunch stop","dinner stop"],"practical_note":"Address and direct map link are available for easy turn-by-turn access.","nearby_walkable_count":2,"nearby_count_2km":9,"confidence":0.9}},"__N_SSG":true}