{"pageProps":{"entity":{"id":"dessertsRestaurants_f094b277adf8","slug":"kanellos-loykoymades-f094","kind":"restaurant","name":"Κανέλλος Λουκουμάδες","lat":38.36957058310483,"lng":26.13638358929807,"url":"https://maps.app.goo.gl/srbHuTvaX8jLCjTu8?g_st=ipc","address":"Dimogerontias 18, Chios 821 00","categoryIds":["desserts"],"categories":["Dessert Shops"]},"sameCategory":[{"id":"dessertsRestaurants_7a1982c7d429","slug":"loykoymades-manaras-7a19","kind":"restaurant","name":"Λουκουμάδες Μανάρας","lat":38.370567413138176,"lng":26.136572614570674,"url":"https://maps.app.goo.gl/48s1ijnKaWWrDfMs6?g_st=ipc","address":"ΑΡΧΕΡΜΟΥ 2, Chios 821 00","categoryIds":["desserts"],"categories":["Dessert Shops"]},{"id":"dessertsRestaurants_a10d2504f9c7","slug":"n-ice-cream-mykonos-a10d","kind":"restaurant","name":"N'ice Cream Mykonos","lat":37.45205375388753,"lng":25.358864338055778,"url":"https://maps.app.goo.gl/JpGxtdjqrzWaKvb36?g_st=ipc","address":"Κλούβας 846 00","categoryIds":["desserts"],"categories":["Dessert Shops"]},{"id":"dessertsRestaurants_1d7df040c53a","slug":"zacharoplasteio-za-i-ris-zairis-pastry-patisserie-gelateria-1d7d","kind":"restaurant","name":"ΖΑΧΑΡΟΠΛΑΣΤΕΙΟ \"ΖΑ'Ι'ΡΗΣ\" ZAIRIS-PASTRY Patisserie Gelateria","lat":37.82579583533186,"lng":24.91462125689678,"url":"https://maps.app.goo.gl/QbRR2HA2G4VUjkbb9?g_st=ipc","address":"ΜΕΣΣΑΡΙΑ, ΑΝΔΡΟΣ - MESSARIA, ANDROS, KYKLADES 845 00","categoryIds":["desserts"],"categories":["Dessert Shops"]},{"id":"dessertsRestaurants_84cc29a238aa","slug":"kyklamino-patisserie-84cc","kind":"restaurant","name":"Kyklamino Patisserie","lat":37.44220457179905,"lng":25.335568445326103,"url":"https://maps.app.goo.gl/dBRJbrtLhCesFwGn6?g_st=ic","address":"Mykonos 846 00","categoryIds":["desserts"],"categories":["Dessert Shops"]},{"id":"dessertsRestaurants_fbeaff5bdac1","slug":"dopio-gelato-mykonos-fbea","kind":"restaurant","name":"Dopio Gelato Mykonos","lat":37.44519875814453,"lng":25.327173016826194,"url":"https://maps.app.goo.gl/Sp8BxDU518brNxns5?g_st=ipc","address":"Dopio Gelato Mykonos","categoryIds":["desserts"],"categories":["Dessert Shops"]},{"id":"dessertsRestaurants_0d1a14ec5981","slug":"i-scream-homemade-ice-cream-cafe-0d1a","kind":"restaurant","name":"I SCREAM homemade ice cream-cafe","lat":37.443153733966156,"lng":25.32768461351495,"url":"https://maps.app.goo.gl/figeZhjJhW1w1WGh6?g_st=ipc","address":"20 Street Fabrica Sq, Xenias, Mikonos 846 00","categoryIds":["desserts"],"categories":["Dessert Shops"]},{"id":"dessertsRestaurants_757fe603b972","slug":"to-kentrikon-757f","kind":"restaurant","name":"Το Κεντρικόν","lat":37.63921354793122,"lng":25.04200584233484,"url":"https://maps.app.goo.gl/MoMdkmCiYwwuTbUi7?g_st=ipc","address":"Unnamed Road, Πύργος 842 01","categoryIds":["desserts"],"categories":["Dessert Shops"]},{"id":"dessertsRestaurants_7426a192dfcd","slug":"sol-bake-coffee-project-tinos-7426","kind":"restaurant","name":"Sol Bake & Coffee Project Tinos","lat":37.53735450561746,"lng":25.16338897699387,"url":"https://maps.app.goo.gl/pfudAWa8vWhrYMxA8?g_st=ipc","address":"Drosou, Tinos 842 00","categoryIds":["desserts"],"categories":["Dessert Shops"]},{"id":"dessertsRestaurants_059711f45839","slug":"mesklies-zacharoplasteio-tinos-0597","kind":"restaurant","name":"Μεσκλιές ζαχαροπλαστείο Τήνος","lat":37.53782261822991,"lng":25.160738844151368,"url":"https://maps.app.goo.gl/F9giWnJkDkh2tKMi8?g_st=ipc","address":"Επαρ.Οδ. Τήνου-Καλλονής 1876, Τήνος 842 00","categoryIds":["desserts"],"categories":["Dessert Shops"]},{"id":"dessertsRestaurants_047955347234","slug":"django-gelato-syros-0479","kind":"restaurant","name":"Django Gelato Syros","lat":37.44450627617555,"lng":24.944030796272305,"url":"https://maps.app.goo.gl/n5hxCbxJp7iEtRnS8?g_st=ipc","address":"Εμμανουήλ Ροΐδη 10, Ερμούπολη 841 00","categoryIds":["desserts"],"categories":["Dessert Shops"]},{"id":"dessertsRestaurants_a081a0be0db3","slug":"so-in-d-cjdh-a081","kind":"restaurant","name":"So in d cjdh","lat":37.4444390329241,"lng":24.943371459609835,"url":"https://maps.app.goo.gl/kDu69AUHWaiUN8MD9?g_st=ipc","address":"Γεωρ. Γεννηματά, Ερμούπολη 841 00","categoryIds":["desserts"],"categories":["Dessert Shops"]},{"id":"dessertsRestaurants_4f049383a360","slug":"athymaritis-4f04","kind":"restaurant","name":"Αθυμαρίτης","lat":37.44304285674758,"lng":24.942058155197838,"url":"https://maps.app.goo.gl/QqZKei5CzCtJaWFv7?g_st=ipc","address":"ΚΕΑΣ, Επτανήσου 2, ΚΑΙ 841 00","categoryIds":["desserts"],"categories":["Dessert Shops"]}],"nearby":[{"id":"dessertsRestaurants_7a1982c7d429","slug":"loykoymades-manaras-7a19","kind":"restaurant","name":"Λουκουμάδες Μανάρας","lat":38.370567413138176,"lng":26.136572614570674,"url":"https://maps.app.goo.gl/48s1ijnKaWWrDfMs6?g_st=ipc","address":"ΑΡΧΕΡΜΟΥ 2, Chios 821 00","categoryIds":["desserts"],"categories":["Dessert Shops"],"distanceKm":0.11206071748528922},{"id":"coffeeBrunchRestaurants_84cd01d24fd5","slug":"alkyoni-cafe-84cd","kind":"restaurant","name":"Αλκυόνη Cafe","lat":38.37005085250784,"lng":26.135181501058845,"url":"https://maps.app.goo.gl/iSBXdhHpi1DBgMea7?g_st=ipc","address":"Μικκιάδων 6, Chios 821 31","categoryIds":["coffee-brunch"],"categories":["Coffee & Brunch Spots"],"distanceKm":0.11761949400801756},{"id":"municipalities_4af77743f0e9","slug":"chios-4af7","kind":"municipality","name":"Χίος","lat":38.367,"lng":26.135,"aliases":["Χιος","Xios"],"region":"Βόρειο Αιγαίο","name_en":"Chios","region_en":"North Aegean","distanceKm":0.3102449429183691},{"id":"greekRestaurants_437a6329ce3a","slug":"apeiron-437a","kind":"restaurant","name":"άπειρον","lat":38.37248748285311,"lng":26.1363285174503,"url":"https://maps.app.goo.gl/as3TadMcj5gJAt8FA?g_st=ipc","address":"plateia frouriou, Χίος 821 00","categoryIds":["greek-restaurants"],"categories":["Greek Restaurants"],"distanceKm":0.32437998469586965},{"id":"greekRestaurants_86d6a21808bc","slug":"vradypoys-86d6","kind":"restaurant","name":"Βραδύπους","lat":38.37324337746431,"lng":26.136661867700386,"url":"https://maps.app.goo.gl/o5gyBtpX5GcBxyRj6?g_st=ipc","address":"Αγίου Γεωργίου Φρουρίου 18, Χίος 821 00","categoryIds":["greek-restaurants"],"categories":["Greek Restaurants"],"distanceKm":0.40911599674898536},{"id":"fishTavernasRestaurants_bb093a6e7c1a","slug":"ouzeri-the-mills-bb09","kind":"restaurant","name":"Ouzeri The Mills","lat":38.38206090575411,"lng":26.137518038647382,"url":"https://maps.app.goo.gl/PmLKrE9T1eDy9JUy7?g_st=ipc","address":"Kalouta 113, Chios 821 00","categoryIds":["fish-tavernas"],"categories":["Fish Tavernas"],"distanceKm":1.3923768034189539},{"id":"fishTavernasRestaurants_1d7493d3eb33","slug":"mouria-taverna-vrontados-chios-1d74","kind":"restaurant","name":"Mouria Taverna, Vrontados, Chios","lat":38.41467488328915,"lng":26.13506103413844,"url":"https://maps.app.goo.gl/EvoRNfkp6kGNwvRZ9?g_st=ipc","address":"Κωστή Λω 2, Vrontados 82150","categoryIds":["fish-tavernas"],"categories":["Fish Tavernas"],"distanceKm":5.01669367448758},{"id":"fishTavernasRestaurants_89132bf37771","slug":"pantoukios-8913","kind":"restaurant","name":"Pantoukios","lat":38.46363263361025,"lng":26.135082897089756,"url":"https://maps.app.goo.gl/kLJEBwW1UwPjBLb57?g_st=ipc","address":"Παντουκιός 821 00","categoryIds":["fish-tavernas"],"categories":["Fish Tavernas"],"distanceKm":10.459836666210704},{"id":"greekRestaurants_0e05498ee2eb","slug":"ta-tria-asteria-salale-0e05","kind":"restaurant","name":"Τα Τρια Αστερια SALALE","lat":38.285518123103955,"lng":25.988696409381827,"url":"https://maps.app.goo.gl/dTBwHvw1BNbaN3ow6?g_st=ipc","address":"Επαρ.Οδ. Χίου-Ελάτας, Χίος 821 02","categoryIds":["greek-restaurants"],"categories":["Greek Restaurants"],"distanceKm":15.915929828140342},{"id":"municipalities_d661e87e8af2","slug":"oinoysses-d661","kind":"municipality","name":"Οινούσσες","lat":38.38,"lng":26.35,"region":"Βόρειο Αιγαίο","name_en":"Oinousses","region_en":"North Aegean","distanceKm":18.657681896726174}],"sameRegion":[],"mentionedGuides":[],"canonicalSlug":"kanellos-loykoymades-f094","isCanonicalEntity":true,"enrichment":{"summary_en":"Κανέλλος Λουκουμάδες is a curated restaurant in Chios 821 00 in the Dessert Shops collection. It is connected to 5 nearby Googlementor picks to help travelers build a stronger local route.","summary_el":"Κανέλλος Λουκουμάδες είναι ένα επιλεγμένο σημείο φαγητού στην περιοχή Chios 821 00 και ανήκει στη συλλογή Dessert Shops. Συνδέεται με 5 κοντινές προτάσεις του Googlementor για πιο ολοκληρωμένη εμπειρία.","vibe_tags":["curated","sweet-stop"],"best_for":["first-time visitors","food lovers"],"visit_moments":["afternoon break","after dinner"],"practical_note":"Address and direct map link are available for easy turn-by-turn access.","nearby_walkable_count":5,"nearby_count_2km":6,"confidence":0.98}},"__N_SSG":true}