{"pageProps":{"entity":{"id":"fishTavernasRestaurants_c2965cc0335d","slug":"maiolica-sifnos-c296","kind":"restaurant","name":"Maiòlica Sifnos","lat":36.93201088219794,"lng":24.731152746803176,"url":"https://maps.app.goo.gl/RsiuxKtR7W21BNnb8?g_st=ipc","address":"Πλατύς Γιαλός 840 03","categoryIds":["fish-tavernas","luxury-dining"],"categories":["Fish Tavernas","Luxury Dining"],"legacySlugs":["maiolica-sifnos-5a94"]},"sameCategory":[{"id":"fishTavernasRestaurants_9bf6858efa20","slug":"siparos-seaside-restaurant-9bf6","kind":"restaurant","name":"Siparos Seaside Restaurant","lat":37.12641356420799,"lng":25.266629540061626,"url":"https://maps.app.goo.gl/Y5FqpWpLwoZYaHni9?g_st=ipc","address":"Ξιφαρά 844 01","categoryIds":["fish-tavernas","luxury-dining"],"categories":["Fish Tavernas","Luxury Dining"],"legacySlugs":["siparos-seaside-restaurant-0493"]},{"id":"fishTavernasRestaurants_f0d4e1537e1b","slug":"hippie-fish-mykonos-f0d4","kind":"restaurant","name":"Hippie Fish Mykonos","lat":37.4216168444124,"lng":25.3115215810695,"url":"https://maps.app.goo.gl/P1ey2vdmerWsiMqXA?g_st=ipc","address":"Agios Ioannis, Mikonos 846 00","categoryIds":["fish-tavernas","luxury-dining"],"categories":["Fish Tavernas","Luxury Dining"],"legacySlugs":["hippie-fish-mykonos-d24a"]},{"id":"fishTavernasRestaurants_088f1a113b0b","slug":"afropsaro-santorini-088f","kind":"restaurant","name":"Afropsaro Santorini","lat":36.44373697181477,"lng":25.4260466585142,"url":"https://maps.app.goo.gl/ocoYehgdG9tZzoCd6?g_st=ipc","address":"Imerovigli 847 00","categoryIds":["fish-tavernas","luxury-dining"],"categories":["Fish Tavernas","Luxury Dining"],"legacySlugs":["afropsaro-santorini-da47"]},{"id":"fishTavernasRestaurants_25699dc17efe","slug":"spilia-mykonos-seaside-restaurant-2569","kind":"restaurant","name":"Spilia Mykonos Seaside Restaurant","lat":37.4346532807744,"lng":25.419253772230018,"url":"https://maps.app.goo.gl/WjiGf9HWCLVQssrK7?g_st=ipc","address":"Καλαφάτη 846 00","categoryIds":["fish-tavernas","luxury-dining"],"categories":["Fish Tavernas","Luxury Dining"],"legacySlugs":["spilia-mykonos-seaside-restaurant-5ef9"]},{"id":"fishTavernasRestaurants_a752a7fe8192","slug":"matsuhisa-athens-a752","kind":"restaurant","name":"Matsuhisa Athens","lat":37.806991167366505,"lng":23.7721702530857,"url":"https://maps.app.goo.gl/kX1Hohg5k4FcqjgeA?g_st=ipc","address":"40, Απόλλωνος street, Βουλιαγμένη 166 71","categoryIds":["fish-tavernas","luxury-dining"],"categories":["Fish Tavernas","Luxury Dining"],"legacySlugs":["matsuhisa-athens-c10d"]},{"id":"fishTavernasRestaurants_eb690c18b7db","slug":"sea-satin-athens-riviera-eb69","kind":"restaurant","name":"Sea Satin Athens Riviera","lat":37.840376863615674,"lng":23.760387360489776,"url":"https://maps.app.goo.gl/1QEDPDZdZC7GT8ne9?g_st=ipc","address":"Λεωφ. Κωνσταντίνου Καραμανλή 14, Βούλα 166 73","categoryIds":["fish-tavernas","luxury-dining"],"categories":["Fish Tavernas","Luxury Dining"],"legacySlugs":["sea-satin-athens-riviera-daf4"]},{"id":"fishTavernasRestaurants_c390847dbff0","slug":"papadakis-restaurant-c390","kind":"restaurant","name":"Papadakis Restaurant","lat":37.97973026422826,"lng":23.740290543738375,"url":"https://maps.app.goo.gl/kujR9b76mkGXYeFM6?g_st=ipc","address":"Φωκυλίδου 15, Αθήνα 106 73","categoryIds":["fish-tavernas","luxury-dining"],"categories":["Fish Tavernas","Luxury Dining"],"legacySlugs":["papadakis-restaurant-cdff"]},{"id":"fishTavernasRestaurants_159bf25520a5","slug":"varoulko-seaside-restaurant-159b","kind":"restaurant","name":"Varoulko Seaside Restaurant","lat":37.93728962950612,"lng":23.658502308499486,"url":"https://maps.app.goo.gl/hXejEzhnCFuwNgQb8?g_st=ipc","address":"Ακτή Κουμουνδούρου 54, Πειραιάς 185 33","categoryIds":["fish-tavernas","luxury-dining"],"categories":["Fish Tavernas","Luxury Dining"],"legacySlugs":["varoulko-seaside-restaurant-e7d4"]},{"id":"fishTavernasRestaurants_8fa64823bdb9","slug":"psarokokkalo-8fa6","kind":"restaurant","name":"Ψαροκόκκαλο","lat":38.05407148936591,"lng":23.838879406158195,"url":"https://maps.app.goo.gl/yjqJBhxZ9XwdkDBv7?g_st=ipc","address":"Ελ. Βενιζέλου 19, Μελίσσια 151 27","categoryIds":["fish-tavernas","luxury-dining"],"categories":["Fish Tavernas","Luxury Dining"],"legacySlugs":["psarokokkalo-9b9d"]},{"id":"fishTavernasRestaurants_ecc815b7c2ba","slug":"chromata-vythoy-ecc8","kind":"restaurant","name":"Χρώματα Βυθού","lat":38.087925786455884,"lng":23.814850327043008,"url":"https://maps.app.goo.gl/8rz5Adk17ejAsxHP6?g_st=ipc","address":"Εκάλης 40, Νέα Ερυθραία 146 71","categoryIds":["fish-tavernas","luxury-dining"],"categories":["Fish Tavernas","Luxury Dining"],"legacySlugs":["chromata-vythoy-9dbb"]},{"id":"fishTavernasRestaurants_052e930b9594","slug":"thalassino-ageri-052e","kind":"restaurant","name":"Thalassino Ageri","lat":35.519850213268185,"lng":24.037118927264085,"url":"https://maps.app.goo.gl/6SKxxTD4XKy95nvdA?g_st=ipc","address":"Vivilaki str 35 Tabakaria, Chania 731 33","categoryIds":["fish-tavernas","luxury-dining"],"categories":["Fish Tavernas","Luxury Dining"],"legacySlugs":["thalassino-ageri-7d75"]},{"id":"fishTavernasRestaurants_280f68f1857d","slug":"kavos-280f","kind":"restaurant","name":"Κάβος","lat":37.9019948722367,"lng":23.01292994879006,"url":"https://maps.app.goo.gl/PptKq3WRsYvpTsqu5?g_st=ipc","address":"Ίσθμια 201 00","categoryIds":["fish-tavernas","luxury-dining"],"categories":["Fish Tavernas","Luxury Dining"],"legacySlugs":["kavos-1d0d"]}],"nearby":[{"id":"fishTavernasRestaurants_4baa7d7d1366","slug":"omega3-4baa","kind":"restaurant","name":"Omega3","lat":36.932052168795934,"lng":24.731352405475214,"url":"https://maps.app.goo.gl/jioScJGAm2izK6a49?g_st=ipc","address":"Πλατύς Γιαλός 840 03","categoryIds":["fish-tavernas"],"categories":["Fish Tavernas"],"distanceKm":0.018330565164728314},{"id":"fishTavernasRestaurants_4051f6c5c5f1","slug":"yalos-sifnos-4051","kind":"restaurant","name":"Yalos Sifnos","lat":36.93198313076824,"lng":24.73092559432301,"url":"https://maps.app.goo.gl/hct1BV2oGe6F3cM97?g_st=ipc","address":"Πλατύς Γιαλός 840 03","categoryIds":["fish-tavernas"],"categories":["Fish Tavernas"],"distanceKm":0.020424579196426648},{"id":"greekRestaurants_556ba6aea8bf","slug":"to-steki-556b","kind":"restaurant","name":"Το Στέκι","lat":36.932144891987825,"lng":24.732143733490126,"url":"https://maps.app.goo.gl/V9M4s1KNBNRDerWW8?g_st=ipc","address":"Πλατύς Γυαλός, Σίφνος 840 03","categoryIds":["greek-restaurants"],"categories":["Greek Restaurants"],"distanceKm":0.08933390370696027},{"id":"coffeeBrunchRestaurants_bd7fc0151f49","slug":"fasolu-restaurant-beach-bar-bd7f","kind":"restaurant","name":"Fasolu Restaurant - Beach Bar","lat":36.941116049216255,"lng":24.753293392899685,"url":"https://maps.app.goo.gl/Lb3CYfu5rPNFtURu7?g_st=ipc","address":"Fassolou Beach, 840 03","categoryIds":["coffee-brunch"],"categories":["Coffee & Brunch Spots"],"distanceKm":2.21300133837652},{"id":"fishTavernasRestaurants_4864e8e3be1a","slug":"angie-seaside-restaurant-4864","kind":"restaurant","name":"ANGIE seaside restaurant","lat":36.944136259291675,"lng":24.751012764820505,"url":"https://maps.app.goo.gl/bGogp723rTJwR3cx7?g_st=ipc","address":"Φαρος, Faros 840 03","categoryIds":["fish-tavernas"],"categories":["Fish Tavernas"],"distanceKm":2.2211254553459026},{"id":"fishTavernasRestaurants_0067c5728086","slug":"alyelo-bar-restaurant-0067","kind":"restaurant","name":"Alyelo Bar Restaurant","lat":36.944070932851574,"lng":24.75112565793777,"url":"https://maps.app.goo.gl/R8Jg72P8QchmsSubA?g_st=ipc","address":"Φάρος 840 03","categoryIds":["fish-tavernas"],"categories":["Fish Tavernas"],"distanceKm":2.2247217545090456},{"id":"fishTavernasRestaurants_d069945d0fb2","slug":"pelicanos-d069","kind":"restaurant","name":"Pelicanos","lat":36.94422039775623,"lng":24.751254852785607,"url":"https://maps.app.goo.gl/xbF6ZRisum4Kfmgz5?g_st=ipc","address":"beach, Faros 840 03","categoryIds":["fish-tavernas"],"categories":["Fish Tavernas"],"distanceKm":2.2439092406854253},{"id":"greekRestaurants_95678f462cb1","slug":"okeanida-9567","kind":"restaurant","name":"Ωκεανίδα","lat":36.93305392530472,"lng":24.690130051637126,"url":"https://maps.app.goo.gl/PhqjSxYuDqrVS2dw6?g_st=ipc","address":"Βαθύ 840 03","categoryIds":["greek-restaurants"],"categories":["Greek Restaurants"],"distanceKm":3.648062445474475},{"id":"greekRestaurants_21f1a58b70a1","slug":"drimoni-21f1","kind":"restaurant","name":"Δριμόνι","lat":36.97111592359732,"lng":24.726882746663012,"url":"https://maps.app.goo.gl/FjBr963bhTreLrq66?g_st=ipc","address":"Απολλωνία 840 03","categoryIds":["greek-restaurants"],"categories":["Greek Restaurants"],"distanceKm":4.364805770902772},{"id":"dessertsRestaurants_816e027b7bd3","slug":"yfes-816e","kind":"restaurant","name":"Yfes","lat":36.971257014168174,"lng":24.72665696440793,"url":"https://maps.app.goo.gl/9np4LKVixhfHWSEt6?g_st=ipc","address":"Απολλωνία 840 03","categoryIds":["desserts"],"categories":["Dessert Shops"],"distanceKm":4.382218579928383},{"id":"greekRestaurants_7921aa5472db","slug":"kafeneio-drakakis-7921","kind":"restaurant","name":"KAFENEIO DRAKAKIS","lat":36.972959258998515,"lng":24.723737653225438,"url":"https://maps.app.goo.gl/HT6hzXp5huwaTTHm7?g_st=ipc","address":"Απολλωνία 840 03","categoryIds":["greek-restaurants"],"categories":["Greek Restaurants"],"distanceKm":4.600679782587524},{"id":"greekRestaurants_e46c14fa463c","slug":"cayenne-restaurant-art-gallery-e46c","kind":"restaurant","name":"Cayenne Restaurant Art Gallery","lat":36.97306144321347,"lng":24.723650051381746,"url":"https://maps.app.goo.gl/mz6pX32TuR9ieYY67?g_st=ipc","address":"Επαρ.Οδ. Απολλωνίας-Όρμος Φάρου, Απολλωνία 840 03","categoryIds":["greek-restaurants"],"categories":["Greek Restaurants"],"distanceKm":4.613043805218521},{"id":"luxuryDiningRestaurants_81dc67aec549","slug":"cantina-81dc","kind":"restaurant","name":"Cantina","lat":36.97219283235427,"lng":24.74596680838354,"url":"https://maps.app.goo.gl/LgALa3qo2pc4x9pP6?g_st=ipc","address":"Seralia, Kastro 840 03","categoryIds":["luxury-dining"],"categories":["Luxury Dining"],"distanceKm":4.657911304863403},{"id":"coffeeBrunchRestaurants_c3458e08944b","slug":"to-stavri-bakery-to-stayri-c345","kind":"restaurant","name":"To Stavri bakery (Το Σταυρί)","lat":36.97380305039157,"lng":24.72319061672324,"url":"https://maps.app.goo.gl/uYWL7LrV5mmCq24M8?g_st=ipc","address":"Epar.Od. Limani Kamaron-Artemonas, Apollonia 840 03","categoryIds":["coffee-brunch"],"categories":["Coffee & Brunch Spots"],"distanceKm":4.700626922757785},{"id":"fishTavernasRestaurants_ce3871da46c4","slug":"captain-george-ce38","kind":"restaurant","name":"Captain George","lat":36.972680765040145,"lng":24.746232108057637,"url":"https://maps.app.goo.gl/XvLMJtYJDb2Y3mQR7?g_st=ipc","address":"Κάστρο 840 03","categoryIds":["fish-tavernas"],"categories":["Fish Tavernas"],"distanceKm":4.716622024572098},{"id":"coffeeBrunchRestaurants_efd5bd610439","slug":"threefolds-sifnos-efd5","kind":"restaurant","name":"Threefolds sifnos","lat":36.974665514362115,"lng":24.72381923558153,"url":"https://maps.app.goo.gl/PqpVut6E24nuqAUq6?g_st=ipc","address":"Απολλωνία 840 03","categoryIds":["coffee-brunch"],"categories":["Coffee & Brunch Spots"],"distanceKm":4.787534812265345},{"id":"italianRestaurants_25eccdd64c34","slug":"mamma-mia-sifnos-apollonia-25ec","kind":"restaurant","name":"Mamma Mia - Sifnos - Apollonia","lat":36.97495083578174,"lng":24.7241131412881,"url":"https://maps.app.goo.gl/88fvareZPz1tuDRy7?g_st=ipc","address":"Απολλωνία 840 03","categoryIds":["italian"],"categories":["Italian Restaurants"],"distanceKm":4.815505593281108},{"id":"coffeeBrunchRestaurants_afaf99ec8235","slug":"cafe-prago-afaf","kind":"restaurant","name":"Cafe Prago","lat":36.975461059633815,"lng":24.7240519346836,"url":"https://maps.app.goo.gl/isrdd8GJ3jpsZQ7W7?g_st=ipc","address":"Apollonias, Artemona 840 03","categoryIds":["coffee-brunch"],"categories":["Coffee & Brunch Spots"],"distanceKm":4.872465813253957},{"id":"greekRestaurants_ff320530ac97","slug":"stiadi-restaurant-ff32","kind":"restaurant","name":"STIADI RESTAURANT","lat":36.97561287483543,"lng":24.743588724806322,"url":"https://maps.app.goo.gl/GtrgABFRG3Uq2rKP9?g_st=ipc","address":"Κάστρο 840 03","categoryIds":["greek-restaurants"],"categories":["Greek Restaurants"],"distanceKm":4.972657117356243},{"id":"municipalities_72366b2ec926","slug":"sifnos-7236","kind":"municipality","name":"Σίφνος","lat":36.9717,"lng":24.7036,"aliases":["Σιφνος"],"region":"Κυκλάδες","name_en":"Sifnos","region_en":"Cyclades","distanceKm":5.046879837321918},{"id":"greekRestaurants_abbc05eb93be","slug":"estiatorio-lempesis-abbc","kind":"restaurant","name":"Εστιατόριο Λεμπέσης","lat":36.97977476107011,"lng":24.72663670780289,"url":"https://maps.app.goo.gl/uu2dJGd3dS7HNDiS6?g_st=ipc","address":"Αρτεμώνας 840 03","categoryIds":["greek-restaurants"],"categories":["Greek Restaurants"],"distanceKm":5.3262384644271075},{"id":"dessertsRestaurants_1e21715c1ba4","slug":"theodorou-1e21","kind":"restaurant","name":"Theodorou","lat":36.98032236422911,"lng":24.725175617740387,"url":"https://maps.app.goo.gl/3Jy7ZAZANHv7j8Zv5?g_st=ipc","address":"Αρτεμώνας 840 03","categoryIds":["desserts"],"categories":["Dessert Shops"],"distanceKm":5.3981813710041715},{"id":"dessertsRestaurants_3a9ca127474c","slug":"yellow-bicycle-3a9c","kind":"restaurant","name":"Yellow Bicycle","lat":36.981512610738626,"lng":24.723907398959476,"url":"https://maps.app.goo.gl/jrFAxiopPa2HXAPw6?g_st=ipc","address":"Αρτεμώνας 840 03","categoryIds":["desserts"],"categories":["Dessert Shops"],"distanceKm":5.541861359905961},{"id":"luxuryDiningRestaurants_bfd21fa32b8e","slug":"perivoli-restaurant-bfd2","kind":"restaurant","name":"Perivoli Restaurant","lat":36.98184971359456,"lng":24.72167247742077,"url":"https://maps.app.goo.gl/iAutDnpTgMPkufBt7?g_st=ipc","address":"Αρτεμώνας 840 03","categoryIds":["luxury-dining"],"categories":["Luxury Dining"],"distanceKm":5.6054798613278995}],"sameRegion":[],"mentionedGuides":[],"canonicalSlug":"maiolica-sifnos-c296","isCanonicalEntity":true,"enrichment":{"summary_en":"Maiòlica Sifnos is a curated restaurant in Greece in the Fish Tavernas collection. It is connected to 3 nearby Googlementor picks to help travelers build a stronger local route.","summary_el":"Maiòlica Sifnos είναι ένα επιλεγμένο σημείο φαγητού στην περιοχή Greece και ανήκει στη συλλογή Fish Tavernas. Συνδέεται με 3 κοντινές προτάσεις του Googlementor για πιο ολοκληρωμένη εμπειρία.","vibe_tags":["curated","premium-dining","seafood-local"],"best_for":["first-time visitors","food lovers","special occasions"],"visit_moments":["lunch stop","dinner stop"],"practical_note":"Address and direct map link are available for easy turn-by-turn access.","nearby_walkable_count":3,"nearby_count_2km":3,"confidence":0.9}},"__N_SSG":true}