{"pageProps":{"entity":{"id":"luxuryDiningRestaurants_9f9cf29a5760","slug":"makris-milos-fine-dining-restaurant-9f9c","kind":"restaurant","name":"Makris Milos Fine Dining Restaurant","lat":36.744626545035004,"lng":24.481317634143164,"url":"https://maps.app.goo.gl/DyjWXnMeBVwqWcfy6?g_st=ipc","address":"Mytakas, Island 848 00","categoryIds":["luxury-dining"],"categories":["Luxury Dining"]},"sameCategory":[{"id":"fishTavernasRestaurants_c2965cc0335d","slug":"maiolica-sifnos-c296","kind":"restaurant","name":"Maiòlica Sifnos","lat":36.93201088219794,"lng":24.731152746803176,"url":"https://maps.app.goo.gl/RsiuxKtR7W21BNnb8?g_st=ipc","address":"Πλατύς Γιαλός 840 03","categoryIds":["fish-tavernas","luxury-dining"],"categories":["Fish Tavernas","Luxury Dining"],"legacySlugs":["maiolica-sifnos-5a94"]},{"id":"luxuryDiningRestaurants_bfd21fa32b8e","slug":"perivoli-restaurant-bfd2","kind":"restaurant","name":"Perivoli Restaurant","lat":36.98184971359456,"lng":24.72167247742077,"url":"https://maps.app.goo.gl/iAutDnpTgMPkufBt7?g_st=ipc","address":"Αρτεμώνας 840 03","categoryIds":["luxury-dining"],"categories":["Luxury Dining"]},{"id":"luxuryDiningRestaurants_81dc67aec549","slug":"cantina-81dc","kind":"restaurant","name":"Cantina","lat":36.97219283235427,"lng":24.74596680838354,"url":"https://maps.app.goo.gl/LgALa3qo2pc4x9pP6?g_st=ipc","address":"Seralia, Kastro 840 03","categoryIds":["luxury-dining"],"categories":["Luxury Dining"]},{"id":"luxuryDiningRestaurants_bc521e15ad20","slug":"bostani-bar-restaurant-bc52","kind":"restaurant","name":"Bostani Bar & Restaurant","lat":36.983114036475556,"lng":24.733935585542696,"url":"https://maps.app.goo.gl/s5s1BcxwRoxjRnrv7?g_st=ipc","address":"Poulati, Sifnos 840 03","categoryIds":["luxury-dining"],"categories":["Luxury Dining"]},{"id":"luxuryDiningRestaurants_162c7c269249","slug":"mario-restaurant-162c","kind":"restaurant","name":"Mario Restaurant","lat":37.091334008503296,"lng":25.156686500869714,"url":"https://maps.app.goo.gl/XvstBKLEfdRFvAHv7?g_st=ipc","address":"Λιβάδια, Paros 844 00","categoryIds":["luxury-dining"],"categories":["Luxury Dining"]},{"id":"luxuryDiningRestaurants_1787918aabcc","slug":"matsuhisa-paros-1787","kind":"restaurant","name":"Matsuhisa Paros","lat":37.122332088945846,"lng":25.232444794394056,"url":"https://maps.app.goo.gl/MmRAPTUjpZ9ev73JA?g_st=ipc","address":"Avant Mar Hotel, Paros 844 01","categoryIds":["luxury-dining"],"categories":["Luxury Dining"]},{"id":"luxuryDiningRestaurants_daff556d4496","slug":"barbarossa-restaurant-daff","kind":"restaurant","name":"Barbarossa Restaurant","lat":37.12519351534626,"lng":25.23748367778552,"url":"https://maps.app.goo.gl/cdTNGtzo6JQDuLoVA?g_st=ipc","address":"Παλιό Λιμάνι Νάουσας, Limanaki, Naousa 844 01","categoryIds":["luxury-dining"],"categories":["Luxury Dining"]},{"id":"fishTavernasRestaurants_9bf6858efa20","slug":"siparos-seaside-restaurant-9bf6","kind":"restaurant","name":"Siparos Seaside Restaurant","lat":37.12641356420799,"lng":25.266629540061626,"url":"https://maps.app.goo.gl/Y5FqpWpLwoZYaHni9?g_st=ipc","address":"Ξιφαρά 844 01","categoryIds":["fish-tavernas","luxury-dining"],"categories":["Fish Tavernas","Luxury Dining"],"legacySlugs":["siparos-seaside-restaurant-0493"]},{"id":"luxuryDiningRestaurants_1dc2bd6a8064","slug":"elements-restaurant-bar-1dc2","kind":"restaurant","name":"Elements Restaurant Bar","lat":36.46364006260335,"lng":25.371104539849476,"url":"https://maps.app.goo.gl/ehAKLfSTD13fa851A?g_st=ipc","address":"Oia 847 02","categoryIds":["luxury-dining"],"categories":["Luxury Dining"]},{"id":"luxuryDiningRestaurants_92281f88cd62","slug":"lauda-restaurant-9228","kind":"restaurant","name":"Lauda Restaurant","lat":36.461955784508554,"lng":25.377938602582883,"url":"https://maps.app.goo.gl/qsriKPJsQcgJ43x46?g_st=ipc","address":"Oia 847 02","categoryIds":["luxury-dining"],"categories":["Luxury Dining"]},{"id":"luxuryDiningRestaurants_ab3674135abd","slug":"lycabettus-restaurant-ab36","kind":"restaurant","name":"Lycabettus Restaurant","lat":36.4620987049079,"lng":25.379910060169035,"url":"https://maps.app.goo.gl/2mrH4kakyMDha6iV9?g_st=ipc","address":"Nik. Nomikou, Oía 847 02","categoryIds":["luxury-dining"],"categories":["Luxury Dining"]},{"id":"luxuryDiningRestaurants_473c799c8410","slug":"botrini-s-santorini-473c","kind":"restaurant","name":"Botrini's Santorini","lat":36.46201811215205,"lng":25.382543844805166,"url":"https://maps.app.goo.gl/e9tmihEjv2QRq6DKA?g_st=ipc","address":"Main Street, Nik. Nomikou, Oía 847 02","categoryIds":["luxury-dining"],"categories":["Luxury Dining"]}],"nearby":[{"id":"municipalities_9168baac00c3","slug":"pollonia-9168","kind":"municipality","name":"Πολλώνια","lat":36.7534,"lng":24.5087,"region":"Μήλος","name_en":"Pollonia","region_en":"Milos","distanceKm":2.627494852410781},{"id":"dessertsRestaurants_227e46360090","slug":"aggeliki-ice-cream-shop-227e","kind":"restaurant","name":"Aggeliki ice cream shop","lat":36.724956307095454,"lng":24.446679354720963,"url":"https://maps.app.goo.gl/Lr6pCYmiGibrxw1B7?g_st=ipc","address":"Greece, Adamas 848 00","categoryIds":["desserts"],"categories":["Dessert Shops"],"distanceKm":3.783097602833207},{"id":"municipalities_89c635fb5cca","slug":"adamantas-89c6","kind":"municipality","name":"Αδάμαντας","lat":36.7236,"lng":24.4446,"region":"Μήλος","name_en":"Adamas","region_en":"Milos","distanceKm":4.021536120467466},{"id":"wineriesVineyards_946eb8e58cb0","slug":"kostantakis-winery-946e","kind":"restaurant","name":"Kostantakis Winery","lat":36.75755644321186,"lng":24.52676070016812,"url":"https://maps.app.goo.gl/6jEcs57aPdcQLmi17?g_st=ipc","address":"Πολλώνια 848 00","categoryIds":["wineries-vineyards"],"categories":["Wineries & Vineyards"],"distanceKm":4.296409565928472},{"id":"municipalities_e18b28aacc13","slug":"milos-e18b","kind":"municipality","name":"Μήλος","lat":36.7446,"lng":24.426,"aliases":["Μηλος"],"region":"Κυκλάδες","name_en":"Milos","region_en":"Cyclades","distanceKm":4.928891271748432},{"id":"municipalities_af26c33fb168","slug":"plaka-milos-af26","kind":"municipality","name":"Πλάκα Μήλος","lat":36.744,"lng":24.425,"region":"Μήλος","name_en":"Plaka Milos","region_en":"Milos","distanceKm":5.018495219794111},{"id":"coffeeBrunchRestaurants_22ed699a380f","slug":"mosaic-milos-22ed","kind":"restaurant","name":"Mosaic Milos","lat":36.74431276131015,"lng":24.421917244173116,"url":"https://maps.app.goo.gl/5Mzweh8YnbTNhVaQ9?g_st=ipc","address":"Plaka 848 00","categoryIds":["coffee-brunch","rooftop-lounges"],"categories":["Coffee & Brunch Spots","Rooftop Lounges"],"legacySlugs":["mosaic-milos-55f4"],"distanceKm":5.292795414034961},{"id":"fishTavernasRestaurants_defc11d1130f","slug":"psaravolada-restaurant-defc","kind":"restaurant","name":"Psaravolada Restaurant","lat":36.67157549974308,"lng":24.505578356845632,"url":"https://maps.app.goo.gl/ywWETxsWSPkbUx8eA?g_st=ipc","address":"Ψαραβολάδα, Αγία Κυριακη 848 00","categoryIds":["fish-tavernas"],"categories":["Fish Tavernas"],"distanceKm":8.405882152389633},{"id":"municipalities_927aa23a9fc7","slug":"kimolos-927a","kind":"municipality","name":"Κίμωλος","lat":36.7783,"lng":24.575,"aliases":["Κιμωλος"],"region":"Κυκλάδες","name_en":"Kimolos","region_en":"Cyclades","distanceKm":9.146905699294274},{"id":"greekRestaurants_95678f462cb1","slug":"okeanida-9567","kind":"restaurant","name":"Ωκεανίδα","lat":36.93305392530472,"lng":24.690130051637126,"url":"https://maps.app.goo.gl/PhqjSxYuDqrVS2dw6?g_st=ipc","address":"Βαθύ 840 03","categoryIds":["greek-restaurants"],"categories":["Greek Restaurants"],"distanceKm":28.00548928257309},{"id":"fishTavernasRestaurants_4051f6c5c5f1","slug":"yalos-sifnos-4051","kind":"restaurant","name":"Yalos Sifnos","lat":36.93198313076824,"lng":24.73092559432301,"url":"https://maps.app.goo.gl/hct1BV2oGe6F3cM97?g_st=ipc","address":"Πλατύς Γιαλός 840 03","categoryIds":["fish-tavernas"],"categories":["Fish Tavernas"],"distanceKm":30.454013372334952},{"id":"fishTavernasRestaurants_c2965cc0335d","slug":"maiolica-sifnos-c296","kind":"restaurant","name":"Maiòlica Sifnos","lat":36.93201088219794,"lng":24.731152746803176,"url":"https://maps.app.goo.gl/RsiuxKtR7W21BNnb8?g_st=ipc","address":"Πλατύς Γιαλός 840 03","categoryIds":["fish-tavernas","luxury-dining"],"categories":["Fish Tavernas","Luxury Dining"],"legacySlugs":["maiolica-sifnos-5a94"],"distanceKm":30.470868377503642},{"id":"fishTavernasRestaurants_4baa7d7d1366","slug":"omega3-4baa","kind":"restaurant","name":"Omega3","lat":36.932052168795934,"lng":24.731352405475214,"url":"https://maps.app.goo.gl/jioScJGAm2izK6a49?g_st=ipc","address":"Πλατύς Γιαλός 840 03","categoryIds":["fish-tavernas"],"categories":["Fish Tavernas"],"distanceKm":30.486969264206863},{"id":"greekRestaurants_556ba6aea8bf","slug":"to-steki-556b","kind":"restaurant","name":"Το Στέκι","lat":36.932144891987825,"lng":24.732143733490126,"url":"https://maps.app.goo.gl/V9M4s1KNBNRDerWW8?g_st=ipc","address":"Πλατύς Γυαλός, Σίφνος 840 03","categoryIds":["greek-restaurants"],"categories":["Greek Restaurants"],"distanceKm":30.54543288527584},{"id":"municipalities_72366b2ec926","slug":"sifnos-7236","kind":"municipality","name":"Σίφνος","lat":36.9717,"lng":24.7036,"aliases":["Σιφνος"],"region":"Κυκλάδες","name_en":"Sifnos","region_en":"Cyclades","distanceKm":32.07236240825526},{"id":"greekRestaurants_9e0c5c2d6f56","slug":"o-simos-9e0c","kind":"restaurant","name":"Ο ΣΙΜΟΣ","lat":36.98874960651575,"lng":24.675797411728432,"url":"https://maps.app.goo.gl/LmWkmfGPjhMBpKoQ6?g_st=ipc","address":"Καμάρες 840 03","categoryIds":["greek-restaurants"],"categories":["Greek Restaurants"],"distanceKm":32.18979279087461},{"id":"greekRestaurants_259ad1a4a416","slug":"i-meropi-259a","kind":"restaurant","name":"Η ΜΕΡΟΠΗ","lat":36.98892038412835,"lng":24.67563104680434,"url":"https://maps.app.goo.gl/6mzPsRRf26rUzcpT7?g_st=ipc","address":"Καμάρες 840 03","categoryIds":["greek-restaurants"],"categories":["Greek Restaurants"],"distanceKm":32.19784977103978},{"id":"coffeeBrunchRestaurants_bd7fc0151f49","slug":"fasolu-restaurant-beach-bar-bd7f","kind":"restaurant","name":"Fasolu Restaurant - Beach Bar","lat":36.941116049216255,"lng":24.753293392899685,"url":"https://maps.app.goo.gl/Lb3CYfu5rPNFtURu7?g_st=ipc","address":"Fassolou Beach, 840 03","categoryIds":["coffee-brunch"],"categories":["Coffee & Brunch Spots"],"distanceKm":32.60548886449452},{"id":"fishTavernasRestaurants_4864e8e3be1a","slug":"angie-seaside-restaurant-4864","kind":"restaurant","name":"ANGIE seaside restaurant","lat":36.944136259291675,"lng":24.751012764820505,"url":"https://maps.app.goo.gl/bGogp723rTJwR3cx7?g_st=ipc","address":"Φαρος, Faros 840 03","categoryIds":["fish-tavernas"],"categories":["Fish Tavernas"],"distanceKm":32.681805922097304},{"id":"fishTavernasRestaurants_0067c5728086","slug":"alyelo-bar-restaurant-0067","kind":"restaurant","name":"Alyelo Bar Restaurant","lat":36.944070932851574,"lng":24.75112565793777,"url":"https://maps.app.goo.gl/R8Jg72P8QchmsSubA?g_st=ipc","address":"Φάρος 840 03","categoryIds":["fish-tavernas"],"categories":["Fish Tavernas"],"distanceKm":32.68426181519078},{"id":"fishTavernasRestaurants_d069945d0fb2","slug":"pelicanos-d069","kind":"restaurant","name":"Pelicanos","lat":36.94422039775623,"lng":24.751254852785607,"url":"https://maps.app.goo.gl/xbF6ZRisum4Kfmgz5?g_st=ipc","address":"beach, Faros 840 03","categoryIds":["fish-tavernas"],"categories":["Fish Tavernas"],"distanceKm":32.70396680517883},{"id":"greekRestaurants_7921aa5472db","slug":"kafeneio-drakakis-7921","kind":"restaurant","name":"KAFENEIO DRAKAKIS","lat":36.972959258998515,"lng":24.723737653225438,"url":"https://maps.app.goo.gl/HT6hzXp5huwaTTHm7?g_st=ipc","address":"Απολλωνία 840 03","categoryIds":["greek-restaurants"],"categories":["Greek Restaurants"],"distanceKm":33.31355949018322},{"id":"greekRestaurants_e46c14fa463c","slug":"cayenne-restaurant-art-gallery-e46c","kind":"restaurant","name":"Cayenne Restaurant Art Gallery","lat":36.97306144321347,"lng":24.723650051381746,"url":"https://maps.app.goo.gl/mz6pX32TuR9ieYY67?g_st=ipc","address":"Επαρ.Οδ. Απολλωνίας-Όρμος Φάρου, Απολλωνία 840 03","categoryIds":["greek-restaurants"],"categories":["Greek Restaurants"],"distanceKm":33.31716659850108},{"id":"dessertsRestaurants_816e027b7bd3","slug":"yfes-816e","kind":"restaurant","name":"Yfes","lat":36.971257014168174,"lng":24.72665696440793,"url":"https://maps.app.goo.gl/9np4LKVixhfHWSEt6?g_st=ipc","address":"Απολλωνία 840 03","categoryIds":["desserts"],"categories":["Dessert Shops"],"distanceKm":33.33915376430824}],"sameRegion":[],"mentionedGuides":[{"slug":"choose-perfect-greek-island-el","title":"Πώς να Επιλέξετε το Ιδανικό Ελληνικό Νησί"},{"slug":"choose-perfect-greek-island","title":"How to Choose the Perfect Greek Island for Your Trip"}],"canonicalSlug":"makris-milos-fine-dining-restaurant-9f9c","isCanonicalEntity":true,"enrichment":{"summary_en":"Makris Milos Fine Dining Restaurant is a curated restaurant in Island 848 00 in the Luxury Dining collection. It is connected to 0 nearby Googlementor picks to help travelers build a stronger local route.","summary_el":"Makris Milos Fine Dining Restaurant είναι ένα επιλεγμένο σημείο φαγητού στην περιοχή Island 848 00 και ανήκει στη συλλογή Luxury Dining. Συνδέεται με 0 κοντινές προτάσεις του Googlementor για πιο ολοκληρωμένη εμπειρία.","vibe_tags":["curated","premium-dining"],"best_for":["first-time visitors","food lovers","special occasions"],"visit_moments":["lunch stop","dinner stop"],"practical_note":"Address and direct map link are available for easy turn-by-turn access.","nearby_walkable_count":0,"nearby_count_2km":0,"confidence":0.9}},"__N_SSG":true}