{"pageProps":{"entity":{"id":"burgersRestaurants_3c1c73d21fec","slug":"meat-n-roses-kolonaki-3c1c","kind":"restaurant","name":"Meat n Roses Kolonaki","lat":37.97828442263524,"lng":23.735087640545906,"url":"https://maps.app.goo.gl/qGwCStnKNtrJzrtm6?g_st=ipc","address":"Αμερικής 7, Αθήνα 106 72","categoryIds":["burgers","cheap-eats"],"categories":["Burger Spots","Gyros & Cheap Eats"],"legacySlugs":["meat-n-roses-kolonaki-9219"]},"sameCategory":[{"id":"burgersRestaurants_c839a7ca9229","slug":"prigkipas-c839","kind":"restaurant","name":"Πρiγκιπας","lat":37.983677017107105,"lng":23.73451147367233,"url":"https://maps.app.goo.gl/fEvt3vsxx19nFxqw8?g_st=ipc","address":"Χαρ. Τρικούπη 23, Αθήνα 106 81","categoryIds":["burgers","cheap-eats"],"categories":["Burger Spots","Gyros & Cheap Eats"],"legacySlugs":["prigkipas-f678"]},{"id":"burgersRestaurants_333f3b6e6592","slug":"chicken-queen-333f","kind":"restaurant","name":"Chicken Queen","lat":37.96764787341708,"lng":23.749271201498335,"url":"https://maps.app.goo.gl/y9qpEuxuYdxvEzYY9?g_st=ipc","address":"Ευτυχίδου 47, Αθήνα 116 34","categoryIds":["burgers","cheap-eats"],"categories":["Burger Spots","Gyros & Cheap Eats"],"legacySlugs":["chicken-queen-b3b7"]},{"id":"burgersRestaurants_c05eb7f13ddf","slug":"psychiatreio-c05e","kind":"restaurant","name":"Ψυχιατρείο","lat":37.941454787946455,"lng":23.74643002685345,"url":"https://maps.app.goo.gl/nvzgc7zjFUEkgZMN8?g_st=ipc","address":"Αγίου Κωνσταντίνου 16, Ηλιούπολη 163 46","categoryIds":["burgers","cheap-eats"],"categories":["Burger Spots","Gyros & Cheap Eats"],"legacySlugs":["psychiatreio-6c0c"]},{"id":"burgersRestaurants_7bcb47e330c5","slug":"tryfonas-kempaptzidikon-hamburgerie-7bcb","kind":"restaurant","name":"Τρύφωνας Κεμπαπτζίδικoν - Hamburgerie","lat":38.0125506362582,"lng":23.70608974489792,"url":"https://maps.app.goo.gl/cE9CbEn5LYoZ6WKj7?g_st=ipc","address":"Παρασκευοπούλου 51, Περιστέρι 121 34","categoryIds":["burgers","cheap-eats"],"categories":["Burger Spots","Gyros & Cheap Eats"],"legacySlugs":["tryfonas-kempaptzidikon-hamburgerie-390d"]},{"id":"burgersRestaurants_08ca7d0bda51","slug":"koutsi-katsika-street-food-nea-filadelfeia-08ca","kind":"restaurant","name":"Koutsi Katsika Street Food Νέα Φιλαδέλφεια","lat":38.03629712914596,"lng":23.73867302573474,"url":"https://maps.app.goo.gl/XqS8cuX3SxVKDWRr8?g_st=ipc","address":"Λεωφ. Δεκελείας 109, Νέα Φιλαδέλφεια Αττικής 143 41","categoryIds":["burgers","cheap-eats"],"categories":["Burger Spots","Gyros & Cheap Eats"],"legacySlugs":["koutsi-katsika-street-food-nea-filadelfeia-2553"]},{"id":"burgersRestaurants_797126963f1f","slug":"amam-estiatorio-glyfada-7971","kind":"restaurant","name":"ΑΜΑΜ - ΕΣΤΙΑΤΟΡΙΟ - ΓΛΥΦΑΔΑ","lat":37.895880681449796,"lng":23.761095559330744,"url":"https://maps.app.goo.gl/fAsTx4mwCTHC78t86?g_st=ipc","address":"Γεωρ. Γεννηματά 11, Γλυφάδα 165 62","categoryIds":["burgers","cheap-eats"],"categories":["Burger Spots","Gyros & Cheap Eats"],"legacySlugs":["amam-estiatorio-glyfada-af98"]},{"id":"burgersRestaurants_51cd3df73f20","slug":"mpar-mpee-kioy-freattyda-51cd","kind":"restaurant","name":"Μπαρ Μπεε Κιου - Φρεαττύδα","lat":37.93450645446817,"lng":23.642685440187794,"url":"https://maps.app.goo.gl/UkJPpNzXrBGL944RA?g_st=ipc","address":"Λεωφ. Φρεάττυδος 13, Πειραιάς 185 37","categoryIds":["burgers","cheap-eats"],"categories":["Burger Spots","Gyros & Cheap Eats"],"legacySlugs":["mpar-mpee-kioy-freattyda-b711"]},{"id":"burgersRestaurants_9c2f22b0606b","slug":"hashtag-burger-9c2f","kind":"restaurant","name":"Hashtag#Burger","lat":37.89371001882756,"lng":23.763217485797266,"url":"https://maps.app.goo.gl/BsuHdbYYc8dsSTwn8?g_st=ipc","address":"Γεωρ. Γεννηματά 26, Γλυφάδα 165 62","categoryIds":["burgers","cheap-eats"],"categories":["Burger Spots","Gyros & Cheap Eats"],"legacySlugs":["hashtag-burger-30dc"]},{"id":"burgersRestaurants_4906276397a1","slug":"godgilla-keratsini-4906","kind":"restaurant","name":"GODGILLA ΚΕΡΑΤΣΙΝΙ","lat":37.95895954039208,"lng":23.62512429010796,"url":"https://maps.app.goo.gl/XPM5TwgWvpZmGQUh6?g_st=ipc","address":"Θεόφραστου 54, Κερατσίνι 187 56","categoryIds":["burgers","cheap-eats"],"categories":["Burger Spots","Gyros & Cheap Eats"],"legacySlugs":["godgilla-keratsini-e67b"]},{"id":"burgersRestaurants_ceb67d2517dd","slug":"godgilla-umami-street-food-ceb6","kind":"restaurant","name":"Godgilla umami street food","lat":38.056565975998105,"lng":23.814008768575892,"url":"https://maps.app.goo.gl/WyovvCKHo17WtrPb8?g_st=ipc","address":"Γεωρ. Κοτζιά 2, Μαρούσι 151 26","categoryIds":["burgers","cheap-eats"],"categories":["Burger Spots","Gyros & Cheap Eats"],"legacySlugs":["godgilla-umami-street-food-784d"]},{"id":"burgersRestaurants_4060fc5be247","slug":"maestro-cantina-4060","kind":"restaurant","name":"Maestro Cantina","lat":40.539870288194706,"lng":23.0207573353921,"url":"https://maps.app.goo.gl/WJTaYcJdPxACzwkXA?g_st=ipc","address":"EO Thessalonikis Poligirou 32, Thermi 570 01","categoryIds":["burgers","cheap-eats"],"categories":["Burger Spots","Gyros & Cheap Eats"],"legacySlugs":["maestro-cantina-5ff9"]},{"id":"burgersRestaurants_54aa085a6ef8","slug":"sinners-smash-burgers-54aa","kind":"restaurant","name":"Sinners Smash Burgers","lat":40.57608642412674,"lng":22.98935981589618,"url":"https://maps.app.goo.gl/Y2NDJtMWMoJrutpZ6?g_st=ipc","address":"Στέλιου Καζαντζίδη 31, Pilea 555 35","categoryIds":["burgers","cheap-eats"],"categories":["Burger Spots","Gyros & Cheap Eats"],"legacySlugs":["sinners-smash-burgers-e79f"]}],"nearby":[{"id":"italianRestaurants_c9470358a12d","slug":"la-pasteria-c947","kind":"restaurant","name":"La Pasteria","lat":37.97832911911956,"lng":23.73614187652223,"url":"https://maps.app.goo.gl/4tmrg1wVrWp5rgjx6?g_st=ipc","address":"Βαλαωρίτου 15, Αθήνα 106 71","categoryIds":["italian"],"categories":["Italian Restaurants"],"distanceKm":0.0925359887436333},{"id":"luxuryDiningRestaurants_cde7552f30ab","slug":"tilemachos-athens-cde7","kind":"restaurant","name":"Τηλέμαχος Athens","lat":37.97762848061713,"lng":23.73578847774419,"url":"https://maps.app.goo.gl/RBuX85zG8FLEfgP38?g_st=ipc","address":"Πανεπιστημίου 10, Αθήνα 106 71","categoryIds":["luxury-dining"],"categories":["Luxury Dining"],"distanceKm":0.09535847569912671},{"id":"coffeeBrunchRestaurants_741e5993d85c","slug":"paul-athens-741e","kind":"restaurant","name":"PAUL Athens","lat":37.977628510320386,"lng":23.735790636370144,"url":"https://maps.app.goo.gl/2zHj3YHoNrWUYk8f8?g_st=ipc","address":"Πανεπιστημίου 10, Αθήνα 106 71","categoryIds":["coffee-brunch"],"categories":["Coffee & Brunch Spots"],"distanceKm":0.09547794178134555},{"id":"luxuryDiningRestaurants_35d3fcaae0e0","slug":"athenee-35d3","kind":"restaurant","name":"Athénée","lat":37.97732441090204,"lng":23.73522238103731,"url":"https://maps.app.goo.gl/XVTtg2fQJZ9BgKwf8?g_st=ipc","address":"Βουκουρεστίου 9, Αθήνα 106 71","categoryIds":["luxury-dining"],"categories":["Luxury Dining"],"distanceKm":0.10739973100085957},{"id":"rooftopLoungesRestaurants_a85e8793b95e","slug":"galaxy-bar-a85e","kind":"restaurant","name":"Galaxy Bar","lat":37.97799760915879,"lng":23.73380131955468,"url":"https://maps.app.goo.gl/onyhWrgj9TNpbXLX8?g_st=ipc","address":"Σταδίου 10, Αθήνα 105 62","categoryIds":["rooftop-lounges"],"categories":["Rooftop Lounges"],"distanceKm":0.11716853093350268},{"id":"burgersRestaurants_73735eff606b","slug":"meat-n-roses-kolonaki-7373","kind":"restaurant","name":"Meat n Roses Kolonaki","lat":37.97930236645354,"lng":23.735454286708567,"url":"https://maps.app.goo.gl/KJyNqjkU3cm9AqGa8?g_st=ic","address":"Omirou 13, Athina 106 72","categoryIds":["burgers"],"categories":["Burger Spots"],"distanceKm":0.1176636375337331},{"id":"italianRestaurants_b4580bbde39a","slug":"piadina-lumbro-b458","kind":"restaurant","name":"Piadina Lumbro","lat":37.97943796124596,"lng":23.735657958882037,"url":"https://maps.app.goo.gl/uGAbtwYha4Eeb7c56?g_st=ipc","address":"Ομήρου 15, Αθήνα 106 72","categoryIds":["italian"],"categories":["Italian Restaurants"],"distanceKm":0.13766378207910865},{"id":"coffeeBrunchRestaurants_8e0209d5d821","slug":"efimerida-ath-8e02","kind":"restaurant","name":"Εφημερίδα ATH","lat":37.97982401641368,"lng":23.734805099489133,"url":"https://maps.app.goo.gl/Kv2HqL5VxXf39c5Y7?g_st=ipc","address":"Βησσαρίωνος 9, Αθήνα 106 72","categoryIds":["coffee-brunch"],"categories":["Coffee & Brunch Spots"],"distanceKm":0.17297686245132213},{"id":"luxuryDiningRestaurants_1c82eb719373","slug":"mappemonde-restaurant-bar-lounge-1c82","kind":"restaurant","name":"MAPPEMONDE RESTAURANT BAR-LOUNGE","lat":37.97696364697298,"lng":23.73616989138591,"url":"https://maps.app.goo.gl/WYq3Lbdn3q9HxutG9?g_st=ipc","address":"4 Eleftheriou Venizelou Avenue and, Κριεζώτου 2, Αθήνα 106 71","categoryIds":["luxury-dining","rooftop-lounges"],"categories":["Luxury Dining","Rooftop Lounges"],"legacySlugs":["mappemonde-restaurant-bar-lounge-a1dc"],"distanceKm":0.17483446494453206},{"id":"asianRestaurants_e45a00190680","slug":"nyx-japanese-rooftop-gastrobar-e45a","kind":"restaurant","name":"NYX Japanese Rooftop Gastrobar","lat":37.979692107976724,"lng":23.736124325689694,"url":"https://maps.app.goo.gl/Tg5ncVYwYwG98YZBA?g_st=ipc","address":"Ομήρου 19, Αθήνα 106 19","categoryIds":["asian","luxury-dining","rooftop-lounges"],"categories":["Asian Restaurants","Luxury Dining","Rooftop Lounges"],"legacySlugs":["nyx-japanese-rooftop-gastrobar-3e6e","nyx-japanese-rooftop-gastrobar-f14e"],"distanceKm":0.18098890222240538},{"id":"luxuryDiningRestaurants_7703e92f7675","slug":"alexander-s-cigar-lounge-hotel-grande-bretagne-7703","kind":"restaurant","name":"Alexander's Cigar Lounge - Hotel Grande Bretagne","lat":37.9765761269288,"lng":23.735530035440927,"url":"https://maps.app.goo.gl/ATToqJxfAUoZ5G9K9?g_st=ipc","address":"Ξενοδοχείο Μεγάλη Βρεταννία, Αθήνα 105 64","categoryIds":["luxury-dining"],"categories":["Luxury Dining"],"distanceKm":0.193871130432871},{"id":"coffeeBrunchRestaurants_d047b317da2a","slug":"to-tsai-d047","kind":"restaurant","name":"To Tsai","lat":37.97897316301174,"lng":23.737126960431553,"url":"https://maps.app.goo.gl/xwzLF5n6xn8fr2tf8?g_st=ipc","address":"Αλ. Σούτσου 19, Αθήνα 106 71","categoryIds":["coffee-brunch","vegetarian"],"categories":["Coffee & Brunch Spots","Vegetarian Friendly Restaurants"],"legacySlugs":["to-tsai-23ba"],"distanceKm":0.1944588056646914},{"id":"mexicanRestaurants_855638776a76","slug":"tekila-8556","kind":"restaurant","name":"Tekila","lat":37.97697304778162,"lng":23.733460625726625,"url":"https://maps.app.goo.gl/CAhgNENSirDV1fWq7?g_st=ipc","address":"Κολοκοτρώνη 3, Αθήνα 105 62","categoryIds":["mexican"],"categories":["Mexican Restaurants"],"distanceKm":0.20396012522902976},{"id":"mustSeeAttractions_4c1bed18d9f3","slug":"academy-of-athens-4c1b","kind":"restaurant","name":"Academy of Athens","lat":37.980052000475574,"lng":23.73401307902472,"url":"https://maps.app.goo.gl/ggPZ2e3QeajFYXJX8?g_st=ipc","address":"Panepistimiou 28, Athina 106 79","categoryIds":["attractions"],"categories":["Must-See Attractions"],"distanceKm":0.2179463523255739},{"id":"cheapEatsRestaurants_fa954f16db19","slug":"i-kantina-tis-karagiorgi-servias-o-kritikos-fa95","kind":"restaurant","name":"Η καντίνα της Καραγιώργη Σερβίας (Ο Κρητικός)","lat":37.97642356412653,"lng":23.734100321342698,"url":"https://maps.app.goo.gl/EeFjaZknqeTjfN8V6?g_st=ipc","address":"Καραγιώργη Σερβίας 2, Αθήνα 105 62","categoryIds":["cheap-eats"],"categories":["Gyros & Cheap Eats"],"distanceKm":0.22428544378656276},{"id":"luxuryDiningRestaurants_625d4bb407a4","slug":"tudor-hall-625d","kind":"restaurant","name":"Tudor Hall","lat":37.97626476939356,"lng":23.73492119381686,"url":"https://maps.app.goo.gl/cS5CQSpmozciczpaA?g_st=ipc","address":"Γεωρ. Α' 3, Αθήνα 105 64","categoryIds":["luxury-dining","rooftop-lounges"],"categories":["Luxury Dining","Rooftop Lounges"],"legacySlugs":["tudor-hall-611d"],"distanceKm":0.22504856822962457},{"id":"luxuryDiningRestaurants_bd5ed00d450e","slug":"the-winter-garden-bd5e","kind":"restaurant","name":"The Winter Garden","lat":37.97623725810017,"lng":23.735438816517487,"url":"https://maps.app.goo.gl/jhibZwcpc2dwd9vw9?g_st=ipc","address":"Γεωρ. Α' 1, Αθήνα 105 64","categoryIds":["luxury-dining"],"categories":["Luxury Dining"],"distanceKm":0.22970594703148214},{"id":"dessertsRestaurants_212bd4b3371e","slug":"desire-zacharoplasteio-212b","kind":"restaurant","name":"DESIRE Ζαχαροπλαστείο","lat":37.97875008220235,"lng":23.737643413526353,"url":"https://maps.app.goo.gl/622nuTbk44qURXdA9?g_st=ipc","address":"Δημοκρίτου 6, Αθήνα 106 71","categoryIds":["desserts"],"categories":["Dessert Shops"],"distanceKm":0.22991595942031315},{"id":"luxuryDiningRestaurants_0523e221d253","slug":"gb-roof-garden-restaurant-bar-0523","kind":"restaurant","name":"GB Roof Garden Restaurant & Bar","lat":37.97622612223311,"lng":23.735512001439584,"url":"https://maps.app.goo.gl/VcZAREtQXac8Kb7L8?g_st=ipc","address":"Γεωρ. Α' 1, Αθήνα 105 64","categoryIds":["luxury-dining"],"categories":["Luxury Dining"],"distanceKm":0.23187525527076058},{"id":"rooftopLoungesRestaurants_c34049f74a4c","slug":"gb-roof-garden-restaurant-bar-c340","kind":"restaurant","name":"GB Roof Garden Restaurant & Bar","lat":37.97622491152129,"lng":23.73551130501855,"url":"https://maps.app.goo.gl/dd7gZSbVftPp5h3y8?g_st=ipc","address":"GB Roof Garden Restaurant & Bar","categoryIds":["rooftop-lounges"],"categories":["Rooftop Lounges"],"distanceKm":0.23199835976722263},{"id":"coffeeBrunchRestaurants_394da04a2026","slug":"it-restaurant-kolonaki-394d","kind":"restaurant","name":"IT restaurant Kolonaki","lat":37.9781134250021,"lng":23.737763201387953,"url":"https://maps.app.goo.gl/5dn3SzH3a8fsGfeW7?g_st=ipc","address":"106 71 Voukourestiou 30 &, Αλ. Σούτσου, Αθήνα 106 71","categoryIds":["coffee-brunch"],"categories":["Coffee & Brunch Spots"],"distanceKm":0.2352793725762075},{"id":"coffeeBrunchRestaurants_3321b1393c9d","slug":"s-agapw-coffee-wine-and-love-3321","kind":"restaurant","name":"S’agapw Coffee Wine and Love","lat":37.97818149501619,"lng":23.732268569349888,"url":"https://maps.app.goo.gl/oYaBfSgA7BG2s8ph8?g_st=ipc","address":"Ανθίμου Γαζή 15, Αθήνα 105 61","categoryIds":["coffee-brunch"],"categories":["Coffee & Brunch Spots"],"distanceKm":0.2473531284263709},{"id":"dessertsRestaurants_ce9de85fc0a1","slug":"aristokratikon-epich-ap-to-1928-syntagma-athina-ce9d","kind":"restaurant","name":"Αριστοκρατικόν (Επιχ. απ'το 1928) - Σύνταγμα, Αθήνα","lat":37.97685312862056,"lng":23.732864293474787,"url":"https://maps.app.goo.gl/ZpgyyzyeJjW4e7Y58?g_st=ipc","address":"Βουλής 7, Αθήνα 105 62","categoryIds":["desserts"],"categories":["Dessert Shops"],"distanceKm":0.2516068509458039},{"id":"coffeeBrunchRestaurants_ad607df7652f","slug":"samba-coffee-roasters-the-shop-ad60","kind":"restaurant","name":"Samba Coffee Roasters | The Shop","lat":37.9794317267494,"lng":23.73762622482217,"url":"https://maps.app.goo.gl/34yfEmMHeLiaz3iD9?g_st=ipc","address":"Σόλωνος 36, Αθήνα 106 73","categoryIds":["coffee-brunch"],"categories":["Coffee & Brunch Spots"],"distanceKm":0.2564807066250635}],"sameRegion":[],"mentionedGuides":[{"slug":"best-greek-souvenirs-athens-el","title":"Καλύτερα Ελληνικά Σουβενίρ στην Αθήνα: Οδηγός Αγορών"},{"slug":"best-greek-souvenirs-athens","title":"Best Greek Souvenirs in Athens: Shopping Guide"},{"slug":"greek-bakeries-brunch-coffee-guide-el","title":"Ελληνική Αρτοποιία, Brunch & Κουλτούρα Καφέ"},{"slug":"greek-bakeries-brunch-coffee-guide","title":"Greek Bakeries, Brunch & Coffee Culture"},{"slug":"luxury-rooftop-restaurants-athens-el","title":"Πολυτελή Rooftop Εστιατόρια και Μπαρ στην Αθήνα"},{"slug":"luxury-rooftop-restaurants-athens","title":"Luxury Rooftop Restaurants & Bars in Athens"}],"canonicalSlug":"meat-n-roses-kolonaki-3c1c","isCanonicalEntity":true,"enrichment":{"summary_en":"Meat n Roses Kolonaki is a curated restaurant in Αθήνα 106 72 in the Burger Spots collection. It is connected to 257 nearby Googlementor picks to help travelers build a stronger local route.","summary_el":"Meat n Roses Kolonaki είναι ένα επιλεγμένο σημείο φαγητού στην περιοχή Αθήνα 106 72 και ανήκει στη συλλογή Burger Spots. Συνδέεται με 257 κοντινές προτάσεις του Googlementor για πιο ολοκληρωμένη εμπειρία.","vibe_tags":["curated","budget-friendly"],"best_for":["first-time visitors","food lovers","budget travelers"],"visit_moments":["lunch stop","dinner stop"],"practical_note":"Address and direct map link are available for easy turn-by-turn access.","nearby_walkable_count":257,"nearby_count_2km":645,"confidence":0.98}},"__N_SSG":true}