{"pageProps":{"entity":{"id":"italianRestaurants_964eabf93843","slug":"pablo-pasta-corner-964e","kind":"restaurant","name":"Pablo Pasta Corner","lat":36.545609138218644,"lng":26.3527289228981,"url":"https://maps.app.goo.gl/oiQQ7oLzNp1QAEmS9?g_st=ipc","address":"G9W3+63, Astipalea 859 00","categoryIds":["italian"],"categories":["Italian Restaurants"]},"sameCategory":[{"id":"italianRestaurants_f73393157432","slug":"pizza-petrino-f733","kind":"restaurant","name":"Pizza Petrino","lat":36.83162048389455,"lng":25.898532535817935,"url":"https://maps.app.goo.gl/BxpBdgAak6UKLRYL7?g_st=ipc","address":"Χώρα 840 08","categoryIds":["italian"],"categories":["Italian Restaurants"]},{"id":"italianRestaurants_b24f49cdda5b","slug":"mikres-cyclades-b24f","kind":"restaurant","name":"Mikres Cyclades","lat":36.931957255563695,"lng":25.59902680119125,"url":"https://maps.app.goo.gl/JbLqAJKLLdfUdDyN8?g_st=ipc","address":"Άνω, 843 00","categoryIds":["italian"],"categories":["Italian Restaurants"]},{"id":"italianRestaurants_0e8f8291b62e","slug":"pizzeria-mamarosa-0e8f","kind":"restaurant","name":"Pizzeria MamaRosa","lat":36.899851240204136,"lng":27.283589360751858,"url":"https://maps.app.goo.gl/74rh4sPu3LvCHuk77?g_st=ipc","address":"Kanari 48, Kos 853 00","categoryIds":["italian"],"categories":["Italian Restaurants"]},{"id":"italianRestaurants_3c7247930b69","slug":"pizzeria-mamarosa-3c72","kind":"restaurant","name":"Pizzeria MamaRosa","lat":36.89985042997736,"lng":27.283591451459408,"url":"https://maps.app.goo.gl/obmeLmF2dusw8e6LA?g_st=ipc","address":"Κανάρη 48, Κως 853 00","categoryIds":["italian"],"categories":["Italian Restaurants"]},{"id":"italianRestaurants_4f96313e6daa","slug":"mitos-arternative-bar-4f96","kind":"restaurant","name":"Mitos ARTernative BAR","lat":37.06317254380818,"lng":25.48274579484659,"url":"https://maps.app.goo.gl/jstAML7uYBqEdQYq6?g_st=ipc","address":"Χαλκείο 843 02","categoryIds":["italian"],"categories":["Italian Restaurants"]},{"id":"italianRestaurants_338afaa92d9f","slug":"caya-italian-cuisine-cocktail-bar-338a","kind":"restaurant","name":"Caya Italian Cuisine Cocktail Bar","lat":37.05775350559496,"lng":25.360162570769955,"url":"https://maps.app.goo.gl/aQBfn7JeavM87SvT6?g_st=ipc","address":"Πλάκα Ναξος Κυκλάδες, 843 00","categoryIds":["italian"],"categories":["Italian Restaurants"]},{"id":"italianRestaurants_81fb3a3e7792","slug":"etere-ristorante-spritzeria-81fb","kind":"restaurant","name":"ETERE Ristorante•Spritzeria","lat":37.10293986337665,"lng":25.375171669884853,"url":"https://maps.app.goo.gl/hwE3v2eAEfeWwtVD6?g_st=ipc","address":"Σχοινούσας, Kiprou &, Naxos 843 00","categoryIds":["italian"],"categories":["Italian Restaurants"]},{"id":"italianRestaurants_7d6f32d35713","slug":"dal-professore-naxos-7d6f","kind":"restaurant","name":"Dal Professore Naxos","lat":37.10347764120069,"lng":25.374650593867482,"url":"https://maps.app.goo.gl/GLP6dYmT8CK2v8Rk9?g_st=ipc","address":"Sea front - Naxos town Naxos Town, 843 00","categoryIds":["italian"],"categories":["Italian Restaurants"]},{"id":"italianRestaurants_b7cf983e2771","slug":"casa-giacomo-paros-b7cf","kind":"restaurant","name":"Casa Giacomo Paros","lat":37.12454320720165,"lng":25.238458349168585,"url":"https://maps.app.goo.gl/Ciaf8V2SrHA91Eqw7?g_st=ipc","address":"Little Venice, Naousa 844 01","categoryIds":["italian"],"categories":["Italian Restaurants"]},{"id":"italianRestaurants_aef2b7848975","slug":"impasto-aef2","kind":"restaurant","name":"Impasto","lat":37.081621983659346,"lng":25.14571923250388,"url":"https://maps.app.goo.gl/Hzvu5t3VhUBHB7JC7?g_st=ipc","address":"Paros 844 00","categoryIds":["italian"],"categories":["Italian Restaurants"]},{"id":"italianRestaurants_2fd6901849b7","slug":"cardamomo-2fd6","kind":"restaurant","name":"Cardamomo","lat":37.4446572877169,"lng":25.396868169763824,"url":"https://maps.app.goo.gl/sh5TMZCTCw3tQKQP9?g_st=ipc","address":"Unnamed Road, Ano Mera 846 00","categoryIds":["italian"],"categories":["Italian Restaurants"]},{"id":"italianRestaurants_26298b2afd51","slug":"sistina-mykonos-2629","kind":"restaurant","name":"Sistina Mykonos","lat":37.42270720054724,"lng":25.33392940009779,"url":"https://maps.app.goo.gl/jbVQZaFoXT3nCmEQ6?g_st=ipc","address":"Platis Gialos, Mikonos 846 00","categoryIds":["italian"],"categories":["Italian Restaurants"]}],"nearby":[{"id":"greekRestaurants_826ee6f6b42a","slug":"ducato-di-astypalea-826e","kind":"restaurant","name":"Ducato Di Astypalea","lat":36.54536940615809,"lng":26.35248428420808,"url":"https://maps.app.goo.gl/ZfS2feMAKcarSRzQ7?g_st=ipc","address":"Χώρα, Δωδεκάνησα 859 00","categoryIds":["greek-restaurants"],"categories":["Greek Restaurants"],"distanceKm":0.034470247659469974},{"id":"greekRestaurants_1eb270eb5f4f","slug":"ageri-restaurant-1eb2","kind":"restaurant","name":"Ageri restaurant","lat":36.545373863016174,"lng":26.35247532810791,"url":"https://maps.app.goo.gl/rQHUiQxR5nqHhzwq6?g_st=ipc","address":"Αστυπάλαια 859 00","categoryIds":["greek-restaurants"],"categories":["Greek Restaurants"],"distanceKm":0.03460681898482416},{"id":"greekRestaurants_9c87341404e8","slug":"to-stenaki-toy-koykla-to-stenaki-toy-koukla-9c87","kind":"restaurant","name":"Το στενάκι του Κούκλα.(to stenaki toy Koukla)","lat":36.545265395977154,"lng":26.35261447161412,"url":"https://maps.app.goo.gl/SnNzgQyWmVDaVzEZ8?g_st=ipc","address":"Astypalaia Chora myloi, Αστυπάλαια 859 00","categoryIds":["greek-restaurants"],"categories":["Greek Restaurants"],"distanceKm":0.03956621793697172},{"id":"greekRestaurants_25653bac7b54","slug":"paradosiako-kafeneio-to-kafeneio-toy-moyggoy-2565","kind":"restaurant","name":"Παραδοσιακό Καφενείο (To Καφενείο του Μουγγού)","lat":36.5453974756151,"lng":26.35310123253182,"url":"https://maps.app.goo.gl/gijNGaC27DHdZSCLA?g_st=ipc","address":"Αστυπάλαιας, Αστυπάλαια 859 00","categoryIds":["greek-restaurants"],"categories":["Greek Restaurants"],"distanceKm":0.04074447684587798},{"id":"coffeeBrunchRestaurants_64018e74309c","slug":"meltemi-6401","kind":"restaurant","name":"Meltemi","lat":36.545359250189506,"lng":26.352356416685993,"url":"https://maps.app.goo.gl/nFrvN47758pZXWzT8?g_st=ipc","address":"Astypalaia 859 00","categoryIds":["coffee-brunch","desserts"],"categories":["Coffee & Brunch Spots","Dessert Shops"],"legacySlugs":["meltemi-57c8"],"distanceKm":0.04335233026877587},{"id":"greekRestaurants_869806f17064","slug":"apanemia-8698","kind":"restaurant","name":"Απανεμιά","lat":36.54479553075043,"lng":26.354427413382332,"url":"https://maps.app.goo.gl/rmFvvL97zEvLD4fw7?g_st=ipc","address":"Αστυπάλαια 859 00","categoryIds":["greek-restaurants"],"categories":["Greek Restaurants"],"distanceKm":0.17665448823610722},{"id":"coffeeBrunchRestaurants_a3547d8efbea","slug":"kolokytha-a354","kind":"restaurant","name":"Kolokytha","lat":36.54726990012019,"lng":26.353646413648903,"url":"https://maps.app.goo.gl/6FaxgMCjdWj9EPA48?g_st=ipc","address":"Unnamed Rd, Astipalea 859 00","categoryIds":["coffee-brunch","desserts"],"categories":["Coffee & Brunch Spots","Dessert Shops"],"legacySlugs":["kolokytha-3090"],"distanceKm":0.2020393695933913},{"id":"greekRestaurants_0b3881d28de7","slug":"kafeneio-karai-0b38","kind":"restaurant","name":"Καφενείο Καράι","lat":36.54472153605894,"lng":26.355418637517822,"url":"https://maps.app.goo.gl/y4D61qmZahwjDV357?g_st=ipc","address":"Αστυπάλαια 859 00","categoryIds":["greek-restaurants"],"categories":["Greek Restaurants"],"distanceKm":0.2597599156528166},{"id":"coffeeBrunchRestaurants_81babb19d554","slug":"anax-brunch-all-day-bar-81ba","kind":"restaurant","name":"Anax - Brunch & All day bar","lat":36.54881053562097,"lng":26.352767048461835,"url":"https://maps.app.goo.gl/Fog59qRdXL1VwbPKA?g_st=ipc","address":"Island, Astipalea 859 00","categoryIds":["coffee-brunch"],"categories":["Coffee & Brunch Spots"],"distanceKm":0.35599544097455454},{"id":"greekRestaurants_204f253dd532","slug":"antikastro-204f","kind":"restaurant","name":"antikastro","lat":36.54911350601486,"lng":26.354501637797917,"url":"https://maps.app.goo.gl/WHQ2qixYWioNZMKp6?g_st=ipc","address":"Πέρα Γιαλός, Αστυπάλαια 859 00","categoryIds":["greek-restaurants"],"categories":["Greek Restaurants"],"distanceKm":0.4206161722127636},{"id":"municipalities_d2bf66140ab6","slug":"astypalaia-d2bf","kind":"municipality","name":"Αστυπάλαια","lat":36.55,"lng":26.35,"region":"Δωδεκάνησα","name_en":"Astypalaia","region_en":"Dodecanese","distanceKm":0.5457154600491652},{"id":"greekRestaurants_9d808a2d74ce","slug":"krokodeilos-9d80","kind":"restaurant","name":"Κροκόδειλος","lat":36.54308732348962,"lng":26.343405441539794,"url":"https://maps.app.goo.gl/dNbrA36bRneAQ4R88?g_st=ipc","address":"Επαρ.Οδ. Λειβάδιων-Βαθύς, Λιβάδια 859 00","categoryIds":["greek-restaurants"],"categories":["Greek Restaurants"],"distanceKm":0.8788366488317992},{"id":"greekRestaurants_836c2ffc58fd","slug":"to-gerani-836c","kind":"restaurant","name":"Το Γεράνι","lat":36.54308410706101,"lng":26.342679449404006,"url":"https://maps.app.goo.gl/uDHS2p6qbdnAvE7M7?g_st=ipc","address":"Επαρ.Οδ. Λειβάδιων-Βαθύς, Λιβάδια 859 00","categoryIds":["greek-restaurants"],"categories":["Greek Restaurants"],"distanceKm":0.9406365320199006},{"id":"greekRestaurants_0efe597f6052","slug":"kantina-steno-0efe","kind":"restaurant","name":"Kantina Steno","lat":36.578365860361565,"lng":26.36528478817132,"url":"https://maps.app.goo.gl/ftUWF8trr9faMU188?g_st=ipc","address":"Αστυπάλαια 859 00","categoryIds":["greek-restaurants"],"categories":["Greek Restaurants"],"distanceKm":3.8111008231296735},{"id":"fishTavernasRestaurants_973cb4eff711","slug":"almyra-973c","kind":"restaurant","name":"Almyra","lat":36.57689109395972,"lng":26.38668535748424,"url":"https://maps.app.goo.gl/8xxh7iRxAnHBuD868?g_st=ipc","address":"Ανάληψη 859 00","categoryIds":["fish-tavernas"],"categories":["Fish Tavernas"],"distanceKm":4.614869893301433},{"id":"greekRestaurants_5adcb69583f2","slug":"linta-5adc","kind":"restaurant","name":"Λίντα","lat":36.519974196290576,"lng":26.303428373074162,"url":"https://maps.app.goo.gl/xpZE4y7i9j1YPs8b8?g_st=ipc","address":"859 00, Αστυπάλαια","categoryIds":["greek-restaurants"],"categories":["Greek Restaurants"],"distanceKm":5.246707513495149},{"id":"greekRestaurants_1291f93c2098","slug":"galini-1291","kind":"restaurant","name":"Γαλήνη","lat":36.62037244151068,"lng":26.39449516471844,"url":"https://maps.app.goo.gl/k4HzLQosfKRd3oNv7?g_st=ipc","address":"Έξω Βαθύ 859 00","categoryIds":["greek-restaurants"],"categories":["Greek Restaurants"],"distanceKm":9.111440487968501}],"sameRegion":[],"mentionedGuides":[],"canonicalSlug":"pablo-pasta-corner-964e","isCanonicalEntity":true,"enrichment":{"summary_en":"Pablo Pasta Corner is a curated restaurant in Astipalea 859 00 in the Italian Restaurants collection. It is connected to 11 nearby Googlementor picks to help travelers build a stronger local route.","summary_el":"Pablo Pasta Corner είναι ένα επιλεγμένο σημείο φαγητού στην περιοχή Astipalea 859 00 και ανήκει στη συλλογή Italian Restaurants. Συνδέεται με 11 κοντινές προτάσεις του Googlementor για πιο ολοκληρωμένη εμπειρία.","vibe_tags":["curated"],"best_for":["first-time visitors","food lovers"],"visit_moments":["lunch stop","dinner stop"],"practical_note":"Address and direct map link are available for easy turn-by-turn access.","nearby_walkable_count":11,"nearby_count_2km":13,"confidence":0.98}},"__N_SSG":true}