{"pageProps":{"entity":{"id":"mustSeeAttractions_55879b7962ff","slug":"perama-cave-5587","kind":"restaurant","name":"Perama Cave","lat":39.694982816550095,"lng":20.846498129141942,"url":"https://maps.app.goo.gl/tihw1UrAiri8GoD29?g_st=ipc","address":"19, Spilaiou, Σπηλαίου 19, Πέραμα, Perama 455 00","categoryIds":["attractions"],"categories":["Must-See Attractions"]},"sameCategory":[{"id":"mustSeeAttractions_49ba95768f7d","slug":"archaeological-site-of-dodoni-49ba","kind":"restaurant","name":"Archaeological Site of Dodoni","lat":39.54577918295188,"lng":20.784950664414183,"url":"https://maps.app.goo.gl/5eDCvX8HkvWgXBL19?g_st=ipc","address":"Dodoni 455 00","categoryIds":["attractions"],"categories":["Must-See Attractions"]},{"id":"mustSeeAttractions_c9dd48bbc2ef","slug":"pindos-national-park-c9dd","kind":"restaurant","name":"Pindos National Park","lat":39.94128033875326,"lng":20.950852335589502,"url":"https://maps.app.goo.gl/MwFRaHm4xMSpQ3w87?g_st=ipc","address":"WXR2+G8 Tymphaea","categoryIds":["attractions"],"categories":["Must-See Attractions"]},{"id":"mustSeeAttractions_8df91757921b","slug":"zagori-8df9","kind":"restaurant","name":"Zagori","lat":39.96846543207807,"lng":20.729047055658157,"url":"https://maps.app.goo.gl/rVafr1wHovCRyoj77?g_st=ipc","address":"Papingo 440 04","categoryIds":["attractions"],"categories":["Must-See Attractions"]},{"id":"mustSeeAttractions_974fae2e3103","slug":"kalabaka-974f","kind":"restaurant","name":"Kalabaka","lat":39.70661305298489,"lng":21.628881662192715,"url":"https://maps.app.goo.gl/zpazCjEdJ5HpowTp6?g_st=ipc","address":"Kalabaka 422 00","categoryIds":["attractions"],"categories":["Must-See Attractions"]},{"id":"mustSeeAttractions_cfae99e77bd9","slug":"meteora-cfae","kind":"restaurant","name":"Meteora","lat":39.72170879350903,"lng":21.63058881507582,"url":"https://maps.app.goo.gl/onMRfAUqEwFjaiVWA?g_st=ipc","address":"Kalabaka 422 00","categoryIds":["attractions"],"categories":["Must-See Attractions"]},{"id":"mustSeeAttractions_6493befc2e7b","slug":"nicopolis-6493","kind":"restaurant","name":"Nicopolis","lat":39.02636525396993,"lng":20.733626410935955,"url":"https://maps.app.goo.gl/satDDwkecYRf2TSBA?g_st=ipc","address":"Nicopolis 481 00","categoryIds":["attractions"],"categories":["Must-See Attractions"]},{"id":"mustSeeAttractions_cf30313c597a","slug":"byzantine-walls-of-nikopolis-cf30","kind":"restaurant","name":"Byzantine Walls of Nikopolis","lat":39.0118446526379,"lng":20.732022944510806,"url":"https://maps.app.goo.gl/VMrzqGqwGc2EoieJ7?g_st=ipc","address":"Unnamed Road, 481 00","categoryIds":["attractions"],"categories":["Must-See Attractions"]},{"id":"mustSeeAttractions_95bea16be675","slug":"old-town-of-corfu-95be","kind":"restaurant","name":"Old Town of Corfu","lat":39.62343987783881,"lng":19.92891594231962,"url":"https://maps.app.goo.gl/iFY1Kcc4UwLiyRGc7?g_st=ipc","address":"Corfu 491 00","categoryIds":["attractions"],"categories":["Must-See Attractions"]},{"id":"mustSeeAttractions_ed63de4c6ad6","slug":"paralia-voutoumi-ed63","kind":"restaurant","name":"Paralia Voutoumi","lat":39.15774095957267,"lng":20.227494022688056,"url":"https://maps.app.goo.gl/zBjCseaorqmLUWjo6?g_st=ipc","address":"490 82","categoryIds":["attractions"],"categories":["Must-See Attractions"]},{"id":"mustSeeAttractions_616648db6ed1","slug":"porto-katsiki-6166","kind":"restaurant","name":"Porto Katsiki","lat":38.601119061578444,"lng":20.550313570650722,"url":"https://maps.app.goo.gl/vwCXBmq1Cpbwnz9c6?g_st=ipc","address":"JH32+48, Apollonioi 310 82","categoryIds":["attractions"],"categories":["Must-See Attractions"]},{"id":"mustSeeAttractions_3ca5dbf40892","slug":"dion-3ca5","kind":"restaurant","name":"Dion","lat":40.17394047089396,"lng":22.491437674242245,"url":"https://maps.app.goo.gl/cEWrQYsLFdjV6Q239?g_st=ipc","address":"Epar.Od. Katerinis - Limena Litochoriou 910, Dion 601 00","categoryIds":["attractions"],"categories":["Must-See Attractions"]},{"id":"mustSeeAttractions_2ba6bcb8ac97","slug":"palace-of-aigai-aegae-2ba6","kind":"restaurant","name":"Palace of Aigai (Aegae)","lat":40.47783656530058,"lng":22.32233617700311,"url":"https://maps.app.goo.gl/jFwKES4CcpviH3818?g_st=ipc","address":"Vergina 590 31","categoryIds":["attractions"],"categories":["Must-See Attractions"]}],"nearby":[{"id":"greekRestaurants_9563a3f3deb0","slug":"presveia-restaurant-9563","kind":"restaurant","name":"ΠΡΕΣΒΕΙΑ Restaurant","lat":39.67117709848311,"lng":20.857314565299106,"url":"https://maps.app.goo.gl/kkBJ4gJX3sVvx1L98?g_st=ipc","address":"Λεωφ. Καραμανλή 17, Ιωάννινα 452 21","categoryIds":["greek-restaurants"],"categories":["Greek Restaurants"],"distanceKm":2.804239346854355},{"id":"cheapEatsRestaurants_ff94ef2f8897","slug":"i-vromiara-the-gourmet-street-food-ff94","kind":"restaurant","name":"Η Βρωμιάρα - The Gourmet Street Food","lat":39.6691471152778,"lng":20.85696993484649,"url":"https://maps.app.goo.gl/qCiHQcXfuVPpbvs5A?g_st=ipc","address":"Averof 60, Ioannina 452 21","categoryIds":["cheap-eats"],"categories":["Gyros & Cheap Eats"],"distanceKm":3.009322776510183},{"id":"municipalities_01ab94a963a7","slug":"ioannina-01ab","kind":"municipality","name":"Ιωάννινα","lat":39.6675,"lng":20.85,"aliases":["Ioannina","Janina","Ιωάννινα","Γιάννινα","Ιωαννινα","Γιαννενα","Γιάννενα"],"region":"Ήπειρος","name_en":"Ioannina","region_en":"Epirus","distanceKm":3.070608403764603},{"id":"familyFriendly_fca4b1834b63","slug":"play-hall-fca4","kind":"restaurant","name":"PLAY HALL","lat":39.65033321631473,"lng":20.865657018209728,"url":"https://maps.app.goo.gl/SFFV3HjpyPgVaZLc9?g_st=ipc","address":"Leof. Geor. Gennimata, Ioannina 452 21","categoryIds":["family-friendly"],"categories":["Kid Friendly Locations"],"distanceKm":5.22858753770374},{"id":"municipalities_78251352f402","slug":"dodoni-7825","kind":"municipality","name":"Δωδώνη","lat":39.6167,"lng":20.7833,"region":"Ήπειρος","name_en":"Dodoni","region_en":"Epirus","distanceKm":10.248997708961681},{"id":"mustSeeAttractions_49ba95768f7d","slug":"archaeological-site-of-dodoni-49ba","kind":"restaurant","name":"Archaeological Site of Dodoni","lat":39.54577918295188,"lng":20.784950664414183,"url":"https://maps.app.goo.gl/5eDCvX8HkvWgXBL19?g_st=ipc","address":"Dodoni 455 00","categoryIds":["attractions"],"categories":["Must-See Attractions"],"distanceKm":17.40808000142367},{"id":"greekRestaurants_df023e747e5f","slug":"kanela-kai-garyfallo-mushroom-restaurant-df02","kind":"restaurant","name":"ΚΑΝΕΛΑ ΚΑΙ ΓΑΡΥΦΑΛΛΟ, Mushroom Restaurant","lat":39.873717064633475,"lng":20.75043313227449,"url":"https://maps.app.goo.gl/RMbRCUycwB1E3Sf99?g_st=ipc","address":"Κεντρική Οδός Βίτσας, Βίτσα Ζαγορίου 440 07","categoryIds":["greek-restaurants"],"categories":["Greek Restaurants"],"distanceKm":21.50280961679696},{"id":"municipalities_5b04c25765e9","slug":"zagori-5b04","kind":"municipality","name":"Ζαγόρι","lat":39.9,"lng":20.8,"region":"Ήπειρος","name_en":"Zagori","region_en":"Epirus","distanceKm":23.140388367509804},{"id":"municipalities_6d3e0429ac44","slug":"zagorochoria-6d3e","kind":"municipality","name":"Ζαγοροχώρια","lat":39.9167,"lng":20.7333,"region":"Ήπειρος","name_en":"Zagorochoria","region_en":"Epirus","distanceKm":26.48229732290636},{"id":"familyFriendly_f1559b4827bb","slug":"sarakatsaniki-stani-f155","kind":"restaurant","name":"Σαρακατσάνικη Στάνη","lat":39.93486554028431,"lng":20.916784074474684,"url":"https://maps.app.goo.gl/hz7v5UJ8xo3K6aLE7?g_st=ic","address":"Γυφτόκαμπος Σκαμνέλι, Skamnelli 440 10","categoryIds":["family-friendly"],"categories":["Kid Friendly Locations"],"distanceKm":27.34092905978},{"id":"mustSeeAttractions_c9dd48bbc2ef","slug":"pindos-national-park-c9dd","kind":"restaurant","name":"Pindos National Park","lat":39.94128033875326,"lng":20.950852335589502,"url":"https://maps.app.goo.gl/MwFRaHm4xMSpQ3w87?g_st=ipc","address":"WXR2+G8 Tymphaea","categoryIds":["attractions"],"categories":["Must-See Attractions"],"distanceKm":28.80074333568754},{"id":"municipalities_cb2980eb2be9","slug":"papigko-cb29","kind":"municipality","name":"Πάπιγκο","lat":39.9667,"lng":20.7833,"region":"Ήπειρος","name_en":"Papingo","region_en":"Epirus","distanceKm":30.691733129847407},{"id":"mustSeeAttractions_8df91757921b","slug":"zagori-8df9","kind":"restaurant","name":"Zagori","lat":39.96846543207807,"lng":20.729047055658157,"url":"https://maps.app.goo.gl/rVafr1wHovCRyoj77?g_st=ipc","address":"Papingo 440 04","categoryIds":["attractions"],"categories":["Must-See Attractions"],"distanceKm":32.02098526745961}],"sameRegion":[],"mentionedGuides":[],"canonicalSlug":"perama-cave-5587","isCanonicalEntity":true,"enrichment":{"summary_en":"Perama Cave is a curated restaurant in Perama 455 00 in the Must-See Attractions collection. It is connected to 0 nearby Googlementor picks to help travelers build a stronger local route.","summary_el":"Perama Cave είναι ένα επιλεγμένο σημείο φαγητού στην περιοχή Perama 455 00 και ανήκει στη συλλογή Must-See Attractions. Συνδέεται με 0 κοντινές προτάσεις του Googlementor για πιο ολοκληρωμένη εμπειρία.","vibe_tags":["curated"],"best_for":["first-time visitors","food lovers"],"visit_moments":["lunch stop","dinner stop"],"practical_note":"Address and direct map link are available for easy turn-by-turn access.","nearby_walkable_count":0,"nearby_count_2km":0,"confidence":0.9}},"__N_SSG":true}