{"pageProps":{"entity":{"id":"cheapEatsRestaurants_ae7b67ea9782","slug":"psitopoleio-o-lampros-ae7b","kind":"restaurant","name":"Ψητοπωλείο \"ο Λάμπρος\"","lat":37.93861571899796,"lng":23.703296381437085,"url":"https://maps.app.goo.gl/ufBXQHiqa3CEJ7PJ7?g_st=ipc","address":"Νέστορος 21, Παλαιό Φάληρο 175 61","categoryIds":["cheap-eats"],"categories":["Gyros & Cheap Eats"]},"sameCategory":[{"id":"cheapEatsRestaurants_59ab2f655733","slug":"rosiko-pantopoleio-astana-59ab","kind":"restaurant","name":"Ρώσικο παντοπωλείο «Αστάνα»","lat":37.94852960059528,"lng":23.699447152301282,"url":"https://maps.app.goo.gl/Wayix2624vmNqYTT7?g_st=ipc","address":"Δημοσθένους 207, Καλλιθέα 176 73","categoryIds":["cheap-eats"],"categories":["Gyros & Cheap Eats"]},{"id":"cheapEatsRestaurants_270552aa07e7","slug":"o-sofras-tis-smyrnis-2705","kind":"restaurant","name":"Ο Σοφράς Της Σμύρνης","lat":37.93008545622269,"lng":23.69511056440978,"url":"https://maps.app.goo.gl/3hxTvGyB8jtFJcXXA?g_st=ipc","address":"Αγίου Αλεξάνδρου 60, Παλαιό Φάληρο 175 61","categoryIds":["cheap-eats"],"categories":["Gyros & Cheap Eats"]},{"id":"cheapEatsRestaurants_fb98feb8ab24","slug":"soyvlakia-o-leyteris-fb98","kind":"restaurant","name":"Σουβλάκια ο Λευτέρης","lat":37.947152588163014,"lng":23.712051232496496,"url":"https://maps.app.goo.gl/MTQDk9is4pkL1vPt9?g_st=ipc","address":"Ειρήνης 2, Νέα Σμύρνη 171 21","categoryIds":["cheap-eats"],"categories":["Gyros & Cheap Eats"]},{"id":"asianRestaurants_ea18f7423739","slug":"streetwok-ea18","kind":"restaurant","name":"StreetWok","lat":37.94661589274436,"lng":23.715316438751927,"url":"https://maps.app.goo.gl/Wb2pGeyp5yUdVqfd9?g_st=ipc","address":"Λεωφ. Ελ. Βενιζέλου 37, Νέα Σμύρνη 171 23","categoryIds":["asian","cheap-eats"],"categories":["Asian Restaurants","Gyros & Cheap Eats"],"legacySlugs":["streetwok-7394"]},{"id":"cheapEatsRestaurants_5a582036089f","slug":"soyvlakia-o-leyteris-5a58","kind":"restaurant","name":"Σουβλάκια Ο Λευτέρης","lat":37.9462875556964,"lng":23.690611255358668,"url":"https://maps.app.goo.gl/ZYkxvzMHun71tMk86?g_st=ipc","address":"Ξενοφώντος 146, Καλλιθέα 176 74","categoryIds":["cheap-eats"],"categories":["Gyros & Cheap Eats"]},{"id":"cheapEatsRestaurants_42b8119d471a","slug":"psitopoleio-o-vaggelis-to-cheiropoiito-42b8","kind":"restaurant","name":"Ψητοπωλείο «ο Βαγγέλης το χειροποίητο»","lat":37.928620979940305,"lng":23.71576237841132,"url":"https://maps.app.goo.gl/4wk6CtNQgSCn9j33A?g_st=ipc","address":"Χαλκίδος 26, Αγ. Δημήτριος Αττικής 173 41","categoryIds":["cheap-eats"],"categories":["Gyros & Cheap Eats"]},{"id":"cheapEatsRestaurants_a367fef323c7","slug":"oi-rosides-soyvlaki-piroski-a367","kind":"restaurant","name":"Οι ρωσίδες Σουβλάκι-Πιροσκί","lat":37.95374548604023,"lng":23.701395628014694,"url":"https://maps.app.goo.gl/Ebo7K4NsszKopesC7?g_st=ipc","address":"Αναγνωσταρά 16, Καλλιθέα 176 73","categoryIds":["cheap-eats"],"categories":["Gyros & Cheap Eats"]},{"id":"cheapEatsRestaurants_a8d42456619d","slug":"k-grill-a8d4","kind":"restaurant","name":"K Grill","lat":37.94385577895444,"lng":23.685146441261658,"url":"https://maps.app.goo.gl/jm56NTQ4kCuysLqy9?g_st=ipc","address":"Λεωφ. Ελ. Βενιζέλου 330, Καλλιθέα 176 75","categoryIds":["cheap-eats"],"categories":["Gyros & Cheap Eats"]},{"id":"cheapEatsRestaurants_d3888472f0b3","slug":"crepa-holic-kallithea-d388","kind":"restaurant","name":"Crepa Holic Kallithea","lat":37.95367992559356,"lng":23.699030666898533,"url":"https://maps.app.goo.gl/bLUgt75SSMUYsoXCA?g_st=ipc","address":"Λεωφ. Ελ. Βενιζέλου 185, Καλλιθέα 176 73","categoryIds":["cheap-eats"],"categories":["Gyros & Cheap Eats"]},{"id":"cheapEatsRestaurants_4c857b269660","slug":"soyvlakia-kalamakia-panostimo-4c85","kind":"restaurant","name":"Σουβλακια καλαμάκια πανοστιμο","lat":37.95437724216138,"lng":23.71201791711626,"url":"https://maps.app.goo.gl/wSd2i93DKt8GM9aEA?g_st=ipc","address":"Δοϊράνης 35, Καλλιθέα 176 72","categoryIds":["cheap-eats"],"categories":["Gyros & Cheap Eats"]},{"id":"cheapEatsRestaurants_7f509ca8a241","slug":"doner-tzortz-7f50","kind":"restaurant","name":"DONER.TZORTZ","lat":37.95300238294556,"lng":23.716665931248773,"url":"https://maps.app.goo.gl/otFTTi2nsTTPYaYKA?g_st=ipc","address":"Βιζυηνού 2, Νέα Σμύρνη 171 21","categoryIds":["cheap-eats"],"categories":["Gyros & Cheap Eats"]},{"id":"cheapEatsRestaurants_94dff4f67b62","slug":"to-soyvlaki-tis-charokopoy-94df","kind":"restaurant","name":"Το Σουβλάκι Της Χαροκόπου","lat":37.95770921844376,"lng":23.710571236714188,"url":"https://maps.app.goo.gl/Rh99dawd3iLza1Vz7?g_st=ipc","address":"Χαροκόπου 46, Καλλιθέα 176 71","categoryIds":["cheap-eats"],"categories":["Gyros & Cheap Eats"]}],"nearby":[{"id":"fishTavernasRestaurants_a7fb3513622e","slug":"liogerma-tis-athinas-a7fb","kind":"restaurant","name":"Λιόγερμα της Αθήνας","lat":37.938563581924875,"lng":23.703200039765804,"url":"https://maps.app.goo.gl/uLKm2p4zN326i9gP8?g_st=ipc","address":"Νέστορος 21, Παλαιό Φάληρο 175 61","categoryIds":["fish-tavernas"],"categories":["Fish Tavernas"],"distanceKm":0.010246543851056115},{"id":"italianRestaurants_47773e592b01","slug":"vitello-trattoria-romana-4777","kind":"restaurant","name":"Vitello Trattoria Romana","lat":37.93748817614671,"lng":23.699162197380616,"url":"https://maps.app.goo.gl/QapvvUw9jwdJSAM69?g_st=ipc","address":"Ζησιμοπούλου 41, Παλαιό Φάληρο 175 64","categoryIds":["italian"],"categories":["Italian Restaurants"],"distanceKm":0.3836211858327467},{"id":"greekRestaurants_80e12cc840c6","slug":"arsenis-80e1","kind":"restaurant","name":"Arsenis","lat":37.93975062587842,"lng":23.699103162428067,"url":"https://maps.app.goo.gl/gyD8tEfz4zabut3VA","address":"Ζησιμοπούλου 19, Παλαιό Φάληρο 175 64","categoryIds":["greek-restaurants"],"categories":["Greek Restaurants"],"distanceKm":0.38877740385768056},{"id":"asianRestaurants_6469a1c3e3f9","slug":"seoul-house-restaurant-6469","kind":"restaurant","name":"Seoul House Restaurant","lat":37.93747372174057,"lng":23.69891697936759,"url":"https://maps.app.goo.gl/ibEXR2ZExidRVduY6?g_st=ipc","address":"Ζησιμοπούλου 40, Παλαιό Φάληρο 175 64","categoryIds":["asian"],"categories":["Asian Restaurants"],"distanceKm":0.40450791822809123},{"id":"greekRestaurants_842cd50fd946","slug":"mpampis-taverna-842c","kind":"restaurant","name":"Μπάμπης Ταβέρνα","lat":37.93493015100239,"lng":23.70154955498321,"url":"https://maps.app.goo.gl/SyFUZSdaS3SB5Mm48","address":"Λεωφ. Αμφιθέας 73, Παλαιό Φάληρο 175 64","categoryIds":["greek-restaurants"],"categories":["Greek Restaurants"],"distanceKm":0.43751324634383987},{"id":"greekRestaurants_e3992a60261a","slug":"kritikos-e399","kind":"restaurant","name":"Κρητικός","lat":37.94303304147985,"lng":23.704084169584778,"url":"https://maps.app.goo.gl/QgBcqGt9addfXPwL6","address":"Ραιδεστού 36, Νέα Σμύρνη 171 22","categoryIds":["greek-restaurants"],"categories":["Greek Restaurants"],"distanceKm":0.4960183003213703},{"id":"italianRestaurants_a0a70f822848","slug":"il-trovatore-a0a7","kind":"restaurant","name":"Il Trovatore","lat":37.93426882606043,"lng":23.704929709402517,"url":"https://maps.app.goo.gl/VEjqHzj7oG8PDciG7?g_st=ipc","address":"Γοργοποτάμου 14, Παλαιό Φάληρο 175 64","categoryIds":["italian"],"categories":["Italian Restaurants"],"distanceKm":0.5041304241679088},{"id":"greekRestaurants_8f822e8ac2ff","slug":"koytoyki-kalypso-8f82","kind":"restaurant","name":"Κουτούκι Καλυψώ","lat":37.94264199335833,"lng":23.700097006546933,"url":"https://maps.app.goo.gl/rZqTMGc8sQwmZ4zq9","address":"Πεντέλης 41-43, Παλαιό Φάληρο 175 64","categoryIds":["greek-restaurants"],"categories":["Greek Restaurants"],"distanceKm":0.528349457919693},{"id":"familyFriendly_afbd73fa31fe","slug":"neo-psifiako-planitario-idrymatos-eygenidoy-afbd","kind":"restaurant","name":"Νέο Ψηφιακό Πλανητάριο Ιδρύματος Ευγενίδου","lat":37.939924135926155,"lng":23.69664152972377,"url":"https://maps.app.goo.gl/6jTSzr4LUutvW78x6?g_st=ipc","address":"387 Syggrou Ave. (entrance 11, Πεντέλης st, Αθήνα 175 64","categoryIds":["family-friendly"],"categories":["Kid Friendly Locations"],"distanceKm":0.6014609477270809},{"id":"luxuryDiningRestaurants_8af90b11228b","slug":"e-o-pan-asian-restaurant-athens-8af9","kind":"restaurant","name":"e&o Pan-Asian Restaurant Athens","lat":37.94077150497406,"lng":23.696879786243304,"url":"https://maps.app.goo.gl/nAwF6RqCeQF6rY2P9?g_st=ipc","address":"Λεωφ. Ανδρέα Συγγρού 385, Παλαιό Φάληρο 175 64","categoryIds":["luxury-dining"],"categories":["Luxury Dining"],"distanceKm":0.6116336140910902},{"id":"dessertsRestaurants_39196d9bee61","slug":"fatto-a-mano-3919","kind":"restaurant","name":"Fatto a Mano","lat":37.93356989313718,"lng":23.69912680674615,"url":"https://maps.app.goo.gl/6dQNxoEQLFVCyt9ZA?g_st=ipc","address":"Ζησιμοπούλου 86, Παλαιό Φάληρο 175 64","categoryIds":["desserts"],"categories":["Dessert Shops"],"distanceKm":0.6697110287828264},{"id":"italianRestaurants_fb4db3d6df69","slug":"akakios-makaronadiko-fb4d","kind":"restaurant","name":"Ακάκιος μακαρονάδικο","lat":37.932532942991465,"lng":23.699425438393305,"url":"https://maps.app.goo.gl/Mjwxjxeqf2KWt2Hq5?g_st=ipc","address":"Αγίας Τριάδος 1, Παλαιό Φάληρο 175 64","categoryIds":["italian"],"categories":["Italian Restaurants"],"distanceKm":0.7567883799247213},{"id":"greekRestaurants_30ac8464e0c3","slug":"kyr-aristos-30ac","kind":"restaurant","name":"Κυρ Αρίστος","lat":37.932597935183146,"lng":23.699203294233197,"url":"https://maps.app.goo.gl/EQaiuBpPZq633dxa7?g_st=ipc","address":"Zisimopoulou 96, Paleo Faliro 175 64","categoryIds":["greek-restaurants"],"categories":["Greek Restaurants"],"distanceKm":0.7593495785966551},{"id":"coffeeBrunchRestaurants_c3b8d7875a67","slug":"upon-c3b8","kind":"restaurant","name":"UPON","lat":37.93165635013146,"lng":23.70322472978882,"url":"https://maps.app.goo.gl/yP6xS2xksJBA1Z4u7?g_st=ipc","address":"Dimokratias 33, Paleo Faliro 175 64","categoryIds":["coffee-brunch"],"categories":["Coffee & Brunch Spots"],"distanceKm":0.7738720236288813},{"id":"fishTavernasRestaurants_85d0b9f93ad9","slug":"psipsina-athinaiki-psarotaverna-85d0","kind":"restaurant","name":"Ψιψίνα - Αθηναϊκή Ψαροταβέρνα","lat":37.932530674886344,"lng":23.698986064990937,"url":"https://maps.app.goo.gl/Acz6F4ajfzUYXq7y7?g_st=ipc","address":"Colonel Zisimopoulos, 96, Athina 175 61","categoryIds":["fish-tavernas"],"categories":["Fish Tavernas"],"distanceKm":0.7750593743077838},{"id":"dessertsRestaurants_10984675e64e","slug":"loukou-mio-1098","kind":"restaurant","name":"Loukou Mio","lat":37.934456122337956,"lng":23.71152313800977,"url":"https://maps.app.goo.gl/uQM5VBZoTd8kzvPT9?g_st=ipc","address":"Λεωφ. Ελ. Βενιζέλου 195, Νέα Σμύρνη 171 23","categoryIds":["desserts"],"categories":["Dessert Shops"],"distanceKm":0.8570042250120098},{"id":"burgersRestaurants_e2eccf34c175","slug":"hanky-panky-palaio-faliro-e2ec","kind":"restaurant","name":"Hanky Panky Palaio Faliro","lat":37.93089466239992,"lng":23.703396088291395,"url":"https://maps.app.goo.gl/psmqWjAqwrakd1ww7?g_st=ipc","address":"Πλ. Νταβάρη 2, Παλαιό Φάληρο 175 64","categoryIds":["burgers"],"categories":["Burger Spots"],"distanceKm":0.8585868520841075},{"id":"greekRestaurants_ef1588581bbb","slug":"myrtia-ef15","kind":"restaurant","name":"Μυρτιά","lat":37.940920844377125,"lng":23.712738244892858,"url":"https://maps.app.goo.gl/QHjMpbFEFgtWLbA57","address":"Αϊδινίου 55, Νέα Σμύρνη 171 22","categoryIds":["greek-restaurants"],"categories":["Greek Restaurants"],"distanceKm":0.866767317087616},{"id":"dessertsRestaurants_4a419c4649f4","slug":"zacharoplasteia-kosmikon-p-faliro-4a41","kind":"restaurant","name":"ΖΑΧΑΡΟΠΛΑΣΤΕΙΑ ΚΟΣΜΙΚΟΝ Π.ΦΑΛΗΡΟ","lat":37.93261968622875,"lng":23.696837541827062,"url":"https://maps.app.goo.gl/JkkxEzmScmoGgm2v7?g_st=ipc","address":"Αγίου Αλεξάνδρου, Ζησιμοπούλου &, Παλαιό Φάληρο 175 61","categoryIds":["desserts"],"categories":["Dessert Shops"],"distanceKm":0.8748593606402465},{"id":"coffeeBrunchRestaurants_0aaa1d7425c8","slug":"o-nikos-0aaa","kind":"restaurant","name":"\"ο Νίκος\"","lat":37.94446727754758,"lng":23.71036042368455,"url":"https://maps.app.goo.gl/Hjscsj6jJP8Ehtjz8?g_st=ipc","address":"Κων/νου Παλαιολόγου 36, Νέα Σμύρνη 171 22","categoryIds":["coffee-brunch"],"categories":["Coffee & Brunch Spots"],"distanceKm":0.8983869343572318},{"id":"greekRestaurants_eecb2ebbfdc2","slug":"gitema-eecb","kind":"restaurant","name":"Γήτεμα","lat":37.94107986247284,"lng":23.713131731866255,"url":"https://maps.app.goo.gl/S3ph9mpPrmbS64x3A","address":"Λεωφ. Ελ. Βενιζέλου 88, Νέα Σμύρνη 171 22","categoryIds":["greek-restaurants"],"categories":["Greek Restaurants"],"distanceKm":0.9049834413190139},{"id":"familyFriendly_2be04a6b1d81","slug":"parko-stayros-niarchos-2be0","kind":"restaurant","name":"Πάρκο Σταύρος Νιάρχος","lat":37.942200854453496,"lng":23.69345667519833,"url":"https://maps.app.goo.gl/8s92kLGvmU1yA3fe8?g_st=ipc","address":"Λεωφ. Ανδρέα Συγγρού 364, Καλλιθέα 176 74","categoryIds":["family-friendly"],"categories":["Kid Friendly Locations"],"distanceKm":0.9505196088198464},{"id":"familyFriendly_a3e2f6188bf1","slug":"kentro-politismoy-idryma-stayros-niarchos-a3e2","kind":"restaurant","name":"Κέντρο Πολιτισμού Ίδρυμα Σταύρος Νιάρχος","lat":37.93985683037055,"lng":23.692122482978903,"url":"https://maps.app.goo.gl/ib2tnNRmM1foX6zd8?g_st=ipc","address":"Λεωφ. Ανδρέα Συγγρού 364, Καλλιθέα 176 74","categoryIds":["family-friendly","attractions"],"categories":["Kid Friendly Locations","Must-See Attractions"],"legacySlugs":["kentro-politismoy-idryma-stayros-niarchos-dc50"],"distanceKm":0.9895692992993106},{"id":"coffeeBrunchRestaurants_2673b2efe834","slug":"fred-2673","kind":"restaurant","name":"Fred","lat":37.94562369764514,"lng":23.71066649818301,"url":"https://maps.app.goo.gl/HMmCPXK9BhvDtR538?g_st=ipc","address":"Κων/νου Παλαιολόγου 24, Νέα Σμύρνη 171 21","categoryIds":["coffee-brunch"],"categories":["Coffee & Brunch Spots"],"distanceKm":1.0123914055113505}],"sameRegion":[],"mentionedGuides":[],"canonicalSlug":"psitopoleio-o-lampros-ae7b","isCanonicalEntity":true,"enrichment":{"summary_en":"Ψητοπωλείο \"ο Λάμπρος\" is a curated restaurant in Παλαιό Φάληρο 175 61 in the Gyros & Cheap Eats collection. It is connected to 15 nearby Googlementor picks to help travelers build a stronger local route.","summary_el":"Ψητοπωλείο \"ο Λάμπρος\" είναι ένα επιλεγμένο σημείο φαγητού στην περιοχή Παλαιό Φάληρο 175 61 και ανήκει στη συλλογή Gyros & Cheap Eats. Συνδέεται με 15 κοντινές προτάσεις του Googlementor για πιο ολοκληρωμένη εμπειρία.","vibe_tags":["curated","budget-friendly"],"best_for":["first-time visitors","food lovers","budget travelers"],"visit_moments":["lunch stop","dinner stop"],"practical_note":"Address and direct map link are available for easy turn-by-turn access.","nearby_walkable_count":15,"nearby_count_2km":81,"confidence":0.98}},"__N_SSG":true}