{"pageProps":{"entity":{"id":"burgersRestaurants_c05eb7f13ddf","slug":"psychiatreio-c05e","kind":"restaurant","name":"Ψυχιατρείο","lat":37.941454787946455,"lng":23.74643002685345,"url":"https://maps.app.goo.gl/nvzgc7zjFUEkgZMN8?g_st=ipc","address":"Αγίου Κωνσταντίνου 16, Ηλιούπολη 163 46","categoryIds":["burgers","cheap-eats"],"categories":["Burger Spots","Gyros & Cheap Eats"],"legacySlugs":["psychiatreio-6c0c"]},"sameCategory":[{"id":"burgersRestaurants_333f3b6e6592","slug":"chicken-queen-333f","kind":"restaurant","name":"Chicken Queen","lat":37.96764787341708,"lng":23.749271201498335,"url":"https://maps.app.goo.gl/y9qpEuxuYdxvEzYY9?g_st=ipc","address":"Ευτυχίδου 47, Αθήνα 116 34","categoryIds":["burgers","cheap-eats"],"categories":["Burger Spots","Gyros & Cheap Eats"],"legacySlugs":["chicken-queen-b3b7"]},{"id":"burgersRestaurants_3c1c73d21fec","slug":"meat-n-roses-kolonaki-3c1c","kind":"restaurant","name":"Meat n Roses Kolonaki","lat":37.97828442263524,"lng":23.735087640545906,"url":"https://maps.app.goo.gl/qGwCStnKNtrJzrtm6?g_st=ipc","address":"Αμερικής 7, Αθήνα 106 72","categoryIds":["burgers","cheap-eats"],"categories":["Burger Spots","Gyros & Cheap Eats"],"legacySlugs":["meat-n-roses-kolonaki-9219"]},{"id":"burgersRestaurants_c839a7ca9229","slug":"prigkipas-c839","kind":"restaurant","name":"Πρiγκιπας","lat":37.983677017107105,"lng":23.73451147367233,"url":"https://maps.app.goo.gl/fEvt3vsxx19nFxqw8?g_st=ipc","address":"Χαρ. Τρικούπη 23, Αθήνα 106 81","categoryIds":["burgers","cheap-eats"],"categories":["Burger Spots","Gyros & Cheap Eats"],"legacySlugs":["prigkipas-f678"]},{"id":"burgersRestaurants_797126963f1f","slug":"amam-estiatorio-glyfada-7971","kind":"restaurant","name":"ΑΜΑΜ - ΕΣΤΙΑΤΟΡΙΟ - ΓΛΥΦΑΔΑ","lat":37.895880681449796,"lng":23.761095559330744,"url":"https://maps.app.goo.gl/fAsTx4mwCTHC78t86?g_st=ipc","address":"Γεωρ. Γεννηματά 11, Γλυφάδα 165 62","categoryIds":["burgers","cheap-eats"],"categories":["Burger Spots","Gyros & Cheap Eats"],"legacySlugs":["amam-estiatorio-glyfada-af98"]},{"id":"burgersRestaurants_9c2f22b0606b","slug":"hashtag-burger-9c2f","kind":"restaurant","name":"Hashtag#Burger","lat":37.89371001882756,"lng":23.763217485797266,"url":"https://maps.app.goo.gl/BsuHdbYYc8dsSTwn8?g_st=ipc","address":"Γεωρ. Γεννηματά 26, Γλυφάδα 165 62","categoryIds":["burgers","cheap-eats"],"categories":["Burger Spots","Gyros & Cheap Eats"],"legacySlugs":["hashtag-burger-30dc"]},{"id":"burgersRestaurants_7bcb47e330c5","slug":"tryfonas-kempaptzidikon-hamburgerie-7bcb","kind":"restaurant","name":"Τρύφωνας Κεμπαπτζίδικoν - Hamburgerie","lat":38.0125506362582,"lng":23.70608974489792,"url":"https://maps.app.goo.gl/cE9CbEn5LYoZ6WKj7?g_st=ipc","address":"Παρασκευοπούλου 51, Περιστέρι 121 34","categoryIds":["burgers","cheap-eats"],"categories":["Burger Spots","Gyros & Cheap Eats"],"legacySlugs":["tryfonas-kempaptzidikon-hamburgerie-390d"]},{"id":"burgersRestaurants_51cd3df73f20","slug":"mpar-mpee-kioy-freattyda-51cd","kind":"restaurant","name":"Μπαρ Μπεε Κιου - Φρεαττύδα","lat":37.93450645446817,"lng":23.642685440187794,"url":"https://maps.app.goo.gl/UkJPpNzXrBGL944RA?g_st=ipc","address":"Λεωφ. Φρεάττυδος 13, Πειραιάς 185 37","categoryIds":["burgers","cheap-eats"],"categories":["Burger Spots","Gyros & Cheap Eats"],"legacySlugs":["mpar-mpee-kioy-freattyda-b711"]},{"id":"burgersRestaurants_08ca7d0bda51","slug":"koutsi-katsika-street-food-nea-filadelfeia-08ca","kind":"restaurant","name":"Koutsi Katsika Street Food Νέα Φιλαδέλφεια","lat":38.03629712914596,"lng":23.73867302573474,"url":"https://maps.app.goo.gl/XqS8cuX3SxVKDWRr8?g_st=ipc","address":"Λεωφ. Δεκελείας 109, Νέα Φιλαδέλφεια Αττικής 143 41","categoryIds":["burgers","cheap-eats"],"categories":["Burger Spots","Gyros & Cheap Eats"],"legacySlugs":["koutsi-katsika-street-food-nea-filadelfeia-2553"]},{"id":"burgersRestaurants_4906276397a1","slug":"godgilla-keratsini-4906","kind":"restaurant","name":"GODGILLA ΚΕΡΑΤΣΙΝΙ","lat":37.95895954039208,"lng":23.62512429010796,"url":"https://maps.app.goo.gl/XPM5TwgWvpZmGQUh6?g_st=ipc","address":"Θεόφραστου 54, Κερατσίνι 187 56","categoryIds":["burgers","cheap-eats"],"categories":["Burger Spots","Gyros & Cheap Eats"],"legacySlugs":["godgilla-keratsini-e67b"]},{"id":"burgersRestaurants_ceb67d2517dd","slug":"godgilla-umami-street-food-ceb6","kind":"restaurant","name":"Godgilla umami street food","lat":38.056565975998105,"lng":23.814008768575892,"url":"https://maps.app.goo.gl/WyovvCKHo17WtrPb8?g_st=ipc","address":"Γεωρ. Κοτζιά 2, Μαρούσι 151 26","categoryIds":["burgers","cheap-eats"],"categories":["Burger Spots","Gyros & Cheap Eats"],"legacySlugs":["godgilla-umami-street-food-784d"]},{"id":"burgersRestaurants_4060fc5be247","slug":"maestro-cantina-4060","kind":"restaurant","name":"Maestro Cantina","lat":40.539870288194706,"lng":23.0207573353921,"url":"https://maps.app.goo.gl/WJTaYcJdPxACzwkXA?g_st=ipc","address":"EO Thessalonikis Poligirou 32, Thermi 570 01","categoryIds":["burgers","cheap-eats"],"categories":["Burger Spots","Gyros & Cheap Eats"],"legacySlugs":["maestro-cantina-5ff9"]},{"id":"burgersRestaurants_54aa085a6ef8","slug":"sinners-smash-burgers-54aa","kind":"restaurant","name":"Sinners Smash Burgers","lat":40.57608642412674,"lng":22.98935981589618,"url":"https://maps.app.goo.gl/Y2NDJtMWMoJrutpZ6?g_st=ipc","address":"Στέλιου Καζαντζίδη 31, Pilea 555 35","categoryIds":["burgers","cheap-eats"],"categories":["Burger Spots","Gyros & Cheap Eats"],"legacySlugs":["sinners-smash-burgers-e79f"]}],"nearby":[{"id":"cheapEatsRestaurants_53eb96e06f78","slug":"zampelis-soyvlaki-53eb","kind":"restaurant","name":"ΖΑΜΠΕΛΗΣ Σουβλάκι","lat":37.942278449963005,"lng":23.7489165228981,"url":"https://maps.app.goo.gl/mBFJVYTZsF1kBbtk7?g_st=ipc","address":"Λεωφ. Μαρίνου Αντύπα 42, Ηλιούπολη 163 46","categoryIds":["cheap-eats"],"categories":["Gyros & Cheap Eats"],"distanceKm":0.23650029836530495},{"id":"coffeeBrunchRestaurants_04323df5602c","slug":"moments-cafe-0432","kind":"restaurant","name":"Moments cafe","lat":37.94145822074275,"lng":23.750459312660134,"url":"https://maps.app.goo.gl/6q9NBBvgffKvbrnG7?g_st=ipc","address":"Αγγέλου Σικελιανού 65, Ηλιούπολη 163 45","categoryIds":["coffee-brunch"],"categories":["Coffee & Brunch Spots"],"distanceKm":0.35333916335310045},{"id":"fishTavernasRestaurants_57034fb5f673","slug":"mikres-kyklades-5703","kind":"restaurant","name":"ΜΙΚΡΕΣ ΚΥΚΛΑΔΕΣ","lat":37.938213721782944,"lng":23.745141100112257,"url":"https://maps.app.goo.gl/Za7BJdXKEyy2FFiM7","address":"Pantazi 56, Ilioupoli 163 46","categoryIds":["fish-tavernas"],"categories":["Fish Tavernas"],"distanceKm":0.3776999591103415},{"id":"cheapEatsRestaurants_11e58e7bd1c7","slug":"pita-pan-11e5","kind":"restaurant","name":"Pita Pan","lat":37.93966105014638,"lng":23.74003701406881,"url":"https://maps.app.goo.gl/ub6T2bWkrrx9QZt69?g_st=ipc","address":"Παρ. Λεωφ. Βουλιαγμένης 276, Αγ. Δημήτριος Αττικής 173 43","categoryIds":["cheap-eats"],"categories":["Gyros & Cheap Eats"],"distanceKm":0.5950505981086122},{"id":"dessertsRestaurants_65e04c3f641c","slug":"cinnabon-athens-metro-mall-65e0","kind":"restaurant","name":"Cinnabon (Athens Metro Mall)","lat":37.93941612015106,"lng":23.739972879470894,"url":"https://maps.app.goo.gl/71DTBLWMjXBGonps5?g_st=ipc","address":"Παρ. Λεωφ. Βουλιαγμένης 276, Αγ. Δημήτριος Αττικής 173 43","categoryIds":["desserts"],"categories":["Dessert Shops"],"distanceKm":0.6099427050082369},{"id":"cheapEatsRestaurants_a6f267f71448","slug":"psitopoleio-o-kostas-a6f2","kind":"restaurant","name":"Ψητοπωλείο Ο Κώστας","lat":37.94774148940973,"lng":23.74608370924349,"url":"https://maps.app.goo.gl/8n9ne3gHR6APgQwh6?g_st=ipc","address":"Ηλιουπόλεως 157, Υμηττός 172 36","categoryIds":["cheap-eats"],"categories":["Gyros & Cheap Eats"],"distanceKm":0.6997086281980657},{"id":"asianRestaurants_36f4a8956e8a","slug":"oma-sushi-bar-36f4","kind":"restaurant","name":"Oma Sushi Bar","lat":37.94009382367438,"lng":23.754689791765557,"url":"https://maps.app.goo.gl/sQ4YgJ2S6xgEEqCf7?g_st=ipc","address":"Ανδρέα Παπανδρέου 22, Ηλιούπολη 163 45","categoryIds":["asian"],"categories":["Asian Restaurants"],"distanceKm":0.739967746012698},{"id":"cheapEatsRestaurants_b9d0dc3d0a7f","slug":"mayropipero-b9d0","kind":"restaurant","name":"Μαυροπίπερο","lat":37.939871957691295,"lng":23.73599315534295,"url":"https://maps.app.goo.gl/kLQRksA1KxobJdFA6?g_st=ipc","address":"Στρατάρχου Αλεξάνδρου Παπάγου 41, Αγ. Δημήτριος Αττικής 173 43","categoryIds":["cheap-eats"],"categories":["Gyros & Cheap Eats"],"distanceKm":0.932016432777623},{"id":"greekRestaurants_b996975f2765","slug":"to-koyzoylo-kritikes-geyseis-b996","kind":"restaurant","name":"Το Κουζουλό-Κρητικές Γεύσεις","lat":37.93790456342302,"lng":23.756307120209538,"url":"https://maps.app.goo.gl/92JS6PzrgTe3Moyv6","address":"Λεωφ. Ειρήνης 10, Ηλιούπολη 163 45","categoryIds":["greek-restaurants"],"categories":["Greek Restaurants"],"distanceKm":0.9518882877799327},{"id":"cheapEatsRestaurants_e141c683e929","slug":"psitopoleio-o-ymittos-e141","kind":"restaurant","name":"ΨΗΤΟΠΩΛΕΙΟ Ο ΥΜΗΤΤΟΣ","lat":37.9376577150226,"lng":23.756325000053742,"url":"https://maps.app.goo.gl/jevMqjqUqMVWPizM7?g_st=ipc","address":"Λεωφ. Ειρήνης 12, Ηλιούπολη 163 45","categoryIds":["cheap-eats"],"categories":["Gyros & Cheap Eats"],"distanceKm":0.96500638369094},{"id":"familyFriendly_727aa4faed66","slug":"hado-dafni-727a","kind":"restaurant","name":"HADO Δάφνη","lat":37.94808909976108,"lng":23.73774466226219,"url":"https://maps.app.goo.gl/DDga87nVticqm9qYA?g_st=ipc","address":"Μπουμπουλίνας 6, Αγ. Δημήτριος Αττικής 173 43","categoryIds":["family-friendly"],"categories":["Kid Friendly Locations"],"distanceKm":1.060307413607427},{"id":"coffeeBrunchRestaurants_41c6675d394b","slug":"lokal-athens-41c6","kind":"restaurant","name":"ΛΟΚΑΛ ΑΘΕΝΣ","lat":37.94681394109403,"lng":23.736018711734893,"url":"https://maps.app.goo.gl/cBZUFc3qKk2urDcJ7?g_st=ipc","address":"Λεωφ. Αγίου Δημητρίου 33, Αγ. Δημήτριος Αττικής 173 43","categoryIds":["coffee-brunch"],"categories":["Coffee & Brunch Spots"],"distanceKm":1.0902344120093779},{"id":"coffeeBrunchRestaurants_77dac76c5346","slug":"madania-77da","kind":"restaurant","name":"Madania","lat":37.94780401530034,"lng":23.73687705670489,"url":"https://maps.app.goo.gl/SN98TxjvUzYYXpvq9?g_st=ipc","address":"Leof. Agiou Dimitriou 17 &, Ηροδότου, Αγ. Δημήτριος Αττικής 173 43","categoryIds":["coffee-brunch"],"categories":["Coffee & Brunch Spots"],"distanceKm":1.0955192766299813},{"id":"municipalities_2413d46e54f8","slug":"ymittos-2413","kind":"municipality","name":"Υμηττός","lat":37.9506,"lng":23.7511,"aliases":["Ymittos","Hymettos","Υμηττος"],"region":"Νότια Προάστια","name_en":"Ymittos","region_en":"Southern Suburbs","distanceKm":1.0962553904559913},{"id":"dessertsRestaurants_bf8ca0a3720e","slug":"elli-s-cakes-bf8c","kind":"restaurant","name":"Elli's Cakes","lat":37.9448495085085,"lng":23.734073926930343,"url":"https://maps.app.goo.gl/eufNFz1Bu9hgqeNm6?g_st=ipc","address":"Λεωφ. Αγίου Δημητρίου 40, Αγ. Δημήτριος Αττικής 173 41","categoryIds":["desserts"],"categories":["Dessert Shops"],"distanceKm":1.147384932443086},{"id":"italianRestaurants_22324beef805","slug":"pizza-days-agioy-dimitrioy-2232","kind":"restaurant","name":"Pizza Days - Αγίου Δημητρίου","lat":37.9436201391912,"lng":23.733022003629234,"url":"https://maps.app.goo.gl/mj45NkH8L5jqeHD58?g_st=ipc","address":"Ανδρέα Παπανδρέου 2, Αγ. Δημήτριος Αττικής 173 41","categoryIds":["italian"],"categories":["Italian Restaurants"],"distanceKm":1.2001685876908645},{"id":"greekRestaurants_5c7530a68c50","slug":"ladokolla-dafnis-5c75","kind":"restaurant","name":"Λαδόκολλα Δάφνης","lat":37.948710278848054,"lng":23.736099857630663,"url":"https://maps.app.goo.gl/DJkwhBF35mfEBRKG7","address":"Λεωφ. Αλ. Παπαναστασίου 8, Δάφνη Αττικής 172 35","categoryIds":["greek-restaurants"],"categories":["Greek Restaurants"],"distanceKm":1.2130219809393463},{"id":"cheapEatsRestaurants_1640e0da72d1","slug":"smasheat-o-1640","kind":"restaurant","name":"Smasheat'o","lat":37.95001486404743,"lng":23.73773292955517,"url":"https://maps.app.goo.gl/nrXvTuy8yr3sWi7k8?g_st=ipc","address":"Meg. Alexandrou 2, Athina 172 35","categoryIds":["cheap-eats"],"categories":["Gyros & Cheap Eats"],"distanceKm":1.2196698417478498},{"id":"vegetarianRestaurants_74f8ca9bcb55","slug":"dinette-dafni-74f8","kind":"restaurant","name":"Dinette Dafni","lat":37.949260684351316,"lng":23.73612865746863,"url":"https://maps.app.goo.gl/kkxVViHsfrAhDtz38?g_st=ipc","address":"Μιχαήλ Καραολή 1-3, Αθήνα 172 35","categoryIds":["vegetarian"],"categories":["Vegetarian Friendly Restaurants"],"distanceKm":1.2527353746051355},{"id":"dessertsRestaurants_87a8c1a7fdc0","slug":"l-arte-del-gelato-87a8","kind":"restaurant","name":"L'Arte del Gelato","lat":37.9335716460019,"lng":23.757250383926916,"url":"https://maps.app.goo.gl/d44Jasgx3fqMB2996?g_st=ipc","address":"Λεωφ. Ελ. Βενιζέλου 135, Ηλιούπολη 163 45","categoryIds":["desserts"],"categories":["Dessert Shops"],"distanceKm":1.2918246137963136},{"id":"municipalities_9c070c898016","slug":"ilioypoli-9c07","kind":"municipality","name":"Ηλιούπολη","lat":37.9303,"lng":23.7506,"aliases":["Ilioupoli","Heliopoli","Ηλιουπολη","Ηλιουπολις","Heliopolis"],"region":"Νότια Προάστια","name_en":"Ilioupoli","region_en":"Southern Suburbs","distanceKm":1.2931442187949327},{"id":"monasteriesChurches_532a88c17ded","slug":"ieros-naos-agioy-dimitrioy-532a","kind":"restaurant","name":"Ιερός Ναός Αγίου Δημητρίου","lat":37.939612390639354,"lng":23.731409160406493,"url":"https://maps.app.goo.gl/NQFZSQ6EDz4WiEjk6?g_st=ipc","address":"Λεωφ. Αγίου Δημητρίου 117, Αγ. Δημήτριος Αττικής 173 43","categoryIds":["monasteries-churches"],"categories":["Monasteries & Spiritual Sites"],"distanceKm":1.3330726935881512},{"id":"dessertsRestaurants_7c5a207d8534","slug":"galaktopoleio-stamoy-7c5a","kind":"restaurant","name":"Γαλακτοπωλείο ΣΤΑΜΟΥ","lat":37.93137189453027,"lng":23.754775535968022,"url":"https://maps.app.goo.gl/o9wp2AdrozqHihcN7?g_st=ipc","address":"Λεωφ. Σοφοκλή Βενιζέλου 96, Ηλιούπολη 163 41","categoryIds":["desserts"],"categories":["Dessert Shops"],"distanceKm":1.338909320724233},{"id":"coffeeBrunchRestaurants_eb390a2ff655","slug":"ohayo-teahouse-eb39","kind":"restaurant","name":"Ohayo Teahouse","lat":37.949425041480666,"lng":23.734793004377693,"url":"https://maps.app.goo.gl/vkq5bgJaaWXHr76X8?g_st=ipc","address":"Αγίας Βαρβάρας 79, Αθήνα 172 35","categoryIds":["coffee-brunch"],"categories":["Coffee & Brunch Spots"],"distanceKm":1.3515593439596914}],"sameRegion":[],"mentionedGuides":[],"canonicalSlug":"psychiatreio-c05e","isCanonicalEntity":false,"enrichment":{"summary_en":"Ψυχιατρείο is a curated restaurant in Ηλιούπολη 163 46 in the Burger Spots collection. It is connected to 7 nearby Googlementor picks to help travelers build a stronger local route.","summary_el":"Ψυχιατρείο είναι ένα επιλεγμένο σημείο φαγητού στην περιοχή Ηλιούπολη 163 46 και ανήκει στη συλλογή Burger Spots. Συνδέεται με 7 κοντινές προτάσεις του Googlementor για πιο ολοκληρωμένη εμπειρία.","vibe_tags":["curated","budget-friendly"],"best_for":["first-time visitors","food lovers","budget travelers"],"visit_moments":["lunch stop","dinner stop"],"practical_note":"Address and direct map link are available for easy turn-by-turn access.","nearby_walkable_count":7,"nearby_count_2km":45,"confidence":0.98}},"__N_SSG":true}