{"pageProps":{"entity":{"id":"municipalities_4d3a6952ff1a","slug":"psychiko-4d3a","kind":"municipality","name":"Ψυχικό","lat":38.021,"lng":23.765,"aliases":["Psychiko","Psychicon","Ψυχικο","Psihiko","Psyxiko","Psixiko","Psychico"],"region":"Βόρεια Προάστια","name_en":"Psychiko","region_en":"Northern Suburbs"},"sameCategory":[],"nearby":[{"id":"municipalities_6dce5446e51c","slug":"filothei-6dce","kind":"municipality","name":"Φιλοθέη","lat":38.024,"lng":23.766,"aliases":["Filothei","Filothee","Φιλοθεη","Philothei"],"region":"Βόρεια Προάστια","name_en":"Filothei","region_en":"Northern Suburbs","distanceKm":0.34489396693863433},{"id":"familyFriendly_973af7ec79c4","slug":"alsos-veikoy-973a","kind":"restaurant","name":"Άλσος Βεΐκου","lat":38.02808730194628,"lng":23.7654289848257,"url":"https://maps.app.goo.gl/ot5mvzRcDDXoA46w8?g_st=ipc","address":"Λεωφόρος Βεΐκου, Αναγεννήσεως &, Γαλάτσι 111 46","categoryIds":["family-friendly"],"categories":["Kid Friendly Locations"],"distanceKm":0.7889673533108505},{"id":"coffeeBrunchRestaurants_a919b680f3b5","slug":"48-a919","kind":"restaurant","name":"48","lat":38.018274408105384,"lng":23.755916271922057,"url":"https://maps.app.goo.gl/PcD6G1TEsbi1swU57?g_st=ipc","address":"Λεωφ. Βεΐκου 48, Γαλάτσι 111 47","categoryIds":["coffee-brunch"],"categories":["Coffee & Brunch Spots"],"distanceKm":0.8514907297755918},{"id":"fishTavernasRestaurants_8be01291d057","slug":"steki-psarofagadon-8be0","kind":"restaurant","name":"ΣΤΕΚΙ ΨΑΡΟΦΑΓΑΔΩΝ","lat":38.0206189578116,"lng":23.753464770079276,"url":"https://maps.app.goo.gl/z4bfrFA8WgPgak7Q6?g_st=ipc","address":"Παπαφλέσσα 36, Γαλάτσι 111 46","categoryIds":["fish-tavernas"],"categories":["Fish Tavernas"],"distanceKm":1.0113501677195011},{"id":"burgersRestaurants_23a9c50becc9","slug":"serial-grillers-23a9","kind":"restaurant","name":"Serial Grillers","lat":38.01971897283902,"lng":23.753398114124796,"url":"https://maps.app.goo.gl/nhc6uHCi6xq6oZKL7?g_st=ipc","address":"Τράλλεων 130, Γαλάτσι 111 46","categoryIds":["burgers"],"categories":["Burger Spots"],"distanceKm":1.0262411819767954},{"id":"italianRestaurants_9807c76fa027","slug":"kamikaze-9807","kind":"restaurant","name":"KAMIKAZE","lat":38.0243124367211,"lng":23.753568534514113,"url":"https://maps.app.goo.gl/nGW44VsbXXjFk6eF7?g_st=ipc","address":"Ναρκίσσου 34-36, Γαλάτσι 111 46","categoryIds":["italian"],"categories":["Italian Restaurants"],"distanceKm":1.066939966549622},{"id":"cheapEatsRestaurants_7b6d49968714","slug":"nikos-o-kalavrytinos-7b6d","kind":"restaurant","name":"Νίκος ο Καλαβρυτινός","lat":38.024001161887576,"lng":23.75301292455858,"url":"https://maps.app.goo.gl/cmE54PPQGsdzvzgz5?g_st=ipc","address":"Εκάβης 63, Γαλάτσι 111 46","categoryIds":["cheap-eats"],"categories":["Gyros & Cheap Eats"],"distanceKm":1.1017732887250298},{"id":"dessertsRestaurants_6128b9a38565","slug":"zante-6128","kind":"restaurant","name":"Zante","lat":38.01329808317404,"lng":23.75625779357789,"url":"https://maps.app.goo.gl/vdA9XUPFa7M3vbdi7?g_st=ipc","address":"Ελ. Βενιζέλου 21, Γαλάτσι 111 47","categoryIds":["desserts"],"categories":["Dessert Shops"],"distanceKm":1.1488916516614818},{"id":"familyFriendly_cd77fb44ab16","slug":"parko-makedonias-cd77","kind":"restaurant","name":"Πάρκο Μακεδονίας","lat":38.028321368571035,"lng":23.775138311849886,"url":"https://maps.app.goo.gl/XSK7TXJhDYgZz5qh7?g_st=ic","address":"Μακεδονίας, Louki Akrita &, Filothei 152 37","categoryIds":["family-friendly"],"categories":["Kid Friendly Locations"],"distanceKm":1.2047353562592995},{"id":"fishTavernasRestaurants_391097bf7912","slug":"mezedopoleio-psarotaverna-karavidas-3910","kind":"restaurant","name":"Μεζεδοπωλείο Ψαροταβέρνα Καραβίδας","lat":38.03096216854331,"lng":23.75947032164881,"url":"https://maps.app.goo.gl/JGxgiBHhNLEpm7F8A?g_st=ipc","address":"Δεμιρδεσίου 89, Νέα Ιωνία 142 33","categoryIds":["fish-tavernas"],"categories":["Fish Tavernas"],"distanceKm":1.2090048141630592},{"id":"greekRestaurants_5791bc32c9f3","slug":"steki-patakia-5791","kind":"restaurant","name":"Στέκι Πατακιά","lat":38.03119466857524,"lng":23.76015883612339,"url":"https://maps.app.goo.gl/cYha3bisyCdwkZ4aA","address":"Δεμιρδεσίου 93, Νέα Ιωνία 142 33","categoryIds":["greek-restaurants"],"categories":["Greek Restaurants"],"distanceKm":1.210311126032251},{"id":"dessertsRestaurants_3c1566b87f0f","slug":"galaktopoleio-stamoy-galatsi-attikis-3c15","kind":"restaurant","name":"Γαλακτοπωλείο ΣΤΑΜΟΥ, Γαλάτσι Αττικής","lat":38.01421938915903,"lng":23.75342305374386,"url":"https://maps.app.goo.gl/n8JWXhCzyJJxjNQv5?g_st=ipc","address":"Λεωφ. Βεΐκου 9, Γαλάτσι 111 46","categoryIds":["desserts"],"categories":["Dessert Shops"],"distanceKm":1.263721546768905},{"id":"asianRestaurants_f4e606aad25d","slug":"shisan-sushi-bar-f4e6","kind":"restaurant","name":"Shisan Sushi Bar","lat":38.01364374248811,"lng":23.753228892987114,"url":"https://maps.app.goo.gl/3ZyGn2FKaLUXuMuJ9?g_st=ipc","address":"Λεωφ. Βεΐκου 7, Γαλάτσι 111 46","categoryIds":["asian"],"categories":["Asian Restaurants"],"distanceKm":1.3162096969012897},{"id":"coffeeBrunchRestaurants_5b95e5db288d","slug":"slow-athens-5b95","kind":"restaurant","name":"Slow Athens","lat":38.02276964076481,"lng":23.750109220953814,"url":"https://maps.app.goo.gl/1iFxkjwZn9gN56m89?g_st=ipc","address":"Αγίου Σπυρίδωνος 18, Γαλάτσι 111 46","categoryIds":["coffee-brunch"],"categories":["Coffee & Brunch Spots"],"distanceKm":1.3191411967366475},{"id":"familyFriendly_b5558184750b","slug":"metalinou-playground-b555","kind":"restaurant","name":"Metalinou Playground","lat":38.011973755180826,"lng":23.77490238579276,"url":"https://maps.app.goo.gl/g4fD4H23t9pWgjgeA?g_st=ic","address":"Al. Papanastasiou 51, Psichiko 154 52","categoryIds":["family-friendly"],"categories":["Kid Friendly Locations"],"distanceKm":1.3266045689338437},{"id":"italianRestaurants_c18420cfda0e","slug":"pizzamore-c184","kind":"restaurant","name":"Pizzamore","lat":38.01171283477954,"lng":23.755383909223237,"url":"https://maps.app.goo.gl/kYHyarXW2TAM2VEr9?g_st=ipc","address":"Πρωτοπαπαδάκη 20, Γαλάτσι 111 47","categoryIds":["italian"],"categories":["Italian Restaurants"],"distanceKm":1.332696062252946},{"id":"municipalities_5c4c490c8c5a","slug":"galatsi-5c4c","kind":"municipality","name":"Γαλάτσι","lat":38.0167,"lng":23.75,"aliases":["Galatsi","Galatsia","Γαλατσι","Galatsion"],"region":"Βόρεια Προάστια","name_en":"Galatsi","region_en":"Northern Suburbs","distanceKm":1.398292812838204},{"id":"dessertsRestaurants_9a1aa3339c46","slug":"eva-9a1a","kind":"restaurant","name":"Eva","lat":38.015131929032286,"lng":23.750456340002337,"url":"https://maps.app.goo.gl/GBYXZRmRKUPq81F8A?g_st=ic","address":"Karaiskaki 16, Galatsi 111 46","categoryIds":["desserts"],"categories":["Dessert Shops"],"distanceKm":1.4314116680167353},{"id":"dessertsRestaurants_b154c59ad342","slug":"zacharoplasteio-ta-gioylia-b154","kind":"restaurant","name":"Ζαχαροπλαστείο Τα Γιούλια","lat":38.03375679792758,"lng":23.760132906851105,"url":"https://maps.app.goo.gl/c3VhnGmj4UK6Mp8j6?g_st=ipc","address":"Αναγεννήσεως 49-51, Νέα Ιωνία 142 33","categoryIds":["desserts"],"categories":["Dessert Shops"],"distanceKm":1.4811673510350576},{"id":"greekRestaurants_24b930305a8e","slug":"leykes-24b9","kind":"restaurant","name":"Λεύκες","lat":38.01369593012145,"lng":23.750720348183243,"url":"https://maps.app.goo.gl/f11Mf8a6b4eezgj29","address":"Λεωφ. Γαλατσίου 100, Γαλάτσι 111 46","categoryIds":["greek-restaurants"],"categories":["Greek Restaurants"],"distanceKm":1.4914581535366067},{"id":"greekRestaurants_fa7cc6bab7be","slug":"lefkes-on-the-side-fa7c","kind":"restaurant","name":"Lefkes on the Side","lat":38.013850196604025,"lng":23.75041166079297,"url":"https://maps.app.goo.gl/bBjijsL8Z595BXhZ7","address":"Λεωφ. Γαλατσίου 98, Γαλάτσι 111 46","categoryIds":["greek-restaurants"],"categories":["Greek Restaurants"],"distanceKm":1.5050781386506866},{"id":"cheapEatsRestaurants_cbf0a0d9c1b3","slug":"lamprinaki-cbf0","kind":"restaurant","name":"Λαμπρινάκι","lat":38.0224148920344,"lng":23.747555518536878,"url":"https://maps.app.goo.gl/M5T9Z6KajRqpaNBA7?g_st=ipc","address":"Τράλλεων 67, Αθήνα 111 42","categoryIds":["cheap-eats"],"categories":["Gyros & Cheap Eats"],"distanceKm":1.5361595211719503},{"id":"dessertsRestaurants_8a66394cff02","slug":"andrias-8a66","kind":"restaurant","name":"Ανδριάς","lat":38.031915217615015,"lng":23.776449986064225,"url":"https://maps.app.goo.gl/UyXFW37fEx8CzcR76?g_st=ipc","address":"Λεωφ. Καποδιστρίου 92, Νέα Ιωνία 142 35","categoryIds":["desserts"],"categories":["Dessert Shops"],"distanceKm":1.574468966151733},{"id":"vegetarianRestaurants_d059c20a8f7f","slug":"eyripidis-d059","kind":"restaurant","name":"Ευριπίδης","lat":38.0306192216948,"lng":23.77843102660416,"url":"https://maps.app.goo.gl/645ivXdiBXiq5evG9?g_st=ipc","address":"Λεωφ. Καποδιστρίου 78, Φιλοθέη 142 35","categoryIds":["vegetarian"],"categories":["Vegetarian Friendly Restaurants"],"distanceKm":1.5899990080461006}],"sameRegion":[{"id":"municipalities_1017b19e3550","slug":"nea-filadelfeia-1017","kind":"municipality","name":"Νέα Φιλαδέλφεια","lat":38.0333,"lng":23.7333,"region":"Βόρεια Προάστια","name_en":"Nea Filadelfeia","region_en":"Northern Suburbs"},{"id":"municipalities_10b34011c7ab","slug":"stamata-10b3","kind":"municipality","name":"Σταμάτα","lat":38.108,"lng":23.8669,"region":"Βόρεια Προάστια","name_en":"Stamata","region_en":"North Suburbs"},{"id":"municipalities_138c7310c224","slug":"lykovrysi-138c","kind":"municipality","name":"Λυκόβρυση","lat":38.065,"lng":23.788,"aliases":["Likovrysi","Likovrissi"],"region":"Βόρεια Προάστια","name_en":"Lykovrysi","region_en":"Northern Suburbs"},{"id":"municipalities_21a4cf6d5b03","slug":"nea-erythraia-21a4","kind":"municipality","name":"Νέα Ερυθραία","lat":38.1025,"lng":23.817,"region":"Βόρεια Προάστια","name_en":"Nea Erythraia","region_en":"Northern Suburbs"},{"id":"municipalities_261961302eff","slug":"papagoy-cholargos-2619","kind":"municipality","name":"Παπάγου - Χολαργός","lat":38,"lng":23.8,"region":"Βόρεια Προάστια","name_en":"Papagou - Cholargos","region_en":"Northern Suburbs"},{"id":"municipalities_3dd9311bd3cf","slug":"peyki-3dd9","kind":"municipality","name":"Πεύκη","lat":38.06,"lng":23.792,"aliases":["Pefki","Pefkakia","Πευκη","Peuki","Pefka"],"region":"Βόρεια Προάστια","name_en":"Pefki","region_en":"Northern Suburbs"},{"id":"municipalities_3f6a045ce221","slug":"agia-paraskeyi-3f6a","kind":"municipality","name":"Αγία Παρασκευή","lat":38.0216,"lng":23.827,"region":"Βόρεια Προάστια","name_en":"Agia Paraskevi","region_en":"Northern Suburbs"},{"id":"municipalities_51534bbed11a","slug":"ekali-5153","kind":"municipality","name":"Εκάλη","lat":38.1177,"lng":23.8368,"region":"Βόρεια Προάστια","name_en":"Ekali","region_en":"North Suburbs"},{"id":"municipalities_5c4c490c8c5a","slug":"galatsi-5c4c","kind":"municipality","name":"Γαλάτσι","lat":38.0167,"lng":23.75,"aliases":["Galatsi","Galatsia","Γαλατσι","Galatsion"],"region":"Βόρεια Προάστια","name_en":"Galatsi","region_en":"Northern Suburbs"},{"id":"municipalities_6dce5446e51c","slug":"filothei-6dce","kind":"municipality","name":"Φιλοθέη","lat":38.024,"lng":23.766,"aliases":["Filothei","Filothee","Φιλοθεη","Philothei"],"region":"Βόρεια Προάστια","name_en":"Filothei","region_en":"Northern Suburbs"},{"id":"municipalities_797866e61212","slug":"melissia-7978","kind":"municipality","name":"Μελίσσια","lat":38.05,"lng":23.8333,"aliases":["Melissia","Melissa","Μελισσια"],"region":"Βόρεια Προάστια","name_en":"Melissia","region_en":"Northern Suburbs"},{"id":"municipalities_9db4da788e71","slug":"rodopoli-9db4","kind":"municipality","name":"Ροδόπολη","lat":38.1307,"lng":23.8504,"region":"Βόρεια Προάστια","name_en":"Rodopoli","region_en":"North Suburbs"},{"id":"municipalities_a312b31dd129","slug":"nea-ionia-a312","kind":"municipality","name":"Νέα Ιωνία","lat":38.0357,"lng":23.7573,"aliases":["Nea Ionia","Νεα Ιωνια"],"region":"Βόρεια Προάστια","name_en":"Nea Ionia","region_en":"Northern Suburbs"},{"id":"municipalities_b9a5c4b0e427","slug":"dionysos-b9a5","kind":"municipality","name":"Διόνυσος","lat":38.106,"lng":23.8583,"region":"Βόρεια Προάστια","name_en":"Dionysos","region_en":"North Suburbs"},{"id":"municipalities_cb47d94cb6da","slug":"maroysi-cb47","kind":"municipality","name":"Μαρούσι","lat":38.0543,"lng":23.808,"aliases":["Marousi","Maroussi","Μαρουσι","Αμαρουσιο","Αμαρούσιο","Marusi","Amarousion"],"region":"Βόρεια Προάστια","name_en":"Marousi","region_en":"Northern Suburbs"},{"id":"municipalities_d9eb5d0054e1","slug":"chalandri-d9eb","kind":"municipality","name":"Χαλάνδρι","lat":38.0232,"lng":23.8007,"aliases":["Chalandr","Halandri","Khalandri","Halandra","Khalandra","Χαλάνδρα","Χαλάνδρη","Χαλανδρι","Xalandri","Xalandr"],"region":"Βόρεια Προάστια","name_en":"Chalandri","region_en":"Northern Suburbs"}],"mentionedGuides":[],"canonicalSlug":"psychiko-4d3a","isCanonicalEntity":true,"enrichment":{"summary_en":"Ψυχικό is a curated neighborhood area in Βόρεια Προάστια. It is connected to 2 nearby Googlementor picks to help travelers build a stronger local route.","summary_el":"Ψυχικό είναι ένα επιλεγμένο σημείο ενδιαφέροντος στην περιοχή Βόρεια Προάστια. Συνδέεται με 2 κοντινές προτάσεις του Googlementor για πιο ολοκληρωμένη εμπειρία.","vibe_tags":["local-neighborhood","base-for-exploring"],"best_for":["first-time visitors","walk-and-explore days","return visitors"],"visit_moments":["late morning walks","sunset exploration"],"practical_note":"2 curated places are within walkable distance from this area center.","nearby_walkable_count":2,"nearby_count_2km":45,"confidence":0.55}},"__N_SSG":true}