{"pageProps":{"entity":{"id":"greekRestaurants_90c55ea6b27c","slug":"rogkoti-1928-90c5","kind":"restaurant","name":"Ρογκότη 1928","lat":40.63063704521069,"lng":22.947121329539414,"url":"https://maps.app.goo.gl/oYN4BameZGmdPwsE8?g_st=ipc","address":"Grigoriou Palama 8, Thessaloniki 546 22","categoryIds":["greek-restaurants"],"categories":["Greek Restaurants"]},"sameCategory":[{"id":"greekRestaurants_dd92d680950f","slug":"local-thessaloniki-dd92","kind":"restaurant","name":"LOCAL Thessaloniki","lat":40.631447319193505,"lng":22.946995352889463,"url":"https://maps.app.goo.gl/iMk8Tx82t81vQe5y5?g_st=ipc","address":"Παλαιών Πατρών Γερμανού 17, Θεσσαλονίκη 546 22","categoryIds":["greek-restaurants"],"categories":["Greek Restaurants"]},{"id":"greekRestaurants_8e1d134cbe5a","slug":"diavasi-8e1d","kind":"restaurant","name":"Διάβαση","lat":40.629392533313,"lng":22.947707172796427,"url":"https://maps.app.goo.gl/MvYkV7ZoB8ykDseV7?g_st=ipc","address":"Π. Μελά 13, Θεσσαλονίκη 546 22","categoryIds":["greek-restaurants"],"categories":["Greek Restaurants"]},{"id":"greekRestaurants_a1a2ecf01b90","slug":"neos-galerios-a1a2","kind":"restaurant","name":"Νέος Γαλέριος","lat":40.63104870965081,"lng":22.94936321160579,"url":"https://maps.app.goo.gl/x4M4LyYumCxPakjo7?g_st=ipc","address":"Απελλού 3, Θεσσαλονίκη 546 22","categoryIds":["greek-restaurants"],"categories":["Greek Restaurants"]},{"id":"greekRestaurants_6540c06dfef8","slug":"argofageio-6540","kind":"restaurant","name":"Αργοφαγείο","lat":40.631130013359666,"lng":22.94963377057043,"url":"https://maps.app.goo.gl/Xdu7zZ8Wq5MhAe6R6?g_st=ipc","address":"Απελλού 6, Θεσσαλονίκη 546 22","categoryIds":["greek-restaurants"],"categories":["Greek Restaurants"]},{"id":"greekRestaurants_9ca9bccdb731","slug":"diagonios-1977-9ca9","kind":"restaurant","name":"Διαγώνιος 1977","lat":40.628424051093205,"lng":22.94777702854618,"url":"https://maps.app.goo.gl/NGT8FMWUaiPpBxYGA?g_st=ipc","address":"Πλ. Φαναριωτῶν 2, Θεσσαλονίκη 546 22","categoryIds":["greek-restaurants"],"categories":["Greek Restaurants"]},{"id":"greekRestaurants_5db983812e0a","slug":"to-elliniko-5db9","kind":"restaurant","name":"Το Ελληνικό","lat":40.62835209292357,"lng":22.947350658434885,"url":"https://maps.app.goo.gl/xnCJBuGfhotgXpup6?g_st=ipc","address":"Στρ. Καλλάρη 9, Θεσσαλονίκη 546 22","categoryIds":["greek-restaurants"],"categories":["Greek Restaurants"]},{"id":"greekRestaurants_e2d4737d2e6a","slug":"deka-trapezia-e2d4","kind":"restaurant","name":"Δέκα Τραπέζια","lat":40.62814201457264,"lng":22.946897711090458,"url":"https://maps.app.goo.gl/rmRGahPcj5NACQVp9?g_st=ipc","address":"Στρ. Καλλάρη 4, Θεσσαλονίκη 546 22","categoryIds":["greek-restaurants"],"categories":["Greek Restaurants"]},{"id":"greekRestaurants_bc2682007b45","slug":"canteen-all-day-bar-restaurant-bc26","kind":"restaurant","name":"Canteen All day Bar Restaurant","lat":40.628045759253304,"lng":22.94769823250704,"url":"https://maps.app.goo.gl/4PvAxWQTpkBWbzxZ6?g_st=ipc","address":"Δημ. Γούναρη 7, Θεσσαλονίκη 546 22","categoryIds":["greek-restaurants"],"categories":["Greek Restaurants"]},{"id":"greekRestaurants_96300d908e41","slug":"massalia-9630","kind":"restaurant","name":"Μασσαλία","lat":40.62879227637267,"lng":22.950820456091158,"url":"https://maps.app.goo.gl/Woet67mPUQvmRPAY6?g_st=ipc","address":"Μανουσογιαννάκη 6, Θεσσαλονίκη 546 21","categoryIds":["greek-restaurants"],"categories":["Greek Restaurants"]},{"id":"greekRestaurants_ec89737f5dbf","slug":"katsamaka-ec89","kind":"restaurant","name":"Κατσαμάκα","lat":40.63449406102341,"lng":22.94471496310578,"url":"https://maps.app.goo.gl/seYvnbwfcs9jJUEh9?g_st=ipc","address":"Αυγερινού, Αθωνος 18-20, Θεσσαλονίκη 546 23","categoryIds":["greek-restaurants"],"categories":["Greek Restaurants"]},{"id":"greekRestaurants_028889ec4c7c","slug":"kafeneion-giasemi-0288","kind":"restaurant","name":"Καφενείον Γιασεμί","lat":40.62700271205112,"lng":22.950250188903894,"url":"https://maps.app.goo.gl/igCkYjicpsFhyKi79?g_st=ipc","address":"Τσόπελα 4, Θεσσαλονίκη 546 21","categoryIds":["greek-restaurants"],"categories":["Greek Restaurants"]},{"id":"greekRestaurants_13c994d14935","slug":"taverna-oyzeri-kosmas-13c9","kind":"restaurant","name":"Ταβέρνα - Ουζερί Κοσμάς","lat":40.635727203567235,"lng":22.94715477968318,"url":"https://maps.app.goo.gl/9edjcaLLqs3ZFkL47?g_st=ipc","address":"Πλάτωνος 15, Θεσσαλονίκη 546 31","categoryIds":["greek-restaurants"],"categories":["Greek Restaurants"]}],"nearby":[{"id":"dessertsRestaurants_9bbc0c355797","slug":"agapame-to-katsikisio-gala-9bbc","kind":"restaurant","name":"Αγαπάμε το κατσικίσιο γάλα","lat":40.63062994509152,"lng":22.947679865531065,"url":"https://maps.app.goo.gl/U3wBWwpBXDhPzkpc6?g_st=ipc","address":"P. Mela 28, Thessaloniki 546 22","categoryIds":["desserts"],"categories":["Dessert Shops"],"distanceKm":0.04714057927517642},{"id":"burgersRestaurants_6f8117fa6f13","slug":"brothers-in-law-6f81","kind":"restaurant","name":"Brothers in Law","lat":40.630770113023615,"lng":22.947666977943033,"url":"https://maps.app.goo.gl/oEwzze7SyKh5AJ3t9?g_st=ipc","address":"P. Mela 30, Thessaloniki 546 22","categoryIds":["burgers"],"categories":["Burger Spots"],"distanceKm":0.048365300750756776},{"id":"cheapEatsRestaurants_6c50423bab44","slug":"hot-pot-pasteria-city-center-6c50","kind":"restaurant","name":"Hot Pot Pasteria City Center","lat":40.63116120039778,"lng":22.946781922089382,"url":"https://maps.app.goo.gl/VGaiUJdvDDnid5Kk9?g_st=ipc","address":"Paleon Patron Germanou 12, Thessaloniki 546 22","categoryIds":["cheap-eats"],"categories":["Gyros & Cheap Eats"],"distanceKm":0.06494086034817186},{"id":"coffeeBrunchRestaurants_1b425a72f2b5","slug":"join-juice-bars-1b42","kind":"restaurant","name":"JOIN Juice bars","lat":40.63111893989398,"lng":22.94663938125253,"url":"https://maps.app.goo.gl/N6nKzENHvyunx5Mi6?g_st=ipc","address":"Paleon Patron Germanou 10, Thessaloniki 546 22","categoryIds":["coffee-brunch","vegetarian"],"categories":["Coffee & Brunch Spots","Vegetarian Friendly Restaurants"],"legacySlugs":["join-juice-bars-6dea"],"distanceKm":0.06727092489841038},{"id":"asianRestaurants_41c1b197a672","slug":"wen-zhou-specialties-41c1","kind":"restaurant","name":"Wen Zhou Specialties","lat":40.63090950249029,"lng":22.94800772208168,"url":"https://maps.app.goo.gl/6cq2gTB2UTEdBKux5?g_st=ipc","address":"Grigoriou Palama 16, Thessaloniki 546 22","categoryIds":["asian"],"categories":["Asian Restaurants"],"distanceKm":0.08070343887162905},{"id":"coffeeBrunchRestaurants_a1cebd140b7f","slug":"fluffy-brunch-a1ce","kind":"restaurant","name":"Fluffy Brunch","lat":40.630856001242115,"lng":22.948097521947723,"url":"https://maps.app.goo.gl/kPU1qrdrjXANCqMt7?g_st=ipc","address":"Pl. Navarinou 10, Thessaloniki 546 22","categoryIds":["coffee-brunch"],"categories":["Coffee & Brunch Spots"],"distanceKm":0.08590167570997342},{"id":"dessertsRestaurants_90fef645e082","slug":"fatto-a-mano-90fe","kind":"restaurant","name":"Fatto a Mano","lat":40.63009258953706,"lng":22.9479003155248,"url":"https://maps.app.goo.gl/nU8Tq4Vjr5TS7bBeA?g_st=ipc","address":"P. Mela 20, Thessaloniki 546 22","categoryIds":["desserts"],"categories":["Dessert Shops"],"distanceKm":0.08936787501322277},{"id":"coffeeBrunchRestaurants_f6927d333ac7","slug":"local-thessaloniki-f692","kind":"restaurant","name":"LOCAL Thessaloniki","lat":40.63143794324686,"lng":22.94699527001704,"url":"https://maps.app.goo.gl/RCLyEycZ8dqaLJjT6?g_st=ipc","address":"Paleon Patron Germanou 17, Thessaloniki 546 22","categoryIds":["coffee-brunch"],"categories":["Coffee & Brunch Spots"],"distanceKm":0.0896889074630519},{"id":"greekRestaurants_dd92d680950f","slug":"local-thessaloniki-dd92","kind":"restaurant","name":"LOCAL Thessaloniki","lat":40.631447319193505,"lng":22.946995352889463,"url":"https://maps.app.goo.gl/iMk8Tx82t81vQe5y5?g_st=ipc","address":"Παλαιών Πατρών Γερμανού 17, Θεσσαλονίκη 546 22","categoryIds":["greek-restaurants"],"categories":["Greek Restaurants"],"distanceKm":0.09072337023775785},{"id":"dessertsRestaurants_d0ca7ccef948","slug":"choureal-choux-profiterole-d0ca","kind":"restaurant","name":"Choureál | Choux & Profiterole","lat":40.63128497514692,"lng":22.94642870495605,"url":"https://maps.app.goo.gl/a3ZWXrDCAGuMcPwA6?g_st=ipc","address":"Paleon Patron Germanou 9, Thessaloniki 546 22","categoryIds":["desserts"],"categories":["Dessert Shops"],"distanceKm":0.09277397718531889},{"id":"coffeeBrunchRestaurants_59f3ca123c97","slug":"72h-artisanal-bakery-59f3","kind":"restaurant","name":"72H Artisanal Bakery","lat":40.630980814351275,"lng":22.946106919469365,"url":"https://maps.app.goo.gl/xY83zLTaRAhzVGBo8?g_st=ipc","address":"Paleon Patron Germanou 2, Thessaloniki 546 22","categoryIds":["coffee-brunch"],"categories":["Coffee & Brunch Spots"],"distanceKm":0.0937510795733932},{"id":"coffeeBrunchRestaurants_9cbeb6df46a2","slug":"mlrt-sourdough-microbakery-9cbe","kind":"restaurant","name":"MLRT Sourdough microbakery","lat":40.630290634546846,"lng":22.946095540648265,"url":"https://maps.app.goo.gl/Q2XyfbaALKZttmXn7?g_st=ipc","address":"Mitropolitou Iosif 15, Thessaloniki 546 22","categoryIds":["coffee-brunch"],"categories":["Coffee & Brunch Spots"],"distanceKm":0.09474812416685922},{"id":"coffeeBrunchRestaurants_203d902848ee","slug":"philia-thessaloniki-203d","kind":"restaurant","name":"Philia Thessaloniki","lat":40.63033915762918,"lng":22.94834718792844,"url":"https://maps.app.goo.gl/RLKeacGYRRwh2No58?g_st=ic","address":"Pl. Navarinou 5, Thessaloniki 546 22","categoryIds":["coffee-brunch"],"categories":["Coffee & Brunch Spots"],"distanceKm":0.10862209096234803},{"id":"italianRestaurants_cb2ae306e209","slug":"signora-trattoria-cb2a","kind":"restaurant","name":"Signora Trattoria","lat":40.63157039493222,"lng":22.94755320492566,"url":"https://maps.app.goo.gl/QzosxSTGJyN4yoBfA?g_st=ipc","address":"P. Mela 38, Paleon Patron Germanou 19, Thessaloniki 546 22","categoryIds":["italian"],"categories":["Italian Restaurants"],"distanceKm":0.10999685118014461},{"id":"coffeeBrunchRestaurants_e317c423742b","slug":"spoon-e317","kind":"restaurant","name":"Spoon","lat":40.631612141451626,"lng":22.94743751548318,"url":"https://maps.app.goo.gl/22Pm73g59e2LeoJQ7?g_st=ipc","address":"P. Mela 38, Thessaloniki 546 22","categoryIds":["coffee-brunch"],"categories":["Coffee & Brunch Spots"],"distanceKm":0.11166058389091231},{"id":"dessertsRestaurants_11a9a0429f5e","slug":"sugar-confectionery-11a9","kind":"restaurant","name":"Sugar Confectionery","lat":40.63028200470032,"lng":22.948376451004588,"url":"https://maps.app.goo.gl/ZJHSRbMxNSqCmdKCA?g_st=ipc","address":"Lordou Vironos 7, Thessaloniki 546 22","categoryIds":["desserts"],"categories":["Dessert Shops"],"distanceKm":0.11303622560442224},{"id":"vegetarianRestaurants_ae93f5705c93","slug":"mushroom-skg-ae93","kind":"restaurant","name":"mushroom skg","lat":40.63168703304935,"lng":22.946978697189547,"url":"https://maps.app.goo.gl/F7WJFJ3rEhib4fX86?g_st=ipc","address":"Zefxidos 10, Thessaloniki 546 22","categoryIds":["vegetarian"],"categories":["Vegetarian Friendly Restaurants"],"distanceKm":0.11737211495157293},{"id":"coffeeBrunchRestaurants_cbf12f48a77e","slug":"mandarini-skg-cbf1","kind":"restaurant","name":"Mandarini_skg","lat":40.63174083169372,"lng":22.946676387172698,"url":"https://maps.app.goo.gl/CEdKb7KcdrPJwXZdA?g_st=ipc","address":"Zefxidos 6, Thessaloniki 546 22","categoryIds":["coffee-brunch"],"categories":["Coffee & Brunch Spots"],"distanceKm":0.12835037933091362},{"id":"coffeeBrunchRestaurants_24b6a5a5bc93","slug":"brunchsin-24b6","kind":"restaurant","name":"Brunchsin","lat":40.63142362221095,"lng":22.94824040063862,"url":"https://maps.app.goo.gl/oQiMBEdPePBk3uAQ9?g_st=ipc","address":"Paleon Patron Germanou 26, Thessaloniki 546 22","categoryIds":["coffee-brunch"],"categories":["Coffee & Brunch Spots"],"distanceKm":0.12871679738569444},{"id":"dessertsRestaurants_af6c4ad80b58","slug":"senol-af6c","kind":"restaurant","name":"Senol","lat":40.631655999978115,"lng":22.9479848979778,"url":"https://maps.app.goo.gl/TQFwjdg19bCqCfpz8?g_st=ipc","address":"Paleon Patron Germanou 23, Thessaloniki 546 22","categoryIds":["desserts"],"categories":["Dessert Shops"],"distanceKm":0.13471521257915803},{"id":"coffeeBrunchRestaurants_d846b3398205","slug":"valenio-d846","kind":"restaurant","name":"Valenio","lat":40.63145586275098,"lng":22.945904864010572,"url":"https://maps.app.goo.gl/Haiqh54dCVYmVume9?g_st=ipc","address":"Iktinou 6, Thessaloniki 546 22","categoryIds":["coffee-brunch"],"categories":["Coffee & Brunch Spots"],"distanceKm":0.13721459433901773},{"id":"coffeeBrunchRestaurants_ad573219eedf","slug":"ergon-agora-ad57","kind":"restaurant","name":"ERGON Agora","lat":40.63187081672803,"lng":22.94735121723834,"url":"https://maps.app.goo.gl/ozYptsUfXEMA3PdNA?g_st=ipc","address":"P. Mela 42, Thessaloniki 546 22","categoryIds":["coffee-brunch"],"categories":["Coffee & Brunch Spots"],"distanceKm":0.13855398168757307},{"id":"burgersRestaurants_9cd59af7183c","slug":"mpiftekadiko-kyr-giorgis-9cd5","kind":"restaurant","name":"Μπιφτεκάδικο Κυρ Γιώργης","lat":40.63182341170209,"lng":22.946558572416308,"url":"https://maps.app.goo.gl/us6tkdjDeYvzDx2u6?g_st=ipc","address":"Zefxidos 4, Thessaloniki 546 22","categoryIds":["burgers"],"categories":["Burger Spots"],"distanceKm":0.14020562996457644},{"id":"cheapEatsRestaurants_abf9ebdbbc06","slug":"taco-mazama-californian-style-mexican-street-food-abf9","kind":"restaurant","name":"Taco Mazama (Californian Style Mexican Street Food)","lat":40.63149354851285,"lng":22.94839774432504,"url":"https://maps.app.goo.gl/zE2aLejbpEyQpDvq8?g_st=ipc","address":"Paleon Patron Germanou 28, Thessaloniki 546 22","categoryIds":["cheap-eats","mexican"],"categories":["Gyros & Cheap Eats","Mexican Restaurants"],"legacySlugs":["taco-mazama-californian-style-mexican-street-food-77e6"],"distanceKm":0.14378012010598834}],"sameRegion":[],"mentionedGuides":[],"canonicalSlug":"rogkoti-1928-90c5","isCanonicalEntity":true,"enrichment":{"summary_en":"Ρογκότη 1928 is a curated restaurant in Thessaloniki 546 22 in the Greek Restaurants collection. It is connected to 160 nearby Googlementor picks to help travelers build a stronger local route.","summary_el":"Ρογκότη 1928 είναι ένα επιλεγμένο σημείο φαγητού στην περιοχή Thessaloniki 546 22 και ανήκει στη συλλογή Greek Restaurants. Συνδέεται με 160 κοντινές προτάσεις του Googlementor για πιο ολοκληρωμένη εμπειρία.","vibe_tags":["curated"],"best_for":["first-time visitors","food lovers"],"visit_moments":["lunch stop","dinner stop"],"practical_note":"Address and direct map link are available for easy turn-by-turn access.","nearby_walkable_count":160,"nearby_count_2km":266,"confidence":0.98}},"__N_SSG":true}