{"pageProps":{"entity":{"id":"dessertsRestaurants_fd20de94e53a","slug":"special-patisserie-fd20","kind":"restaurant","name":"Special patisserie","lat":37.969012654644324,"lng":23.710612606423226,"url":"https://maps.app.goo.gl/PFQQ6yh6H3RcJ4dD6?g_st=ipc","address":"Τριών Ιεραρχών 124, Αθήνα 118 52","categoryIds":["desserts"],"categories":["Dessert Shops"]},"sameCategory":[{"id":"coffeeBrunchRestaurants_f2909cf2cf63","slug":"fresko-yogurt-bar-f290","kind":"restaurant","name":"Fresko Yogurt Bar","lat":37.97293031928317,"lng":23.72030106020887,"url":"https://maps.app.goo.gl/i3qPMdgczqaXz45r8?g_st=ipc","address":"Ιουλίου Σμιθ 2, Αθήνα 118 51","categoryIds":["coffee-brunch","desserts"],"categories":["Coffee & Brunch Spots","Dessert Shops"],"legacySlugs":["fresko-yogurt-bar-7bd0"]},{"id":"coffeeBrunchRestaurants_d3ad015b2f14","slug":"candycat-d3ad","kind":"restaurant","name":"CandyCat","lat":37.9775897353217,"lng":23.712604313955598,"url":"https://maps.app.goo.gl/bi9guRdYDSpWYmxn9?g_st=ipc","address":"Περσεφόνης 23, Αθήνα 118 54","categoryIds":["coffee-brunch","desserts"],"categories":["Coffee & Brunch Spots","Dessert Shops"],"legacySlugs":["candycat-50a1"]},{"id":"dessertsRestaurants_565a86e193ac","slug":"loukoumania-koukaki-565a","kind":"restaurant","name":"Loukoumania Koukaki","lat":37.96292938267619,"lng":23.721586647006472,"url":"https://maps.app.goo.gl/ZLLgE9gFjGjPVqBp7?g_st=ipc","address":"Δημητρακοπούλου 102, Αθήνα 117 41","categoryIds":["desserts"],"categories":["Dessert Shops"]},{"id":"dessertsRestaurants_f792b1129076","slug":"flour-of-youth-f792","kind":"restaurant","name":"Flour Of Youth","lat":37.96404409092071,"lng":23.722471600259,"url":"https://maps.app.goo.gl/FibffjzNDReT3bDx7?g_st=ipc","address":"Βεΐκου 91, Αθήνα 117 41","categoryIds":["desserts"],"categories":["Dessert Shops"]},{"id":"dessertsRestaurants_b3f00cec9209","slug":"dolce-far-niente-ice-cream-b3f0","kind":"restaurant","name":"Dolce Far Niente ice cream","lat":37.967030991920694,"lng":23.725035602938313,"url":"https://maps.app.goo.gl/YaopPeigqjaCn38A6?g_st=ipc","address":"Τσάμη Καρατάσου 26, Αθήνα 117 42","categoryIds":["desserts"],"categories":["Dessert Shops"]},{"id":"dessertsRestaurants_0bd680afbb5e","slug":"zacharoplasteio-profiterol-dimopoylos-kallithea-0bd6","kind":"restaurant","name":"Ζαχαροπλαστείο Προφιτερόλ Δημόπουλος Καλλιθέα","lat":37.95693778495156,"lng":23.709710879410338,"url":"https://maps.app.goo.gl/t1RvynY9vJegnu6i6?g_st=ipc","address":"Αγ. Πάντων 46, Καλλιθέα 176 71","categoryIds":["desserts"],"categories":["Dessert Shops"]},{"id":"dessertsRestaurants_7b2e78fd0a01","slug":"gelato-di-nonna-athens-7b2e","kind":"restaurant","name":"Gelato di nonna athens","lat":37.97720359295253,"lng":23.7219062023344,"url":"https://maps.app.goo.gl/bwiTBxSxMuZzG31X9?g_st=ipc","address":"Ερμού 129, Αθήνα 105 55","categoryIds":["desserts"],"categories":["Dessert Shops"]},{"id":"dessertsRestaurants_09255d7a464f","slug":"gellissimo-biscoto-athens-0925","kind":"restaurant","name":"Gellissimo Biscoto Athens","lat":37.976849802530815,"lng":23.72255119140275,"url":"https://maps.app.goo.gl/bhDcxgYzcsmRG16T9?g_st=ipc","address":"Άστιγγος 11, Αθήνα 105 55","categoryIds":["desserts"],"categories":["Dessert Shops"]},{"id":"coffeeBrunchRestaurants_fb26a559a60b","slug":"fairytale-athens-cafe-suites-fb26","kind":"restaurant","name":"Fairytale Athens Café & Suites","lat":37.97805432206773,"lng":23.72175598680767,"url":"https://maps.app.goo.gl/4J2S3rbDjHuSFWW98?g_st=ipc","address":"Λεωκορίου 16, Αθήνα 105 54","categoryIds":["coffee-brunch","desserts"],"categories":["Coffee & Brunch Spots","Dessert Shops"],"legacySlugs":["fairytale-athens-cafe-suites-e14a"]},{"id":"dessertsRestaurants_2d2fecfa00e3","slug":"mona-lisa-l-atelier-del-gelato-athens-2d2f","kind":"restaurant","name":"Mona Lisa L' Atelier Del Gelato | Athens","lat":37.9757494300935,"lng":23.72490107398961,"url":"https://maps.app.goo.gl/rBV4LZwssuXLxfZU8?g_st=ipc","address":"Αδριανού 48, Αθήνα 105 55","categoryIds":["desserts"],"categories":["Dessert Shops"]},{"id":"dessertsRestaurants_225c3d4d20c4","slug":"lartecono-davinci-gelato-monastiraki-225c","kind":"restaurant","name":"Lartecono Davinci Gelato (Monastiraki)","lat":37.97572321950476,"lng":23.72502143325919,"url":"https://maps.app.goo.gl/oGqQ5yg8faLuCoD76?g_st=ipc","address":"Αδριανού 50, Αθήνα 105 55","categoryIds":["desserts"],"categories":["Dessert Shops"]},{"id":"dessertsRestaurants_2a3970a71069","slug":"django-gelato-athens-2a39","kind":"restaurant","name":"Django Gelato Athens","lat":37.96685228149483,"lng":23.72787408682893,"url":"https://maps.app.goo.gl/uXMPHW7X8YEMKDvp9?g_st=ipc","address":"Βεΐκου 15, Αθήνα 117 42","categoryIds":["desserts"],"categories":["Dessert Shops"]}],"nearby":[{"id":"greekRestaurants_e0b933397cc1","slug":"santorinios-e0b9","kind":"restaurant","name":"Σαντορινιός","lat":37.968255056831595,"lng":23.70991359071036,"url":"https://maps.app.goo.gl/HqX9azMMvY9pEhnN6","address":"118 52, Δωριέων 8, Αθήνα 118 52","categoryIds":["greek-restaurants"],"categories":["Greek Restaurants"],"distanceKm":0.10416951401921215},{"id":"greekRestaurants_3bad5c31fe5b","slug":"kappari-3bad","kind":"restaurant","name":"Κάππαρη","lat":37.967385035347,"lng":23.71216312954278,"url":"https://maps.app.goo.gl/3JxpXTF4ssEgfTEA9?g_st=ipc","address":"Dorieon 36, Athina 118 51","categoryIds":["greek-restaurants"],"categories":["Greek Restaurants"],"distanceKm":0.22633849475147827},{"id":"coffeeBrunchRestaurants_ae05cdf60e88","slug":"adad-books-cafe-ae05","kind":"restaurant","name":"Adad Books & Café","lat":37.96743015453438,"lng":23.712567122435633,"url":"https://maps.app.goo.gl/5eeqssWqrJZXeHGk6?g_st=ipc","address":"Ανταίου 1, Αθήνα 118 52","categoryIds":["coffee-brunch"],"categories":["Coffee & Brunch Spots"],"distanceKm":0.24560025690647486},{"id":"greekRestaurants_3d9881c33aea","slug":"oikonomoy-estiatorio-ap-to-1930-3d98","kind":"restaurant","name":"Οικονόμου Εστιατόριο (απ'το 1930)","lat":37.9698630124268,"lng":23.71322106212657,"url":"https://maps.app.goo.gl/w5wA7gPwxSUbGq4m6","address":"Κυδαντίδων 32, Αθήνα 118 51","categoryIds":["greek-restaurants"],"categories":["Greek Restaurants"],"distanceKm":0.24743490425994538},{"id":"cheapEatsRestaurants_1f6ebf17e5fc","slug":"pita-status-1f6e","kind":"restaurant","name":"Pita Status","lat":37.96762299813557,"lng":23.71283351407897,"url":"https://maps.app.goo.gl/QzPB3fhcnsDGCLfk8?g_st=ipc","address":"Καλλισθένους 82, Αθήνα 118 52","categoryIds":["cheap-eats"],"categories":["Gyros & Cheap Eats"],"distanceKm":0.24855581239094526},{"id":"greekRestaurants_f4bfdaeebedd","slug":"karderina-f4bf","kind":"restaurant","name":"Καρδερίνα","lat":37.96886028012467,"lng":23.713545491142042,"url":"https://maps.app.goo.gl/JZ7NHd5aYDr2jXELA","address":"Καλλισθένους 67, Αθήνα 118 52","categoryIds":["greek-restaurants"],"categories":["Greek Restaurants"],"distanceKm":0.2576540792390503},{"id":"burgersRestaurants_0329702a3adc","slug":"hankypanky-0329","kind":"restaurant","name":"HankyPanky","lat":37.967400114692225,"lng":23.71303845092353,"url":"https://maps.app.goo.gl/nQP3ShaVnqxgTCSC7?g_st=ipc","address":"Δεινοχαρους 1, Αθήνα 118 52","categoryIds":["burgers"],"categories":["Burger Spots"],"distanceKm":0.27815706778363275},{"id":"luxuryDiningRestaurants_b29116d56a30","slug":"herve-restaurant-b291","kind":"restaurant","name":"Herve Restaurant","lat":37.96670241575443,"lng":23.709370285349806,"url":"https://maps.app.goo.gl/o5KA9u8fZnaZ9XMY6?g_st=ipc","address":"Τριών Ιεραρχών 170, Αθήνα 118 52","categoryIds":["luxury-dining"],"categories":["Luxury Dining"],"distanceKm":0.2790175415431645},{"id":"municipalities_80c55a9453fa","slug":"ano-petralona-80c5","kind":"municipality","name":"Άνω Πετράλωνα","lat":37.9689,"lng":23.7139,"aliases":["Ανω Πετραλωνα"],"region":"Κέντρο Αθήνας","name_en":"Ano Petralona","region_en":"Athens Center","distanceKm":0.2884446486454363},{"id":"greekRestaurants_f1eb108e1b22","slug":"taverna-t-aschimopapo-f1eb","kind":"restaurant","name":"Ταβέρνα Τ' Ασχημόπαπο","lat":37.96881098076761,"lng":23.714190146946947,"url":"https://maps.app.goo.gl/dNg85MBr8ViicbBL6","address":"Ιώνων 61, Αθήνα 118 51","categoryIds":["greek-restaurants"],"categories":["Greek Restaurants"],"distanceKm":0.314407706424277},{"id":"municipalities_0889636ab7df","slug":"petralona-0889","kind":"municipality","name":"Πετράλωνα","lat":37.9656,"lng":23.7108,"region":"Κέντρο Αθήνας","name_en":"Petralona","region_en":"Athens Center","distanceKm":0.37982528494503215},{"id":"cheapEatsRestaurants_69740415da3d","slug":"best-taste-6974","kind":"restaurant","name":"Best Taste","lat":37.96738306337228,"lng":23.70591216193093,"url":"https://maps.app.goo.gl/kwZdwHs4BAKbQ5T69?g_st=ipc","address":"Αθηνοδώρου 23, Αθήνα 118 53","categoryIds":["cheap-eats"],"categories":["Gyros & Cheap Eats"],"distanceKm":0.4501278195332771},{"id":"greekRestaurants_c751a3d5b17d","slug":"koyvelos-c751","kind":"restaurant","name":"Κουβελος","lat":37.96561446275287,"lng":23.714982571965468,"url":"https://maps.app.goo.gl/FmVVezpy5Uwrec5e9","address":"Γενναίου Κολοκοτρώνη 66, Αθήνα 117 41","categoryIds":["greek-restaurants"],"categories":["Greek Restaurants"],"distanceKm":0.5380791260031017},{"id":"fishTavernasRestaurants_edc276d1ee37","slug":"papalina-edc2","kind":"restaurant","name":"Παπαλίνα","lat":37.96476188274757,"lng":23.713898599739846,"url":"https://maps.app.goo.gl/JpVSQDpzvzWZWivJ9?g_st=ipc","address":"Πραμάντων 20, Αθήνα 117 41","categoryIds":["fish-tavernas"],"categories":["Fish Tavernas"],"distanceKm":0.5535240352768653},{"id":"fishTavernasRestaurants_29b7a2cb7567","slug":"parkbench-29b7","kind":"restaurant","name":"PARKBENCH","lat":37.96471554544835,"lng":23.714402162518947,"url":"https://maps.app.goo.gl/ZwWcfuMochSRxPUk8?g_st=ipc","address":"Πραμάντων 10, Αθήνα 117 41","categoryIds":["fish-tavernas"],"categories":["Fish Tavernas"],"distanceKm":0.581950742471459},{"id":"italianRestaurants_a131f0639f33","slug":"trattoria-italia-d-onofrio-a131","kind":"restaurant","name":"Trattoria Italia D'onofrio","lat":37.96439892270411,"lng":23.71376404461326,"url":"https://maps.app.goo.gl/QybTqvRE6JzNcqyYA?g_st=ipc","address":"Βαρνουντος 6, Αθήνα 117 41","categoryIds":["italian"],"categories":["Italian Restaurants"],"distanceKm":0.582678751356988},{"id":"fishTavernasRestaurants_18abd934868c","slug":"to-palio-podilato-18ab","kind":"restaurant","name":"Το Παλιό Ποδήλατο","lat":37.97490750365618,"lng":23.706970638600303,"url":"https://maps.app.goo.gl/gCMLdURmK8mriaGKA?g_st=ipc","address":"Ανδρονίκου 11, Αθήνα 118 54","categoryIds":["fish-tavernas"],"categories":["Fish Tavernas"],"distanceKm":0.7290854265766483},{"id":"asianRestaurants_674b8df64d5a","slug":"ceci-hong-kong-hot-pot-restaurant-674b","kind":"restaurant","name":"Ceci Hong Kong Hot Pot Restaurant","lat":37.96299269251651,"lng":23.714788342397448,"url":"https://maps.app.goo.gl/qSsZbhQeQPjLVDck8?g_st=ipc","address":"Λεωφ. Ελ. Βενιζέλου 14, Αθήνα 176 76","categoryIds":["asian"],"categories":["Asian Restaurants"],"distanceKm":0.7629425415038228},{"id":"familyFriendly_a550b3686c2d","slug":"ethniko-asteroskopeio-athinon-kentro-episkepton-thiseioy-a550","kind":"restaurant","name":"Εθνικό Αστεροσκοπείο Αθηνών - Κέντρο Επισκεπτών Θησείου","lat":37.97274718818258,"lng":23.717946612728728,"url":"https://maps.app.goo.gl/hbZeHeJkN4GXh5tc6?g_st=ipc","address":"Λόφος Νυμφών Θησείο, ΤΘ 20048, Αθήνα 118 10","categoryIds":["family-friendly","attractions"],"categories":["Kid Friendly Locations","Must-See Attractions"],"legacySlugs":["ethniko-asteroskopeio-athinon-kentro-episkepton-thiseioy-26d3"],"distanceKm":0.7653353147636793},{"id":"coffeeBrunchRestaurants_7d6f8bb1e944","slug":"cat-cafe-athens-7-pers-allowed-age-14-7d6f","kind":"restaurant","name":"Cat Cafe Athens (7€/pers, Allowed Age 14+)","lat":37.97535368517015,"lng":23.71475955469486,"url":"https://maps.app.goo.gl/QcdxYRurM98VpWWX7?g_st=ipc","address":"Νηλέως 54, Αθήνα 118 51","categoryIds":["coffee-brunch"],"categories":["Coffee & Brunch Spots"],"distanceKm":0.7932769935138558},{"id":"cheapEatsRestaurants_ed7bd1fc7e39","slug":"mirlo-kebabs-ed7b","kind":"restaurant","name":"mirlo kebabs","lat":37.976362795934286,"lng":23.71060804281136,"url":"https://maps.app.goo.gl/rT5pzNjpc9bM7HzT9?g_st=ipc","address":"Ελασιδών 5A, Αθήνα 118 54","categoryIds":["cheap-eats"],"categories":["Gyros & Cheap Eats"],"distanceKm":0.8172985194602833},{"id":"coffeeBrunchRestaurants_85d40f2fead5","slug":"koyl-athens-koul-athens-85d4","kind":"restaurant","name":"Κούλ Άθενς (Koul Athens)","lat":37.962653742021914,"lng":23.705449559299996,"url":"https://maps.app.goo.gl/nrAGHFNRzBKSDpfL9?g_st=ipc","address":"P. Tsaldari 129, Kallithea 176 76","categoryIds":["coffee-brunch"],"categories":["Coffee & Brunch Spots"],"distanceKm":0.8395340816706396},{"id":"monasteriesChurches_ff4d16b5f0b9","slug":"agios-dimitrios-loympardiaris-ff4d","kind":"restaurant","name":"Άγιος Δημήτριος Λουμπαρδιάρης","lat":37.97006358405725,"lng":23.72028596273088,"url":"https://maps.app.goo.gl/Fzr51bKUwjAtydxA7?g_st=ipc","address":"Αθήνα 117 41","categoryIds":["monasteries-churches"],"categories":["Monasteries & Spiritual Sites"],"distanceKm":0.8559727906852649},{"id":"mustSeeAttractions_6f694258a5ea","slug":"thiseio-6f69","kind":"restaurant","name":"Θησείο","lat":37.97501242037082,"lng":23.717080869886306,"url":"https://maps.app.goo.gl/i7GUzZ6ceEZCukDC6?g_st=ipc","address":"Αθήνα 118 51","categoryIds":["attractions"],"categories":["Must-See Attractions"],"distanceKm":0.8755288889294761}],"sameRegion":[],"mentionedGuides":[],"canonicalSlug":"special-patisserie-fd20","isCanonicalEntity":true,"enrichment":{"summary_en":"Special patisserie is a curated restaurant in Αθήνα 118 52 in the Dessert Shops collection. It is connected to 20 nearby Googlementor picks to help travelers build a stronger local route.","summary_el":"Special patisserie είναι ένα επιλεγμένο σημείο φαγητού στην περιοχή Αθήνα 118 52 και ανήκει στη συλλογή Dessert Shops. Συνδέεται με 20 κοντινές προτάσεις του Googlementor για πιο ολοκληρωμένη εμπειρία.","vibe_tags":["curated","sweet-stop"],"best_for":["first-time visitors","food lovers"],"visit_moments":["afternoon break","after dinner"],"practical_note":"Address and direct map link are available for easy turn-by-turn access.","nearby_walkable_count":20,"nearby_count_2km":392,"confidence":0.98}},"__N_SSG":true}