{"pageProps":{"payload":{"area":{"id":"municipalities_5c4c490c8c5a","name":"Γαλάτσι","nameEn":"Galatsi","region":"Βόρεια Προάστια","regionEn":"Northern Suburbs","lat":38.0167,"lng":23.75,"urlSlug":"galatsi","aliases":["Γαλάτσι","Galatsi","Γαλάτσι Northern Suburbs","Galatsi Northern Suburbs","Galatsia","Γαλατσι","Galatsion","galatsi-5c4c","galatsi"]},"category":null,"entities":[{"entity":{"id":"dessertsRestaurants_9a1aa3339c46","slug":"eva-9a1a","kind":"restaurant","name":"Eva","lat":38.015131929032286,"lng":23.750456340002337,"url":"https://maps.app.goo.gl/GBYXZRmRKUPq81F8A?g_st=ic","address":"Karaiskaki 16, Galatsi 111 46","categoryIds":["desserts"],"categories":["Dessert Shops"]},"distanceKm":0.1788857582141054},{"entity":{"id":"greekRestaurants_fa7cc6bab7be","slug":"lefkes-on-the-side-fa7c","kind":"restaurant","name":"Lefkes on the Side","lat":38.013850196604025,"lng":23.75041166079297,"url":"https://maps.app.goo.gl/bBjijsL8Z595BXhZ7","address":"Λεωφ. Γαλατσίου 98, Γαλάτσι 111 46","categoryIds":["greek-restaurants"],"categories":["Greek Restaurants"]},"distanceKm":0.3189291959315529},{"entity":{"id":"greekRestaurants_24b930305a8e","slug":"leykes-24b9","kind":"restaurant","name":"Λεύκες","lat":38.01369593012145,"lng":23.750720348183243,"url":"https://maps.app.goo.gl/f11Mf8a6b4eezgj29","address":"Λεωφ. Γαλατσίου 100, Γαλάτσι 111 46","categoryIds":["greek-restaurants"],"categories":["Greek Restaurants"]},"distanceKm":0.3399460027278559},{"entity":{"id":"dessertsRestaurants_3c1566b87f0f","slug":"galaktopoleio-stamoy-galatsi-attikis-3c15","kind":"restaurant","name":"Γαλακτοπωλείο ΣΤΑΜΟΥ, Γαλάτσι Αττικής","lat":38.01421938915903,"lng":23.75342305374386,"url":"https://maps.app.goo.gl/n8JWXhCzyJJxjNQv5?g_st=ipc","address":"Λεωφ. Βεΐκου 9, Γαλάτσι 111 46","categoryIds":["desserts"],"categories":["Dessert Shops"]},"distanceKm":0.4074402138895029},{"entity":{"id":"asianRestaurants_f4e606aad25d","slug":"shisan-sushi-bar-f4e6","kind":"restaurant","name":"Shisan Sushi Bar","lat":38.01364374248811,"lng":23.753228892987114,"url":"https://maps.app.goo.gl/3ZyGn2FKaLUXuMuJ9?g_st=ipc","address":"Λεωφ. Βεΐκου 7, Γαλάτσι 111 46","categoryIds":["asian"],"categories":["Asian Restaurants"]},"distanceKm":0.44215910895419336},{"entity":{"id":"burgersRestaurants_23a9c50becc9","slug":"serial-grillers-23a9","kind":"restaurant","name":"Serial Grillers","lat":38.01971897283902,"lng":23.753398114124796,"url":"https://maps.app.goo.gl/nhc6uHCi6xq6oZKL7?g_st=ipc","address":"Τράλλεων 130, Γαλάτσι 111 46","categoryIds":["burgers"],"categories":["Burger Spots"]},"distanceKm":0.44866820066941454},{"entity":{"id":"monasteriesChurches_7d585aed6cfa","slug":"ieros-naos-koimiseos-tis-theotokoy-panagitsa-7d58","kind":"restaurant","name":"Ιερός Ναός Κοιμήσεως της Θεοτόκου (Παναγίτσα)","lat":38.01727711784317,"lng":23.744778782538283,"url":"https://maps.app.goo.gl/RDMFUG49GBgqceAu8?g_st=ipc","address":"Ανδρεόπουλου 2, Αθήνα 111 41","categoryIds":["monasteries-churches"],"categories":["Monasteries & Spiritual Sites"]},"distanceKm":0.4618714851568054},{"entity":{"id":"fishTavernasRestaurants_8be01291d057","slug":"steki-psarofagadon-8be0","kind":"restaurant","name":"ΣΤΕΚΙ ΨΑΡΟΦΑΓΑΔΩΝ","lat":38.0206189578116,"lng":23.753464770079276,"url":"https://maps.app.goo.gl/z4bfrFA8WgPgak7Q6?g_st=ipc","address":"Παπαφλέσσα 36, Γαλάτσι 111 46","categoryIds":["fish-tavernas"],"categories":["Fish Tavernas"]},"distanceKm":0.5310514645528124},{"entity":{"id":"greekRestaurants_0c72524c082e","slug":"gia-des-gkarnten-0c72","kind":"restaurant","name":"Για Δες Γκάρντεν","lat":38.02025659339306,"lng":23.745905469042288,"url":"https://maps.app.goo.gl/aLm6k1HqkUoU9PxE8","address":"Χαλεπά 68, Αθήνα 111 41","categoryIds":["greek-restaurants"],"categories":["Greek Restaurants"]},"distanceKm":0.533905126619414},{"entity":{"id":"coffeeBrunchRestaurants_a919b680f3b5","slug":"48-a919","kind":"restaurant","name":"48","lat":38.018274408105384,"lng":23.755916271922057,"url":"https://maps.app.goo.gl/PcD6G1TEsbi1swU57?g_st=ipc","address":"Λεωφ. Βεΐκου 48, Γαλάτσι 111 47","categoryIds":["coffee-brunch"],"categories":["Coffee & Brunch Spots"]},"distanceKm":0.5470455812270646},{"entity":{"id":"dessertsRestaurants_903707df6326","slug":"papliber-9037","kind":"restaurant","name":"PapLiber","lat":38.021403205203185,"lng":23.74592719548837,"url":"https://maps.app.goo.gl/3KG3eWHdUB7oyaGD7?g_st=ipc","address":"Γεωργούλια Αγησιλάου 10, Αθήνα 111 42","categoryIds":["desserts"],"categories":["Dessert Shops"]},"distanceKm":0.6330803201668453},{"entity":{"id":"familyFriendly_acd0cfc71ead","slug":"o-lofos-toy-paidioy-acd0","kind":"restaurant","name":"Ο Λόφος του παιδιού","lat":38.01260579188783,"lng":23.744735148228322,"url":"https://maps.app.goo.gl/FRgTyn4QAqJnFsYb8?g_st=ic","address":"Δρίσκου, Passov &, Galatsi 111 46","categoryIds":["family-friendly"],"categories":["Kid Friendly Locations"]},"distanceKm":0.6480658336396633},{"entity":{"id":"dessertsRestaurants_6128b9a38565","slug":"zante-6128","kind":"restaurant","name":"Zante","lat":38.01329808317404,"lng":23.75625779357789,"url":"https://maps.app.goo.gl/vdA9XUPFa7M3vbdi7?g_st=ipc","address":"Ελ. Βενιζέλου 21, Γαλάτσι 111 47","categoryIds":["desserts"],"categories":["Dessert Shops"]},"distanceKm":0.6660558387532225},{"entity":{"id":"cheapEatsRestaurants_cbf0a0d9c1b3","slug":"lamprinaki-cbf0","kind":"restaurant","name":"Λαμπρινάκι","lat":38.0224148920344,"lng":23.747555518536878,"url":"https://maps.app.goo.gl/M5T9Z6KajRqpaNBA7?g_st=ipc","address":"Τράλλεων 67, Αθήνα 111 42","categoryIds":["cheap-eats"],"categories":["Gyros & Cheap Eats"]},"distanceKm":0.6705760061879042},{"entity":{"id":"coffeeBrunchRestaurants_5b95e5db288d","slug":"slow-athens-5b95","kind":"restaurant","name":"Slow Athens","lat":38.02276964076481,"lng":23.750109220953814,"url":"https://maps.app.goo.gl/1iFxkjwZn9gN56m89?g_st=ipc","address":"Αγίου Σπυρίδωνος 18, Γαλάτσι 111 46","categoryIds":["coffee-brunch"],"categories":["Coffee & Brunch Spots"]},"distanceKm":0.6749810725400981},{"entity":{"id":"italianRestaurants_c18420cfda0e","slug":"pizzamore-c184","kind":"restaurant","name":"Pizzamore","lat":38.01171283477954,"lng":23.755383909223237,"url":"https://maps.app.goo.gl/kYHyarXW2TAM2VEr9?g_st=ipc","address":"Πρωτοπαπαδάκη 20, Γαλάτσι 111 47","categoryIds":["italian"],"categories":["Italian Restaurants"]},"distanceKm":0.7280025681769803},{"entity":{"id":"cheapEatsRestaurants_a39f2b17c80c","slug":"i-vasiliki-psitopoleio-soyvlakopoleio-a39f","kind":"restaurant","name":"Η Βασιλική - Ψητοπωλείο Σουβλακοπωλείο","lat":38.01712717421362,"lng":23.740908436131292,"url":"https://maps.app.goo.gl/5zkEPJhoVXLaVYeF7?g_st=ipc","address":"Μαρκορά 25, Αθήνα 111 41","categoryIds":["cheap-eats"],"categories":["Gyros & Cheap Eats"]},"distanceKm":0.7978596701026156},{"entity":{"id":"cheapEatsRestaurants_7b6d49968714","slug":"nikos-o-kalavrytinos-7b6d","kind":"restaurant","name":"Νίκος ο Καλαβρυτινός","lat":38.024001161887576,"lng":23.75301292455858,"url":"https://maps.app.goo.gl/cmE54PPQGsdzvzgz5?g_st=ipc","address":"Εκάβης 63, Γαλάτσι 111 46","categoryIds":["cheap-eats"],"categories":["Gyros & Cheap Eats"]},"distanceKm":0.8536754124021433},{"entity":{"id":"italianRestaurants_9807c76fa027","slug":"kamikaze-9807","kind":"restaurant","name":"KAMIKAZE","lat":38.0243124367211,"lng":23.753568534514113,"url":"https://maps.app.goo.gl/nGW44VsbXXjFk6eF7?g_st=ipc","address":"Ναρκίσσου 34-36, Γαλάτσι 111 46","categoryIds":["italian"],"categories":["Italian Restaurants"]},"distanceKm":0.9023408977119303},{"entity":{"id":"fishTavernasRestaurants_b281006b20df","slug":"kafeneio-oyzeri-lesvion-b281","kind":"restaurant","name":"Καφενείο Ουζερί Λέσβιον","lat":38.008048120056024,"lng":23.753608668653317,"url":"https://maps.app.goo.gl/RoRVKdrKmqxNRkrs5?g_st=ipc","address":"Βαρδουσίων 3, Γαλάτσι 111 47","categoryIds":["fish-tavernas"],"categories":["Fish Tavernas"]},"distanceKm":1.012660169110958},{"entity":{"id":"greekRestaurants_2f6996caca4e","slug":"spyros-antonis-2f69","kind":"restaurant","name":"Σπύρος-Αντώνης","lat":38.01866922800358,"lng":23.738404062129728,"url":"https://maps.app.goo.gl/9kB2f5FdE7NhgyEF7","address":"Γαβριηλίδου 24, Αθήνα 111 41","categoryIds":["greek-restaurants"],"categories":["Greek Restaurants"]},"distanceKm":1.0391555883847032},{"entity":{"id":"greekRestaurants_f3b2aad713df","slug":"to-ampari-toy-pentara-f3b2","kind":"restaurant","name":"Το Αμπάρι του Πεντάρα","lat":38.007341170588916,"lng":23.749681397448036,"url":"https://maps.app.goo.gl/ocPNHJergJqkbxW6A","address":"Καυκάσου 157, Αθήνα 113 64","categoryIds":["greek-restaurants"],"categories":["Greek Restaurants"]},"distanceKm":1.0410286118495278},{"entity":{"id":"greekRestaurants_1c33d3a3b85a","slug":"i-voskopoyla-1c33","kind":"restaurant","name":"Η Βοσκοπούλα","lat":38.026845200131646,"lng":23.747963927790185,"url":"https://maps.app.goo.gl/hpb1BhW8cddVUadJA","address":"Σιβόρων 87, Αθήνα 111 42","categoryIds":["greek-restaurants"],"categories":["Greek Restaurants"]},"distanceKm":1.1421067221399412},{"entity":{"id":"greekRestaurants_7e2e5838aa91","slug":"arolithos-7e2e","kind":"restaurant","name":"Αρόλιθος","lat":38.022714668636375,"lng":23.738679463378304,"url":"https://maps.app.goo.gl/kNua9KhyTtnEhKVV9","address":"Αγίας Λαύρας 70, Αθήνα 111 41","categoryIds":["greek-restaurants"],"categories":["Greek Restaurants"]},"distanceKm":1.196120651886181},{"entity":{"id":"dessertsRestaurants_f22485b9778b","slug":"chara-f224","kind":"restaurant","name":"Χαρά","lat":38.02112078219093,"lng":23.735510538796248,"url":"https://maps.app.goo.gl/xbCzjtuywVhjf9c59?g_st=ipc","address":"Πατησίων 339, Αθήνα 111 44","categoryIds":["desserts"],"categories":["Dessert Shops"]},"distanceKm":1.3611430995593796},{"entity":{"id":"dessertsRestaurants_b21d96062bcb","slug":"pap-liber-patisia-b21d","kind":"restaurant","name":"Pap-Liber (Πατήσια)","lat":38.01877416845803,"lng":23.734552478722144,"url":"https://maps.app.goo.gl/fgNMoYsGZV8mdkn37?g_st=ipc","address":"Ιακωβίδου 10 &, Τσίλλερ, Αθήνα 111 44","categoryIds":["desserts"],"categories":["Dessert Shops"]},"distanceKm":1.3727411816241786},{"entity":{"id":"cheapEatsRestaurants_204d68c7c535","slug":"to-ariston-204d","kind":"restaurant","name":"ΤΟ ΑΡΙΣΤΟΝ","lat":38.022955608499146,"lng":23.735820169983455,"url":"https://maps.app.goo.gl/TRT4ewxJ6pQL8ffBA?g_st=ipc","address":"Πατησίων 349, Αθήνα 111 44","categoryIds":["cheap-eats"],"categories":["Gyros & Cheap Eats"]},"distanceKm":1.423643506873034},{"entity":{"id":"cheapEatsRestaurants_4b2392e8f1da","slug":"peirasmos-4b23","kind":"restaurant","name":"ΠΕΙΡΑΣΜΟΣ","lat":38.00274661999109,"lng":23.744683791776005,"url":"https://maps.app.goo.gl/wXj4gGBY4uF6K2yW8?g_st=ipc","address":"Βελβενδού 20, Αθήνα 113 63","categoryIds":["cheap-eats"],"categories":["Gyros & Cheap Eats"]},"distanceKm":1.6199456127920249},{"entity":{"id":"cheapEatsRestaurants_3855239555fb","slug":"oi-meraklides-3855","kind":"restaurant","name":"Οι Μερακλήδες","lat":38.005421507151304,"lng":23.738069532004765,"url":"https://maps.app.goo.gl/cQBiuhmvhu6SiSrp9?g_st=ipc","address":"Αγίας Ζώνης 60, Αθήνα 112 56","categoryIds":["cheap-eats"],"categories":["Gyros & Cheap Eats"]},"distanceKm":1.6325705483581336},{"entity":{"id":"greekRestaurants_3fdb385cf32e","slug":"dylan-3fdb","kind":"restaurant","name":"Dylan","lat":38.004029735437285,"lng":23.737919535339657,"url":"https://maps.app.goo.gl/BnADd9od1HHo98uB7?g_st=ipc","address":"Agias Zonis 38, Athina 113 64","categoryIds":["greek-restaurants"],"categories":["Greek Restaurants"]},"distanceKm":1.7621205395090573}],"counts":{"totalEntities":4118,"totalInArea":184,"totalInCategory":0,"totalCategoryArea":184},"relatedCategories":[{"categoryId":"desserts","categorySlug":"desserts","categoryName":"Dessert Shops","count":36,"passesThreshold":true},{"categoryId":"cheap-eats","categorySlug":"cheap-eats","categoryName":"Gyros & Cheap Eats","count":34,"passesThreshold":true},{"categoryId":"greek-restaurants","categorySlug":"greek-restaurants","categoryName":"Greek Restaurants","count":32,"passesThreshold":true},{"categoryId":"coffee-brunch","categorySlug":"brunch","categoryName":"Coffee & Brunch Spots","count":19,"passesThreshold":true},{"categoryId":"italian","categorySlug":"italian","categoryName":"Italian Restaurants","count":12,"passesThreshold":true},{"categoryId":"asian","categorySlug":"asian-restaurants","categoryName":"Asian Restaurants","count":11,"passesThreshold":true},{"categoryId":"vegetarian","categorySlug":"vegetarian","categoryName":"Vegetarian Friendly Restaurants","count":9,"passesThreshold":true},{"categoryId":"burgers","categorySlug":"burgers","categoryName":"Burger Spots","count":7,"passesThreshold":true},{"categoryId":"family-friendly","categorySlug":"family-friendly","categoryName":"Kid Friendly Locations","count":7,"passesThreshold":true},{"categoryId":"fish-tavernas","categorySlug":"fish-tavernas","categoryName":"Fish Tavernas","count":5,"passesThreshold":false}],"relatedAreas":[{"areaId":"municipalities_5bc013791cf8","areaName":"Πλάκα","areaSlug":"plaka","count":873,"passesThreshold":true,"nearestDistanceKm":0.012491754607387504},{"areaId":"municipalities_877c3bc81df5","areaName":"Σύνταγμα","areaSlug":"syntagma","count":868,"passesThreshold":true,"nearestDistanceKm":0.009392084429921843},{"areaId":"municipalities_0cae2c00b932","areaName":"Κολωνάκι","areaSlug":"kolonaki","count":859,"passesThreshold":true,"nearestDistanceKm":0.019551496670837543},{"areaId":"municipalities_d7e1aaaed4f9","areaName":"Μοναστηράκι","areaSlug":"monastiraki","count":858,"passesThreshold":true,"nearestDistanceKm":0.0015439249117317326},{"areaId":"municipalities_4149fa79e27b","areaName":"Ακρόπολη","areaSlug":"akropoli","count":857,"passesThreshold":true,"nearestDistanceKm":0.005729795337023071},{"areaId":"municipalities_0fd1d03201a0","areaName":"Μετς","areaSlug":"mets","count":857,"passesThreshold":true,"nearestDistanceKm":0.0655206557127576},{"areaId":"municipalities_2bcfcb8b899f","areaName":"Ψυρρή","areaSlug":"psyrri","count":856,"passesThreshold":true,"nearestDistanceKm":0.047074153549061026},{"areaId":"municipalities_616efd2a0d9b","areaName":"Κουκάκι","areaSlug":"koykaki","count":855,"passesThreshold":true,"nearestDistanceKm":0.03240357443173243},{"areaId":"municipalities_b85b54408d92","areaName":"Θησείο","areaSlug":"thiseio","count":849,"passesThreshold":true,"nearestDistanceKm":0.08292401975417248},{"areaId":"municipalities_2f324ee27306","areaName":"Εξάρχεια","areaSlug":"exarcheia","count":848,"passesThreshold":true,"nearestDistanceKm":0.08690050688547628}],"passesThreshold":true}},"__N_SSG":true}