{"pageProps":{"payload":{"area":{"id":"municipalities_ef8568a05e9e","name":"Ίλιον","nameEn":"Ilion","region":"Δυτικά Προάστια","regionEn":"Western Suburbs","lat":38.038,"lng":23.703,"urlSlug":"ilion","aliases":["Ίλιον","Ilion","Ίλιον Western Suburbs","Ilion Western Suburbs","ilion-ef85","ilion"]},"category":{"id":"cheap-eats","name":"Gyros & Cheap Eats","urlSlug":"cheap-eats","aliases":["cheap-eats","Gyros & Cheap Eats","gyros-cheap-eats"]},"entities":[{"entity":{"id":"cheapEatsRestaurants_23208072a530","slug":"o-mparmpas-choriatiki-kantina-2320","kind":"restaurant","name":"Ο Μπάρμπας Χωριάτικη Καντίνα","lat":38.03834405515059,"lng":23.705313931462435,"url":"https://maps.app.goo.gl/rw8Py2VR6j9NeDLn6?g_st=ipc","address":"Αγίου Νικολάου 2, Ίλιον 131 23","categoryIds":["cheap-eats"],"categories":["Gyros & Cheap Eats"]},"distanceKm":0.2062271787264207},{"entity":{"id":"cheapEatsRestaurants_158ee5dd1d4f","slug":"cocorico-158e","kind":"restaurant","name":"Cocorico","lat":38.03523380190847,"lng":23.705868008544936,"url":"https://maps.app.goo.gl/4u4xPrqXGjRF9V9cA?g_st=ipc","address":"Ιφιγένειας 31, Ίλιον 131 22","categoryIds":["cheap-eats"],"categories":["Gyros & Cheap Eats"]},"distanceKm":0.3971145555301745},{"entity":{"id":"cheapEatsRestaurants_9bf1f7743a87","slug":"dekapentalepto-9bf1","kind":"restaurant","name":"Δεκαπενταλεπτο","lat":38.0332432504206,"lng":23.708153853689517,"url":"https://maps.app.goo.gl/pgrPE8JqcHDwR95q6?g_st=ipc","address":"Πάριδος 90, Ίλιον 131 22","categoryIds":["cheap-eats"],"categories":["Gyros & Cheap Eats"]},"distanceKm":0.6953438886944289},{"entity":{"id":"cheapEatsRestaurants_1be49628e345","slug":"eylogison-psitopoleia-ilion-1be4","kind":"restaurant","name":"ΕΥΛΟΓΗΣΟΝ-ΨΗΤΟΠΩΛΕΙΑ ΙΛΙΟΝ","lat":38.029256363760155,"lng":23.699607500108378,"url":"https://maps.app.goo.gl/ytds7DdcMdh2G5oA8?g_st=ipc","address":"Thivon 481, Ilion 131 21","categoryIds":["cheap-eats"],"categories":["Gyros & Cheap Eats"]},"distanceKm":1.0166360255814215},{"entity":{"id":"cheapEatsRestaurants_89bd0bf927d5","slug":"soyvlakia-gkoymas-89bd","kind":"restaurant","name":"Σουβλάκια Γκούμας","lat":38.023248902145305,"lng":23.69985643748309,"url":"https://maps.app.goo.gl/cMeAjTZUY1MyiZmPA?g_st=ipc","address":"Μαυρομιχάλη 3, Ίλιον 131 21","categoryIds":["cheap-eats"],"categories":["Gyros & Cheap Eats"]},"distanceKm":1.6631954495983317},{"entity":{"id":"cheapEatsRestaurants_1eb67b7cda57","slug":"kempaptzidikon-o-mpotsaris-kreatofageion-1eb6","kind":"restaurant","name":"Κεμπαπτζίδικον ο Μπότσαρης Κρεατοφαγείον","lat":38.04278396237398,"lng":23.683368051113483,"url":"https://maps.app.goo.gl/b9xJL1JcpT29iJ776?g_st=ipc","address":"25ης Μαρτίου 75, Πετρούπολη 132 31","categoryIds":["cheap-eats"],"categories":["Gyros & Cheap Eats"]},"distanceKm":1.7996729490129781},{"entity":{"id":"cheapEatsRestaurants_58cd33367600","slug":"no-mama-s-boy-58cd","kind":"restaurant","name":"No mama's boy","lat":38.02704131964815,"lng":23.71833984165418,"url":"https://maps.app.goo.gl/JSTFEbHbfetiYWWd6?g_st=ipc","address":"Λεωφ. Δημοκρατίας 60, Άγιοι Ανάργυροι 135 61","categoryIds":["cheap-eats"],"categories":["Gyros & Cheap Eats"]},"distanceKm":1.8138133448948357},{"entity":{"id":"cheapEatsRestaurants_c98ce12d9800","slug":"f-g-k-fagito-gia-kollimenoys-c98c","kind":"restaurant","name":"Φ.Γ.Κ. Φαγητό Για Κολλημένους","lat":38.042711505406885,"lng":23.682873455447876,"url":"https://maps.app.goo.gl/52UR7h68kqnaDZDr7?g_st=ipc","address":"25ης Μαρτίου 66, Πετρούπολη 132 31","categoryIds":["cheap-eats"],"categories":["Gyros & Cheap Eats"]},"distanceKm":1.83878517614733},{"entity":{"id":"cheapEatsRestaurants_5aa0772c387e","slug":"psitopoleio-o-kostas-5aa0","kind":"restaurant","name":"Ψητοπωλείο Ο Κώστας","lat":38.022231500145956,"lng":23.689859003426026,"url":"https://maps.app.goo.gl/FkX4m8b5w9RxDkZP6?g_st=ipc","address":"Αχαΐας 8, Περιστέρι 121 35","categoryIds":["cheap-eats"],"categories":["Gyros & Cheap Eats"]},"distanceKm":2.097398768713319},{"entity":{"id":"cheapEatsRestaurants_94d8d8e87224","slug":"nesta-94d8","kind":"restaurant","name":"NeSta","lat":38.025350500036026,"lng":23.68251901127124,"url":"https://maps.app.goo.gl/M4mxfLaTjiY1TWnn6?g_st=ipc","address":"Αγίου Ιεροθέου 97, Περιστέρι 121 35","categoryIds":["cheap-eats"],"categories":["Gyros & Cheap Eats"]},"distanceKm":2.2795227119207855},{"entity":{"id":"cheapEatsRestaurants_84f34ec821dd","slug":"o-stefanos-soyvlakia-84f3","kind":"restaurant","name":"Ο ΣΤΕΦΑΝΟΣ ΣΟΥΒΛΑΚΙΑ","lat":38.045163297484955,"lng":23.729228755056532,"url":"https://maps.app.goo.gl/Uog41UVXEyuZaDfdA?g_st=ipc","address":"Δεληγιάννη 71, Άγιοι Ανάργυροι 135 62","categoryIds":["cheap-eats"],"categories":["Gyros & Cheap Eats"]},"distanceKm":2.4311211038965683},{"entity":{"id":"cheapEatsRestaurants_390d6f81b689","slug":"tryfonas-kempaptzidikon-hamburgerie-390d","kind":"restaurant","name":"Τρύφωνας Κεμπαπτζίδικoν - Hamburgerie","lat":38.01255321629899,"lng":23.70608688945728,"url":"https://maps.app.goo.gl/Z2KVCzShcPWHHgiq5?g_st=ipc","address":"Παρασκευοπούλου 51, Περιστέρι 121 34","categoryIds":["cheap-eats"],"categories":["Gyros & Cheap Eats"]},"distanceKm":2.8424428911139783},{"entity":{"id":"cheapEatsRestaurants_27095ef62808","slug":"jackaroo-2709","kind":"restaurant","name":"Jackaroo","lat":38.0124039916799,"lng":23.705649430022987,"url":"https://maps.app.goo.gl/ZVfeByxQrS6SFYyH6?g_st=ipc","address":"Παρασκευοπούλου 45, Περιστέρι 121 35","categoryIds":["cheap-eats"],"categories":["Gyros & Cheap Eats"]},"distanceKm":2.855591947282605},{"entity":{"id":"cheapEatsRestaurants_e8ef6d026703","slug":"i-vromiara-the-gourmet-street-food-peristeri-e8ef","kind":"restaurant","name":"Η Βρωμιάρα - The Gourmet Street Food Περιστέρι","lat":38.0121286185235,"lng":23.696851045660715,"url":"https://maps.app.goo.gl/zuoR5Z99oiyHXZs26?g_st=ipc","address":"Λεωφ. Παναγή Τσαλδάρη 16, Περιστέρι 121 34","categoryIds":["cheap-eats"],"categories":["Gyros & Cheap Eats"]},"distanceKm":2.92675236270226},{"entity":{"id":"cheapEatsRestaurants_8e920e95e567","slug":"slum-it-8e92","kind":"restaurant","name":"Slum it","lat":38.034971479219536,"lng":23.73628101866516,"url":"https://maps.app.goo.gl/m2fyvmtGXXiGevuC6?g_st=ipc","address":"Βρυούλων 15, Νέα Φιλαδέλφεια Αττικής 143 41","categoryIds":["cheap-eats"],"categories":["Gyros & Cheap Eats"]},"distanceKm":2.934113780379864},{"entity":{"id":"cheapEatsRestaurants_93852e0ca98a","slug":"i-vromiara-the-gourmet-street-food-nea-filadelfeia-9385","kind":"restaurant","name":"Η Βρωμιάρα - The Gourmet Street Food - Νεα Φιλαδέλφεια","lat":38.03438911435279,"lng":23.73692338806855,"url":"https://maps.app.goo.gl/Q23dgN65gryr9fpi7?g_st=ipc","address":"Βρυούλων 5, Νέα Φιλαδέλφεια Αττικής 143 41","categoryIds":["cheap-eats"],"categories":["Gyros & Cheap Eats"]},"distanceKm":2.9980027356090617},{"entity":{"id":"cheapEatsRestaurants_093f463c1994","slug":"krepes-gorillas-093f","kind":"restaurant","name":"Κρέπες Gorillas","lat":38.011039639297316,"lng":23.701212318200714,"url":"https://maps.app.goo.gl/Us2VxvnWiFa4zh7E6?g_st=ipc","address":"Παρασκευοπούλου 14, Περιστέρι 121 32","categoryIds":["cheap-eats"],"categories":["Gyros & Cheap Eats"]},"distanceKm":3.001942169487316},{"entity":{"id":"cheapEatsRestaurants_64ecfbc2f3f4","slug":"mayro-alati-64ec","kind":"restaurant","name":"Μαύρο Αλάτι","lat":38.011756038342455,"lng":23.693312637532987,"url":"https://maps.app.goo.gl/WBopamZ7xeysedvt5?g_st=ipc","address":"Αιμιλίου Βεάκη 44, Περιστέρι 121 34","categoryIds":["cheap-eats"],"categories":["Gyros & Cheap Eats"]},"distanceKm":3.0390614055773764},{"entity":{"id":"cheapEatsRestaurants_ae066a0c8be0","slug":"street-wok-ae06","kind":"restaurant","name":"Street wok","lat":38.03415581458627,"lng":23.737421868861436,"url":"https://maps.app.goo.gl/2Mpgb24E2Bp7GYMDA?g_st=ipc","address":"Βρυούλων 4, Νέα Φιλαδέλφεια Αττικής 143 41","categoryIds":["cheap-eats"],"categories":["Gyros & Cheap Eats"]},"distanceKm":3.044809979602532},{"entity":{"id":"cheapEatsRestaurants_d184e5cf8bc9","slug":"psitopoleio-o-spyros-soyvlakia-d184","kind":"restaurant","name":"Ψητοπωλείο ο Σπύρος Σουβλάκια","lat":38.01699116177091,"lng":23.725453216560837,"url":"https://maps.app.goo.gl/jiHHELBpUtGUfeV87?g_st=ipc","address":"Βικέλα 33, Αθήνα 111 45","categoryIds":["cheap-eats"],"categories":["Gyros & Cheap Eats"]},"distanceKm":3.053697046275722},{"entity":{"id":"cheapEatsRestaurants_708ba2b3a806","slug":"eyripidis-1955-708b","kind":"restaurant","name":"Ευριπίδης 1955","lat":38.03354736852586,"lng":23.737489018536408,"url":"https://maps.app.goo.gl/oALQiKiSKqqQt7VE8?g_st=ipc","address":"Λεωφ. Δεκελείας 83, Νέα Φιλαδέλφεια Αττικής 143 41","categoryIds":["cheap-eats"],"categories":["Gyros & Cheap Eats"]},"distanceKm":3.0608582690664634},{"entity":{"id":"cheapEatsRestaurants_bcddf7ad717f","slug":"wolfie-s-west-side-bcdd","kind":"restaurant","name":"Wolfie’s West Side","lat":38.01077144638466,"lng":23.697740028763043,"url":"https://maps.app.goo.gl/LdnLWyeBqVd2Tcme7?g_st=ipc","address":"Kosta Varnali 6, Peristeri 121 32","categoryIds":["cheap-eats"],"categories":["Gyros & Cheap Eats"]},"distanceKm":3.0625331956706865},{"entity":{"id":"cheapEatsRestaurants_9b3a59c497dd","slug":"to-magkali-peristeri-9b3a","kind":"restaurant","name":"Το Μαγκάλι (Περιστέρι)","lat":38.01338073065152,"lng":23.686862336191798,"url":"https://maps.app.goo.gl/cpKq1vTipGxLPNCu7?g_st=ipc","address":"Δωδεκανήσου 24, Πελοπίδα 48, Περιστέρι 121 34","categoryIds":["cheap-eats"],"categories":["Gyros & Cheap Eats"]},"distanceKm":3.0809390482352197},{"entity":{"id":"cheapEatsRestaurants_25538f73c661","slug":"koutsi-katsika-street-food-nea-filadelfeia-2553","kind":"restaurant","name":"Koutsi Katsika Street Food Νέα Φιλαδέλφεια","lat":38.036295969328165,"lng":23.73867352816236,"url":"https://maps.app.goo.gl/SfprcJNzr7drSK6A6?g_st=ipc","address":"Λεωφ. Δεκελείας 109, Νέα Φιλαδέλφεια Αττικής 143 41","categoryIds":["cheap-eats"],"categories":["Gyros & Cheap Eats"]},"distanceKm":3.129970834172872},{"entity":{"id":"cheapEatsRestaurants_f4852478be70","slug":"kantina-mpilis-f485","kind":"restaurant","name":"Καντίνα Μπίλης","lat":38.01164780075542,"lng":23.6884871707283,"url":"https://maps.app.goo.gl/CHy9bu3k15qybj71A?g_st=ipc","address":"Πελασγίας 7, Περιστέρι 121 31","categoryIds":["cheap-eats"],"categories":["Gyros & Cheap Eats"]},"distanceKm":3.1940982481083116},{"entity":{"id":"cheapEatsRestaurants_204d68c7c535","slug":"to-ariston-204d","kind":"restaurant","name":"ΤΟ ΑΡΙΣΤΟΝ","lat":38.022955608499146,"lng":23.735820169983455,"url":"https://maps.app.goo.gl/TRT4ewxJ6pQL8ffBA?g_st=ipc","address":"Πατησίων 349, Αθήνα 111 44","categoryIds":["cheap-eats"],"categories":["Gyros & Cheap Eats"]},"distanceKm":3.325925879290714},{"entity":{"id":"cheapEatsRestaurants_e447034a05ff","slug":"o-oraios-tis-geitonias-ovelistirio-e447","kind":"restaurant","name":"Ο ΩΡΑΙΟΣ ΤΗΣ ΓΕΙΤΟΝΙΑΣ ΟΒΕΛΙΣΤΗΡΙΟ","lat":38.01006375373495,"lng":23.6881134895059,"url":"https://maps.app.goo.gl/MTNygxiVF9e3viYE9?g_st=ipc","address":"Θηβών 119, Περιστέρι 121 36","categoryIds":["cheap-eats"],"categories":["Gyros & Cheap Eats"]},"distanceKm":3.368956140498251}],"counts":{"totalEntities":4118,"totalInArea":99,"totalInCategory":440,"totalCategoryArea":27},"relatedCategories":[{"categoryId":"greek-restaurants","categorySlug":"greek-restaurants","categoryName":"Greek Restaurants","count":18,"passesThreshold":true},{"categoryId":"desserts","categorySlug":"desserts","categoryName":"Dessert Shops","count":14,"passesThreshold":true},{"categoryId":"coffee-brunch","categorySlug":"brunch","categoryName":"Coffee & Brunch Spots","count":13,"passesThreshold":true},{"categoryId":"italian","categorySlug":"italian","categoryName":"Italian Restaurants","count":6,"passesThreshold":true},{"categoryId":"asian","categorySlug":"asian-restaurants","categoryName":"Asian Restaurants","count":6,"passesThreshold":true},{"categoryId":"mexican","categorySlug":"mexican","categoryName":"Mexican Restaurants","count":4,"passesThreshold":true},{"categoryId":"family-friendly","categorySlug":"family-friendly","categoryName":"Kid Friendly Locations","count":4,"passesThreshold":true},{"categoryId":"burgers","categorySlug":"burgers","categoryName":"Burger Spots","count":4,"passesThreshold":true},{"categoryId":"luxury-dining","categorySlug":"luxury-dining","categoryName":"Luxury Dining","count":2,"passesThreshold":false},{"categoryId":"vegetarian","categorySlug":"vegetarian","categoryName":"Vegetarian Friendly Restaurants","count":1,"passesThreshold":false}],"relatedAreas":[{"areaId":"municipalities_877c3bc81df5","areaName":"Σύνταγμα","areaSlug":"syntagma","count":120,"nearestDistanceKm":0.11961398706816125},{"areaId":"municipalities_0fd1d03201a0","areaName":"Μετς","areaSlug":"mets","count":117,"nearestDistanceKm":0.1631876921993796},{"areaId":"municipalities_5bc013791cf8","areaName":"Πλάκα","areaSlug":"plaka","count":117,"nearestDistanceKm":0.2738306467202473},{"areaId":"municipalities_0cae2c00b932","areaName":"Κολωνάκι","areaSlug":"kolonaki","count":116,"nearestDistanceKm":0.2594995444411492},{"areaId":"municipalities_d7e1aaaed4f9","areaName":"Μοναστηράκι","areaSlug":"monastiraki","count":115,"nearestDistanceKm":0.0015439249117317326},{"areaId":"municipalities_2bcfcb8b899f","areaName":"Ψυρρή","areaSlug":"psyrri","count":115,"nearestDistanceKm":0.12368716844713971},{"areaId":"municipalities_2f324ee27306","areaName":"Εξάρχεια","areaSlug":"exarcheia","count":113,"nearestDistanceKm":0.11466066383697145},{"areaId":"municipalities_4149fa79e27b","areaName":"Ακρόπολη","areaSlug":"akropoli","count":112,"nearestDistanceKm":0.061502911765534726},{"areaId":"municipalities_616efd2a0d9b","areaName":"Κουκάκι","areaSlug":"koykaki","count":112,"nearestDistanceKm":0.06801690175180578},{"areaId":"municipalities_7e1691d5f08d","areaName":"Μεταξουργείο","areaSlug":"metaxoyrgeio","count":112,"nearestDistanceKm":0.22717746766798677}],"passesThreshold":true}},"__N_SSG":true}