{"pageProps":{"entity":{"id":"municipalities_e657fbc0371a","slug":"chalkida-e657","kind":"municipality","name":"Χαλκίδα","lat":38.4639,"lng":23.6022,"aliases":["Χαλκιδα","Xalkida"],"region":"Στερεά Ελλάδα","name_en":"Chalkida","region_en":"Central Greece"},"sameCategory":[],"nearby":[{"id":"dessertsRestaurants_e25beda95d12","slug":"goynaropoylos-zacharoplasteio-chalkida-e25b","kind":"restaurant","name":"Γουναρόπουλος Ζαχαροπλαστείο Χαλκίδα","lat":38.45806653194968,"lng":23.60520387236345,"url":"https://maps.app.goo.gl/39U8rhLgnjvKYTTX9?g_st=ipc","address":"Μαυρογένους 5, Χαλκίδα 341 00","categoryIds":["desserts"],"categories":["Dessert Shops"],"distanceKm":0.6993962439420301},{"id":"dessertsRestaurants_73e2ff50a505","slug":"mpiskotoglyko-73e2","kind":"restaurant","name":"Μπισκοτόγλυκο","lat":38.46497241983079,"lng":23.593940230340603,"url":"https://maps.app.goo.gl/f4tbuwUVqXzkbZJv7?g_st=ipc","address":"Καραμουρτζούνη 32, Χαλκίδα 341 00","categoryIds":["desserts"],"categories":["Dessert Shops"],"distanceKm":0.7289566969828764},{"id":"italianRestaurants_221ef1307bb3","slug":"lupo-trattoria-221e","kind":"restaurant","name":"Lupo Trattoria","lat":38.46311896550072,"lng":23.590229926533073,"url":"https://maps.app.goo.gl/DESesA1yAU2maSDx7?g_st=ipc","address":"Βουδούρη 6, Χαλκίδα 341 00","categoryIds":["italian"],"categories":["Italian Restaurants"],"distanceKm":1.0458001885717423},{"id":"fishTavernasRestaurants_4f23c2a6f3c3","slug":"to-thalami-4f23","kind":"restaurant","name":"ΤΟ ΘΑΛΑΜΙ","lat":38.47386855302924,"lng":23.60361544187376,"url":"https://maps.app.goo.gl/DTL79NVCVS4exKdr9?g_st=ipc","address":"Εθ. Συμφιλίωσης, Χαλκίδα 341 00","categoryIds":["fish-tavernas"],"categories":["Fish Tavernas"],"distanceKm":1.1152811749330374},{"id":"fishTavernasRestaurants_ee92835c0d0d","slug":"oyzeri-apanemo-ee92","kind":"restaurant","name":"Ουζερί Απάνεμο","lat":38.473971555271454,"lng":23.603700122583223,"url":"https://maps.app.goo.gl/EU5w8nGgmktzo3Gq8?g_st=ipc","address":"Εθ. Συμφιλίωσης 78, Χαλκίδα 341 00","categoryIds":["fish-tavernas"],"categories":["Fish Tavernas"],"distanceKm":1.1274952240242322},{"id":"fishTavernasRestaurants_1ff7d4a34160","slug":"vrachos-1ff7","kind":"restaurant","name":"Βράχος","lat":38.4643775006023,"lng":23.588227655624095,"url":"https://maps.app.goo.gl/dCAASevZrACGwEgU7?g_st=ipc","address":"Αρχιεπισκόπου Μακαρίου 13, Ξηρόβρυση 341 00","categoryIds":["fish-tavernas"],"categories":["Fish Tavernas"],"distanceKm":1.2176654079874427},{"id":"fishTavernasRestaurants_068b7509beb9","slug":"oyzeri-akrogiali-068b","kind":"restaurant","name":"Ουζερί \"Ακρογιάλι\"","lat":38.440313479921635,"lng":23.621738281701006,"url":"https://maps.app.goo.gl/iJW3zjT5zf2LYsK16?g_st=ipc","address":"λοχία Ρωμιόπουλου 13, Χαλκίδα Νέα Λάμψακος 341 00","categoryIds":["fish-tavernas"],"categories":["Fish Tavernas"],"distanceKm":3.1262269481397666},{"id":"fishTavernasRestaurants_4a843009a81f","slug":"to-kyma-toy-loyka-4a84","kind":"restaurant","name":"Το κύμα του Λουκά","lat":38.43818318214878,"lng":23.621937029677294,"url":"https://maps.app.goo.gl/EE6oa72MB34puz5e8?g_st=ipc","address":"Δημοσθένη, Τόσκα, Νέα Λάμψακος 341 00","categoryIds":["fish-tavernas"],"categories":["Fish Tavernas"],"distanceKm":3.336346337282149}],"sameRegion":[{"id":"municipalities_1d4b51456d77","slug":"karpenisi-1d4b","kind":"municipality","name":"Καρπενήσι","lat":38.9167,"lng":21.7833,"region":"Στερεά Ελλάδα","name_en":"Karpenisi","region_en":"Central Greece"},{"id":"municipalities_2a5550d7f6f9","slug":"kamena-voyrla-2a55","kind":"municipality","name":"Καμένα Βούρλα","lat":38.7833,"lng":22.7833,"region":"Στερεά Ελλάδα","name_en":"Kamena Vourla","region_en":"Central Greece"},{"id":"municipalities_30068cb262bd","slug":"istiaia-3006","kind":"municipality","name":"Ιστιαία","lat":38.95,"lng":23.15,"aliases":["Ιστιαίων"],"region":"Στερεά Ελλάδα","name_en":"Istiaia","region_en":"Central Greece"},{"id":"municipalities_658c27b3c4d6","slug":"galaxeidi-658c","kind":"municipality","name":"Γαλαξείδι","lat":38.3769,"lng":22.3889,"aliases":["Γαλαξειδι","Galaxeidi"],"region":"Στερεά Ελλάδα","name_en":"Galaxidi","region_en":"Central Greece"},{"id":"municipalities_6af6e7b2b379","slug":"eretria-6af6","kind":"municipality","name":"Ερέτρια","lat":38.39,"lng":23.8,"region":"Στερεά Ελλάδα","name_en":"Eretria","region_en":"Central Greece"},{"id":"municipalities_a3f2108a0447","slug":"livadeia-a3f2","kind":"municipality","name":"Λιβαδειά","lat":38.435,"lng":22.875,"aliases":["Livadia"],"region":"Στερεά Ελλάδα","name_en":"Livadeia","region_en":"Central Greece"},{"id":"municipalities_a7ebe9625d32","slug":"aliartos-a7eb","kind":"municipality","name":"Αλίαρτος","lat":38.3833,"lng":23.1,"region":"Στερεά Ελλάδα","name_en":"Aliartos","region_en":"Central Greece"},{"id":"municipalities_b881ef8f885c","slug":"atalanti-b881","kind":"municipality","name":"Αταλάντη","lat":38.65,"lng":23.0833,"region":"Στερεά Ελλάδα","name_en":"Atalanti","region_en":"Central Greece"}],"mentionedGuides":[{"slug":"athens-day-trips-guide-el","title":"Καλύτερες Ημερήσιες Εκδρομές από την Αθήνα"},{"slug":"athens-day-trips-guide","title":"Best Day Trip Ideas from Athens"}]},"__N_SSG":true}