{"pageProps":{"entity":{"id":"greekRestaurants_5f291c18ffbb","slug":"dias-restaurant-5f29","kind":"restaurant","name":"Dias Restaurant","lat":40.06967513248834,"lng":23.453446118410188,"url":"https://maps.app.goo.gl/CuNAkyg2DXjQVmd46?g_st=ipc","address":"Καλλιθέα Κασσανδρεια, Κασσανδρεία 630 77","categoryIds":["greek-restaurants"],"categories":["Greek Restaurants"]},"sameCategory":[{"id":"greekRestaurants_9f92ac7d9fa1","slug":"kardamo-9f92","kind":"restaurant","name":"Kardamo","lat":40.097556175200374,"lng":23.437132587550042,"url":"https://maps.app.goo.gl/ePoWRBDG86ratDjz8?g_st=ipc","address":"Άφυτος 630 77","categoryIds":["greek-restaurants"],"categories":["Greek Restaurants"]},{"id":"greekRestaurants_2313eb757566","slug":"to-palio-rementzo-2313","kind":"restaurant","name":"To Palio Rementzo","lat":40.09848139695357,"lng":23.43773202901174,"url":"https://maps.app.goo.gl/2T1nNQxZML5ZNxhC9?g_st=ipc","address":"Άφυτος 630 77","categoryIds":["greek-restaurants"],"categories":["Greek Restaurants"]},{"id":"greekRestaurants_33e109e116ef","slug":"i-plateia-tis-anthoylas-33e1","kind":"restaurant","name":"Η Πλατεία της Ανθούλας","lat":40.03314783613042,"lng":23.477056436374422,"url":"https://maps.app.goo.gl/MZZAF1dJsdusePjd6?g_st=ipc","address":"Main road, Κρυοπηγή 630 77","categoryIds":["greek-restaurants"],"categories":["Greek Restaurants"]},{"id":"greekRestaurants_5bb44ebf778d","slug":"metoxi-restaurant-5bb4","kind":"restaurant","name":"Metoxi restaurant","lat":40.065274134226456,"lng":23.39221583090552,"url":"https://maps.app.goo.gl/7wBDRqK9LUsGSLah7?g_st=ipc","address":"Κασσανδρεία 630 77","categoryIds":["greek-restaurants"],"categories":["Greek Restaurants"]},{"id":"greekRestaurants_37aeec286967","slug":"o-zachos-37ae","kind":"restaurant","name":"Ο Ζάχος","lat":40.01217335149507,"lng":23.447184477767923,"url":"https://maps.app.goo.gl/zwVdQG5iLtPWd8BUA?g_st=ipc","address":"0, Κασσανδρηνό 630 77","categoryIds":["greek-restaurants"],"categories":["Greek Restaurants"]},{"id":"greekRestaurants_4ed7350eaa50","slug":"massalia-nea-fokaia-4ed7","kind":"restaurant","name":"Μασσαλία - Νέα Φώκαια","lat":40.13302544916829,"lng":23.396518787610884,"url":"https://maps.app.goo.gl/uWerarGoWNG5Gpax8?g_st=ipc","address":"Πλατεια, Νέα Φώκαια 630 77","categoryIds":["greek-restaurants"],"categories":["Greek Restaurants"]},{"id":"greekRestaurants_85a9c3158d92","slug":"stoy-thanasi-85a9","kind":"restaurant","name":"Στου Θανάση","lat":39.97151226037513,"lng":23.40064685012255,"url":"https://maps.app.goo.gl/M587jr7jBknUvhmQ9?g_st=ipc","address":"Unnamed Road, Καλάνδρα 630 77","categoryIds":["greek-restaurants"],"categories":["Greek Restaurants"]},{"id":"greekRestaurants_51d0de5678c5","slug":"mnemes-farm-51d0","kind":"restaurant","name":"Mnēmes Farm","lat":39.995744895148555,"lng":23.586019155143934,"url":"https://maps.app.goo.gl/Yr8SQnhBoShFTSkP6?g_st=ipc","address":"Εκτός Οικισμού Πευκοχωρίου, Πευκοχώρι 630 85","categoryIds":["greek-restaurants"],"categories":["Greek Restaurants"]}],"nearby":[{"id":"coffeeBrunchRestaurants_95ba17233631","slug":"almira-beach-bar-95ba","kind":"restaurant","name":"Almira beach bar","lat":40.072040605174976,"lng":23.452332342777385,"url":"https://maps.app.goo.gl/E5yFsVWCjLx3EVVM8?g_st=ipc","address":"Kassandra 630 77","categoryIds":["coffee-brunch"],"categories":["Coffee & Brunch Spots"],"distanceKm":0.27958179166227315},{"id":"cheapEatsRestaurants_c1994e1056ff","slug":"andoni-s-gyros-feed-c199","kind":"restaurant","name":"Andoni's Gyros Feed","lat":40.07464288630586,"lng":23.448992983256165,"url":"https://maps.app.goo.gl/L8R286xrXF2isCzv6?g_st=ipc","address":"Καλλιθέα 630 77","categoryIds":["cheap-eats"],"categories":["Gyros & Cheap Eats"],"distanceKm":0.6698600664929986},{"id":"dessertsRestaurants_3b5bf46add7e","slug":"terkenlis-3b5b","kind":"restaurant","name":"Terkenlis","lat":40.07236945700872,"lng":23.44461611117606,"url":"https://maps.app.goo.gl/HGnMQLpSqcLam8fR7?g_st=ipc","address":"Δημόσια, Θεσσαλονικής, Kallithea 630 77","categoryIds":["desserts"],"categories":["Dessert Shops"],"distanceKm":0.8088870145414236},{"id":"municipalities_c1cea04425ed","slug":"kallithea-chalkidiki-c1ce","kind":"municipality","name":"Καλλιθέα Χαλκιδική","lat":40.08,"lng":23.448,"region":"Χαλκιδική","name_en":"Kallithea Halkidiki","region_en":"Halkidiki","distanceKm":1.2380647612922056},{"id":"coffeeBrunchRestaurants_2451ebf0828a","slug":"agora-beach-greek-kouzina-beach-bar-2451","kind":"restaurant","name":"Agora Beach - Greek Kouzina & Beach Bar","lat":40.05004401134577,"lng":23.47152357517926,"url":"https://maps.app.goo.gl/cd42keBiiYDufY3k8?g_st=ipc","address":"Κρυοπηγη Χαλκιδική 630 77","categoryIds":["coffee-brunch"],"categories":["Coffee & Brunch Spots"],"distanceKm":2.6705666573313103},{"id":"municipalities_c475d7743b5a","slug":"kryopigi-c475","kind":"municipality","name":"Κρυοπηγή","lat":40.0403,"lng":23.4507,"region":"Χαλκιδική","name_en":"Kryopigi","region_en":"Halkidiki","distanceKm":3.2747172420875112},{"id":"greekRestaurants_9f92ac7d9fa1","slug":"kardamo-9f92","kind":"restaurant","name":"Kardamo","lat":40.097556175200374,"lng":23.437132587550042,"url":"https://maps.app.goo.gl/ePoWRBDG86ratDjz8?g_st=ipc","address":"Άφυτος 630 77","categoryIds":["greek-restaurants"],"categories":["Greek Restaurants"],"distanceKm":3.3967132742031807},{"id":"greekRestaurants_2313eb757566","slug":"to-palio-rementzo-2313","kind":"restaurant","name":"To Palio Rementzo","lat":40.09848139695357,"lng":23.43773202901174,"url":"https://maps.app.goo.gl/2T1nNQxZML5ZNxhC9?g_st=ipc","address":"Άφυτος 630 77","categoryIds":["greek-restaurants"],"categories":["Greek Restaurants"],"distanceKm":3.470902778540554}],"sameRegion":[],"mentionedGuides":[]},"__N_SSG":true}