{"pageProps":{"entity":{"id":"mustSeeAttractions_5d23953463e8","slug":"ethniko-archaiologiko-moyseio-5d23","kind":"restaurant","name":"Εθνικό Αρχαιολογικό Μουσείο","lat":37.989024298697544,"lng":23.73276057362421,"url":"https://maps.app.goo.gl/yMXMdhRrheqLTtjc9?g_st=ipc","address":"28ης Οκτωβρίου 44, Αθήνα 106 82","categoryIds":["attractions"],"categories":["Must-See Attractions"]},"sameCategory":[{"id":"mustSeeAttractions_9d5443f043f5","slug":"bibliotheke-9d54","kind":"restaurant","name":"Bibliothēkē","lat":37.98086714889517,"lng":23.732640659233777,"url":"https://maps.app.goo.gl/Tia41NbJ94S1YJYNA?g_st=ipc","address":"Athens 106 79","categoryIds":["attractions"],"categories":["Must-See Attractions"]},{"id":"mustSeeAttractions_4c1bed18d9f3","slug":"academy-of-athens-4c1b","kind":"restaurant","name":"Academy of Athens","lat":37.980052000475574,"lng":23.73401307902472,"url":"https://maps.app.goo.gl/ggPZ2e3QeajFYXJX8?g_st=ipc","address":"Panepistimiou 28, Athina 106 79","categoryIds":["attractions"],"categories":["Must-See Attractions"]},{"id":"mustSeeAttractions_361f9ea0fa7a","slug":"ieros-naos-agion-isidoron-lykavittoy-361f","kind":"restaurant","name":"Ιερός Ναός Αγίων Ισιδώρων Λυκαβηττού","lat":37.982294745131696,"lng":23.74279440377978,"url":"https://maps.app.goo.gl/BnpGTjqhDuV8Nenn9?g_st=ipc","address":"Μονοπατι Λυκαβηττου, Αθήνα 114 71","categoryIds":["attractions"],"categories":["Must-See Attractions"]},{"id":"mustSeeAttractions_0e9341b94f04","slug":"lykavittos-0e93","kind":"restaurant","name":"Λυκαβηττός","lat":37.98323503241099,"lng":23.746500382209337,"url":"https://maps.app.goo.gl/muvvb7CTCn3yFhWj6?g_st=ipc","address":"Σαρανταπήχου, Μονοπατι Λυκαβηττου &, Αθήνα 114 71","categoryIds":["attractions"],"categories":["Must-See Attractions"]},{"id":"mustSeeAttractions_1d05d319a6bb","slug":"psyrri-1d05","kind":"restaurant","name":"Ψυρρή","lat":37.9780643555903,"lng":23.723930742700833,"url":"https://maps.app.goo.gl/JcpJbaRT1V7eBHEa9?g_st=ipc","address":"Αθήνα 105 54","categoryIds":["attractions"],"categories":["Must-See Attractions"]},{"id":"mustSeeAttractions_5ecb5990c6e7","slug":"syntagma-square-5ecb","kind":"restaurant","name":"Syntagma Square","lat":37.97554970639471,"lng":23.734713366778323,"url":"https://maps.app.goo.gl/W5joNY37bu7NJ8Hz8?g_st=ipc","address":"Pl. Sintagmatos, Athina 105 63","categoryIds":["attractions"],"categories":["Must-See Attractions"]},{"id":"mustSeeAttractions_241beda98c80","slug":"plateia-monastirakioy-241b","kind":"restaurant","name":"Πλατεία Μοναστηρακίου","lat":37.97640816584317,"lng":23.725886410870196,"url":"https://maps.app.goo.gl/BWatUxUvLvu5LHMP9?g_st=ipc","address":"Απόλλωνος 21, Αθήνα 105 57","categoryIds":["attractions"],"categories":["Must-See Attractions"]},{"id":"mustSeeAttractions_40f48472fa4a","slug":"monument-to-the-unknown-soldier-40f4","kind":"restaurant","name":"Monument to the Unknown Soldier","lat":37.97535428174513,"lng":23.736259428820603,"url":"https://maps.app.goo.gl/RRXmkZ72CeNufyB66?g_st=ipc","address":"Leof. Vasilisis Amalias 133, Athina 105 57","categoryIds":["attractions"],"categories":["Must-See Attractions"]}],"nearby":[{"id":"greekRestaurants_013c7ee68bf7","slug":"to-rini-013c","kind":"restaurant","name":"Το Ρίνι","lat":37.99027878775376,"lng":23.732870988899485,"url":"https://maps.app.goo.gl/RRByVB3HqZfDcnkK7","address":"Ρεθύμνου 8, Αθήνα 106 82","categoryIds":["greek-restaurants"],"categories":["Greek Restaurants"],"distanceKm":0.139828024559008},{"id":"luxuryDiningRestaurants_4ac28de916c7","slug":"10-urban-roof-4ac2","kind":"restaurant","name":"10 Urban Roof","lat":37.99116171206528,"lng":23.733113789092354,"url":"https://maps.app.goo.gl/EwoNbTNDX9bmfSgf9?g_st=ipc","address":"Λεωφ. Αλεξάνδρας 10, Αθήνα 106 82","categoryIds":["luxury-dining"],"categories":["Luxury Dining"],"distanceKm":0.23967675402725025},{"id":"italianRestaurants_ed5df50f2107","slug":"dilien-ed5d","kind":"restaurant","name":"Dilien","lat":37.98733679240523,"lng":23.730994400110465,"url":"https://maps.app.goo.gl/yeGNTXa4VUk4Paqs5","address":"Stournari 43, Athina 106 82","categoryIds":["italian"],"categories":["Italian Restaurants"],"distanceKm":0.24324276106275453},{"id":"asianRestaurants_4360c7ba70e3","slug":"microulee-4360","kind":"restaurant","name":"Microulee","lat":37.98699838431432,"lng":23.73426742337473,"url":"https://maps.app.goo.gl/KAcLL73vy6J6TTKv5?g_st=ipc","address":"Στουρνάρη 14, Αθήνα 106 83","categoryIds":["asian"],"categories":["Asian Restaurants"],"distanceKm":0.26112446113771726},{"id":"cheapEatsRestaurants_0f0ae09c0d4e","slug":"guerilla-chef-burgers-0f0a","kind":"restaurant","name":"Guerilla Chef Burgers","lat":37.98671993993366,"lng":23.731787435580728,"url":"https://maps.app.goo.gl/K2QVLnm9vHS1E3cF9?g_st=ipc","address":"37.98671993993366, 23.731787435580728","categoryIds":["cheap-eats"],"categories":["Gyros & Cheap Eats"],"distanceKm":0.2700529070127958},{"id":"dessertsRestaurants_ba20d8faff31","slug":"craquelin-ba20","kind":"restaurant","name":"Craquelin","lat":37.9865815151158,"lng":23.732749024802267,"url":"https://maps.app.goo.gl/m9Z1VRpp25owhfSz8?g_st=ipc","address":"Σολωμού 23, Αθήνα 106 82","categoryIds":["desserts"],"categories":["Dessert Shops"],"distanceKm":0.2716270267933518},{"id":"burgersRestaurants_cd431d540de7","slug":"guerilla-chef-burgers-cd43","kind":"restaurant","name":"Guerilla Chef Burgers","lat":37.98670260429295,"lng":23.731789751446545,"url":"https://maps.app.goo.gl/dpwZgAJWWe2cfPeG9?g_st=ipc","address":"Σολωμού 33, Αθήνα 106 82","categoryIds":["burgers"],"categories":["Burger Spots"],"distanceKm":0.2718189863327762},{"id":"luxuryDiningRestaurants_3c3010cb0fe8","slug":"pharaoh-3c30","kind":"restaurant","name":"Pharaoh","lat":37.986974430593506,"lng":23.73075500920587,"url":"https://maps.app.goo.gl/1WxR8XYsFmsyuWyp7?g_st=ipc","address":"Solomou 54, Athina 106 82","categoryIds":["luxury-dining"],"categories":["Luxury Dining"],"distanceKm":0.28783082889983147}],"sameRegion":[],"mentionedGuides":[]},"__N_SSG":true}