{"pageProps":{"entity":{"id":"greekRestaurants_a9fd28504adb","slug":"agroktima-regkoykoy-taverna-stamata-a9fd","kind":"restaurant","name":"Αγρόκτημα Ρεγκούκου Ταβέρνα Σταμάτα","lat":38.142623703496184,"lng":23.888598580375778,"url":"https://maps.app.goo.gl/X9aRczkLosh9Awyu8","address":"Έκτορος, Σταμάτα 145 75","categoryIds":["greek-restaurants"],"categories":["Greek Restaurants"]},"sameCategory":[{"id":"greekRestaurants_eb34b601c233","slug":"amygdaleza-eb34","kind":"restaurant","name":"Αμυγδαλέζα","lat":38.138791020092526,"lng":23.886474004082586,"url":"https://maps.app.goo.gl/xbczXzqr95568Y2p7","address":"Μεγ. Αλεξάνδρου 86, Σταμάτα 145 75","categoryIds":["greek-restaurants"],"categories":["Greek Restaurants"]},{"id":"greekRestaurants_626964779e0f","slug":"pipinios-6269","kind":"restaurant","name":"Pipinios","lat":38.12550464522669,"lng":23.87986733346546,"url":"https://maps.app.goo.gl/iPGdNokEkHQwjcP5A","address":"Πέππα 1, Σταμάτα 145 75","categoryIds":["greek-restaurants"],"categories":["Greek Restaurants"]},{"id":"greekRestaurants_3188c54ebc61","slug":"vlachiki-gastra-3188","kind":"restaurant","name":"Βλάχικη Γάστρα","lat":38.11813280551885,"lng":23.875469007658698,"url":"https://maps.app.goo.gl/DHcE17CBEXSZqg9G9","address":"Κολοκοτρώνη 14, Ροδόπολη 145 74","categoryIds":["greek-restaurants"],"categories":["Greek Restaurants"]},{"id":"greekRestaurants_8bd7eaffbbd0","slug":"ayli-8bd7","kind":"restaurant","name":"Αυλή","lat":38.1169884488727,"lng":23.873697271500465,"url":"https://maps.app.goo.gl/j3KcRnM1M4kAsQz36","address":"25ης Μαρτίου 24, Ροδόπολη 145 74","categoryIds":["greek-restaurants"],"categories":["Greek Restaurants"]},{"id":"greekRestaurants_a8f96784536e","slug":"peinirli-eleytheriadis-a8f9","kind":"restaurant","name":"Πεϊνιρλί Ελευθεριάδης","lat":38.11739320879304,"lng":23.862199451872925,"url":"https://maps.app.goo.gl/hWqtsGrqa7nCZyh16","address":"Σολωμού 26, Δροσιά 145 72","categoryIds":["greek-restaurants"],"categories":["Greek Restaurants"]},{"id":"greekRestaurants_82199ba27aab","slug":"matambre-8219","kind":"restaurant","name":"Matambre","lat":38.17453592653479,"lng":23.91849447631357,"url":"https://maps.app.goo.gl/nZX2pdLZsc3fNQMa8","address":"Λεωφ. Λίμνης Μαραθώνος 245, Μαραθώνας 190 07","categoryIds":["greek-restaurants"],"categories":["Greek Restaurants"]},{"id":"greekRestaurants_24713ff3cd1e","slug":"taverna-o-makis-afidnes-2471","kind":"restaurant","name":"Ταβέρνα ο Μάκης, Αφίδνες","lat":38.192798626562244,"lng":23.84324387519098,"url":"https://maps.app.goo.gl/wEzHjcfenn2nmLN3A","address":"Λεωφ. Καλλίμαχου 2, Σταθμός Αφιδνών 190 14","categoryIds":["greek-restaurants"],"categories":["Greek Restaurants"]},{"id":"greekRestaurants_a2675225a16c","slug":"taverna-galini-a267","kind":"restaurant","name":"Ταβέρνα Γαλήνη","lat":38.21564800607866,"lng":23.86762931136811,"url":"https://maps.app.goo.gl/Fk7koGAZ462ABfY76","address":"Λεωφ. Ειρήνης 8, Πολυδένδρι 190 14","categoryIds":["greek-restaurants"],"categories":["Greek Restaurants"]}],"nearby":[{"id":"greekRestaurants_eb34b601c233","slug":"amygdaleza-eb34","kind":"restaurant","name":"Αμυγδαλέζα","lat":38.138791020092526,"lng":23.886474004082586,"url":"https://maps.app.goo.gl/xbczXzqr95568Y2p7","address":"Μεγ. Αλεξάνδρου 86, Σταμάτα 145 75","categoryIds":["greek-restaurants"],"categories":["Greek Restaurants"],"distanceKm":0.46491725678162354},{"id":"greekRestaurants_626964779e0f","slug":"pipinios-6269","kind":"restaurant","name":"Pipinios","lat":38.12550464522669,"lng":23.87986733346546,"url":"https://maps.app.goo.gl/iPGdNokEkHQwjcP5A","address":"Πέππα 1, Σταμάτα 145 75","categoryIds":["greek-restaurants"],"categories":["Greek Restaurants"],"distanceKm":2.0510196726341436},{"id":"familyFriendly_840d2fe28674","slug":"ktima-kokotoy-840d","kind":"restaurant","name":"ΚΤΗΜΑ ΚΟΚΟΤΟΥ","lat":38.12312970101472,"lng":23.891798090837362,"url":"https://maps.app.goo.gl/9xRLBKhZXYMexEQX8?g_st=ipc","address":"Κτήμα Γ. Κοκοτού 1, Σταμάτα 145 75","categoryIds":["family-friendly"],"categories":["Kid Friendly Locations"],"distanceKm":2.185623273193007},{"id":"wineriesVineyards_a92793e20307","slug":"ktima-kokotoy-a927","kind":"restaurant","name":"ΚΤΗΜΑ ΚΟΚΟΤΟΥ","lat":38.12312381812047,"lng":23.891784558722108,"url":"https://maps.app.goo.gl/TDK8DNGSKRuGWju37?g_st=ipc","address":"Κτήμα Γ. Κοκοτού 1, Σταμάτα 145 75","categoryIds":["wineries-vineyards"],"categories":["Wineries & Vineyards"],"distanceKm":2.186120859127784},{"id":"italianRestaurants_6f0d9cef63fd","slug":"goloso-ristorante-pizzeria-6f0d","kind":"restaurant","name":"GOLOSO ristorante pizzeria","lat":38.139099968736645,"lng":23.85960963696723,"url":"https://maps.app.goo.gl/kpW87YGKNcL27Bhi9","address":"Grigoriou Lampraki 6, Ag. Stefanos 145 65","categoryIds":["italian"],"categories":["Italian Restaurants"],"distanceKm":2.565305391601479},{"id":"municipalities_da89497c2656","slug":"agios-stefanos-da89","kind":"municipality","name":"Άγιος Στέφανος","lat":38.1369,"lng":23.8586,"region":"Βόρεια Προάστια","name_en":"Agios Stefanos","region_en":"North Suburbs","distanceKm":2.699636702345614},{"id":"fishTavernasRestaurants_eaec6bd11d2a","slug":"tsipoyradiko-anoixi-para-tetarto-eaec","kind":"restaurant","name":"Τσιπουράδικο \"Άνοιξη παρά Τέταρτο\"","lat":38.13115537085702,"lng":23.860540472523713,"url":"https://maps.app.goo.gl/sSz3YRigMVCbLBcq6?g_st=ipc","address":"Αθηνών Χαλκίδος 17, Άνοιξη 145 69","categoryIds":["fish-tavernas"],"categories":["Fish Tavernas"],"distanceKm":2.765497750395419},{"id":"italianRestaurants_493a4203dbb3","slug":"da-michele-493a","kind":"restaurant","name":"Da Michele","lat":38.133061719353606,"lng":23.858730163431314,"url":"https://maps.app.goo.gl/ZAb7BbVjZ5jTGd8i8?g_st=ipc","address":"Λεωφ. Μαραθώνος 61, Άνοιξη 145 69","categoryIds":["italian"],"categories":["Italian Restaurants"],"distanceKm":2.8203226939445862}],"sameRegion":[],"mentionedGuides":[]},"__N_SSG":true}