{"pageProps":{"entity":{"id":"mustSeeAttractions_fdd5af362f6e","slug":"archaiologikoy-choroy-mykinon-fdd5","kind":"restaurant","name":"Αρχαιολογικού Χώρου Μυκηνών","lat":37.73086788150969,"lng":22.75613319936325,"url":"https://maps.app.goo.gl/BqhWK8uyZVNjhnRG8?g_st=ipc","address":"Μυκήνες 212 00","categoryIds":["attractions"],"categories":["Must-See Attractions"]},"sameCategory":[{"id":"mustSeeAttractions_6da28e1f03a6","slug":"mykines-6da2","kind":"restaurant","name":"Μυκήνες","lat":37.719549554552074,"lng":22.745771038100788,"url":"https://maps.app.goo.gl/wvmKvmFpppdNJFd78?g_st=ipc","address":"Μυκήνες 212 00","categoryIds":["attractions"],"categories":["Must-See Attractions"]},{"id":"mustSeeAttractions_bf66b7fd059d","slug":"archaiologikos-choros-nemeas-bf66","kind":"restaurant","name":"Αρχαιολογικός Χώρος Νεμέας","lat":37.808169165276894,"lng":22.71117627010056,"url":"https://maps.app.goo.gl/PrH4BXCt62jqPBys9?g_st=ipc","address":"Koutsomidi, Nemea 205 00","categoryIds":["attractions"],"categories":["Must-See Attractions"]},{"id":"mustSeeAttractions_280c2fbdfcc2","slug":"tiryntha-280c","kind":"restaurant","name":"Τίρυνθα","lat":37.596581091934894,"lng":22.800009234306064,"url":"https://maps.app.goo.gl/qq546eKqcWFHVGyWA?g_st=ipc","address":"Tirintha 211 00","categoryIds":["attractions"],"categories":["Must-See Attractions"]},{"id":"mustSeeAttractions_c7dd65dae274","slug":"kastro-akronayplias-c7dd","kind":"restaurant","name":"Κάστρο Ακροναυπλίας","lat":37.56407670573787,"lng":22.793195253729316,"url":"https://maps.app.goo.gl/DkbZi8R48n8E7Qu76?g_st=ipc","address":"Άγγελου Τερζάκη 25, Ναύπλιο 211 00","categoryIds":["attractions"],"categories":["Must-See Attractions"]},{"id":"mustSeeAttractions_17b8ded02742","slug":"froyrio-palamidioy-17b8","kind":"restaurant","name":"Φρούριο Παλαμηδίου","lat":37.562018953170636,"lng":22.803816386211206,"url":"https://maps.app.goo.gl/JVvCKFqv1vyzhKAP7?g_st=ipc","address":"Παλαμηδίου, Ναύπλιο 211 00","categoryIds":["attractions"],"categories":["Must-See Attractions"]},{"id":"mustSeeAttractions_6f7525d9828a","slug":"naos-toy-apollona-6f75","kind":"restaurant","name":"Ναός του Απόλλωνα","lat":37.905934819191934,"lng":22.879090197503242,"url":"https://maps.app.goo.gl/8vWipRURHj9oGwSj8?g_st=ipc","address":"Άργους 105, Αρχαία Κόρινθος 200 07","categoryIds":["attractions"],"categories":["Must-See Attractions"]},{"id":"mustSeeAttractions_10ed76689ca7","slug":"archaia-korinthos-10ed","kind":"restaurant","name":"Αρχαία Κόρινθος","lat":37.90716292407013,"lng":22.881429703730713,"url":"https://maps.app.goo.gl/Wa4GWgjzXVLMVAyZ7?g_st=ipc","address":"Αρχαία Κόρινθος 200 07","categoryIds":["attractions"],"categories":["Must-See Attractions"]},{"id":"mustSeeAttractions_548e87d4f0b8","slug":"dioryga-tis-korinthoy-548e","kind":"restaurant","name":"Διώρυγα της Κορίνθου","lat":37.934260646159885,"lng":22.98428860726812,"url":"https://maps.app.goo.gl/cmoYHbzQvg5Nv9KN7?g_st=ipc","address":"Λουτράκι 203 00","categoryIds":["attractions"],"categories":["Must-See Attractions"]}],"nearby":[{"id":"mustSeeAttractions_6da28e1f03a6","slug":"mykines-6da2","kind":"restaurant","name":"Μυκήνες","lat":37.719549554552074,"lng":22.745771038100788,"url":"https://maps.app.goo.gl/wvmKvmFpppdNJFd78?g_st=ipc","address":"Μυκήνες 212 00","categoryIds":["attractions"],"categories":["Must-See Attractions"],"distanceKm":1.5538626356843601},{"id":"wineriesVineyards_02d00923574f","slug":"lafazanis-winery-02d0","kind":"restaurant","name":"Lafazanis Winery","lat":37.81366330913366,"lng":22.765441857507405,"url":"https://maps.app.goo.gl/A2t4w3k9kTA2cB6j9?g_st=ipc","address":"Θέση Κεφαλάρι, Αρχαίες Κλεωνές 205 00","categoryIds":["wineries-vineyards"],"categories":["Wineries & Vineyards"],"distanceKm":9.242715752454806},{"id":"mustSeeAttractions_bf66b7fd059d","slug":"archaiologikos-choros-nemeas-bf66","kind":"restaurant","name":"Αρχαιολογικός Χώρος Νεμέας","lat":37.808169165276894,"lng":22.71117627010056,"url":"https://maps.app.goo.gl/PrH4BXCt62jqPBys9?g_st=ipc","address":"Koutsomidi, Nemea 205 00","categoryIds":["attractions"],"categories":["Must-See Attractions"],"distanceKm":9.460335173172549},{"id":"wineriesVineyards_011f8d812c25","slug":"domaine-skouras-ktima-skoyra-o-a-e-011f","kind":"restaurant","name":"DOMAINE SKOURAS / ΚΤΗΜΑ ΣΚΟΥΡΑ Ο.Α.Ε.","lat":37.689635245473845,"lng":22.65473621335941,"url":"https://maps.app.goo.gl/xuRduiD32C9WJMTL8?g_st=ipc","address":"Argous - Sternas Rd (10th Km), Malandreni, Άργος 212 00","categoryIds":["wineries-vineyards"],"categories":["Wineries & Vineyards"],"distanceKm":10.029036222944312},{"id":"municipalities_c660ac4fbaed","slug":"argos-c660","kind":"municipality","name":"Άργος","lat":37.6333,"lng":22.7333,"aliases":["Argos","Argos city","Άργη","Αργε","Αργος"],"region":"Αργολίδα","name_en":"Argos","region_en":"Argolis","distanceKm":11.033560168511496},{"id":"wineriesVineyards_88afc94904f1","slug":"karamitsos-winery-88af","kind":"restaurant","name":"Karamitsos Winery","lat":37.8058034996967,"lng":22.666146923082234,"url":"https://maps.app.goo.gl/97nmfFmuN9mMotwW7?g_st=ipc","address":"Θέση Μπογάζι, Νεμέα 205 00","categoryIds":["wineries-vineyards"],"categories":["Wineries & Vineyards"],"distanceKm":11.488825442127522},{"id":"wineriesVineyards_b1e6778656c1","slug":"ktima-bairaktaris-b1e6","kind":"restaurant","name":"Ktima Bairaktaris","lat":37.809706199473894,"lng":22.66496992803815,"url":"https://maps.app.goo.gl/DHUmZNYmY1jciDqK9?g_st=ipc","address":"Ελ. Βενιζέλου 83, Νεμέα 205 00","categoryIds":["wineries-vineyards"],"categories":["Wineries & Vineyards"],"distanceKm":11.87675366510514},{"id":"municipalities_ef70ef6cd5fd","slug":"nemea-ef70","kind":"municipality","name":"Νεμέα","lat":37.817,"lng":22.667,"region":"Κορινθία","name_en":"Nemea","region_en":"Corinthia","distanceKm":12.373397275581759}],"sameRegion":[],"mentionedGuides":[]},"__N_SSG":true}