{"pageProps":{"entity":{"id":"coffeeBrunchRestaurants_1d9f7f941901","slug":"liberty-view-of-nafplio-1d9f","kind":"restaurant","name":"Liberty View Of Nafplio","lat":37.56620305969031,"lng":22.806201213990434,"url":"https://maps.app.goo.gl/ZB4UYRxyx55zXBkS9?g_st=ipc","address":"Sidiras Merarchias 39, Nafplio 211 00","categoryIds":["coffee-brunch"],"categories":["Coffee & Brunch Spots"]},"sameCategory":[{"id":"coffeeBrunchRestaurants_4eafd9c8fe54","slug":"ar-ko-4eaf","kind":"restaurant","name":"Ar&Ko","lat":37.565832099209665,"lng":22.80288803557191,"url":"https://maps.app.goo.gl/VsqimzGRSLvrL3FN7?g_st=ipc","address":"Πάρκο Κολοκοτρώνη, Vasileos Pavlou, Nafplio 211 00","categoryIds":["coffee-brunch"],"categories":["Coffee & Brunch Spots"]},{"id":"coffeeBrunchRestaurants_63f25ca28818","slug":"ear-cafe-bar-63f2","kind":"restaurant","name":"Έαρ Cafe Bar","lat":37.67079207904159,"lng":22.182043630957757,"url":"https://maps.app.goo.gl/JnZa27RuEpaKVL4p6?g_st=ipc","address":"Τρύφωνα Ζαχαρόπουλου, Vitina 220 10","categoryIds":["coffee-brunch"],"categories":["Coffee & Brunch Spots"]},{"id":"coffeeBrunchRestaurants_a0f98e1c2b12","slug":"aiakeion-a0f9","kind":"restaurant","name":"Αιάκειον","lat":37.746460271999695,"lng":23.42831871522419,"url":"https://maps.app.goo.gl/Qzj36fpjYDeGE7CdA?g_st=ipc","address":"Λεωφ. Δημοκρατίας 18, Αίγινα 180 10","categoryIds":["coffee-brunch"],"categories":["Coffee & Brunch Spots"]},{"id":"coffeeBrunchRestaurants_376f978cdcbd","slug":"leof-dimokratias-51-aigina-180-10-376f","kind":"restaurant","name":"Λεωφ. Δημοκρατίας 51, Αίγινα 180 10","lat":37.74458755004641,"lng":23.429733301742875,"url":"https://maps.app.goo.gl/iAGPEbpGe5cmBZmJ9?g_st=ipc","address":"Λεωφ. Δημοκρατίας 51, Αίγινα 180 10","categoryIds":["coffee-brunch"],"categories":["Coffee & Brunch Spots"]},{"id":"coffeeBrunchRestaurants_52f2d70fc21e","slug":"to-mikro-cafe-52f2","kind":"restaurant","name":"Το Μικρό Cafe","lat":37.69190688153916,"lng":23.451237398771788,"url":"https://maps.app.goo.gl/KwgXY17CGsEWtAUX7?g_st=ipc","address":"Unnamed Road, Πέρδικα 180 10","categoryIds":["coffee-brunch"],"categories":["Coffee & Brunch Spots"]},{"id":"coffeeBrunchRestaurants_24def4a9906d","slug":"ydroneta-24de","kind":"restaurant","name":"Υδρονέτα","lat":37.35156953668086,"lng":23.462454743451826,"url":"https://maps.app.goo.gl/JdZyRYb4EEJyr1MGA?g_st=ipc","address":"Επαρ.Οδ. Μανδρακίου-Μωλόυ, Ύδρα 180 40","categoryIds":["coffee-brunch"],"categories":["Coffee & Brunch Spots"]},{"id":"coffeeBrunchRestaurants_6a007e672d77","slug":"the-pirate-bar-6a00","kind":"restaurant","name":"The Pirate Bar","lat":37.34970734644238,"lng":23.46509825080948,"url":"https://maps.app.goo.gl/kHR9XPEtdhdttpmr9?g_st=ipc","address":"Βότση, Ύδρα 180 40","categoryIds":["coffee-brunch"],"categories":["Coffee & Brunch Spots"]},{"id":"coffeeBrunchRestaurants_4ee8e575619a","slug":"modish-coffee-graze-and-booze-4ee8","kind":"restaurant","name":"modish coffee, graze and booze","lat":37.936912830564985,"lng":23.639147286687205,"url":"https://maps.app.goo.gl/Fa2QfE64sQhorAFE9?g_st=ipc","address":"Ακτή Μιαούλη 81, Πειραιάς 185 38","categoryIds":["coffee-brunch"],"categories":["Coffee & Brunch Spots"]}],"nearby":[{"id":"rooftopLoungesRestaurants_3af9241259c9","slug":"liberty-view-of-nafplio-3af9","kind":"restaurant","name":"Liberty View Of Nafplio","lat":37.56620313105519,"lng":22.806200235013893,"url":"https://maps.app.goo.gl/rQCJ25nGMgqPtznc9?g_st=ipc","address":"Σιδηράς Μεραρχίας 39, Ναύπλιο 211 00","categoryIds":["rooftop-lounges"],"categories":["Rooftop Lounges"],"distanceKm":0.00008664974386267392},{"id":"greekRestaurants_0e937f9c9d72","slug":"pidalio-restaurant-0e93","kind":"restaurant","name":"Πηδάλιο -Restaurant","lat":37.56488349870354,"lng":22.8061371647206,"url":"https://maps.app.goo.gl/gpipbAd1f2YeqATv9?g_st=ipc","address":"25ης Μαρτίου 5, Ναύπλιο 211 00","categoryIds":["greek-restaurants"],"categories":["Greek Restaurants"],"distanceKm":0.14683704547440968},{"id":"coffeeBrunchRestaurants_4eafd9c8fe54","slug":"ar-ko-4eaf","kind":"restaurant","name":"Ar&Ko","lat":37.565832099209665,"lng":22.80288803557191,"url":"https://maps.app.goo.gl/VsqimzGRSLvrL3FN7?g_st=ipc","address":"Πάρκο Κολοκοτρώνη, Vasileos Pavlou, Nafplio 211 00","categoryIds":["coffee-brunch"],"categories":["Coffee & Brunch Spots"],"distanceKm":0.2949185093611},{"id":"cheapEatsRestaurants_af2ed2b481d6","slug":"trendy-grill-limani-nayplioy-af2e","kind":"restaurant","name":"Trendy Grill Λιμάνι Ναυπλίου","lat":37.56727361524451,"lng":22.801083825814366,"url":"https://maps.app.goo.gl/9EusCQot9r26ZXTs5?g_st=ipc","address":"Μπουμπουλίνας 41, Ναύπλιο 211 00","categoryIds":["cheap-eats"],"categories":["Gyros & Cheap Eats"],"distanceKm":0.4664806696790761},{"id":"municipalities_6a56a10792f1","slug":"nayplio-6a56","kind":"municipality","name":"Ναύπλιο","lat":37.567,"lng":22.801,"aliases":["Nafplio","Nauplia","Ναυπλία","Ναυπλίων","Ναυπλιο","Ναυπλια"],"region":"Αργολίδα","name_en":"Nafplio","region_en":"Argolis","distanceKm":0.46691159561229273},{"id":"cheapEatsRestaurants_2ea89cfd165d","slug":"stavropoulos-meat-grill-nafplio-2ea8","kind":"restaurant","name":"Stavropoulos Meat & Grill Nafplio","lat":37.56729472413989,"lng":22.801012947686594,"url":"https://maps.app.goo.gl/iaJ7WLVkfAWX8uMY7?g_st=ipc","address":"Μπουμπουλίνας 43, Ναύπλιο 211 00","categoryIds":["cheap-eats"],"categories":["Gyros & Cheap Eats"],"distanceKm":0.4731202896433679},{"id":"italianRestaurants_74b63c612882","slug":"il-porto-74b6","kind":"restaurant","name":"Il Porto","lat":37.56732416244355,"lng":22.800888651268885,"url":"https://maps.app.goo.gl/vWaWFumGBn6ey64P6?g_st=ipc","address":"Μπουμπουλίνας 43, Ναύπλιο 211 00","categoryIds":["italian"],"categories":["Italian Restaurants"],"distanceKm":0.4845486936936546},{"id":"greekRestaurants_7230005d3481","slug":"skarpeta-skarpeta-7230","kind":"restaurant","name":"Σκαρπέτα | Skarpeta","lat":37.56454091062987,"lng":22.80102416836778,"url":"https://maps.app.goo.gl/y1tbJ7Ka9yN8RJXn7?g_st=ipc","address":"Πάρκο, Σταϊκοπούλου, Ναύπλιο 211 00","categoryIds":["greek-restaurants"],"categories":["Greek Restaurants"],"distanceKm":0.49231234234888793}],"sameRegion":[],"mentionedGuides":[{"slug":"athens-day-trips-guide-el","title":"Καλύτερες Ημερήσιες Εκδρομές από την Αθήνα"},{"slug":"athens-day-trips-guide","title":"Best Day Trip Ideas from Athens"}]},"__N_SSG":true}