{"pageProps":{"payload":{"area":{"id":"municipalities_80c55a9453fa","name":"Άνω Πετράλωνα","nameEn":"Ano Petralona","region":"Κέντρο Αθήνας","regionEn":"Athens Center","lat":37.9689,"lng":23.7139,"urlSlug":"ano-petralona","aliases":["Άνω Πετράλωνα","Ano Petralona","Άνω Πετράλωνα Athens Center","Ano Petralona Athens Center","Ανω Πετραλωνα","ano-petralona-80c5","ano-petralona"]},"category":{"id":"desserts","name":"Dessert Shops","urlSlug":"desserts","aliases":["desserts","Dessert Shops","dessert-shops"]},"entities":[{"entity":{"id":"dessertsRestaurants_fd20de94e53a","slug":"special-patisserie-fd20","kind":"restaurant","name":"Special patisserie","lat":37.969012654644324,"lng":23.710612606423226,"url":"https://maps.app.goo.gl/PFQQ6yh6H3RcJ4dD6?g_st=ipc","address":"Τριών Ιεραρχών 124, Αθήνα 118 52","categoryIds":["desserts"],"categories":["Dessert Shops"]},"distanceKm":0.2884446486454363},{"entity":{"id":"dessertsRestaurants_7bd01cf1e63e","slug":"fresko-yogurt-bar-7bd0","kind":"restaurant","name":"Fresko Yogurt Bar","lat":37.9729332607424,"lng":23.720307507382138,"url":"https://maps.app.goo.gl/iHsYU8dLuNLhL1VR9?g_st=ipc","address":"Ιουλίου Σμιθ 2, Αθήνα 118 51","categoryIds":["desserts"],"categories":["Dessert Shops"]},"distanceKm":0.7187500809064701},{"entity":{"id":"dessertsRestaurants_f792b1129076","slug":"flour-of-youth-f792","kind":"restaurant","name":"Flour Of Youth","lat":37.96404409092071,"lng":23.722471600259,"url":"https://maps.app.goo.gl/FibffjzNDReT3bDx7?g_st=ipc","address":"Βεΐκου 91, Αθήνα 117 41","categoryIds":["desserts"],"categories":["Dessert Shops"]},"distanceKm":0.9252928795420491},{"entity":{"id":"dessertsRestaurants_565a86e193ac","slug":"loukoumania-koukaki-565a","kind":"restaurant","name":"Loukoumania Koukaki","lat":37.96292938267619,"lng":23.721586647006472,"url":"https://maps.app.goo.gl/ZLLgE9gFjGjPVqBp7?g_st=ipc","address":"Δημητρακοπούλου 102, Αθήνα 117 41","categoryIds":["desserts"],"categories":["Dessert Shops"]},"distanceKm":0.9459516823549973},{"entity":{"id":"dessertsRestaurants_50a1e483b616","slug":"candycat-50a1","kind":"restaurant","name":"CandyCat","lat":37.97759231826935,"lng":23.712610574379138,"url":"https://maps.app.goo.gl/LLdXVM5e2J4vwRD48?g_st=ipc","address":"Περσεφόνης 23, Αθήνα 118 54","categoryIds":["desserts"],"categories":["Dessert Shops"]},"distanceKm":0.9731276032674787},{"entity":{"id":"dessertsRestaurants_b3f00cec9209","slug":"dolce-far-niente-ice-cream-b3f0","kind":"restaurant","name":"Dolce Far Niente ice cream","lat":37.967030991920694,"lng":23.725035602938313,"url":"https://maps.app.goo.gl/YaopPeigqjaCn38A6?g_st=ipc","address":"Τσάμη Καρατάσου 26, Αθήνα 117 42","categoryIds":["desserts"],"categories":["Dessert Shops"]},"distanceKm":0.9980364824031682},{"entity":{"id":"dessertsRestaurants_7b2e78fd0a01","slug":"gelato-di-nonna-athens-7b2e","kind":"restaurant","name":"Gelato di nonna athens","lat":37.97720359295253,"lng":23.7219062023344,"url":"https://maps.app.goo.gl/bwiTBxSxMuZzG31X9?g_st=ipc","address":"Ερμού 129, Αθήνα 105 55","categoryIds":["desserts"],"categories":["Dessert Shops"]},"distanceKm":1.1597479030602813},{"entity":{"id":"dessertsRestaurants_09255d7a464f","slug":"gellissimo-biscoto-athens-0925","kind":"restaurant","name":"Gellissimo Biscoto Athens","lat":37.976849802530815,"lng":23.72255119140275,"url":"https://maps.app.goo.gl/bhDcxgYzcsmRG16T9?g_st=ipc","address":"Άστιγγος 11, Αθήνα 105 55","categoryIds":["desserts"],"categories":["Dessert Shops"]},"distanceKm":1.1646753550567603},{"entity":{"id":"dessertsRestaurants_2d2fecfa00e3","slug":"mona-lisa-l-atelier-del-gelato-athens-2d2f","kind":"restaurant","name":"Mona Lisa L' Atelier Del Gelato | Athens","lat":37.9757494300935,"lng":23.72490107398961,"url":"https://maps.app.goo.gl/rBV4LZwssuXLxfZU8?g_st=ipc","address":"Αδριανού 48, Αθήνα 105 55","categoryIds":["desserts"],"categories":["Dessert Shops"]},"distanceKm":1.2288038283201255},{"entity":{"id":"dessertsRestaurants_e14aac326296","slug":"fairytale-athens-cafe-suites-e14a","kind":"restaurant","name":"Fairytale Athens Café & Suites","lat":37.978055870009605,"lng":23.721759750185587,"url":"https://maps.app.goo.gl/RRwtMb4QWCm2gxDA6?g_st=ipc","address":"Λεωκορίου 16, Αθήνα 105 54","categoryIds":["desserts"],"categories":["Dessert Shops"]},"distanceKm":1.229284828285322},{"entity":{"id":"dessertsRestaurants_225c3d4d20c4","slug":"lartecono-davinci-gelato-monastiraki-225c","kind":"restaurant","name":"Lartecono Davinci Gelato (Monastiraki)","lat":37.97572321950476,"lng":23.72502143325919,"url":"https://maps.app.goo.gl/oGqQ5yg8faLuCoD76?g_st=ipc","address":"Αδριανού 50, Αθήνα 105 55","categoryIds":["desserts"],"categories":["Dessert Shops"]},"distanceKm":1.2353083841616852},{"entity":{"id":"dessertsRestaurants_2a3970a71069","slug":"django-gelato-athens-2a39","kind":"restaurant","name":"Django Gelato Athens","lat":37.96685228149483,"lng":23.72787408682893,"url":"https://maps.app.goo.gl/uXMPHW7X8YEMKDvp9?g_st=ipc","address":"Βεΐκου 15, Αθήνα 117 42","categoryIds":["desserts"],"categories":["Dessert Shops"]},"distanceKm":1.24596672060975},{"entity":{"id":"dessertsRestaurants_44e6918dfa7f","slug":"alchimistis-cafe-patisserie-44e6","kind":"restaurant","name":"Αλχημιστής Cafe Patisserie","lat":37.96784501160447,"lng":23.7283241033881,"url":"https://maps.app.goo.gl/n2exdkXc6qfVR4fM9?g_st=ipc","address":"Χατζηχρήστου 8, Αθήνα 117 42","categoryIds":["desserts"],"categories":["Dessert Shops"]},"distanceKm":1.2698553149021996},{"entity":{"id":"dessertsRestaurants_31563f38c3c8","slug":"little-kook-3156","kind":"restaurant","name":"Little Kook","lat":37.977733085549225,"lng":23.724289592884226,"url":"https://maps.app.goo.gl/i8dJi89C6KdUv3Qy8?g_st=ipc","address":"Καραϊσκάκη, Αθήνα 105 54","categoryIds":["desserts"],"categories":["Dessert Shops"]},"distanceKm":1.339430275230028},{"entity":{"id":"dessertsRestaurants_ae317ae9a63f","slug":"plan-e-t-ice-cream-ae31","kind":"restaurant","name":"Plan(e)t Ice Cream","lat":37.9768796209685,"lng":23.725383311814642,"url":"https://maps.app.goo.gl/zzypW34gBH83e5G99?g_st=ipc","address":"Ερμού 86, Αθήνα 105 54","categoryIds":["desserts"],"categories":["Dessert Shops"]},"distanceKm":1.3418182564133936},{"entity":{"id":"dessertsRestaurants_22239c987b1a","slug":"patisserie-artemis-gelateria-ice-cream-2223","kind":"restaurant","name":"Patisserie Artemis - Gelateria Ice Cream","lat":37.96786547488155,"lng":23.729346783174314,"url":"https://maps.app.goo.gl/dE6muCbG7gwaWz9H8?g_st=ipc","address":"Μακρυγιάννη 33, Αθήνα 117 42","categoryIds":["desserts"],"categories":["Dessert Shops"]},"distanceKm":1.358951198752033},{"entity":{"id":"dessertsRestaurants_0bd680afbb5e","slug":"zacharoplasteio-profiterol-dimopoylos-kallithea-0bd6","kind":"restaurant","name":"Ζαχαροπλαστείο Προφιτερόλ Δημόπουλος Καλλιθέα","lat":37.95693778495156,"lng":23.709710879410338,"url":"https://maps.app.goo.gl/t1RvynY9vJegnu6i6?g_st=ipc","address":"Αγ. Πάντων 46, Καλλιθέα 176 71","categoryIds":["desserts"],"categories":["Dessert Shops"]},"distanceKm":1.3799047743873292},{"entity":{"id":"dessertsRestaurants_7f61f06e1814","slug":"ice-queen-gelato-7f61","kind":"restaurant","name":"Ice Queen Gelato","lat":37.96875198593791,"lng":23.729719578537868,"url":"https://maps.app.goo.gl/HyCCcJSVYZCw8dMV7?g_st=ipc","address":"Μακρυγιάννη 9, Αθήνα 117 42","categoryIds":["desserts"],"categories":["Dessert Shops"]},"distanceKm":1.3868424302959734},{"entity":{"id":"dessertsRestaurants_722e1b739382","slug":"iceroll-722e","kind":"restaurant","name":"IceRoll","lat":37.97685958783748,"lng":23.726327595889753,"url":"https://maps.app.goo.gl/8LHJovnHdYJkvDpY9?g_st=ipc","address":"Αθηνάς 2, Αθήνα 105 51","categoryIds":["desserts"],"categories":["Dessert Shops"]},"distanceKm":1.4035705440667798},{"entity":{"id":"dessertsRestaurants_5f029576403e","slug":"mrsofty-5f02","kind":"restaurant","name":"MrSofty","lat":37.97794945664196,"lng":23.72507127899626,"url":"https://maps.app.goo.gl/qwbSWbdWTMN4EmVKA?g_st=ipc","address":"Miaouli 19, Athina 105 54","categoryIds":["desserts"],"categories":["Dessert Shops"]},"distanceKm":1.4040673753686825},{"entity":{"id":"dessertsRestaurants_e4d0b6ea2a87","slug":"artos-venetis-e4d0","kind":"restaurant","name":"Artos Venetis","lat":37.97931037334658,"lng":23.723187642950915,"url":"https://maps.app.goo.gl/AnM61t5BuRJETGV27?g_st=ic","address":"Sarri 13, Athina 105 54","categoryIds":["desserts"],"categories":["Dessert Shops"]},"distanceKm":1.4151841727442154},{"entity":{"id":"dessertsRestaurants_259da585070b","slug":"loukoumadaki-athens-259d","kind":"restaurant","name":"Loukoumadaki Athens","lat":37.977901135383384,"lng":23.725373600096002,"url":"https://maps.app.goo.gl/qqDCoKK1WRYwRxk99?g_st=ipc","address":"Miaouli 18, Athina 105 54","categoryIds":["desserts"],"categories":["Dessert Shops"]},"distanceKm":1.418880389212013},{"entity":{"id":"dessertsRestaurants_db3d47fd588a","slug":"arte-athens-db3d","kind":"restaurant","name":"Arte Athens","lat":37.97243004672386,"lng":23.729479004279412,"url":"https://maps.app.goo.gl/Lqr3t1JFkHesFNnk6?g_st=ipc","address":"Τριπόδων 16, Αθήνα 105 58","categoryIds":["desserts"],"categories":["Dessert Shops"]},"distanceKm":1.4209143033372218},{"entity":{"id":"dessertsRestaurants_d00ebd9aea63","slug":"to-sermpetospito-tis-nansys-d00e","kind":"restaurant","name":"Το Σερμπετόσπιτο της Νάνσυς","lat":37.97833603994479,"lng":23.724854486877806,"url":"https://maps.app.goo.gl/uH3RaY6mJ3jPCHMHA?g_st=ipc","address":"Πλ. Ηρώων 1, Αθήνα 105 54","categoryIds":["desserts"],"categories":["Dessert Shops"]},"distanceKm":1.4222881139213093},{"entity":{"id":"dessertsRestaurants_5e0cb4cc4116","slug":"zuccherino-5e0c","kind":"restaurant","name":"Zuccherino","lat":37.97623565675873,"lng":23.72722343699636,"url":"https://maps.app.goo.gl/boMtKFAnr9YpgWRf9?g_st=ipc","address":"Μητροπόλεως 80, Αθήνα 105 60","categoryIds":["desserts"],"categories":["Dessert Shops"]},"distanceKm":1.424526188948558},{"entity":{"id":"dessertsRestaurants_64c591cf617e","slug":"l-arte-del-gelato-64c5","kind":"restaurant","name":"L'Arte del Gelato","lat":37.97831483150659,"lng":23.72508265750619,"url":"https://maps.app.goo.gl/8FCA5DcN18fwe2916?g_st=ipc","address":"Μιαούλη 26, Αθήνα 105 54","categoryIds":["desserts"],"categories":["Dessert Shops"]},"distanceKm":1.4341440399531151},{"entity":{"id":"dessertsRestaurants_b25f1646b2cd","slug":"zoympoyrloy-b25f","kind":"restaurant","name":"Ζουμπουρλού","lat":37.97853908270467,"lng":23.72510275526626,"url":"https://maps.app.goo.gl/Cfhdki2vmrcV7YwL6?g_st=ipc","address":"Αισχύλου 4, Αθήνα 105 54","categoryIds":["desserts"],"categories":["Dessert Shops"]},"distanceKm":1.4536347114977057},{"entity":{"id":"dessertsRestaurants_06178cd0bad9","slug":"ta-serbetia-stou-psyrri-0617","kind":"restaurant","name":"Ta Serbetia stou Psyrri","lat":37.97876293538819,"lng":23.725047329543127,"url":"https://maps.app.goo.gl/bgt7zDJhQUaUd4AZA?g_st=ipc","address":"105 54, Eschilou 3, Athina 105 54","categoryIds":["desserts"],"categories":["Dessert Shops"]},"distanceKm":1.468846676179084},{"entity":{"id":"dessertsRestaurants_195d87455c89","slug":"ta-serbetia-stou-psyrri-195d","kind":"restaurant","name":"Ta Serbetia stou Psyrri","lat":37.97876489928662,"lng":23.725063077362762,"url":"https://maps.app.goo.gl/t2M6Ma6B3LXC2PSo6?g_st=ipc","address":"105 54, Eschilou 3, Athina 105 54","categoryIds":["desserts"],"categories":["Dessert Shops"]},"distanceKm":1.469928228864215},{"entity":{"id":"dessertsRestaurants_d2c71b210d1a","slug":"solo-gelato-d2c7","kind":"restaurant","name":"Solo Gelato","lat":37.972749067243114,"lng":23.730253715604512,"url":"https://maps.app.goo.gl/NjipC5csKbXMwq4j7?g_st=ipc","address":"Αδριανού 120, Αθήνα 105 58","categoryIds":["desserts"],"categories":["Dessert Shops"]},"distanceKm":1.4960562676427689}],"counts":{"totalEntities":4118,"totalInArea":819,"totalInCategory":379,"totalCategoryArea":78},"relatedCategories":[{"categoryId":"coffee-brunch","categorySlug":"brunch","categoryName":"Coffee & Brunch Spots","count":131,"passesThreshold":true},{"categoryId":"cheap-eats","categorySlug":"cheap-eats","categoryName":"Gyros & Cheap Eats","count":103,"passesThreshold":true},{"categoryId":"greek-restaurants","categorySlug":"greek-restaurants","categoryName":"Greek Restaurants","count":94,"passesThreshold":true},{"categoryId":"vegetarian","categorySlug":"vegetarian","categoryName":"Vegetarian Friendly Restaurants","count":72,"passesThreshold":true},{"categoryId":"luxury-dining","categorySlug":"luxury-dining","categoryName":"Luxury Dining","count":70,"passesThreshold":true},{"categoryId":"italian","categorySlug":"italian","categoryName":"Italian Restaurants","count":51,"passesThreshold":true},{"categoryId":"rooftop-lounges","categorySlug":"rooftops","categoryName":"Rooftop Lounges","count":51,"passesThreshold":true},{"categoryId":"attractions","categorySlug":"attractions","categoryName":"Must-See Attractions","count":42,"passesThreshold":true},{"categoryId":"burgers","categorySlug":"burgers","categoryName":"Burger Spots","count":37,"passesThreshold":true},{"categoryId":"asian","categorySlug":"asian-restaurants","categoryName":"Asian Restaurants","count":36,"passesThreshold":true}],"relatedAreas":[{"areaId":"municipalities_75ddb64a42fd","areaName":"Γύζη","areaSlug":"gyzi","count":93,"passesThreshold":true,"nearestDistanceKm":0.32215698371358104},{"areaId":"municipalities_61eaea5bd3d9","areaName":"Ιλίσια","areaSlug":"ilisia","count":86,"passesThreshold":true,"nearestDistanceKm":0.37498482525216587},{"areaId":"municipalities_0fd1d03201a0","areaName":"Μετς","areaSlug":"mets","count":85,"passesThreshold":true,"nearestDistanceKm":0.1314938402817187},{"areaId":"municipalities_af1f7d07cb18","areaName":"Γκάζι","areaSlug":"gkazi","count":85,"passesThreshold":true,"nearestDistanceKm":0.18651008458205726},{"areaId":"municipalities_2f324ee27306","areaName":"Εξάρχεια","areaSlug":"exarcheia","count":85,"passesThreshold":true,"nearestDistanceKm":0.2193595957859492},{"areaId":"municipalities_0cae2c00b932","areaName":"Κολωνάκι","areaSlug":"kolonaki","count":84,"passesThreshold":true,"nearestDistanceKm":0.09888651704551905},{"areaId":"municipalities_f73663b8f738","areaName":"Αττική","areaSlug":"attiki","count":84,"passesThreshold":true,"nearestDistanceKm":0.4088220172465194},{"areaId":"municipalities_5bc013791cf8","areaName":"Πλάκα","areaSlug":"plaka","count":83,"passesThreshold":true,"nearestDistanceKm":0.027062667032199905},{"areaId":"municipalities_2bcfcb8b899f","areaName":"Ψυρρή","areaSlug":"psyrri","count":83,"passesThreshold":true,"nearestDistanceKm":0.047074153549061026},{"areaId":"municipalities_877c3bc81df5","areaName":"Σύνταγμα","areaSlug":"syntagma","count":83,"passesThreshold":true,"nearestDistanceKm":0.14239808242892413}],"passesThreshold":true},"hasAreaGuidePage":true},"__N_SSG":true}