{"pageProps":{"entity":{"id":"municipalities_778d49aa06b7","slug":"agia-778d","kind":"municipality","name":"Αγιά","lat":39.7333,"lng":22.757,"region":"Θεσσαλία","name_en":"Agia","region_en":"Thessaly"},"sameCategory":[],"nearby":[{"id":"coffeeBrunchRestaurants_149629d79d89","slug":"paranga-1496","kind":"restaurant","name":"Paranga","lat":39.69289300756039,"lng":22.880848477388575,"url":"https://maps.app.goo.gl/Er8efE1gu29TMxxG9?g_st=ipc","address":"Epar.Od. Agiokampou-Sklithrou, Agiokampos 400 03","categoryIds":["coffee-brunch"],"categories":["Coffee & Brunch Spots"],"distanceKm":11.507070070206595},{"id":"familyFriendly_61814ffe8685","slug":"olympus-forest-park-6181","kind":"restaurant","name":"Olympus Forest Park","lat":39.936757899181885,"lng":22.59765175900559,"url":"https://maps.app.goo.gl/fhjCwYn9Hozz3TG16?g_st=ipc","address":"Pyrgetos 414 47","categoryIds":["family-friendly"],"categories":["Kid Friendly Locations"],"distanceKm":26.39974184888604},{"id":"municipalities_20d3dae1213c","slug":"larisa-20d3","kind":"municipality","name":"Λάρισα","lat":39.64,"lng":22.42,"aliases":["Larissa","Λάρισσα","Λαρισα"],"region":"Θεσσαλία","name_en":"Larissa","region_en":"Thessaly","distanceKm":30.646431268047866},{"id":"greekRestaurants_f35cc23ab92b","slug":"taverna-olympos-f35c","kind":"restaurant","name":"Ταβέρνα Όλυμπος","lat":39.992317999663214,"lng":22.570332663357174,"url":"https://maps.app.goo.gl/EmvZVtmzZzpCJW9T7?g_st=ipc","address":"Παλαιος Παντελημονας, Παλαιός Παντελεήμονας Πιερίας 600 65","categoryIds":["greek-restaurants"],"categories":["Greek Restaurants"],"distanceKm":32.91445814670389},{"id":"greekRestaurants_f4ebc9969b78","slug":"taverna-archontiko-palaios-panteleimonas-mesogeiaki-koyzina-elliniki-koyzina-vegan-piata-poikilia-kreatikon-salates-f4eb","kind":"restaurant","name":"Ταβέρνα Αρχοντικό - Παλαιός Παντελεήμονας - μεσογειακή κουζίνα, ελληνική κουζίνα, vegan πιάτα, ποικιλία κρεατικών, σαλάτες","lat":39.99233919631375,"lng":22.57037767816054,"url":"https://maps.app.goo.gl/UbSkC2BXuxRo4ggb7?g_st=ipc","address":"Παραδοσιακος οικοισμος, Παντελεήμων 600 65","categoryIds":["greek-restaurants"],"categories":["Greek Restaurants"],"distanceKm":32.91465995250544},{"id":"coffeeBrunchRestaurants_e280eb914580","slug":"gallaria-e280","kind":"restaurant","name":"Gallaria","lat":40.00824042648882,"lng":22.59872088063863,"url":"https://maps.app.goo.gl/mg7jdoneLKkUwxSz7?g_st=ipc","address":"Panteleimonas 600 65","categoryIds":["coffee-brunch"],"categories":["Coffee & Brunch Spots"],"distanceKm":33.423103437400755},{"id":"municipalities_8f859bc809a7","slug":"volos-8f85","kind":"municipality","name":"Βόλος","lat":39.36,"lng":22.95,"aliases":["Βολος"],"region":"Θεσσαλία","name_en":"Volos","region_en":"Thessaly","distanceKm":44.68612551028705},{"id":"municipalities_2909a9376e1f","slug":"pilio-2909","kind":"municipality","name":"Πήλιο","lat":39.4167,"lng":23.0833,"aliases":["Πηλιο"],"region":"Θεσσαλία","name_en":"Pelion","region_en":"Thessaly","distanceKm":44.96069993653468},{"id":"municipalities_3345708eb61e","slug":"portaria-3345","kind":"municipality","name":"Πορταριά","lat":39.3931,"lng":23.0681,"aliases":["Πορταρια"],"region":"Θεσσαλία","name_en":"Portaria","region_en":"Thessaly","distanceKm":46.28378575770132},{"id":"municipalities_3598a91927f2","slug":"makrinitsa-3598","kind":"municipality","name":"Μακρινίτσα","lat":39.3858,"lng":23.0556,"aliases":["Μακρινιτσα","Balcony of Pelion"],"region":"Θεσσαλία","name_en":"Makrinitsa","region_en":"Thessaly","distanceKm":46.350035345584},{"id":"municipalities_50332bb56229","slug":"elassona-5033","kind":"municipality","name":"Ελασσόνα","lat":39.89,"lng":22.19,"region":"Θεσσαλία","name_en":"Elassona","region_en":"Thessaly","distanceKm":51.46914599706923},{"id":"municipalities_aea600bb9138","slug":"farsala-aea6","kind":"municipality","name":"Φάρσαλα","lat":39.3,"lng":22.3833,"region":"Θεσσαλία","name_en":"Farsala","region_en":"Thessaly","distanceKm":57.870199796385855},{"id":"municipalities_d6cca0ebc16b","slug":"almyros-d6cc","kind":"municipality","name":"Αλμυρός","lat":39.1833,"lng":22.75,"region":"Θεσσαλία","name_en":"Almyros","region_en":"Thessaly","distanceKm":61.16016222726635},{"id":"municipalities_719868db1f0f","slug":"karditsa-7198","kind":"municipality","name":"Καρδίτσα","lat":39.3667,"lng":21.9167,"region":"Θεσσαλία","name_en":"Karditsa","region_en":"Thessaly","distanceKm":82.77868389886176},{"id":"municipalities_b4d73a932ebe","slug":"trikala-b4d7","kind":"municipality","name":"Τρίκαλα","lat":39.555,"lng":21.767,"region":"Θεσσαλία","name_en":"Trikala","region_en":"Thessaly","distanceKm":87.05347213444743},{"id":"municipalities_97b9bf0a5122","slug":"skiathos-97b9","kind":"municipality","name":"Σκιάθος","lat":39.162,"lng":23.491,"region":"Θεσσαλία","name_en":"Skiathos","region_en":"Thessaly","distanceKm":89.48495675517097},{"id":"municipalities_15e687326170","slug":"kastraki-15e6","kind":"municipality","name":"Καστράκι","lat":39.7156,"lng":21.6303,"aliases":["Καστρακι"],"region":"Θεσσαλία","name_en":"Kastraki","region_en":"Thessaly","distanceKm":96.37823737637413},{"id":"municipalities_8b6865e1bc7a","slug":"kalampaka-8b68","kind":"municipality","name":"Καλαμπάκα","lat":39.704,"lng":21.627,"aliases":["Kalabaka"],"region":"Θεσσαλία","name_en":"Kalampaka","region_en":"Thessaly","distanceKm":96.70338426665829},{"id":"municipalities_5a21ee6d3ece","slug":"skopelos-5a21","kind":"municipality","name":"Σκόπελος","lat":39.121,"lng":23.725,"region":"Θεσσαλία","name_en":"Skopelos","region_en":"Thessaly","distanceKm":107.46098504224359},{"id":"municipalities_dd7ffd7012fc","slug":"alonnisos-dd7f","kind":"municipality","name":"Αλόννησος","lat":39.15,"lng":23.8667,"region":"Θεσσαλία","name_en":"Alonissos","region_en":"Thessaly","distanceKm":115.27018759251698}],"sameRegion":[{"id":"municipalities_15e687326170","slug":"kastraki-15e6","kind":"municipality","name":"Καστράκι","lat":39.7156,"lng":21.6303,"aliases":["Καστρακι"],"region":"Θεσσαλία","name_en":"Kastraki","region_en":"Thessaly"},{"id":"municipalities_20d3dae1213c","slug":"larisa-20d3","kind":"municipality","name":"Λάρισα","lat":39.64,"lng":22.42,"aliases":["Larissa","Λάρισσα","Λαρισα"],"region":"Θεσσαλία","name_en":"Larissa","region_en":"Thessaly"},{"id":"municipalities_2909a9376e1f","slug":"pilio-2909","kind":"municipality","name":"Πήλιο","lat":39.4167,"lng":23.0833,"aliases":["Πηλιο"],"region":"Θεσσαλία","name_en":"Pelion","region_en":"Thessaly"},{"id":"municipalities_3345708eb61e","slug":"portaria-3345","kind":"municipality","name":"Πορταριά","lat":39.3931,"lng":23.0681,"aliases":["Πορταρια"],"region":"Θεσσαλία","name_en":"Portaria","region_en":"Thessaly"},{"id":"municipalities_3598a91927f2","slug":"makrinitsa-3598","kind":"municipality","name":"Μακρινίτσα","lat":39.3858,"lng":23.0556,"aliases":["Μακρινιτσα","Balcony of Pelion"],"region":"Θεσσαλία","name_en":"Makrinitsa","region_en":"Thessaly"},{"id":"municipalities_50332bb56229","slug":"elassona-5033","kind":"municipality","name":"Ελασσόνα","lat":39.89,"lng":22.19,"region":"Θεσσαλία","name_en":"Elassona","region_en":"Thessaly"},{"id":"municipalities_5a21ee6d3ece","slug":"skopelos-5a21","kind":"municipality","name":"Σκόπελος","lat":39.121,"lng":23.725,"region":"Θεσσαλία","name_en":"Skopelos","region_en":"Thessaly"},{"id":"municipalities_719868db1f0f","slug":"karditsa-7198","kind":"municipality","name":"Καρδίτσα","lat":39.3667,"lng":21.9167,"region":"Θεσσαλία","name_en":"Karditsa","region_en":"Thessaly"},{"id":"municipalities_8b6865e1bc7a","slug":"kalampaka-8b68","kind":"municipality","name":"Καλαμπάκα","lat":39.704,"lng":21.627,"aliases":["Kalabaka"],"region":"Θεσσαλία","name_en":"Kalampaka","region_en":"Thessaly"},{"id":"municipalities_8f859bc809a7","slug":"volos-8f85","kind":"municipality","name":"Βόλος","lat":39.36,"lng":22.95,"aliases":["Βολος"],"region":"Θεσσαλία","name_en":"Volos","region_en":"Thessaly"},{"id":"municipalities_97b9bf0a5122","slug":"skiathos-97b9","kind":"municipality","name":"Σκιάθος","lat":39.162,"lng":23.491,"region":"Θεσσαλία","name_en":"Skiathos","region_en":"Thessaly"},{"id":"municipalities_aea600bb9138","slug":"farsala-aea6","kind":"municipality","name":"Φάρσαλα","lat":39.3,"lng":22.3833,"region":"Θεσσαλία","name_en":"Farsala","region_en":"Thessaly"},{"id":"municipalities_b4d73a932ebe","slug":"trikala-b4d7","kind":"municipality","name":"Τρίκαλα","lat":39.555,"lng":21.767,"region":"Θεσσαλία","name_en":"Trikala","region_en":"Thessaly"},{"id":"municipalities_d6cca0ebc16b","slug":"almyros-d6cc","kind":"municipality","name":"Αλμυρός","lat":39.1833,"lng":22.75,"region":"Θεσσαλία","name_en":"Almyros","region_en":"Thessaly"},{"id":"municipalities_dd7ffd7012fc","slug":"alonnisos-dd7f","kind":"municipality","name":"Αλόννησος","lat":39.15,"lng":23.8667,"region":"Θεσσαλία","name_en":"Alonissos","region_en":"Thessaly"}],"mentionedGuides":[{"slug":"american-college-of-greece-agia-paraskevi-guide","title":"American College of Greece: Welcome to Agia Paraskevi"},{"slug":"american-college-of-greece-agia-paraskevi-guide-el","title":"American College of Greece: Οδηγός Αγίας Παρασκευής"}],"canonicalSlug":"agia-778d","isCanonicalEntity":true,"enrichment":{"summary_en":"Αγιά is a curated neighborhood area in Θεσσαλία. It is connected to 0 nearby Googlementor picks to help travelers build a stronger local route.","summary_el":"Αγιά είναι ένα επιλεγμένο σημείο ενδιαφέροντος στην περιοχή Θεσσαλία. Συνδέεται με 0 κοντινές προτάσεις του Googlementor για πιο ολοκληρωμένη εμπειρία.","vibe_tags":["local-neighborhood","base-for-exploring"],"best_for":["first-time visitors","walk-and-explore days","return visitors"],"visit_moments":["late morning walks","sunset exploration"],"practical_note":"0 curated places are within walkable distance from this area center.","nearby_walkable_count":0,"nearby_count_2km":0,"confidence":0.55},"areaContext":null,"intentContexts":[]},"__N_SSG":true}