{"pageProps":{"entity":{"id":"fishTavernasRestaurants_027f6761e133","slug":"apoplous-greek-restaurant-027f","kind":"restaurant","name":"Apoplous Greek Restaurant","lat":36.99681929753503,"lng":25.136496141109756,"url":"https://maps.app.goo.gl/Akkg1SwxQNzQ7Qxb7?g_st=ipc","address":"Αλυκη Παρος, Aliki 844 00","categoryIds":["fish-tavernas"],"categories":["Fish Tavernas"]},"sameCategory":[{"id":"fishTavernasRestaurants_371770ae7cd1","slug":"taverna-mouragio-3717","kind":"restaurant","name":"Taverna Mouragio","lat":37.08418771728996,"lng":25.146730718001848,"url":"https://maps.app.goo.gl/ScnZGixdZ4dqUL3V6?g_st=ipc","address":"Παροικία - Παραλιακός Δρόμος Παροικίας Παρος, 844 00","categoryIds":["fish-tavernas"],"categories":["Fish Tavernas"]},{"id":"fishTavernasRestaurants_6ff9bd52a54d","slug":"ouzeri-halaris-6ff9","kind":"restaurant","name":"Ouzeri Halaris","lat":37.03514430348778,"lng":25.26011593103973,"url":"https://maps.app.goo.gl/cqX5H5Ys7cUSx38m7?g_st=ipc","address":"Epar.Od. Parikias-Piso Livadiou, Piso Livadi 844 00","categoryIds":["fish-tavernas"],"categories":["Fish Tavernas"]},{"id":"fishTavernasRestaurants_d0606bef60e0","slug":"bluefish-paros-d060","kind":"restaurant","name":"Bluefish Paros","lat":37.12385227854004,"lng":25.235378897681453,"url":"https://maps.app.goo.gl/YqeBLughpHcPmHy19?g_st=ipc","address":"Naoussa, Paros 844 01","categoryIds":["fish-tavernas"],"categories":["Fish Tavernas"]},{"id":"fishTavernasRestaurants_2b513f5d0dca","slug":"sigi-ikthios-2b51","kind":"restaurant","name":"Sigi Ikthios","lat":37.12488461984584,"lng":25.2375451186848,"url":"https://maps.app.goo.gl/a8XzzgdiGdqnwgxp6?g_st=ipc","address":"Limanaki Naousa, Naousa 844 01","categoryIds":["fish-tavernas"],"categories":["Fish Tavernas"]},{"id":"fishTavernasRestaurants_9bf6858efa20","slug":"siparos-seaside-restaurant-9bf6","kind":"restaurant","name":"Siparos Seaside Restaurant","lat":37.12641356420799,"lng":25.266629540061626,"url":"https://maps.app.goo.gl/Y5FqpWpLwoZYaHni9?g_st=ipc","address":"Ξιφαρά 844 01","categoryIds":["fish-tavernas","luxury-dining"],"categories":["Fish Tavernas","Luxury Dining"],"legacySlugs":["siparos-seaside-restaurant-0493"]},{"id":"fishTavernasRestaurants_0de5c8be59df","slug":"o-katsoynas-0de5","kind":"restaurant","name":"Ο ΚΑΤΣΟΥΝΑΣ","lat":37.13969481378141,"lng":25.28757143574355,"url":"https://maps.app.goo.gl/oZW4nirAsKmE2gbg8?g_st=ipc","address":"Σάντα Μαρια 844 01","categoryIds":["fish-tavernas"],"categories":["Fish Tavernas"]},{"id":"fishTavernasRestaurants_e4bded96d41b","slug":"akrogiali-restaurant-studios-e4bd","kind":"restaurant","name":"Akrogiali Restaurant- Studios","lat":37.06850212174682,"lng":25.355709551048015,"url":"https://maps.app.goo.gl/f5SYBYZkLKJhZSov6?g_st=ipc","address":"Αγ. Αννα 843 00","categoryIds":["fish-tavernas"],"categories":["Fish Tavernas"]},{"id":"fishTavernasRestaurants_e056f191e63e","slug":"nissaki-restaurant-est-1971-e056","kind":"restaurant","name":"Nissaki Restaurant est. 1971","lat":37.10031334389294,"lng":25.37366043300574,"url":"https://maps.app.goo.gl/yMHNpMahUsVq7kRRA?g_st=ipc","address":"Agiou Georgiou, Naxos 843 00","categoryIds":["fish-tavernas"],"categories":["Fish Tavernas"]},{"id":"fishTavernasRestaurants_78cb3f4380c2","slug":"cafe-ouzerie-barabbas-78cb","kind":"restaurant","name":"Café Ouzerie Barabbas","lat":37.10204187531306,"lng":25.37502616238965,"url":"https://maps.app.goo.gl/BH3za9tuZUwNeCz87?g_st=ipc","address":"Naxos 843 00","categoryIds":["fish-tavernas"],"categories":["Fish Tavernas"]},{"id":"fishTavernasRestaurants_d7e3e1315391","slug":"sarris-tavern-d7e3","kind":"restaurant","name":"Sarris Tavern","lat":37.10364861622317,"lng":25.37580990635783,"url":"https://maps.app.goo.gl/AXzYwLeXrYvTjRri8?g_st=ipc","address":"Sarris Tavern 8, Naxos 843 00","categoryIds":["fish-tavernas"],"categories":["Fish Tavernas"]},{"id":"fishTavernasRestaurants_b653485690ac","slug":"apanemi-town-b653","kind":"restaurant","name":"Apanemi Town","lat":37.10834996586582,"lng":25.376821223396767,"url":"https://maps.app.goo.gl/FCsJjFS6FdS2hgQ86?g_st=ipc","address":"Leof. Naxou Eggaron, Naxos 843 00","categoryIds":["fish-tavernas"],"categories":["Fish Tavernas"]},{"id":"fishTavernasRestaurants_1b4735e87a52","slug":"koubara-seafood-bar-restaurant-1b47","kind":"restaurant","name":"Koubara Seafood Bar Restaurant","lat":36.72514063337273,"lng":25.257265066552723,"url":"https://maps.app.goo.gl/kT2ULB9zvGfgQDHr6?g_st=ipc","address":"Κουμπάρα 840 01","categoryIds":["fish-tavernas"],"categories":["Fish Tavernas"]}],"nearby":[{"id":"greekRestaurants_aa0e1af7bc56","slug":"thalassamou-open-fire-cuisine-aa0e","kind":"restaurant","name":"THALASSAMOU Open fire cuisine","lat":36.99421802833398,"lng":25.136146022142626,"url":"https://maps.app.goo.gl/DfsAxthWgbjoKtec7?g_st=ipc","address":"Overlooking the Marina, Αλυκή 844 00","categoryIds":["greek-restaurants"],"categories":["Greek Restaurants"],"distanceKm":0.2909144179652609},{"id":"greekRestaurants_90c18905dda5","slug":"restaurant-anna-90c1","kind":"restaurant","name":"Restaurant Anna","lat":37.004432167225445,"lng":25.223293064427825,"url":"https://maps.app.goo.gl/q682NKoAC4uBTxx19?g_st=ipc","address":"Δρυός 844 00","categoryIds":["greek-restaurants"],"categories":["Greek Restaurants"],"distanceKm":7.754213651200484},{"id":"greekRestaurants_83e1c2c69f39","slug":"o-klarinos-83e1","kind":"restaurant","name":"Ο Κλαρίνος","lat":37.05648947923969,"lng":25.206502727549665,"url":"https://maps.app.goo.gl/4Tf96Q67ADKq6o4e8?g_st=ipc","address":"Unnamed Road, Λεύκες 844 00","categoryIds":["greek-restaurants"],"categories":["Greek Restaurants"],"distanceKm":9.090984290751399},{"id":"dessertsRestaurants_0565a393e110","slug":"sweet-smelling-kitchen-0565","kind":"restaurant","name":"Sweet Smelling Kitchen","lat":37.05574111764851,"lng":25.209011772952916,"url":"https://maps.app.goo.gl/S3vicBhUXPLLmBEK6?g_st=ipc","address":"ΧΩΡΙΟ ΛΕΥΚΕΣ Τ.Θ. 50104, Paros 844 00","categoryIds":["desserts"],"categories":["Dessert Shops"],"distanceKm":9.185159554851731},{"id":"italianRestaurants_aef2b7848975","slug":"impasto-aef2","kind":"restaurant","name":"Impasto","lat":37.081621983659346,"lng":25.14571923250388,"url":"https://maps.app.goo.gl/Hzvu5t3VhUBHB7JC7?g_st=ipc","address":"Paros 844 00","categoryIds":["italian"],"categories":["Italian Restaurants"],"distanceKm":9.465096002368934},{"id":"greekRestaurants_1ccef1a865fb","slug":"rema-floga-paros-rema-floga-paros-1cce","kind":"restaurant","name":"Rema Floga Paros | Ρέμα Φλόγα Πάρος","lat":37.083260531103015,"lng":25.151257743937837,"url":"https://maps.app.goo.gl/WS1Gkc789zcvCqy19?g_st=ipc","address":"Ρέμα Φλόγα, Paros 844 00","categoryIds":["greek-restaurants"],"categories":["Greek Restaurants"],"distanceKm":9.70071334045644},{"id":"fishTavernasRestaurants_371770ae7cd1","slug":"taverna-mouragio-3717","kind":"restaurant","name":"Taverna Mouragio","lat":37.08418771728996,"lng":25.146730718001848,"url":"https://maps.app.goo.gl/ScnZGixdZ4dqUL3V6?g_st=ipc","address":"Παροικία - Παραλιακός Δρόμος Παροικίας Παρος, 844 00","categoryIds":["fish-tavernas"],"categories":["Fish Tavernas"],"distanceKm":9.757301817680515},{"id":"asianRestaurants_c5266398dba0","slug":"bebop-c526","kind":"restaurant","name":"Bebop","lat":37.08435266337157,"lng":25.146838121018355,"url":"https://maps.app.goo.gl/o98h6Mb7JAp58wHN7?g_st=ipc","address":"Paros 844 00","categoryIds":["asian","rooftop-lounges"],"categories":["Asian Restaurants","Rooftop Lounges"],"legacySlugs":["bebop-2446"],"distanceKm":9.776453816854184},{"id":"dessertsRestaurants_b5a2b5f82729","slug":"vanilla-gelateria-b5a2","kind":"restaurant","name":"Vanilla Gelateria","lat":37.08455372963838,"lng":25.14916406230604,"url":"https://maps.app.goo.gl/QoqnghnxkCVXxyoT6?g_st=ipc","address":"Paroikias, Zoodochou Pigis 84400, Paros 844 00","categoryIds":["desserts"],"categories":["Dessert Shops"],"distanceKm":9.820202904694048},{"id":"municipalities_9268ba4d6ee8","slug":"paros-9268","kind":"municipality","name":"Πάρος","lat":37.085,"lng":25.15,"aliases":["Paros","Πάριος","Παρος"],"region":"Κυκλάδες","name_en":"Paros","region_en":"Cyclades","distanceKm":9.878228323045494},{"id":"municipalities_e281bb3a199f","slug":"paroikia-e281","kind":"municipality","name":"Παροικιά","lat":37.0858,"lng":25.1508,"aliases":["Παροικια","Paros Town"],"region":"Κυκλάδες","name_en":"Parikia","region_en":"Cyclades","distanceKm":9.975320019132244},{"id":"luxuryDiningRestaurants_162c7c269249","slug":"mario-restaurant-162c","kind":"restaurant","name":"Mario Restaurant","lat":37.091334008503296,"lng":25.156686500869714,"url":"https://maps.app.goo.gl/XvstBKLEfdRFvAHv7?g_st=ipc","address":"Λιβάδια, Paros 844 00","categoryIds":["luxury-dining"],"categories":["Luxury Dining"],"distanceKm":10.661231381810303},{"id":"greekRestaurants_bd1dd4fa8785","slug":"taverna-charoyla-bd1d","kind":"restaurant","name":"Ταβέρνα Χαρούλα","lat":37.044240609289616,"lng":25.24781569297046,"url":"https://maps.app.goo.gl/vTVSyzgoJGLRUtHJ6?g_st=ipc","address":"Μάρπησσα 844 00","categoryIds":["greek-restaurants"],"categories":["Greek Restaurants"],"distanceKm":11.201687858734347},{"id":"fishTavernasRestaurants_6ff9bd52a54d","slug":"ouzeri-halaris-6ff9","kind":"restaurant","name":"Ouzeri Halaris","lat":37.03514430348778,"lng":25.26011593103973,"url":"https://maps.app.goo.gl/cqX5H5Ys7cUSx38m7?g_st=ipc","address":"Epar.Od. Parikias-Piso Livadiou, Piso Livadi 844 00","categoryIds":["fish-tavernas"],"categories":["Fish Tavernas"],"distanceKm":11.773939703073665},{"id":"dessertsRestaurants_8e6cc5f0cd66","slug":"xilofournos-8e6c","kind":"restaurant","name":"Xilofournos","lat":37.08496749131104,"lng":25.244272132832048,"url":"https://maps.app.goo.gl/rAbxWJidxPCZz1CF9?g_st=ipc","address":"Epar.Od. Naoussas-Marpissas, Paros 844 01","categoryIds":["desserts"],"categories":["Dessert Shops"],"distanceKm":13.69586434085425},{"id":"luxuryDiningRestaurants_1787918aabcc","slug":"matsuhisa-paros-1787","kind":"restaurant","name":"Matsuhisa Paros","lat":37.122332088945846,"lng":25.232444794394056,"url":"https://maps.app.goo.gl/MmRAPTUjpZ9ev73JA?g_st=ipc","address":"Avant Mar Hotel, Paros 844 01","categoryIds":["luxury-dining"],"categories":["Luxury Dining"],"distanceKm":16.348339392099955},{"id":"municipalities_57c14c9b4c1f","slug":"naoysa-paros-57c1","kind":"municipality","name":"Νάουσα Πάρος","lat":37.12,"lng":25.24,"region":"Πάρος","name_en":"Naousa Paros","region_en":"Paros","distanceKm":16.491358138205037},{"id":"coffeeBrunchRestaurants_aba1a76a9734","slug":"batistas-bakery-aba1","kind":"restaurant","name":"Batistas Bakery","lat":37.120044252975426,"lng":25.241091509858137,"url":"https://maps.app.goo.gl/VX68GiVxifYLzhWu6?g_st=ipc","address":"Naousa 844 01","categoryIds":["coffee-brunch","desserts"],"categories":["Coffee & Brunch Spots","Dessert Shops"],"legacySlugs":["batistas-bakery-29b6"],"distanceKm":16.54956791100874},{"id":"fishTavernasRestaurants_d0606bef60e0","slug":"bluefish-paros-d060","kind":"restaurant","name":"Bluefish Paros","lat":37.12385227854004,"lng":25.235378897681453,"url":"https://maps.app.goo.gl/YqeBLughpHcPmHy19?g_st=ipc","address":"Naoussa, Paros 844 01","categoryIds":["fish-tavernas"],"categories":["Fish Tavernas"],"distanceKm":16.62872941630182},{"id":"municipalities_e44f44ea872e","slug":"naoysa-paroy-e44f","kind":"municipality","name":"Ναούσα Πάρου","lat":37.1242,"lng":25.2383,"aliases":["Ναουσα Παρου","Naousa","Naoussa"],"region":"Κυκλάδες","name_en":"Naousa Paros","region_en":"Cyclades","distanceKm":16.799518512531378},{"id":"cheapEatsRestaurants_666655654a40","slug":"souvlakia-kargas-6666","kind":"restaurant","name":"Souvlakia KARGAS","lat":37.124561868830334,"lng":25.238091044543676,"url":"https://maps.app.goo.gl/5vu438KzmoWTk1dRA?g_st=ipc","address":"Naousa 844 01","categoryIds":["cheap-eats"],"categories":["Gyros & Cheap Eats"],"distanceKm":16.82350387572698},{"id":"fishTavernasRestaurants_2b513f5d0dca","slug":"sigi-ikthios-2b51","kind":"restaurant","name":"Sigi Ikthios","lat":37.12488461984584,"lng":25.2375451186848,"url":"https://maps.app.goo.gl/a8XzzgdiGdqnwgxp6?g_st=ipc","address":"Limanaki Naousa, Naousa 844 01","categoryIds":["fish-tavernas"],"categories":["Fish Tavernas"],"distanceKm":16.827944689255784},{"id":"italianRestaurants_b7cf983e2771","slug":"casa-giacomo-paros-b7cf","kind":"restaurant","name":"Casa Giacomo Paros","lat":37.12454320720165,"lng":25.238458349168585,"url":"https://maps.app.goo.gl/Ciaf8V2SrHA91Eqw7?g_st=ipc","address":"Little Venice, Naousa 844 01","categoryIds":["italian"],"categories":["Italian Restaurants"],"distanceKm":16.839241223403533},{"id":"luxuryDiningRestaurants_daff556d4496","slug":"barbarossa-restaurant-daff","kind":"restaurant","name":"Barbarossa Restaurant","lat":37.12519351534626,"lng":25.23748367778552,"url":"https://maps.app.goo.gl/cdTNGtzo6JQDuLoVA?g_st=ipc","address":"Παλιό Λιμάνι Νάουσας, Limanaki, Naousa 844 01","categoryIds":["luxury-dining"],"categories":["Luxury Dining"],"distanceKm":16.854111449648048}],"sameRegion":[],"mentionedGuides":[],"canonicalSlug":"apoplous-greek-restaurant-027f","isCanonicalEntity":true,"enrichment":{"summary_en":"Apoplous Greek Restaurant is a curated restaurant in Aliki 844 00 in the Fish Tavernas collection. It is connected to 1 nearby Googlementor picks to help travelers build a stronger local route.","summary_el":"Apoplous Greek Restaurant είναι ένα επιλεγμένο σημείο φαγητού στην περιοχή Aliki 844 00 και ανήκει στη συλλογή Fish Tavernas. Συνδέεται με 1 κοντινές προτάσεις του Googlementor για πιο ολοκληρωμένη εμπειρία.","vibe_tags":["curated","seafood-local"],"best_for":["first-time visitors","food lovers"],"visit_moments":["lunch stop","dinner stop"],"practical_note":"Address and direct map link are available for easy turn-by-turn access.","nearby_walkable_count":1,"nearby_count_2km":1,"confidence":0.9},"areaContext":null,"intentContexts":[]},"__N_SSG":true}