{"pageProps":{"entity":{"id":"fishTavernasRestaurants_074f55a0dc1f","slug":"argoyra-074f","kind":"restaurant","name":"Άργουρα","lat":37.94571544668026,"lng":23.686046120341317,"url":"https://maps.app.goo.gl/1kvNDFxr5cv6uWZC9?g_st=ipc","address":"Αγησιλάου 49, Καλλιθέα 176 75","categoryIds":["fish-tavernas"],"categories":["Fish Tavernas"]},"sameCategory":[{"id":"fishTavernasRestaurants_d3ccb775792b","slug":"pezoylas-apo-to-1951-d3cc","kind":"restaurant","name":"ΠΕΖΟΥΛΑΣ (από το 1951)","lat":37.941197029624846,"lng":23.689708276473834,"url":"https://maps.app.goo.gl/wNokkeuemmPoYfgR7?g_st=ipc","address":"Πεισίστρατου 11, Καλλιθέα 176 74","categoryIds":["fish-tavernas"],"categories":["Fish Tavernas"]},{"id":"fishTavernasRestaurants_a7fb3513622e","slug":"liogerma-tis-athinas-a7fb","kind":"restaurant","name":"Λιόγερμα της Αθήνας","lat":37.938563581924875,"lng":23.703200039765804,"url":"https://maps.app.goo.gl/uLKm2p4zN326i9gP8?g_st=ipc","address":"Νέστορος 21, Παλαιό Φάληρο 175 61","categoryIds":["fish-tavernas"],"categories":["Fish Tavernas"]},{"id":"fishTavernasRestaurants_85d0b9f93ad9","slug":"psipsina-athinaiki-psarotaverna-85d0","kind":"restaurant","name":"Ψιψίνα - Αθηναϊκή Ψαροταβέρνα","lat":37.932530674886344,"lng":23.698986064990937,"url":"https://maps.app.goo.gl/Acz6F4ajfzUYXq7y7?g_st=ipc","address":"Colonel Zisimopoulos, 96, Athina 175 61","categoryIds":["fish-tavernas"],"categories":["Fish Tavernas"]},{"id":"fishTavernasRestaurants_948960a20968","slug":"piscis-mikrolimano-9489","kind":"restaurant","name":"PISCIS (Mikrolimano)","lat":37.938490522505944,"lng":23.659032074228165,"url":"https://maps.app.goo.gl/MsZEdpRYJ8p1nqmj9?g_st=ipc","address":"Ακτή Κουμουνδούρου 30, Πειραιάς 185 33","categoryIds":["fish-tavernas"],"categories":["Fish Tavernas"]},{"id":"fishTavernasRestaurants_159bf25520a5","slug":"varoulko-seaside-restaurant-159b","kind":"restaurant","name":"Varoulko Seaside Restaurant","lat":37.93728962950612,"lng":23.658502308499486,"url":"https://maps.app.goo.gl/hXejEzhnCFuwNgQb8?g_st=ipc","address":"Ακτή Κουμουνδούρου 54, Πειραιάς 185 33","categoryIds":["fish-tavernas","luxury-dining"],"categories":["Fish Tavernas","Luxury Dining"],"legacySlugs":["varoulko-seaside-restaurant-e7d4"]},{"id":"fishTavernasRestaurants_2686f1888d4d","slug":"jimmy-s-fish-2686","kind":"restaurant","name":"Jimmy's Fish","lat":37.937411300998484,"lng":23.658441347658343,"url":"https://maps.app.goo.gl/14E3gTprwmDfYzgz9?g_st=ipc","address":"Ακτή Κουμουνδούρου 52, Πειραιάς 185 33","categoryIds":["fish-tavernas"],"categories":["Fish Tavernas"]},{"id":"fishTavernasRestaurants_cfbde0cf6e1b","slug":"psaraki-meze-cfbd","kind":"restaurant","name":"Ψαράκι μεζέ","lat":37.954110812866894,"lng":23.653950848247767,"url":"https://maps.app.goo.gl/xP92x5imjgkE5bYk8?g_st=ipc","address":"Αραχώβης 21, Πειραιάς 185 40","categoryIds":["fish-tavernas"],"categories":["Fish Tavernas"]},{"id":"fishTavernasRestaurants_edc276d1ee37","slug":"papalina-edc2","kind":"restaurant","name":"Παπαλίνα","lat":37.96476188274757,"lng":23.713898599739846,"url":"https://maps.app.goo.gl/JpVSQDpzvzWZWivJ9?g_st=ipc","address":"Πραμάντων 20, Αθήνα 117 41","categoryIds":["fish-tavernas"],"categories":["Fish Tavernas"]},{"id":"fishTavernasRestaurants_29b7a2cb7567","slug":"parkbench-29b7","kind":"restaurant","name":"PARKBENCH","lat":37.96471554544835,"lng":23.714402162518947,"url":"https://maps.app.goo.gl/ZwWcfuMochSRxPUk8?g_st=ipc","address":"Πραμάντων 10, Αθήνα 117 41","categoryIds":["fish-tavernas"],"categories":["Fish Tavernas"]},{"id":"fishTavernasRestaurants_18abd934868c","slug":"to-palio-podilato-18ab","kind":"restaurant","name":"Το Παλιό Ποδήλατο","lat":37.97490750365618,"lng":23.706970638600303,"url":"https://maps.app.goo.gl/gCMLdURmK8mriaGKA?g_st=ipc","address":"Ανδρονίκου 11, Αθήνα 118 54","categoryIds":["fish-tavernas"],"categories":["Fish Tavernas"]},{"id":"fishTavernasRestaurants_ae0677e73373","slug":"zarkadoylas-ta-kavoyrakia-ae06","kind":"restaurant","name":"ΖΑΡΚΑΔΟΥΛΑΣ - ΤΑ ΚΑΒΟΥΡΑΚΙΑ","lat":37.966878654895595,"lng":23.649066817348377,"url":"https://maps.app.goo.gl/NBfwV1GcmoeRk6M28?g_st=ipc","address":"Βιθυνίας 32, Νίκαια 184 50","categoryIds":["fish-tavernas"],"categories":["Fish Tavernas"]},{"id":"fishTavernasRestaurants_5ca9e8498c91","slug":"porto-spyros-psarotaverna-5ca9","kind":"restaurant","name":"Porto Spyros Ψαροταβέρνα","lat":37.912061800224556,"lng":23.708912866162887,"url":"https://maps.app.goo.gl/DbA3c4zjWgt9uetk7?g_st=ipc","address":"Μαρίνα, Άλιμος 174 55","categoryIds":["fish-tavernas"],"categories":["Fish Tavernas"]}],"nearby":[{"id":"cheapEatsRestaurants_a8d42456619d","slug":"k-grill-a8d4","kind":"restaurant","name":"K Grill","lat":37.94385577895444,"lng":23.685146441261658,"url":"https://maps.app.goo.gl/jm56NTQ4kCuysLqy9?g_st=ipc","address":"Λεωφ. Ελ. Βενιζέλου 330, Καλλιθέα 176 75","categoryIds":["cheap-eats"],"categories":["Gyros & Cheap Eats"],"distanceKm":0.22132373075362705},{"id":"cheapEatsRestaurants_5a582036089f","slug":"soyvlakia-o-leyteris-5a58","kind":"restaurant","name":"Σουβλάκια Ο Λευτέρης","lat":37.9462875556964,"lng":23.690611255358668,"url":"https://maps.app.goo.gl/ZYkxvzMHun71tMk86?g_st=ipc","address":"Ξενοφώντος 146, Καλλιθέα 176 74","categoryIds":["cheap-eats"],"categories":["Gyros & Cheap Eats"],"distanceKm":0.40532758300722976},{"id":"coffeeBrunchRestaurants_ae83561038ee","slug":"earth-athens-cafe-ae83","kind":"restaurant","name":"Earth Athens Cafe","lat":37.941294659441795,"lng":23.687632862231634,"url":"https://maps.app.goo.gl/ZTYgTAJLEes56zpH6?g_st=ipc","address":"Λεωφ. Ποσειδώνος 16, Αθήνα 176 74","categoryIds":["coffee-brunch"],"categories":["Coffee & Brunch Spots"],"distanceKm":0.5108822116213039},{"id":"coffeeBrunchRestaurants_4b099057dd52","slug":"jardin-all-day-stories-all-day-bar-restaurant-4b09","kind":"restaurant","name":"Jardin All Day Stories ALL DAY BAR RESTAURANT","lat":37.9431877608235,"lng":23.691220347054728,"url":"https://maps.app.goo.gl/6WktKFcLfn3upUnQ6?g_st=ipc","address":"Ναυάρχου Βότση 1, Καλλιθέα 176 74","categoryIds":["coffee-brunch"],"categories":["Coffee & Brunch Spots"],"distanceKm":0.533725542632448},{"id":"fishTavernasRestaurants_d3ccb775792b","slug":"pezoylas-apo-to-1951-d3cc","kind":"restaurant","name":"ΠΕΖΟΥΛΑΣ (από το 1951)","lat":37.941197029624846,"lng":23.689708276473834,"url":"https://maps.app.goo.gl/wNokkeuemmPoYfgR7?g_st=ipc","address":"Πεισίστρατου 11, Καλλιθέα 176 74","categoryIds":["fish-tavernas"],"categories":["Fish Tavernas"],"distanceKm":0.5962877020994688},{"id":"greekRestaurants_be3d05b1fe1e","slug":"to-zempereki-koytoyki-moschato-be3d","kind":"restaurant","name":"Το Ζεμπερέκι - Κουτούκι | Μοσχάτο","lat":37.95039414676294,"lng":23.681530575454058,"url":"https://maps.app.goo.gl/D3JyGs93dHL849c59","address":"Σολωμού 92, Μοσχάτο 183 45","categoryIds":["greek-restaurants"],"categories":["Greek Restaurants"],"distanceKm":0.6537812677069577},{"id":"familyFriendly_2be04a6b1d81","slug":"parko-stayros-niarchos-2be0","kind":"restaurant","name":"Πάρκο Σταύρος Νιάρχος","lat":37.942200854453496,"lng":23.69345667519833,"url":"https://maps.app.goo.gl/8s92kLGvmU1yA3fe8?g_st=ipc","address":"Λεωφ. Ανδρέα Συγγρού 364, Καλλιθέα 176 74","categoryIds":["family-friendly"],"categories":["Kid Friendly Locations"],"distanceKm":0.7582919805791165},{"id":"familyFriendly_a3e2f6188bf1","slug":"kentro-politismoy-idryma-stayros-niarchos-a3e2","kind":"restaurant","name":"Κέντρο Πολιτισμού Ίδρυμα Σταύρος Νιάρχος","lat":37.93985683037055,"lng":23.692122482978903,"url":"https://maps.app.goo.gl/ib2tnNRmM1foX6zd8?g_st=ipc","address":"Λεωφ. Ανδρέα Συγγρού 364, Καλλιθέα 176 74","categoryIds":["family-friendly","attractions"],"categories":["Kid Friendly Locations","Must-See Attractions"],"legacySlugs":["kentro-politismoy-idryma-stayros-niarchos-dc50"],"distanceKm":0.841609593749468},{"id":"coffeeBrunchRestaurants_a7d2f7f99d61","slug":"flaked-croissanterie-moschato-a7d2","kind":"restaurant","name":"Flaked Croissanterie Moschato","lat":37.950290767501926,"lng":23.678176231264157,"url":"https://maps.app.goo.gl/dnEf78CD1KTT1Ewu8?g_st=ipc","address":"Ομήρου 67, Μοσχάτο 183 45","categoryIds":["coffee-brunch"],"categories":["Coffee & Brunch Spots"],"distanceKm":0.8573366645563983},{"id":"luxuryDiningRestaurants_84da05872d04","slug":"delta-restaurant-84da","kind":"restaurant","name":"Delta Restaurant","lat":37.939081506016144,"lng":23.69146940163584,"url":"https://maps.app.goo.gl/GSgBvngfewJdVtkA7?g_st=ipc","address":"Λεωφ. Ανδρέα Συγγρού 364, Αθήνα 176 74","categoryIds":["luxury-dining"],"categories":["Luxury Dining"],"distanceKm":0.8776763061098284},{"id":"cheapEatsRestaurants_06d5422f5e7f","slug":"o-mitsos-06d5","kind":"restaurant","name":"Ο Μήτσος","lat":37.951501915719206,"lng":23.678968163051703,"url":"https://maps.app.goo.gl/dt9dXWs5vWdhfFah6?g_st=ipc","address":"Στρ. Μακρυγιάννη 92, Μοσχάτο 183 45","categoryIds":["cheap-eats"],"categories":["Gyros & Cheap Eats"],"distanceKm":0.8939642831468214},{"id":"greekRestaurants_9776b2d601ec","slug":"ladokolla-9776","kind":"restaurant","name":"Λαδόκολλα","lat":37.9520147160471,"lng":23.6947618008044,"url":"https://maps.app.goo.gl/R6yszu5SCxsZfVoCA","address":"Λεωφ. Ελ. Βενιζέλου 243, Καλλιθέα 176 73","categoryIds":["greek-restaurants"],"categories":["Greek Restaurants"],"distanceKm":1.0366604120330116},{"id":"municipalities_b065b48a967f","slug":"freattyda-b065","kind":"municipality","name":"Φρεαττύδα","lat":37.9399,"lng":23.676,"region":"Πειραιάς","name_en":"Freattyda","region_en":"Piraeus","distanceKm":1.0928110415339516},{"id":"luxuryDiningRestaurants_8af90b11228b","slug":"e-o-pan-asian-restaurant-athens-8af9","kind":"restaurant","name":"e&o Pan-Asian Restaurant Athens","lat":37.94077150497406,"lng":23.696879786243304,"url":"https://maps.app.goo.gl/nAwF6RqCeQF6rY2P9?g_st=ipc","address":"Λεωφ. Ανδρέα Συγγρού 385, Παλαιό Φάληρο 175 64","categoryIds":["luxury-dining"],"categories":["Luxury Dining"],"distanceKm":1.0976042303199711},{"id":"dessertsRestaurants_aa7ff0f772d7","slug":"galaktopoleio-stamoy-aa7f","kind":"restaurant","name":"Γαλακτοπωλείο ΣΤΑΜΟΥ","lat":37.952436676546995,"lng":23.695715045897042,"url":"https://maps.app.goo.gl/rD5jojpe8yMT5k159?g_st=ipc","address":"Λεωφ. Ελ. Βενιζέλου 210, Καλλιθέα 176 75","categoryIds":["desserts"],"categories":["Dessert Shops"],"distanceKm":1.1301913193918123},{"id":"familyFriendly_afbd73fa31fe","slug":"neo-psifiako-planitario-idrymatos-eygenidoy-afbd","kind":"restaurant","name":"Νέο Ψηφιακό Πλανητάριο Ιδρύματος Ευγενίδου","lat":37.939924135926155,"lng":23.69664152972377,"url":"https://maps.app.goo.gl/6jTSzr4LUutvW78x6?g_st=ipc","address":"387 Syggrou Ave. (entrance 11, Πεντέλης st, Αθήνα 175 64","categoryIds":["family-friendly"],"categories":["Kid Friendly Locations"],"distanceKm":1.1304686440344562},{"id":"municipalities_ddfd3c80db9c","slug":"kallithea-ddfd","kind":"municipality","name":"Καλλιθέα","lat":37.9503,"lng":23.6985,"aliases":["Kallithea","Kalithea","Καλλιθεα"],"region":"Νότια Προάστια","name_en":"Kallithea","region_en":"Southern Suburbs","distanceKm":1.2051455503339863},{"id":"cheapEatsRestaurants_59ab2f655733","slug":"rosiko-pantopoleio-astana-59ab","kind":"restaurant","name":"Ρώσικο παντοπωλείο «Αστάνα»","lat":37.94852960059528,"lng":23.699447152301282,"url":"https://maps.app.goo.gl/Wayix2624vmNqYTT7?g_st=ipc","address":"Δημοσθένους 207, Καλλιθέα 176 73","categoryIds":["cheap-eats"],"categories":["Gyros & Cheap Eats"],"distanceKm":1.2160331411128547},{"id":"greekRestaurants_8f822e8ac2ff","slug":"koytoyki-kalypso-8f82","kind":"restaurant","name":"Κουτούκι Καλυψώ","lat":37.94264199335833,"lng":23.700097006546933,"url":"https://maps.app.goo.gl/rZqTMGc8sQwmZ4zq9","address":"Πεντέλης 41-43, Παλαιό Φάληρο 175 64","categoryIds":["greek-restaurants"],"categories":["Greek Restaurants"],"distanceKm":1.278632439281912},{"id":"greekRestaurants_9f70b553963a","slug":"mezeklikia-9f70","kind":"restaurant","name":"Μεζεκλίκια","lat":37.956254016920724,"lng":23.6929814615304,"url":"https://maps.app.goo.gl/SnbVYFRKtMTWopt79","address":"Π. Τσαλδάρη 277, Καλλιθέα 176 75","categoryIds":["greek-restaurants"],"categories":["Greek Restaurants"],"distanceKm":1.3202212246265057},{"id":"greekRestaurants_80e12cc840c6","slug":"arsenis-80e1","kind":"restaurant","name":"Arsenis","lat":37.93975062587842,"lng":23.699103162428067,"url":"https://maps.app.goo.gl/gyD8tEfz4zabut3VA","address":"Ζησιμοπούλου 19, Παλαιό Φάληρο 175 64","categoryIds":["greek-restaurants"],"categories":["Greek Restaurants"],"distanceKm":1.3232184529611946},{"id":"cheapEatsRestaurants_d3888472f0b3","slug":"crepa-holic-kallithea-d388","kind":"restaurant","name":"Crepa Holic Kallithea","lat":37.95367992559356,"lng":23.699030666898533,"url":"https://maps.app.goo.gl/bLUgt75SSMUYsoXCA?g_st=ipc","address":"Λεωφ. Ελ. Βενιζέλου 185, Καλλιθέα 176 73","categoryIds":["cheap-eats"],"categories":["Gyros & Cheap Eats"],"distanceKm":1.4424068036678819},{"id":"asianRestaurants_6469a1c3e3f9","slug":"seoul-house-restaurant-6469","kind":"restaurant","name":"Seoul House Restaurant","lat":37.93747372174057,"lng":23.69891697936759,"url":"https://maps.app.goo.gl/ibEXR2ZExidRVduY6?g_st=ipc","address":"Ζησιμοπούλου 40, Παλαιό Φάληρο 175 64","categoryIds":["asian"],"categories":["Asian Restaurants"],"distanceKm":1.4538821316589354},{"id":"italianRestaurants_47773e592b01","slug":"vitello-trattoria-romana-4777","kind":"restaurant","name":"Vitello Trattoria Romana","lat":37.93748817614671,"lng":23.699162197380616,"url":"https://maps.app.goo.gl/QapvvUw9jwdJSAM69?g_st=ipc","address":"Ζησιμοπούλου 41, Παλαιό Φάληρο 175 64","categoryIds":["italian"],"categories":["Italian Restaurants"],"distanceKm":1.4696373044737938}],"sameRegion":[],"mentionedGuides":[],"canonicalSlug":"argoyra-074f","isCanonicalEntity":true,"enrichment":{"summary_en":"Άργουρα is a curated restaurant in Καλλιθέα 176 75 in the Fish Tavernas collection. It is connected to 7 nearby Googlementor picks to help travelers build a stronger local route.","summary_el":"Άργουρα είναι ένα επιλεγμένο σημείο φαγητού στην περιοχή Καλλιθέα 176 75 και ανήκει στη συλλογή Fish Tavernas. Συνδέεται με 7 κοντινές προτάσεις του Googlementor για πιο ολοκληρωμένη εμπειρία.","vibe_tags":["curated","seafood-local"],"best_for":["first-time visitors","food lovers"],"visit_moments":["lunch stop","dinner stop"],"practical_note":"Address and direct map link are available for easy turn-by-turn access.","nearby_walkable_count":7,"nearby_count_2km":48,"confidence":0.98},"areaContext":{"slug":"freattyda","name":"Freattyda"},"intentContexts":[{"href":"/fish-tavernas/freattyda","label":"Fish Tavernas in Freattyda","categorySlug":"fish-tavernas","categoryName":"Fish Tavernas","areaSlug":"freattyda","areaName":"Freattyda"}]},"__N_SSG":true}