{"pageProps":{"entity":{"id":"coffeeBrunchRestaurants_aba1a76a9734","slug":"batistas-bakery-aba1","kind":"restaurant","name":"Batistas Bakery","lat":37.120044252975426,"lng":25.241091509858137,"url":"https://maps.app.goo.gl/VX68GiVxifYLzhWu6?g_st=ipc","address":"Naousa 844 01","categoryIds":["coffee-brunch","desserts"],"categories":["Coffee & Brunch Spots","Dessert Shops"],"legacySlugs":["batistas-bakery-29b6"]},"sameCategory":[{"id":"coffeeBrunchRestaurants_4d900c72bc80","slug":"caffe-greco-4d90","kind":"restaurant","name":"Caffe Greco","lat":37.06283829210554,"lng":25.482179694372245,"url":"https://maps.app.goo.gl/bvxkDLgLP2gCrEDeA?g_st=ipc","address":"Χαλκείο 843 02","categoryIds":["coffee-brunch","desserts"],"categories":["Coffee & Brunch Spots","Dessert Shops"],"legacySlugs":["caffe-greco-cc34"]},{"id":"coffeeBrunchRestaurants_409a1c00e009","slug":"fasolas-gastrokafeneio-409a","kind":"restaurant","name":"Fasolas Gastrokafeneio","lat":37.05047829842748,"lng":25.497802752574465,"url":"https://maps.app.goo.gl/s28qFqLPN9on9SZy8?g_st=ipc","address":"Filoti 843 02","categoryIds":["coffee-brunch","desserts"],"categories":["Coffee & Brunch Spots","Dessert Shops"],"legacySlugs":["fasolas-gastrokafeneio-d95b"]},{"id":"coffeeBrunchRestaurants_a3547d8efbea","slug":"kolokytha-a354","kind":"restaurant","name":"Kolokytha","lat":36.54726990012019,"lng":26.353646413648903,"url":"https://maps.app.goo.gl/6FaxgMCjdWj9EPA48?g_st=ipc","address":"Unnamed Rd, Astipalea 859 00","categoryIds":["coffee-brunch","desserts"],"categories":["Coffee & Brunch Spots","Dessert Shops"],"legacySlugs":["kolokytha-3090"]},{"id":"coffeeBrunchRestaurants_64018e74309c","slug":"meltemi-6401","kind":"restaurant","name":"Meltemi","lat":36.545359250189506,"lng":26.352356416685993,"url":"https://maps.app.goo.gl/nFrvN47758pZXWzT8?g_st=ipc","address":"Astypalaia 859 00","categoryIds":["coffee-brunch","desserts"],"categories":["Coffee & Brunch Spots","Dessert Shops"],"legacySlugs":["meltemi-57c8"]},{"id":"coffeeBrunchRestaurants_c6ccd807225a","slug":"bread-b-c-bread-before-christ-c6cc","kind":"restaurant","name":"BREAD B.C. Bread Before Christ","lat":38.02007274297337,"lng":23.803168344895795,"url":"https://maps.app.goo.gl/TyGqvKXydEaJvedUA?g_st=ipc","address":"Αγίας Παρασκευής 59, Χαλάνδρι 152 34","categoryIds":["coffee-brunch","desserts"],"categories":["Coffee & Brunch Spots","Dessert Shops"],"legacySlugs":["bread-b-c-bread-before-christ-012b"]},{"id":"coffeeBrunchRestaurants_95dcd35af657","slug":"artopoieio-zacharoplasteio-arto-zymia-95dc","kind":"restaurant","name":"Αρτοποιείο Ζαχαροπλαστείο \"Αρτο..ζυμιά\"","lat":37.96420038301339,"lng":23.731208987347678,"url":"https://maps.app.goo.gl/FBqvEkq9TKnNFmzu9?g_st=ipc","address":"Αγλαονίκης 22, Αθήνα 117 43","categoryIds":["coffee-brunch","desserts"],"categories":["Coffee & Brunch Spots","Dessert Shops"],"legacySlugs":["artopoieio-zacharoplasteio-arto-zymia-afb8"]},{"id":"coffeeBrunchRestaurants_b9df566768c1","slug":"kora-b9df","kind":"restaurant","name":"KORA","lat":37.98011321585773,"lng":23.739705197719534,"url":"https://maps.app.goo.gl/bGLYXaCD894A2zsQ8?g_st=ipc","address":"Παναγιώτου Αναγνωστοπούλου 44, Αθήνα 106 73","categoryIds":["coffee-brunch","desserts"],"categories":["Coffee & Brunch Spots","Dessert Shops"],"legacySlugs":["kora-96fe"]},{"id":"coffeeBrunchRestaurants_f2909cf2cf63","slug":"fresko-yogurt-bar-f290","kind":"restaurant","name":"Fresko Yogurt Bar","lat":37.97293031928317,"lng":23.72030106020887,"url":"https://maps.app.goo.gl/i3qPMdgczqaXz45r8?g_st=ipc","address":"Ιουλίου Σμιθ 2, Αθήνα 118 51","categoryIds":["coffee-brunch","desserts"],"categories":["Coffee & Brunch Spots","Dessert Shops"],"legacySlugs":["fresko-yogurt-bar-7bd0"]},{"id":"coffeeBrunchRestaurants_fb26a559a60b","slug":"fairytale-athens-cafe-suites-fb26","kind":"restaurant","name":"Fairytale Athens Café & Suites","lat":37.97805432206773,"lng":23.72175598680767,"url":"https://maps.app.goo.gl/4J2S3rbDjHuSFWW98?g_st=ipc","address":"Λεωκορίου 16, Αθήνα 105 54","categoryIds":["coffee-brunch","desserts"],"categories":["Coffee & Brunch Spots","Dessert Shops"],"legacySlugs":["fairytale-athens-cafe-suites-e14a"]},{"id":"coffeeBrunchRestaurants_8eea389a06d0","slug":"santo-belto-8eea","kind":"restaurant","name":"Santo Belto","lat":38.00295539657206,"lng":23.737407823969118,"url":"https://maps.app.goo.gl/ZWa6fMfeNKbHNQGB7?g_st=ipc","address":"Αγίας Ζώνης 21, Αθήνα 113 61","categoryIds":["coffee-brunch","desserts"],"categories":["Coffee & Brunch Spots","Dessert Shops"],"legacySlugs":["santo-belto-1567"]},{"id":"coffeeBrunchRestaurants_d3ad015b2f14","slug":"candycat-d3ad","kind":"restaurant","name":"CandyCat","lat":37.9775897353217,"lng":23.712604313955598,"url":"https://maps.app.goo.gl/bi9guRdYDSpWYmxn9?g_st=ipc","address":"Περσεφόνης 23, Αθήνα 118 54","categoryIds":["coffee-brunch","desserts"],"categories":["Coffee & Brunch Spots","Dessert Shops"],"legacySlugs":["candycat-50a1"]},{"id":"coffeeBrunchRestaurants_9257bf81b3ff","slug":"fairytale-to-paramythopoleio-tis-n-filadelfeias-9257","kind":"restaurant","name":"Fairytale – Το Παραμυθοπωλείο της Ν. Φιλαδέλφειας","lat":38.03555224332492,"lng":23.73629276954315,"url":"https://maps.app.goo.gl/GoWf19SFoVJNYBHP9?g_st=ipc","address":"Νικ. Τρυρια 48, Νέα Φιλαδέλφεια Αττικής 143 41","categoryIds":["coffee-brunch","desserts"],"categories":["Coffee & Brunch Spots","Dessert Shops"],"legacySlugs":["fairytale-to-paramythopoleio-tis-n-filadelfeias-db46"]}],"nearby":[{"id":"municipalities_57c14c9b4c1f","slug":"naoysa-paros-57c1","kind":"municipality","name":"Νάουσα Πάρος","lat":37.12,"lng":25.24,"region":"Πάρος","name_en":"Naousa Paros","region_en":"Paros","distanceKm":0.0969024749642452},{"id":"wineriesVineyards_f17638e49b8a","slug":"oinopoieio-moraiti-f176","kind":"restaurant","name":"Οινοποιείο Μωραΐτη","lat":37.1229987485843,"lng":25.244213980711866,"url":"https://maps.app.goo.gl/1HbespH52SwExwaW8?g_st=ipc","address":"Επαρχιακή Οδός Νάουσας-Μάρπισσας, Νάουσα 844 01","categoryIds":["wineries-vineyards"],"categories":["Wineries & Vineyards"],"distanceKm":0.4296180354417361},{"id":"municipalities_e44f44ea872e","slug":"naoysa-paroy-e44f","kind":"municipality","name":"Ναούσα Πάρου","lat":37.1242,"lng":25.2383,"aliases":["Ναουσα Παρου","Naousa","Naoussa"],"region":"Κυκλάδες","name_en":"Naousa Paros","region_en":"Cyclades","distanceKm":0.5242045060070243},{"id":"coffeeBrunchRestaurants_cab3ccb32dd1","slug":"come-back-cab3","kind":"restaurant","name":"come back","lat":37.12451513145797,"lng":25.239009860245982,"url":"https://maps.app.goo.gl/iW2VgvcVsbQ7K6rVA?g_st=ipc","address":"Beach, Agios Dimitrios, Naousa 844 01","categoryIds":["coffee-brunch"],"categories":["Coffee & Brunch Spots"],"distanceKm":0.5302925185431504},{"id":"italianRestaurants_b7cf983e2771","slug":"casa-giacomo-paros-b7cf","kind":"restaurant","name":"Casa Giacomo Paros","lat":37.12454320720165,"lng":25.238458349168585,"url":"https://maps.app.goo.gl/Ciaf8V2SrHA91Eqw7?g_st=ipc","address":"Little Venice, Naousa 844 01","categoryIds":["italian"],"categories":["Italian Restaurants"],"distanceKm":0.5520544557469873},{"id":"cheapEatsRestaurants_666655654a40","slug":"souvlakia-kargas-6666","kind":"restaurant","name":"Souvlakia KARGAS","lat":37.124561868830334,"lng":25.238091044543676,"url":"https://maps.app.goo.gl/5vu438KzmoWTk1dRA?g_st=ipc","address":"Naousa 844 01","categoryIds":["cheap-eats"],"categories":["Gyros & Cheap Eats"],"distanceKm":0.5684281808740026},{"id":"fishTavernasRestaurants_2b513f5d0dca","slug":"sigi-ikthios-2b51","kind":"restaurant","name":"Sigi Ikthios","lat":37.12488461984584,"lng":25.2375451186848,"url":"https://maps.app.goo.gl/a8XzzgdiGdqnwgxp6?g_st=ipc","address":"Limanaki Naousa, Naousa 844 01","categoryIds":["fish-tavernas"],"categories":["Fish Tavernas"],"distanceKm":0.6233372837052038},{"id":"luxuryDiningRestaurants_daff556d4496","slug":"barbarossa-restaurant-daff","kind":"restaurant","name":"Barbarossa Restaurant","lat":37.12519351534626,"lng":25.23748367778552,"url":"https://maps.app.goo.gl/cdTNGtzo6JQDuLoVA?g_st=ipc","address":"Παλιό Λιμάνι Νάουσας, Limanaki, Naousa 844 01","categoryIds":["luxury-dining"],"categories":["Luxury Dining"],"distanceKm":0.6558638885570075},{"id":"fishTavernasRestaurants_d0606bef60e0","slug":"bluefish-paros-d060","kind":"restaurant","name":"Bluefish Paros","lat":37.12385227854004,"lng":25.235378897681453,"url":"https://maps.app.goo.gl/YqeBLughpHcPmHy19?g_st=ipc","address":"Naoussa, Paros 844 01","categoryIds":["fish-tavernas"],"categories":["Fish Tavernas"],"distanceKm":0.6601719293140372},{"id":"luxuryDiningRestaurants_1787918aabcc","slug":"matsuhisa-paros-1787","kind":"restaurant","name":"Matsuhisa Paros","lat":37.122332088945846,"lng":25.232444794394056,"url":"https://maps.app.goo.gl/MmRAPTUjpZ9ev73JA?g_st=ipc","address":"Avant Mar Hotel, Paros 844 01","categoryIds":["luxury-dining"],"categories":["Luxury Dining"],"distanceKm":0.8077455474043448},{"id":"asianRestaurants_77a64bfea5a1","slug":"tao-s-asian-restaurant-77a6","kind":"restaurant","name":"Tao's Asian Restaurant","lat":37.1152419319295,"lng":25.264893830214174,"url":"https://maps.app.goo.gl/QAY53CMCsWPZJ1nX7?g_st=ipc","address":"Ambelas 844 01","categoryIds":["asian"],"categories":["Asian Restaurants"],"distanceKm":2.176979373566052},{"id":"fishTavernasRestaurants_9bf6858efa20","slug":"siparos-seaside-restaurant-9bf6","kind":"restaurant","name":"Siparos Seaside Restaurant","lat":37.12641356420799,"lng":25.266629540061626,"url":"https://maps.app.goo.gl/Y5FqpWpLwoZYaHni9?g_st=ipc","address":"Ξιφαρά 844 01","categoryIds":["fish-tavernas","luxury-dining"],"categories":["Fish Tavernas","Luxury Dining"],"legacySlugs":["siparos-seaside-restaurant-0493"],"distanceKm":2.372386238046004},{"id":"dessertsRestaurants_8e6cc5f0cd66","slug":"xilofournos-8e6c","kind":"restaurant","name":"Xilofournos","lat":37.08496749131104,"lng":25.244272132832048,"url":"https://maps.app.goo.gl/rAbxWJidxPCZz1CF9?g_st=ipc","address":"Epar.Od. Naoussas-Marpissas, Paros 844 01","categoryIds":["desserts"],"categories":["Dessert Shops"],"distanceKm":3.910544256298205},{"id":"fishTavernasRestaurants_0de5c8be59df","slug":"o-katsoynas-0de5","kind":"restaurant","name":"Ο ΚΑΤΣΟΥΝΑΣ","lat":37.13969481378141,"lng":25.28757143574355,"url":"https://maps.app.goo.gl/oZW4nirAsKmE2gbg8?g_st=ipc","address":"Σάντα Μαρια 844 01","categoryIds":["fish-tavernas"],"categories":["Fish Tavernas"],"distanceKm":4.664050284198328},{"id":"dessertsRestaurants_0565a393e110","slug":"sweet-smelling-kitchen-0565","kind":"restaurant","name":"Sweet Smelling Kitchen","lat":37.05574111764851,"lng":25.209011772952916,"url":"https://maps.app.goo.gl/S3vicBhUXPLLmBEK6?g_st=ipc","address":"ΧΩΡΙΟ ΛΕΥΚΕΣ Τ.Θ. 50104, Paros 844 00","categoryIds":["desserts"],"categories":["Dessert Shops"],"distanceKm":7.695588804629819},{"id":"greekRestaurants_83e1c2c69f39","slug":"o-klarinos-83e1","kind":"restaurant","name":"Ο Κλαρίνος","lat":37.05648947923969,"lng":25.206502727549665,"url":"https://maps.app.goo.gl/4Tf96Q67ADKq6o4e8?g_st=ipc","address":"Unnamed Road, Λεύκες 844 00","categoryIds":["greek-restaurants"],"categories":["Greek Restaurants"],"distanceKm":7.70422179938897},{"id":"luxuryDiningRestaurants_162c7c269249","slug":"mario-restaurant-162c","kind":"restaurant","name":"Mario Restaurant","lat":37.091334008503296,"lng":25.156686500869714,"url":"https://maps.app.goo.gl/XvstBKLEfdRFvAHv7?g_st=ipc","address":"Λιβάδια, Paros 844 00","categoryIds":["luxury-dining"],"categories":["Luxury Dining"],"distanceKm":8.137455549515014},{"id":"greekRestaurants_bd1dd4fa8785","slug":"taverna-charoyla-bd1d","kind":"restaurant","name":"Ταβέρνα Χαρούλα","lat":37.044240609289616,"lng":25.24781569297046,"url":"https://maps.app.goo.gl/vTVSyzgoJGLRUtHJ6?g_st=ipc","address":"Μάρπησσα 844 00","categoryIds":["greek-restaurants"],"categories":["Greek Restaurants"],"distanceKm":8.45006001343832},{"id":"municipalities_e281bb3a199f","slug":"paroikia-e281","kind":"municipality","name":"Παροικιά","lat":37.0858,"lng":25.1508,"aliases":["Παροικια","Paros Town"],"region":"Κυκλάδες","name_en":"Parikia","region_en":"Cyclades","distanceKm":8.866661716866535},{"id":"greekRestaurants_1ccef1a865fb","slug":"rema-floga-paros-rema-floga-paros-1cce","kind":"restaurant","name":"Rema Floga Paros | Ρέμα Φλόγα Πάρος","lat":37.083260531103015,"lng":25.151257743937837,"url":"https://maps.app.goo.gl/WS1Gkc789zcvCqy19?g_st=ipc","address":"Ρέμα Φλόγα, Paros 844 00","categoryIds":["greek-restaurants"],"categories":["Greek Restaurants"],"distanceKm":8.955531492381352},{"id":"municipalities_9268ba4d6ee8","slug":"paros-9268","kind":"municipality","name":"Πάρος","lat":37.085,"lng":25.15,"aliases":["Paros","Πάριος","Παρος"],"region":"Κυκλάδες","name_en":"Paros","region_en":"Cyclades","distanceKm":8.969112522553658},{"id":"dessertsRestaurants_b5a2b5f82729","slug":"vanilla-gelateria-b5a2","kind":"restaurant","name":"Vanilla Gelateria","lat":37.08455372963838,"lng":25.14916406230604,"url":"https://maps.app.goo.gl/QoqnghnxkCVXxyoT6?g_st=ipc","address":"Paroikias, Zoodochou Pigis 84400, Paros 844 00","categoryIds":["desserts"],"categories":["Dessert Shops"],"distanceKm":9.057474325120003},{"id":"asianRestaurants_c5266398dba0","slug":"bebop-c526","kind":"restaurant","name":"Bebop","lat":37.08435266337157,"lng":25.146838121018355,"url":"https://maps.app.goo.gl/o98h6Mb7JAp58wHN7?g_st=ipc","address":"Paros 844 00","categoryIds":["asian","rooftop-lounges"],"categories":["Asian Restaurants","Rooftop Lounges"],"legacySlugs":["bebop-2446"],"distanceKm":9.253154793825587},{"id":"fishTavernasRestaurants_371770ae7cd1","slug":"taverna-mouragio-3717","kind":"restaurant","name":"Taverna Mouragio","lat":37.08418771728996,"lng":25.146730718001848,"url":"https://maps.app.goo.gl/ScnZGixdZ4dqUL3V6?g_st=ipc","address":"Παροικία - Παραλιακός Δρόμος Παροικίας Παρος, 844 00","categoryIds":["fish-tavernas"],"categories":["Fish Tavernas"],"distanceKm":9.269642447113258}],"sameRegion":[],"mentionedGuides":[],"canonicalSlug":"batistas-bakery-aba1","isCanonicalEntity":false,"enrichment":{"summary_en":"Batistas Bakery is a curated restaurant in Greece in the Coffee & Brunch Spots collection. It is connected to 9 nearby Googlementor picks to help travelers build a stronger local route.","summary_el":"Batistas Bakery είναι ένα επιλεγμένο σημείο φαγητού στην περιοχή Greece και ανήκει στη συλλογή Coffee & Brunch Spots. Συνδέεται με 9 κοντινές προτάσεις του Googlementor για πιο ολοκληρωμένη εμπειρία.","vibe_tags":["curated","sweet-stop","daytime-favorite"],"best_for":["first-time visitors","food lovers"],"visit_moments":["early morning","late brunch"],"practical_note":"Address and direct map link are available for easy turn-by-turn access.","nearby_walkable_count":9,"nearby_count_2km":10,"confidence":0.98},"areaContext":{"slug":"naoysa-paros","name":"Naousa Paros"},"intentContexts":[]},"__N_SSG":true}