{"pageProps":{"entity":{"id":"coffeeBrunchRestaurants_37a99c7a5e9b","slug":"cafe-plateia-37a9","kind":"restaurant","name":"Café Plateia","lat":40.58219813646138,"lng":22.94932374129252,"url":"https://maps.app.goo.gl/9R5MQ6z3jfLnmMwu7?g_st=ipc","address":"Mitropolitou Chrisanthou 0, Kalamaria 551 32","categoryIds":["coffee-brunch"],"categories":["Coffee & Brunch Spots"]},"sameCategory":[{"id":"coffeeBrunchRestaurants_f9825eace7fc","slug":"les-zazous-f982","kind":"restaurant","name":"Les Zazous","lat":40.58600004577793,"lng":22.93944264109209,"url":"https://maps.app.goo.gl/timwhn386UbaBApm7?g_st=ipc","address":"Themistokli Sofouli 108, Kalamaria 551 31","categoryIds":["coffee-brunch","luxury-dining"],"categories":["Coffee & Brunch Spots","Luxury Dining"],"legacySlugs":["les-zazous-fd5e"]},{"id":"coffeeBrunchRestaurants_346744718646","slug":"thegia-more-than-a-bakery-3467","kind":"restaurant","name":"ΘΕΓΙΑ more than a bakery","lat":40.59152214019956,"lng":22.948474846251315,"url":"https://maps.app.goo.gl/Rk9qKb5jkoYV7x6HA?g_st=ipc","address":"Themistokli Sofouli 65, Kalamaria 551 31","categoryIds":["coffee-brunch"],"categories":["Coffee & Brunch Spots"]},{"id":"coffeeBrunchRestaurants_b086083463ae","slug":"join-juice-bars-b086","kind":"restaurant","name":"JOIN juice bars","lat":40.60107511267006,"lng":22.949804539088774,"url":"https://maps.app.goo.gl/LQXcNjB3LwE4q56r7?g_st=ipc","address":"Marias Kallas 1, Thessaloniki 546 45","categoryIds":["coffee-brunch","vegetarian"],"categories":["Coffee & Brunch Spots","Vegetarian Friendly Restaurants"],"legacySlugs":["join-juice-bars-124c"]},{"id":"coffeeBrunchRestaurants_7f4ca735b5ec","slug":"laterna-7f4c","kind":"restaurant","name":"Laterna","lat":40.597256928464596,"lng":22.96766795433404,"url":"https://maps.app.goo.gl/UuEUGrB58srruWFPA?g_st=ipc","address":"Voulgari 64, Thessaloniki 542 49","categoryIds":["coffee-brunch"],"categories":["Coffee & Brunch Spots"]},{"id":"coffeeBrunchRestaurants_b83fc8a35279","slug":"byrek-b83f","kind":"restaurant","name":"Byrek","lat":40.604437611308434,"lng":22.958000236614392,"url":"https://maps.app.goo.gl/hxd33pfTMwrTNJ6K6?g_st=ic","address":"Petrou Sindika 46, Thessaloniki 542 48","categoryIds":["coffee-brunch"],"categories":["Coffee & Brunch Spots"]},{"id":"coffeeBrunchRestaurants_f80aae297d57","slug":"the-coffee-rawsters-f80a","kind":"restaurant","name":"The Coffee Rawsters","lat":40.605074813300206,"lng":22.958339804305506,"url":"https://maps.app.goo.gl/6bHEuH2VrUaoPjxN6?g_st=ipc","address":"Delfon 117, Thessaloniki 546 44","categoryIds":["coffee-brunch"],"categories":["Coffee & Brunch Spots"]},{"id":"coffeeBrunchRestaurants_3849ba172973","slug":"ergon-agora-east-3849","kind":"restaurant","name":"ERGON Agora (East)","lat":40.55876847950934,"lng":22.976949760424034,"url":"https://maps.app.goo.gl/um7bZpan68i3iqsx7?g_st=ipc","address":"Leof. Georgikis Scholis 50, Pilea Chortiatis 555 35","categoryIds":["coffee-brunch","family-friendly"],"categories":["Coffee & Brunch Spots","Kid Friendly Locations"],"legacySlugs":["ergon-agora-east-02cb"]},{"id":"coffeeBrunchRestaurants_4980bf5534c8","slug":"avenue-modern-cuisine-4980","kind":"restaurant","name":"AVENUE - Modern Cuisine","lat":40.6155426258885,"lng":22.952060123633387,"url":"https://maps.app.goo.gl/sbWsHkcndnd2Zv547?g_st=ipc","address":"Leof. Meg. Alexandrou 6, Thessaloniki 546 41","categoryIds":["coffee-brunch"],"categories":["Coffee & Brunch Spots"]},{"id":"coffeeBrunchRestaurants_3f47d83b09c0","slug":"butterflies-and-hurricanes-3f47","kind":"restaurant","name":"Butterflies And Hurricanes","lat":40.61464844201882,"lng":22.960841697890658,"url":"https://maps.app.goo.gl/Gesp19RwCPBWQ9s58?g_st=ipc","address":"Pindarou 1, Thessaloniki 546 39","categoryIds":["coffee-brunch","vegetarian"],"categories":["Coffee & Brunch Spots","Vegetarian Friendly Restaurants"],"legacySlugs":["butterflies-and-hurricanes-37b6"]},{"id":"coffeeBrunchRestaurants_395eba0202c2","slug":"orange-395e","kind":"restaurant","name":"Orange","lat":40.61657039911688,"lng":22.959405836121938,"url":"https://maps.app.goo.gl/GeBX3Ci17XiZV9go6?g_st=ipc","address":"Konstantinoupoleos 21, Thessaloniki 546 40","categoryIds":["coffee-brunch"],"categories":["Coffee & Brunch Spots"]},{"id":"coffeeBrunchRestaurants_9fa36f8be04c","slug":"rou-leisure-gatherings-9fa3","kind":"restaurant","name":"Rou Leisure Gatherings","lat":40.612773277438485,"lng":22.97595730543709,"url":"https://maps.app.goo.gl/GxRckrquv1sShJp28?g_st=ipc","address":"Praxagora 22, Thessaloniki 543 51","categoryIds":["coffee-brunch"],"categories":["Coffee & Brunch Spots"]},{"id":"coffeeBrunchRestaurants_5b87d322c2b5","slug":"pink-dot-cafe-5b87","kind":"restaurant","name":"Pink Dot Cafe","lat":40.548406580479465,"lng":22.98186227348721,"url":"https://maps.app.goo.gl/CG2fgJcxKmWaKuAV6?g_st=ipc","address":"Leof. Georgikis Scholis 84, Pilea 570 01","categoryIds":["coffee-brunch","desserts"],"categories":["Coffee & Brunch Spots","Dessert Shops"],"legacySlugs":["pink-dot-cafe-f1a3"]}],"nearby":[{"id":"municipalities_af8ac1d142d6","slug":"kalamaria-af8a","kind":"municipality","name":"Καλαμαριά","lat":40.5825,"lng":22.9503,"region":"Ανατολική Θεσσαλονίκη","name_en":"Kalamaria","region_en":"East Thessaloniki","distanceKm":0.08901542615917703},{"id":"dessertsRestaurants_971d24d9e3ed","slug":"pagota-themis-971d","kind":"restaurant","name":"Παγωτά 'Θέμης'","lat":40.58103606730307,"lng":22.951200963653005,"url":"https://maps.app.goo.gl/hLPTQRcHhxotqq366?g_st=ipc","address":"I. Passalidi 69, Kalamaria 551 32","categoryIds":["desserts"],"categories":["Dessert Shops"],"distanceKm":0.20452196750077892},{"id":"cheapEatsRestaurants_70bee89e8126","slug":"serafino-70be","kind":"restaurant","name":"Serafino","lat":40.58386899036688,"lng":22.951506267568906,"url":"https://maps.app.goo.gl/M1gK3j7aiDegVjjs6?g_st=ipc","address":"Metamorfoseos 11, Kalamaria 551 32","categoryIds":["cheap-eats"],"categories":["Gyros & Cheap Eats"],"distanceKm":0.2617034689732092},{"id":"burgersRestaurants_7bf76fbc7d0a","slug":"burgler-7bf7","kind":"restaurant","name":"Burgler","lat":40.584120623109904,"lng":22.951979743044145,"url":"https://maps.app.goo.gl/yMSfiMNTRFpJoskdA?g_st=ipc","address":"Metamorfoseos 5, Kalamaria 551 31","categoryIds":["burgers"],"categories":["Burger Spots"],"distanceKm":0.3098486877673449},{"id":"italianRestaurants_f98055a56a7f","slug":"tonino-pizzeria-napoletana-f980","kind":"restaurant","name":"Tonino Pizzeria Napoletana","lat":40.58464427596488,"lng":22.951802816992593,"url":"https://maps.app.goo.gl/zebuXsdGAEsViD2MA?g_st=ipc","address":"Iereos Papanikola 13-15, Kalamaria 551 31","categoryIds":["italian"],"categories":["Italian Restaurants"],"distanceKm":0.34323724027327207},{"id":"municipalities_3059ca977111","slug":"karampoyrnaki-3059","kind":"municipality","name":"Καραμπουρνάκι","lat":40.5857,"lng":22.9535,"region":"Θεσσαλονίκη","name_en":"Karabournaki","region_en":"Thessaloniki","distanceKm":0.525360060471062},{"id":"cheapEatsRestaurants_d02e33f8bb10","slug":"food-plaza-d02e","kind":"restaurant","name":"Food Plaza","lat":40.57666918251193,"lng":22.94927301198073,"url":"https://maps.app.goo.gl/zwY1QQTAGPf4oH7s8?g_st=ipc","address":"Skra 16, Kalamaria 551 32","categoryIds":["cheap-eats"],"categories":["Gyros & Cheap Eats"],"distanceKm":0.6148065562856516},{"id":"fishTavernasRestaurants_f8b7ef1f9834","slug":"mavri-thalassa-f8b7","kind":"restaurant","name":"Mavri Thalassa","lat":40.57843253808032,"lng":22.94322807682347,"url":"https://maps.app.goo.gl/BS4tZgxTYFAhXywDA?g_st=ipc","address":"Nik. Plastira 3, Kalamaria 551 32","categoryIds":["fish-tavernas","luxury-dining"],"categories":["Fish Tavernas","Luxury Dining"],"legacySlugs":["mavri-thalassa-e027"],"distanceKm":0.6635753764396842},{"id":"fishTavernasRestaurants_696f7178604d","slug":"petros-ouzo-tavern-696f","kind":"restaurant","name":"\"Petros\" Ouzo Tavern","lat":40.5758568701644,"lng":22.94955610306511,"url":"https://maps.app.goo.gl/zWRjvQW7U7jg2RVz9?g_st=ipc","address":"Evelpidou 12, Kalamaria 551 32","categoryIds":["fish-tavernas"],"categories":["Fish Tavernas"],"distanceKm":0.7053896583337773},{"id":"dessertsRestaurants_4fb635c33210","slug":"trigona-elenidi-4fb6","kind":"restaurant","name":"Trigona Elenidi","lat":40.58725693671977,"lng":22.9548680363337,"url":"https://maps.app.goo.gl/EpRLs9ycdMXcJNP16?g_st=ipc","address":"Adrianoupoleos 19, Kalamaria 551 33","categoryIds":["desserts"],"categories":["Dessert Shops"],"distanceKm":0.731866156348344},{"id":"luxuryDiningRestaurants_f789c3144485","slug":"marrone-restaurant-f789","kind":"restaurant","name":"Marrone Restaurant","lat":40.587514625354714,"lng":22.942944126653384,"url":"https://maps.app.goo.gl/rYECyH9YH5sKjowm8?g_st=ipc","address":"Themistokli Sofouli 111, Kalamaria 551 31","categoryIds":["luxury-dining"],"categories":["Luxury Dining"],"distanceKm":0.7998204606814905},{"id":"fishTavernasRestaurants_36204a46aece","slug":"to-karnagio-3620","kind":"restaurant","name":"Το Καρνάγιο","lat":40.574881874460935,"lng":22.94956377176227,"url":"https://maps.app.goo.gl/pPBVRQW1crZFz6ho8?g_st=ipc","address":"Agiou Nikolaou 4, Thessaloniki 551 32","categoryIds":["fish-tavernas"],"categories":["Fish Tavernas"],"distanceKm":0.813783741107615},{"id":"greekRestaurants_effaa488563e","slug":"nea-klimataria-effa","kind":"restaurant","name":"Νέα Κληματαριά","lat":40.58891669010003,"lng":22.944876147959,"url":"https://maps.app.goo.gl/RWo1fZbyn2z8MGaa9?g_st=ipc","address":"Θεμιστοκλή Σοφούλη 97, Θεσσαλονίκη 551 31","categoryIds":["greek-restaurants"],"categories":["Greek Restaurants"],"distanceKm":0.8361647517639696},{"id":"fishTavernasRestaurants_e98c62e6ec54","slug":"en-plo-e98c","kind":"restaurant","name":"En Plo","lat":40.57398660392286,"lng":22.949456391166105,"url":"https://maps.app.goo.gl/veiyM1VvYLvbo86r8?g_st=ipc","address":"Nik. Plastira 14Β, Kalamaria 551 32","categoryIds":["fish-tavernas"],"categories":["Fish Tavernas"],"distanceKm":0.9131494819730159},{"id":"greekRestaurants_d5512fead26c","slug":"kronos-para-thin-alos-d551","kind":"restaurant","name":"Κρόνος παρά θίν αλός","lat":40.59022357622001,"lng":22.9465897334504,"url":"https://maps.app.goo.gl/yBbugZp5EmUQT27x7?g_st=ipc","address":"Θεμιστοκλή Σοφούλη 77, Θεσσαλονίκη 551 31","categoryIds":["greek-restaurants"],"categories":["Greek Restaurants"],"distanceKm":0.9217692535532361},{"id":"coffeeBrunchRestaurants_f9825eace7fc","slug":"les-zazous-f982","kind":"restaurant","name":"Les Zazous","lat":40.58600004577793,"lng":22.93944264109209,"url":"https://maps.app.goo.gl/timwhn386UbaBApm7?g_st=ipc","address":"Themistokli Sofouli 108, Kalamaria 551 31","categoryIds":["coffee-brunch","luxury-dining"],"categories":["Coffee & Brunch Spots","Luxury Dining"],"legacySlugs":["les-zazous-fd5e"],"distanceKm":0.9354119756522475},{"id":"greekRestaurants_11bcbb15df27","slug":"chalaro-11bc","kind":"restaurant","name":"Χάλαρο","lat":40.59065020365281,"lng":22.947310711779775,"url":"https://maps.app.goo.gl/FknwoH4DjWTtgiZc8?g_st=ipc","address":"Θεμιστοκλή Σοφούλη 75, Θεσσαλονίκη 551 31","categoryIds":["greek-restaurants"],"categories":["Greek Restaurants"],"distanceKm":0.9550764168065373},{"id":"fishTavernasRestaurants_e4a529eccfe5","slug":"akti-ntovil-sea-taste-e4a5","kind":"restaurant","name":"Akti Ntovil sea taste","lat":40.590227199252006,"lng":22.94525345267167,"url":"https://maps.app.goo.gl/qLvCE8t6ieDmXdt57?g_st=ipc","address":"Themistokli Sofouli 86, Kalamaria 551 31","categoryIds":["fish-tavernas","luxury-dining"],"categories":["Fish Tavernas","Luxury Dining"],"legacySlugs":["akti-ntovil-sea-taste-36db"],"distanceKm":0.9566686438764577},{"id":"fishTavernasRestaurants_ff2ad0d31126","slug":"gialos-fish-seafood-tavern-ff2a","kind":"restaurant","name":"Gialos Fish & Seafood Tavern","lat":40.57948809433507,"lng":22.938505206144782,"url":"https://maps.app.goo.gl/Bgo34mDRNnqGBqcn6?g_st=ipc","address":"Ν.Πλαστήρα - Μ. Εμβολο - Ν.Α.Ο.Κ, Thessaloniki 551 31","categoryIds":["fish-tavernas"],"categories":["Fish Tavernas"],"distanceKm":0.9620522750118102},{"id":"dessertsRestaurants_715ce072dcab","slug":"chatzi-715c","kind":"restaurant","name":"Chatzi","lat":40.590808607832805,"lng":22.947461000377523,"url":"https://maps.app.goo.gl/aPDKbL8fF37cA1M1A?g_st=ipc","address":"ΘΕΜΙΣΤΟΚΛΗ ΣΟΦΟΥΛΗ 73, Argonafton 2, Kalamaria 551 31","categoryIds":["desserts"],"categories":["Dessert Shops"],"distanceKm":0.970275882940714},{"id":"luxuryDiningRestaurants_6c2f9d989a6a","slug":"shark-bar-restaurant-thessaloniki-6c2f","kind":"restaurant","name":"SHARK Bar | Restaurant - Thessaloniki","lat":40.59118558847925,"lng":22.946520720029824,"url":"https://maps.app.goo.gl/gugoZEiFmeixR8B67?g_st=ipc","address":"Argonafton 2, Kalamaria 551 31","categoryIds":["luxury-dining"],"categories":["Luxury Dining"],"distanceKm":1.0270075666401128},{"id":"coffeeBrunchRestaurants_346744718646","slug":"thegia-more-than-a-bakery-3467","kind":"restaurant","name":"ΘΕΓΙΑ more than a bakery","lat":40.59152214019956,"lng":22.948474846251315,"url":"https://maps.app.goo.gl/Rk9qKb5jkoYV7x6HA?g_st=ipc","address":"Themistokli Sofouli 65, Kalamaria 551 31","categoryIds":["coffee-brunch"],"categories":["Coffee & Brunch Spots"],"distanceKm":1.0392570934609782},{"id":"greekRestaurants_d690428e2039","slug":"nea-diagonios-d690","kind":"restaurant","name":"Nea Diagonios","lat":40.59234555425419,"lng":22.94797192954155,"url":"https://maps.app.goo.gl/TtmMpqEMxkewPb8G9?g_st=ipc","address":"Themistokli Sofouli 64Α, Thessaloniki 546 55","categoryIds":["greek-restaurants"],"categories":["Greek Restaurants"],"distanceKm":1.1341008693359553},{"id":"cheapEatsRestaurants_3a3bde48c733","slug":"thess-gyro-3a3b","kind":"restaurant","name":"Thess...Gyro","lat":40.57305742887387,"lng":22.955729191150056,"url":"https://maps.app.goo.gl/UxFcV7SWYu9feyef9?g_st=ipc","address":"Smirnis 14, Kalamaria 551 32","categoryIds":["cheap-eats"],"categories":["Gyros & Cheap Eats"],"distanceKm":1.1514005039208886}],"sameRegion":[],"mentionedGuides":[],"canonicalSlug":"cafe-plateia-37a9","isCanonicalEntity":true,"enrichment":{"summary_en":"Café Plateia is a curated restaurant in Kalamaria 551 32 in the Coffee & Brunch Spots collection. It is connected to 11 nearby Googlementor picks to help travelers build a stronger local route.","summary_el":"Café Plateia είναι ένα επιλεγμένο σημείο φαγητού στην περιοχή Kalamaria 551 32 και ανήκει στη συλλογή Coffee & Brunch Spots. Συνδέεται με 11 κοντινές προτάσεις του Googlementor για πιο ολοκληρωμένη εμπειρία.","vibe_tags":["curated","daytime-favorite"],"best_for":["first-time visitors","food lovers"],"visit_moments":["early morning","late brunch"],"practical_note":"Address and direct map link are available for easy turn-by-turn access.","nearby_walkable_count":11,"nearby_count_2km":44,"confidence":0.98},"areaContext":{"slug":"kalamaria","name":"Kalamaria"},"intentContexts":[{"href":"/brunch/kalamaria","label":"Coffee & Brunch Spots in Kalamaria","categorySlug":"brunch","categoryName":"Coffee & Brunch Spots","areaSlug":"kalamaria","areaName":"Kalamaria"}]},"__N_SSG":true}