{"pageProps":{"entity":{"id":"dessertsRestaurants_55ea1e7f1b68","slug":"cremona-55ea","kind":"restaurant","name":"CREMONA","lat":37.999276434608944,"lng":23.746794928014506,"url":"https://maps.app.goo.gl/88H4UALJy3RpJMnJA?g_st=ipc","address":"58, Δοϊράνης 56, Αθήνα 113 63","categoryIds":["desserts"],"categories":["Dessert Shops"]},"sameCategory":[{"id":"dessertsRestaurants_500065b70e96","slug":"mpozas-5000","kind":"restaurant","name":"Μπόζας","lat":37.99742038031428,"lng":23.73986164387991,"url":"https://maps.app.goo.gl/zSMSytPeL1fEn7U3A?g_st=ipc","address":"Κερκύρας 39 &, Παξών, Αθήνα 113 62","categoryIds":["desserts"],"categories":["Dessert Shops"]},{"id":"coffeeBrunchRestaurants_8eea389a06d0","slug":"santo-belto-8eea","kind":"restaurant","name":"Santo Belto","lat":38.00295539657206,"lng":23.737407823969118,"url":"https://maps.app.goo.gl/ZWa6fMfeNKbHNQGB7?g_st=ipc","address":"Αγίας Ζώνης 21, Αθήνα 113 61","categoryIds":["coffee-brunch","desserts"],"categories":["Coffee & Brunch Spots","Dessert Shops"],"legacySlugs":["santo-belto-1567"]},{"id":"dessertsRestaurants_98b6e615d276","slug":"chunky-cookie-bar-98b6","kind":"restaurant","name":"Chunky Cookie Bar","lat":37.990432042632165,"lng":23.743378760155576,"url":"https://maps.app.goo.gl/RyoKAVU7gY9FtBng6?g_st=ipc","address":"Πέτρου Καλλιγά 6, Αθήνα 114 74","categoryIds":["desserts"],"categories":["Dessert Shops"]},{"id":"dessertsRestaurants_b17cae58055b","slug":"solo-gelato-kypseli-b17c","kind":"restaurant","name":"SOLO GELATO ΚΥΨΕΛΗ","lat":37.997495076308105,"lng":23.735075284705523,"url":"https://maps.app.goo.gl/xy8KGbP1LQZJCmxX7?g_st=ipc","address":"Ιθάκης 9, Αθήνα 112 57","categoryIds":["desserts"],"categories":["Dessert Shops"]},{"id":"dessertsRestaurants_d3301ebc9d06","slug":"portatif-ippokratous-d330","kind":"restaurant","name":"Portatif - ippokratous","lat":37.98880796872772,"lng":23.747928642094816,"url":"https://maps.app.goo.gl/Hjds2t3JrKoqCot39?g_st=ipc","address":"Ιπποκράτους 206, Αθήνα 114 72","categoryIds":["desserts"],"categories":["Dessert Shops"]},{"id":"dessertsRestaurants_82392100ef3d","slug":"galaktopoleio-stamoy-8239","kind":"restaurant","name":"Γαλακτοπωλείο ΣΤΑΜΟΥ","lat":37.99247877904618,"lng":23.761668631710492,"url":"https://maps.app.goo.gl/118TMc1zY2E2HRzEA?g_st=ipc","address":"Πανόρμου 62, Αθήνα 115 23","categoryIds":["desserts"],"categories":["Dessert Shops"]},{"id":"dessertsRestaurants_50c92ff86d1d","slug":"portatif-factory-50c9","kind":"restaurant","name":"Πορτατίφ - Factory","lat":37.98547841789868,"lng":23.739345621810312,"url":"https://maps.app.goo.gl/Q5VYitKyncAmC1Wn8?g_st=ipc","address":"Μαυρομιχάλη 81, Αθήνα 114 72","categoryIds":["desserts"],"categories":["Dessert Shops"]},{"id":"dessertsRestaurants_6380c13ce6fb","slug":"petek-zacharoplasteio-6380","kind":"restaurant","name":"Πετέκ - Ζαχαροπλαστείο","lat":37.992161285064114,"lng":23.729868228783843,"url":"https://maps.app.goo.gl/bya8rkC9eSnHKYnU9?g_st=ipc","address":"3ης Σεπτεμβρίου 81, Αθήνα 104 34","categoryIds":["desserts"],"categories":["Dessert Shops"]},{"id":"dessertsRestaurants_be636dabd487","slug":"afoi-asimakopoyloi-be63","kind":"restaurant","name":"Αφοι Ασημακόπουλοι","lat":37.98543510745225,"lng":23.738217370820664,"url":"https://maps.app.goo.gl/zhMqHSFRswEjySMi9?g_st=ipc","address":"Χαρ. Τρικούπη 82, Αθήνα 106 80","categoryIds":["desserts"],"categories":["Dessert Shops"]},{"id":"dessertsRestaurants_3c1566b87f0f","slug":"galaktopoleio-stamoy-galatsi-attikis-3c15","kind":"restaurant","name":"Γαλακτοπωλείο ΣΤΑΜΟΥ, Γαλάτσι Αττικής","lat":38.01421938915903,"lng":23.75342305374386,"url":"https://maps.app.goo.gl/n8JWXhCzyJJxjNQv5?g_st=ipc","address":"Λεωφ. Βεΐκου 9, Γαλάτσι 111 46","categoryIds":["desserts"],"categories":["Dessert Shops"]},{"id":"dessertsRestaurants_6128b9a38565","slug":"zante-6128","kind":"restaurant","name":"Zante","lat":38.01329808317404,"lng":23.75625779357789,"url":"https://maps.app.goo.gl/vdA9XUPFa7M3vbdi7?g_st=ipc","address":"Ελ. Βενιζέλου 21, Γαλάτσι 111 47","categoryIds":["desserts"],"categories":["Dessert Shops"]},{"id":"dessertsRestaurants_9a1aa3339c46","slug":"eva-9a1a","kind":"restaurant","name":"Eva","lat":38.015131929032286,"lng":23.750456340002337,"url":"https://maps.app.goo.gl/GBYXZRmRKUPq81F8A?g_st=ic","address":"Karaiskaki 16, Galatsi 111 46","categoryIds":["desserts"],"categories":["Dessert Shops"]}],"nearby":[{"id":"greekRestaurants_47b0ee0c8d13","slug":"mi-la-re-47b0","kind":"restaurant","name":"Μι λα ρε","lat":37.99704423560871,"lng":23.74315138793718,"url":"https://maps.app.goo.gl/mURYyiemhV3PvXjDA","address":"Ευελπίδων 87, Αθήνα 113 62","categoryIds":["greek-restaurants"],"categories":["Greek Restaurants"],"distanceKm":0.4043984013917821},{"id":"cheapEatsRestaurants_4b2392e8f1da","slug":"peirasmos-4b23","kind":"restaurant","name":"ΠΕΙΡΑΣΜΟΣ","lat":38.00274661999109,"lng":23.744683791776005,"url":"https://maps.app.goo.gl/wXj4gGBY4uF6K2yW8?g_st=ipc","address":"Βελβενδού 20, Αθήνα 113 63","categoryIds":["cheap-eats"],"categories":["Gyros & Cheap Eats"],"distanceKm":0.4279151324711704},{"id":"municipalities_1760d194c086","slug":"ampelokipoi-1760","kind":"municipality","name":"Αμπελόκηποι","lat":38.002,"lng":23.753,"aliases":["Ampelopoi","Ampelokipoi","Ampelokipi","Αμπελοκηποι","Αμπελοκηπι"],"region":"Κέντρο Αθήνας","name_en":"Ambelokipi","region_en":"Athens Center","distanceKm":0.6223559376867215},{"id":"dessertsRestaurants_500065b70e96","slug":"mpozas-5000","kind":"restaurant","name":"Μπόζας","lat":37.99742038031428,"lng":23.73986164387991,"url":"https://maps.app.goo.gl/zSMSytPeL1fEn7U3A?g_st=ipc","address":"Κερκύρας 39 &, Παξών, Αθήνα 113 62","categoryIds":["desserts"],"categories":["Dessert Shops"],"distanceKm":0.6416259559908322},{"id":"greekRestaurants_f9f686e79eab","slug":"o-mpakalogatos-f9f6","kind":"restaurant","name":"Ο Μπακαλόγατος","lat":38.00187471148547,"lng":23.740181411434346,"url":"https://maps.app.goo.gl/981vRQxbrAtrVwL46","address":"Φωκίωνος Νέγρη 72, Αθήνα 113 61","categoryIds":["greek-restaurants"],"categories":["Greek Restaurants"],"distanceKm":0.6475190959039149},{"id":"municipalities_75ddb64a42fd","slug":"gyzi-75dd","kind":"municipality","name":"Γύζη","lat":37.9933,"lng":23.7439,"aliases":["Γυζη","Gizi"],"region":"Κέντρο Αθήνας","name_en":"Gyzi","region_en":"Athens Center","distanceKm":0.7113201931267296},{"id":"fishTavernasRestaurants_4ef32e781ddb","slug":"psaradiko-psarofageio-vlasis-4ef3","kind":"restaurant","name":"Ψαράδικο-Ψαροφαγείο Βλάσης","lat":38.00159683768883,"lng":23.739141642286196,"url":"https://maps.app.goo.gl/fHgyjqw3Rn6yqq6N6?g_st=ipc","address":"Φωκίωνος Νέγρη 47, Αθήνα 113 61","categoryIds":["fish-tavernas"],"categories":["Fish Tavernas"],"distanceKm":0.7185227202279485},{"id":"cheapEatsRestaurants_b098fa4e8c79","slug":"kaproys-b098","kind":"restaurant","name":"Κάπρους","lat":37.997892215729216,"lng":23.738708713405035,"url":"https://maps.app.goo.gl/zmZ9p1KuXBfmeQTP9?g_st=ipc","address":"Σπετσών 49, Αθήνα 113 62","categoryIds":["cheap-eats"],"categories":["Gyros & Cheap Eats"],"distanceKm":0.7250755084421661},{"id":"cheapEatsRestaurants_1230f3d55b53","slug":"ipeiros-1230","kind":"restaurant","name":"Ήπειρος","lat":37.99468309231883,"lng":23.753514780729763,"url":"https://maps.app.goo.gl/CVaNeQjy77ZiLrEv9?g_st=ipc","address":"Μπαταριά 23, Αθήνα 114 76","categoryIds":["cheap-eats"],"categories":["Gyros & Cheap Eats"],"distanceKm":0.7794873538915374},{"id":"greekRestaurants_442477ae20ac","slug":"axotis-4424","kind":"restaurant","name":"Αξώτης","lat":37.995836587823845,"lng":23.754896105548557,"url":"https://maps.app.goo.gl/ins2h5odAAUqFqf2A","address":"Παπαρσένη 15, Αθήνα 114 76","categoryIds":["greek-restaurants"],"categories":["Greek Restaurants"],"distanceKm":0.8063614711029106},{"id":"coffeeBrunchRestaurants_ce89cd6aa5d7","slug":"kick-ce89","kind":"restaurant","name":"KICK","lat":37.99916132656893,"lng":23.737461252467714,"url":"https://maps.app.goo.gl/72fZq7DBsWg8jnSR8?g_st=ipc","address":"Σποράδων 26, Αθήνα 113 61","categoryIds":["coffee-brunch"],"categories":["Coffee & Brunch Spots"],"distanceKm":0.8179516270409892},{"id":"coffeeBrunchRestaurants_5e77841cb06d","slug":"flake-5e77","kind":"restaurant","name":"Flake","lat":37.99900849338742,"lng":23.737419912416144,"url":"https://maps.app.goo.gl/Xk1A8oDNqWipGzYL6?g_st=ipc","address":"Σποράδων 24, Αθήνα 113 61","categoryIds":["coffee-brunch"],"categories":["Coffee & Brunch Spots"],"distanceKm":0.8220148125533303},{"id":"coffeeBrunchRestaurants_76650a6337b0","slug":"o-foyrnos-toy-remoyndoy-7665","kind":"restaurant","name":"Ο Φούρνος του Ρεμούνδου","lat":37.99778393444846,"lng":23.737266306236258,"url":"https://maps.app.goo.gl/6mpkX4B7SCACHFyy6?g_st=ipc","address":"Κυψέλης 37, Αθήνα 113 61","categoryIds":["coffee-brunch"],"categories":["Coffee & Brunch Spots"],"distanceKm":0.8512749672626235},{"id":"italianRestaurants_fee68a36e757","slug":"lisa-athens-fee6","kind":"restaurant","name":"Lisa Athens","lat":38.00121668798056,"lng":23.737030313370706,"url":"https://maps.app.goo.gl/eiXsobGt1KWweP7UA?g_st=ipc","address":"Φωκίωνος Νέγρη 25, Αθήνα 113 61","categoryIds":["italian"],"categories":["Italian Restaurants"],"distanceKm":0.8823818919009051},{"id":"coffeeBrunchRestaurants_8eea389a06d0","slug":"santo-belto-8eea","kind":"restaurant","name":"Santo Belto","lat":38.00295539657206,"lng":23.737407823969118,"url":"https://maps.app.goo.gl/ZWa6fMfeNKbHNQGB7?g_st=ipc","address":"Αγίας Ζώνης 21, Αθήνα 113 61","categoryIds":["coffee-brunch","desserts"],"categories":["Coffee & Brunch Spots","Dessert Shops"],"legacySlugs":["santo-belto-1567"],"distanceKm":0.9186259703229619},{"id":"greekRestaurants_f3b2aad713df","slug":"to-ampari-toy-pentara-f3b2","kind":"restaurant","name":"Το Αμπάρι του Πεντάρα","lat":38.007341170588916,"lng":23.749681397448036,"url":"https://maps.app.goo.gl/ocPNHJergJqkbxW6A","address":"Καυκάσου 157, Αθήνα 113 64","categoryIds":["greek-restaurants"],"categories":["Greek Restaurants"],"distanceKm":0.9317389330028406},{"id":"vegetarianRestaurants_35af3a72d872","slug":"leik-kafe-35af","kind":"restaurant","name":"λέικ καφέ","lat":37.99570532128052,"lng":23.737094528681606,"url":"https://maps.app.goo.gl/c3DSV5tXT2pKELDL8?g_st=ipc","address":"Αιγίνης 1, Αθήνα 113 62","categoryIds":["vegetarian"],"categories":["Vegetarian Friendly Restaurants"],"distanceKm":0.9381839241670971},{"id":"greekRestaurants_3fdb385cf32e","slug":"dylan-3fdb","kind":"restaurant","name":"Dylan","lat":38.004029735437285,"lng":23.737919535339657,"url":"https://maps.app.goo.gl/BnADd9od1HHo98uB7?g_st=ipc","address":"Agias Zonis 38, Athina 113 64","categoryIds":["greek-restaurants"],"categories":["Greek Restaurants"],"distanceKm":0.9402802946705594},{"id":"cheapEatsRestaurants_6a4147d64308","slug":"klassikon-6a41","kind":"restaurant","name":"Κλασσικόν","lat":37.99808496466343,"lng":23.757900577588526,"url":"https://maps.app.goo.gl/RXpLLpBphHc6FhZD9?g_st=ipc","address":"Μητροπέτροβα 32, Αθήνα 114 76","categoryIds":["cheap-eats"],"categories":["Gyros & Cheap Eats"],"distanceKm":0.9821027473397463},{"id":"cheapEatsRestaurants_fcf206bb8bf8","slug":"jackaroo-fcf2","kind":"restaurant","name":"Jackaroo","lat":38.00066185886443,"lng":23.735523749834027,"url":"https://maps.app.goo.gl/bKD82egRLvDN81sG9?g_st=ipc","address":"Φωκίωνος Νέγρη 18, Αθήνα 112 57","categoryIds":["cheap-eats"],"categories":["Gyros & Cheap Eats"],"distanceKm":0.999555240478569},{"id":"vegetarianRestaurants_ac24d91fc2b5","slug":"geyseis-tis-damaskoy-ac24","kind":"restaurant","name":"Γεύσεις της Δαμασκού","lat":38.00104187111536,"lng":23.735527497819955,"url":"https://maps.app.goo.gl/CBgjw3FjXKsmZLqP9?g_st=ipc","address":"Φωκίωνος Νέγρη 19, Αθήνα 112 57","categoryIds":["vegetarian"],"categories":["Vegetarian Friendly Restaurants"],"distanceKm":1.006608988755508},{"id":"cheapEatsRestaurants_3855239555fb","slug":"oi-meraklides-3855","kind":"restaurant","name":"Οι Μερακλήδες","lat":38.005421507151304,"lng":23.738069532004765,"url":"https://maps.app.goo.gl/cQBiuhmvhu6SiSrp9?g_st=ipc","address":"Αγίας Ζώνης 60, Αθήνα 112 56","categoryIds":["cheap-eats"],"categories":["Gyros & Cheap Eats"],"distanceKm":1.0253729044179583},{"id":"greekRestaurants_bfb413275b7f","slug":"kyveli-bfb4","kind":"restaurant","name":"Κυβέλη","lat":37.99805749284101,"lng":23.73519064835316,"url":"https://maps.app.goo.gl/GZkR3yG4uYF9Asep6","address":"Επτανήσου 15, Αθήνα 112 57","categoryIds":["greek-restaurants"],"categories":["Greek Restaurants"],"distanceKm":1.0258117955954824},{"id":"dessertsRestaurants_98b6e615d276","slug":"chunky-cookie-bar-98b6","kind":"restaurant","name":"Chunky Cookie Bar","lat":37.990432042632165,"lng":23.743378760155576,"url":"https://maps.app.goo.gl/RyoKAVU7gY9FtBng6?g_st=ipc","address":"Πέτρου Καλλιγά 6, Αθήνα 114 74","categoryIds":["desserts"],"categories":["Dessert Shops"],"distanceKm":1.0280031200079893}],"sameRegion":[],"mentionedGuides":[],"canonicalSlug":"cremona-55ea","isCanonicalEntity":true,"enrichment":{"summary_en":"CREMONA is a curated restaurant in Αθήνα 113 63 in the Dessert Shops collection. It is connected to 9 nearby Googlementor picks to help travelers build a stronger local route.","summary_el":"CREMONA είναι ένα επιλεγμένο σημείο φαγητού στην περιοχή Αθήνα 113 63 και ανήκει στη συλλογή Dessert Shops. Συνδέεται με 9 κοντινές προτάσεις του Googlementor για πιο ολοκληρωμένη εμπειρία.","vibe_tags":["curated","sweet-stop"],"best_for":["first-time visitors","food lovers"],"visit_moments":["afternoon break","after dinner"],"practical_note":"Address and direct map link are available for easy turn-by-turn access.","nearby_walkable_count":9,"nearby_count_2km":125,"confidence":0.98},"areaContext":{"slug":"ampelokipoi","name":"Ambelokipi"},"intentContexts":[{"href":"/desserts/ampelokipoi","label":"Dessert Shops in Ambelokipi","categorySlug":"desserts","categoryName":"Dessert Shops","areaSlug":"ampelokipoi","areaName":"Ambelokipi"}]},"__N_SSG":true}