{"pageProps":{"entity":{"id":"cheapEatsRestaurants_4873355e0fc6","slug":"delicious-pitta-queen-4873","kind":"restaurant","name":"Delicious Pitta Queen","lat":37.99092416121966,"lng":23.759496408597567,"url":"https://maps.app.goo.gl/1JBJ1wwqkW21Ww447?g_st=ipc","address":"Πανόρμου 36, Αθήνα 115 23","categoryIds":["cheap-eats"],"categories":["Gyros & Cheap Eats"]},"sameCategory":[{"id":"cheapEatsRestaurants_000769981d10","slug":"piatsa-tylichto-0007","kind":"restaurant","name":"Πιάτσα Τυλιχτό","lat":37.992812158549924,"lng":23.762955305614238,"url":"https://maps.app.goo.gl/99Gr2Rnp3uGrkmWWA?g_st=ipc","address":"Λαρίσης 33, Αθήνα 115 23","categoryIds":["cheap-eats"],"categories":["Gyros & Cheap Eats"]},{"id":"cheapEatsRestaurants_f3cf5026ad57","slug":"peinirli-ionias-f3cf","kind":"restaurant","name":"Πεϊνιρλί Ιωνίας","lat":37.98758471065417,"lng":23.75770179070527,"url":"https://maps.app.goo.gl/SXittnYdkLPeQRb17?g_st=ipc","address":"Πανόρμου 3, Αθήνα 115 22","categoryIds":["cheap-eats"],"categories":["Gyros & Cheap Eats"]},{"id":"cheapEatsRestaurants_0e996f9a4065","slug":"jackaroo-0e99","kind":"restaurant","name":"Jackaroo","lat":37.99342271258061,"lng":23.764131211857187,"url":"https://maps.app.goo.gl/VnT5HzaYL2NjnGd27?g_st=ipc","address":"Πανόρμου 109, Αθήνα 115 24","categoryIds":["cheap-eats"],"categories":["Gyros & Cheap Eats"]},{"id":"cheapEatsRestaurants_0022a0eff11e","slug":"koytroylis-0022","kind":"restaurant","name":"ΚΟΥΤΡΟΥΛΗΣ","lat":37.99585400563359,"lng":23.762177083127305,"url":"https://maps.app.goo.gl/xGhyT1vrgFSKodic9?g_st=ipc","address":"Βαρνακιώτη 4, Αθήνα 115 24","categoryIds":["cheap-eats"],"categories":["Gyros & Cheap Eats"]},{"id":"asianRestaurants_4bddf7fbcbe7","slug":"street-wok-4bdd","kind":"restaurant","name":"Street Wok","lat":37.99333429542986,"lng":23.76565696133404,"url":"https://maps.app.goo.gl/xgYqVodevf1ae8hY7?g_st=ipc","address":"Ampelokipi Menemeni, Πανόρμου 115Ζ, Αθήνα 115 24","categoryIds":["asian","cheap-eats"],"categories":["Asian Restaurants","Gyros & Cheap Eats"],"legacySlugs":["street-wok-3ae9"]},{"id":"cheapEatsRestaurants_1230f3d55b53","slug":"ipeiros-1230","kind":"restaurant","name":"Ήπειρος","lat":37.99468309231883,"lng":23.753514780729763,"url":"https://maps.app.goo.gl/CVaNeQjy77ZiLrEv9?g_st=ipc","address":"Μπαταριά 23, Αθήνα 114 76","categoryIds":["cheap-eats"],"categories":["Gyros & Cheap Eats"]},{"id":"cheapEatsRestaurants_6a4147d64308","slug":"klassikon-6a41","kind":"restaurant","name":"Κλασσικόν","lat":37.99808496466343,"lng":23.757900577588526,"url":"https://maps.app.goo.gl/RXpLLpBphHc6FhZD9?g_st=ipc","address":"Μητροπέτροβα 32, Αθήνα 114 76","categoryIds":["cheap-eats"],"categories":["Gyros & Cheap Eats"]},{"id":"cheapEatsRestaurants_2d35d62e4881","slug":"kantina-mavili-2d35","kind":"restaurant","name":"Καντίνα Μαβίλη","lat":37.98253879036559,"lng":23.7560791108495,"url":"https://maps.app.goo.gl/tXjW7wXH83v15nHX8?g_st=ipc","address":"Δημ. Σούτσου 3, Αθήνα 115 21","categoryIds":["cheap-eats"],"categories":["Gyros & Cheap Eats"]},{"id":"cheapEatsRestaurants_d31bf93dd3fb","slug":"prunas-d31b","kind":"restaurant","name":"Prunas","lat":37.98295319401702,"lng":23.765808326891843,"url":"https://maps.app.goo.gl/TvHy3uq6zYjv7y1f9?g_st=ipc","address":"Δημ. Γουλιάμου 58, Αθήνα 115 27","categoryIds":["cheap-eats"],"categories":["Gyros & Cheap Eats"]},{"id":"cheapEatsRestaurants_51e57b41d79c","slug":"chrysanthos-51e5","kind":"restaurant","name":"Χρύσανθος","lat":37.980767151919686,"lng":23.76756797039495,"url":"https://maps.app.goo.gl/cG4RSw44nHayWytd9?g_st=ipc","address":"Γεωρ. Παπανδρέου 50, Ζωγράφου 157 73","categoryIds":["cheap-eats"],"categories":["Gyros & Cheap Eats"]},{"id":"cheapEatsRestaurants_acd6f4163dcb","slug":"ta-psita-tis-pareas-acd6","kind":"restaurant","name":"Τα ψητά της παρέας","lat":37.97804935076976,"lng":23.76224805570561,"url":"https://maps.app.goo.gl/Kxmp13A9x2etHv317?g_st=ipc","address":"Ούλωφ Πάλμε 25, Ζωγράφου 157 71","categoryIds":["cheap-eats"],"categories":["Gyros & Cheap Eats"]},{"id":"cheapEatsRestaurants_9b9687edb09a","slug":"cantina-alexandras-9b96","kind":"restaurant","name":"Cantina Alexandras","lat":37.990601219280784,"lng":23.740100216268857,"url":"https://maps.app.goo.gl/sC6f9QqoMvhYZn9L6?g_st=ipc","address":"Λεωφ. Αλεξάνδρας 31, Αθήνα 114 73","categoryIds":["cheap-eats"],"categories":["Gyros & Cheap Eats"]}],"nearby":[{"id":"dessertsRestaurants_82392100ef3d","slug":"galaktopoleio-stamoy-8239","kind":"restaurant","name":"Γαλακτοπωλείο ΣΤΑΜΟΥ","lat":37.99247877904618,"lng":23.761668631710492,"url":"https://maps.app.goo.gl/118TMc1zY2E2HRzEA?g_st=ipc","address":"Πανόρμου 62, Αθήνα 115 23","categoryIds":["desserts"],"categories":["Dessert Shops"],"distanceKm":0.2571354003621018},{"id":"asianRestaurants_6980a2c0f36c","slug":"rawbata-6980","kind":"restaurant","name":"RawBata","lat":37.991621984562435,"lng":23.76287776299424,"url":"https://maps.app.goo.gl/j57HrF6nf6youYLV8","address":"Lakonias 33, Athina 115 23","categoryIds":["asian"],"categories":["Asian Restaurants"],"distanceKm":0.3063100319279035},{"id":"burgersRestaurants_2cfc1007d530","slug":"criminal-taste-smash-burger-2cfc","kind":"restaurant","name":"Criminal Taste - Smash Burger","lat":37.98830387219437,"lng":23.758246415299563,"url":"https://maps.app.goo.gl/bjsnq9fK7qPHgAum7?g_st=ipc","address":"Πανόρμου 10, Αθήνα 115 23","categoryIds":["burgers"],"categories":["Burger Spots"],"distanceKm":0.3112749088527851},{"id":"cheapEatsRestaurants_000769981d10","slug":"piatsa-tylichto-0007","kind":"restaurant","name":"Πιάτσα Τυλιχτό","lat":37.992812158549924,"lng":23.762955305614238,"url":"https://maps.app.goo.gl/99Gr2Rnp3uGrkmWWA?g_st=ipc","address":"Λαρίσης 33, Αθήνα 115 23","categoryIds":["cheap-eats"],"categories":["Gyros & Cheap Eats"],"distanceKm":0.3687137033523294},{"id":"asianRestaurants_01d2fd8409bc","slug":"siam-thai-food-01d2","kind":"restaurant","name":"Siam Thai Food","lat":37.98765776292927,"lng":23.75850606152562,"url":"https://maps.app.goo.gl/V19mHCb8LHh8jNgz6?g_st=ipc","address":"Βατοπεδίου 6, Αθήνα 115 23","categoryIds":["asian"],"categories":["Asian Restaurants"],"distanceKm":0.37343233543009546},{"id":"cheapEatsRestaurants_f3cf5026ad57","slug":"peinirli-ionias-f3cf","kind":"restaurant","name":"Πεϊνιρλί Ιωνίας","lat":37.98758471065417,"lng":23.75770179070527,"url":"https://maps.app.goo.gl/SXittnYdkLPeQRb17?g_st=ipc","address":"Πανόρμου 3, Αθήνα 115 22","categoryIds":["cheap-eats"],"categories":["Gyros & Cheap Eats"],"distanceKm":0.40326241139942814},{"id":"vegetarianRestaurants_8d2c7b9eb78e","slug":"naanstop-indian-cuisine-8d2c","kind":"restaurant","name":"NaanStop Indian Cuisine","lat":37.98689020299092,"lng":23.76047169895521,"url":"https://maps.app.goo.gl/FunBo9MHcx5NDxcQ7?g_st=ipc","address":"Λεωφ. Αλεξάνδρας 223, Αθήνα 115 23","categoryIds":["vegetarian"],"categories":["Vegetarian Friendly Restaurants"],"distanceKm":0.45662613701113397},{"id":"greekRestaurants_b1c00c9474af","slug":"agora-b1c0","kind":"restaurant","name":"AGORA","lat":37.98712790409338,"lng":23.757368207050618,"url":"https://maps.app.goo.gl/UKN5PTfDAJ43RhcT7","address":"31, Χρήστου Βουρνάζου str, Αθήνα 115 21","categoryIds":["greek-restaurants"],"categories":["Greek Restaurants"],"distanceKm":0.4614909920129669},{"id":"rooftopLoungesRestaurants_f7a32b8c6926","slug":"deos-f7a3","kind":"restaurant","name":"Deos","lat":37.99283916898427,"lng":23.76419184118261,"url":"https://maps.app.goo.gl/XiQsBWs7XeVDvyW1A?g_st=ipc","address":"Λουίζης Ριανκούρ 64, Αθήνα 115 23","categoryIds":["rooftop-lounges"],"categories":["Rooftop Lounges"],"distanceKm":0.46330625315754387},{"id":"cheapEatsRestaurants_0e996f9a4065","slug":"jackaroo-0e99","kind":"restaurant","name":"Jackaroo","lat":37.99342271258061,"lng":23.764131211857187,"url":"https://maps.app.goo.gl/VnT5HzaYL2NjnGd27?g_st=ipc","address":"Πανόρμου 109, Αθήνα 115 24","categoryIds":["cheap-eats"],"categories":["Gyros & Cheap Eats"],"distanceKm":0.4920889645375529},{"id":"greekRestaurants_62053e521d7b","slug":"michalis-stoy-koytroyli-6205","kind":"restaurant","name":"Μιχάλης - Στου Κουτρούλη","lat":37.995178959519315,"lng":23.761505445987336,"url":"https://maps.app.goo.gl/7La7jhMdfnzvnDUN6","address":"Βαρίκα 8, Αθήνα 115 24","categoryIds":["greek-restaurants"],"categories":["Greek Restaurants"],"distanceKm":0.5048069093703372},{"id":"asianRestaurants_315dc41692bd","slug":"sakura-sushi-and-steak-house-315d","kind":"restaurant","name":"Sakura Sushi and Steak House","lat":37.992808848594535,"lng":23.76520165923385,"url":"https://maps.app.goo.gl/qjninjaDQmMf2fNU7","address":"Doukissis Plakentias 73, Athina 115 23","categoryIds":["asian"],"categories":["Asian Restaurants"],"distanceKm":0.5421107581453007},{"id":"rooftopLoungesRestaurants_f9c73dde5ada","slug":"sensimilia-cafe-bar-f9c7","kind":"restaurant","name":"Sensimilia Cafe Bar","lat":37.993035889378,"lng":23.76531520450526,"url":"https://maps.app.goo.gl/s89v4aAfgSswW1qy7?g_st=ipc","address":"Δουκίσσης Πλακεντίας 129, Αθήνα 115 23","categoryIds":["rooftop-lounges"],"categories":["Rooftop Lounges"],"distanceKm":0.5613827545515511},{"id":"cheapEatsRestaurants_0022a0eff11e","slug":"koytroylis-0022","kind":"restaurant","name":"ΚΟΥΤΡΟΥΛΗΣ","lat":37.99585400563359,"lng":23.762177083127305,"url":"https://maps.app.goo.gl/xGhyT1vrgFSKodic9?g_st=ipc","address":"Βαρνακιώτη 4, Αθήνα 115 24","categoryIds":["cheap-eats"],"categories":["Gyros & Cheap Eats"],"distanceKm":0.5963864575639196},{"id":"dessertsRestaurants_33a56f7d2cf2","slug":"andrias-33a5","kind":"restaurant","name":"Ανδριάς","lat":37.98955326408805,"lng":23.76607876362105,"url":"https://maps.app.goo.gl/dtVWFaCoXcBCwpmEA?g_st=ipc","address":"Σεβαστουπόλεως 64, Αθήνα 115 26","categoryIds":["desserts"],"categories":["Dessert Shops"],"distanceKm":0.5966428281084811},{"id":"asianRestaurants_4bddf7fbcbe7","slug":"street-wok-4bdd","kind":"restaurant","name":"Street Wok","lat":37.99333429542986,"lng":23.76565696133404,"url":"https://maps.app.goo.gl/xgYqVodevf1ae8hY7?g_st=ipc","address":"Ampelokipi Menemeni, Πανόρμου 115Ζ, Αθήνα 115 24","categoryIds":["asian","cheap-eats"],"categories":["Asian Restaurants","Gyros & Cheap Eats"],"legacySlugs":["street-wok-3ae9"],"distanceKm":0.6027213265308448},{"id":"vegetarianRestaurants_d960699f9346","slug":"vegan-carousel-d960","kind":"restaurant","name":"VEGAN CAROUSEL","lat":37.99118694073678,"lng":23.766617711776497,"url":"https://maps.app.goo.gl/17ei25wSbsQBZTsP6?g_st=ipc","address":"Σοφίας Σλήμαν 6, Αθήνα 115 26","categoryIds":["vegetarian"],"categories":["Vegetarian Friendly Restaurants"],"distanceKm":0.6247482917853064},{"id":"coffeeBrunchRestaurants_df11f874a198","slug":"samba-coffee-roasters-crossroads-df11","kind":"restaurant","name":"Samba Coffee Roasters | Crossroads","lat":37.99393050466954,"lng":23.765656487319742,"url":"https://maps.app.goo.gl/uQpG9Yamdzg2aDJG8?g_st=ipc","address":"Λασκαρίδου 7, Ampelokipi 115 24","categoryIds":["coffee-brunch"],"categories":["Coffee & Brunch Spots"],"distanceKm":0.6349445014000658},{"id":"coffeeBrunchRestaurants_e05f85a7bf8b","slug":"gaby-e05f","kind":"restaurant","name":"Gaby","lat":37.986676810313035,"lng":23.76468460968007,"url":"https://maps.app.goo.gl/i3aZZJMDZs8yiYD88?g_st=ipc","address":"Λεωφ. Μεσογείων 33-37, Αθήνα 115 26","categoryIds":["coffee-brunch"],"categories":["Coffee & Brunch Spots"],"distanceKm":0.6555765433300828},{"id":"greekRestaurants_ea6184198aae","slug":"taverna-o-nikiforos-ea61","kind":"restaurant","name":"Ταβέρνα Ο Νικηφόρος","lat":37.99407146777003,"lng":23.765861778134067,"url":"https://maps.app.goo.gl/S5V49nXtP76Umgj59","address":"Λασκαρίδου 7 &, Λουίζης Ριανκούρ, Αθήνα 151 24","categoryIds":["greek-restaurants"],"categories":["Greek Restaurants"],"distanceKm":0.6585024942709709},{"id":"cheapEatsRestaurants_1230f3d55b53","slug":"ipeiros-1230","kind":"restaurant","name":"Ήπειρος","lat":37.99468309231883,"lng":23.753514780729763,"url":"https://maps.app.goo.gl/CVaNeQjy77ZiLrEv9?g_st=ipc","address":"Μπαταριά 23, Αθήνα 114 76","categoryIds":["cheap-eats"],"categories":["Gyros & Cheap Eats"],"distanceKm":0.6704217436210209},{"id":"greekRestaurants_442477ae20ac","slug":"axotis-4424","kind":"restaurant","name":"Αξώτης","lat":37.995836587823845,"lng":23.754896105548557,"url":"https://maps.app.goo.gl/ins2h5odAAUqFqf2A","address":"Παπαρσένη 15, Αθήνα 114 76","categoryIds":["greek-restaurants"],"categories":["Greek Restaurants"],"distanceKm":0.6788864387738995},{"id":"greekRestaurants_b44e1eb1d480","slug":"oinomageireio-to-trifylli-b44e","kind":"restaurant","name":"Οινομαγειρείο «Το Τριφύλλι»","lat":37.98741582684548,"lng":23.752997875166535,"url":"https://maps.app.goo.gl/ZaG4vxaqPUZoyUEH7","address":"Παναθηναϊκού 7, Αθήνα 115 21","categoryIds":["greek-restaurants"],"categories":["Greek Restaurants"],"distanceKm":0.6903039575673451},{"id":"asianRestaurants_5a81fb6b9192","slug":"zuzuto-ramen-5a81","kind":"restaurant","name":"Zuzuto Ramen","lat":37.98563972505005,"lng":23.764296512977037,"url":"https://maps.app.goo.gl/ryow8NsFhZuQLDhK7?g_st=ipc","address":"Χαλκηδόνος 66, Αθήνα 115 27","categoryIds":["asian"],"categories":["Asian Restaurants"],"distanceKm":0.722659243135175}],"sameRegion":[],"mentionedGuides":[],"canonicalSlug":"delicious-pitta-queen-4873","isCanonicalEntity":true,"enrichment":{"summary_en":"Delicious Pitta Queen is a curated restaurant in Αθήνα 115 23 in the Gyros & Cheap Eats collection. It is connected to 25 nearby Googlementor picks to help travelers build a stronger local route.","summary_el":"Delicious Pitta Queen είναι ένα επιλεγμένο σημείο φαγητού στην περιοχή Αθήνα 115 23 και ανήκει στη συλλογή Gyros & Cheap Eats. Συνδέεται με 25 κοντινές προτάσεις του Googlementor για πιο ολοκληρωμένη εμπειρία.","vibe_tags":["curated","budget-friendly"],"best_for":["first-time visitors","food lovers","budget travelers"],"visit_moments":["lunch stop","dinner stop"],"practical_note":"Address and direct map link are available for easy turn-by-turn access.","nearby_walkable_count":25,"nearby_count_2km":115,"confidence":0.98},"areaContext":{"slug":"goydi","name":"Goudi"},"intentContexts":[{"href":"/cheap-eats/goydi","label":"Gyros & Cheap Eats in Goudi","categorySlug":"cheap-eats","categoryName":"Gyros & Cheap Eats","areaSlug":"goydi","areaName":"Goudi"}]},"__N_SSG":true}