{"pageProps":{"entity":{"id":"burgersRestaurants_fc37c5f5cc99","slug":"diner-72-fc37","kind":"restaurant","name":"Diner 72","lat":37.92372598231459,"lng":23.045537436860897,"url":"https://maps.app.goo.gl/JBWKzEThZyPeN81d8?g_st=ipc","address":"Παλαιά ΕΟ Αθηνών Κορίνθου, Δήμος Λουτρακίου - Αγίων Θεοδώρων 200 03","categoryIds":["burgers"],"categories":["Burger Spots"]},"sameCategory":[{"id":"burgersRestaurants_108c8d4114f6","slug":"bbc-burger-barbeque-corner-108c","kind":"restaurant","name":"BBC Burger Barbeque Corner","lat":37.952390409927204,"lng":23.625437904614223,"url":"https://maps.app.goo.gl/G6x3d2ZUCEMQrN3k7?g_st=ipc","address":"Ἀναπαύσεως 90, Κερατσίνι 187 55","categoryIds":["burgers"],"categories":["Burger Spots"]},{"id":"burgersRestaurants_4906276397a1","slug":"godgilla-keratsini-4906","kind":"restaurant","name":"GODGILLA ΚΕΡΑΤΣΙΝΙ","lat":37.95895954039208,"lng":23.62512429010796,"url":"https://maps.app.goo.gl/XPM5TwgWvpZmGQUh6?g_st=ipc","address":"Θεόφραστου 54, Κερατσίνι 187 56","categoryIds":["burgers","cheap-eats"],"categories":["Burger Spots","Gyros & Cheap Eats"],"legacySlugs":["godgilla-keratsini-e67b"]},{"id":"burgersRestaurants_d46a3e1807bd","slug":"what-they-said-d46a","kind":"restaurant","name":"What They Said","lat":37.94935179980419,"lng":23.633928811446484,"url":"https://maps.app.goo.gl/1hcPfQeHfJrzqf8KA","address":"Eth. Antistaseos 37, Drapetsona 186 48","categoryIds":["burgers"],"categories":["Burger Spots"]},{"id":"burgersRestaurants_51cd3df73f20","slug":"mpar-mpee-kioy-freattyda-51cd","kind":"restaurant","name":"Μπαρ Μπεε Κιου - Φρεαττύδα","lat":37.93450645446817,"lng":23.642685440187794,"url":"https://maps.app.goo.gl/UkJPpNzXrBGL944RA?g_st=ipc","address":"Λεωφ. Φρεάττυδος 13, Πειραιάς 185 37","categoryIds":["burgers","cheap-eats"],"categories":["Burger Spots","Gyros & Cheap Eats"],"legacySlugs":["mpar-mpee-kioy-freattyda-b711"]},{"id":"burgersRestaurants_c5b9db65b8f8","slug":"ala-burger-c5b9","kind":"restaurant","name":"Ala Burger","lat":37.976136624110225,"lng":23.64953319647224,"url":"https://maps.app.goo.gl/magEHZdr4AeKTeT69?g_st=ipc","address":"Ταξιαρχών 14, Κορυδαλλός 181 20","categoryIds":["burgers"],"categories":["Burger Spots"]},{"id":"burgersRestaurants_61f30a1a8896","slug":"arch-beer-house-61f3","kind":"restaurant","name":"Arch Beer House","lat":38.013998175642,"lng":23.688328178434592,"url":"https://maps.app.goo.gl/ESAdNAhkQW7WvLqWA?g_st=ipc","address":"Εθ. Αντιστάσεως 91, Περιστέρι 121 34","categoryIds":["burgers","greek-restaurants"],"categories":["Burger Spots","Greek Restaurants"],"legacySlugs":["arch-beer-house-8940"]},{"id":"burgersRestaurants_d4b7de9746f1","slug":"butcher-s-burger-peristeri-steak-house-d4b7","kind":"restaurant","name":"Butcher's Burger Peristeri & Steak House","lat":38.01156289236995,"lng":23.69228404120557,"url":"https://maps.app.goo.gl/HZTQZzXmyYMQ3mzX9?g_st=ipc","address":"Αιμιλίου Βεάκη 41, Περιστέρι 121 34","categoryIds":["burgers"],"categories":["Burger Spots"]},{"id":"burgersRestaurants_e2eccf34c175","slug":"hanky-panky-palaio-faliro-e2ec","kind":"restaurant","name":"Hanky Panky Palaio Faliro","lat":37.93089466239992,"lng":23.703396088291395,"url":"https://maps.app.goo.gl/psmqWjAqwrakd1ww7?g_st=ipc","address":"Πλ. Νταβάρη 2, Παλαιό Φάληρο 175 64","categoryIds":["burgers"],"categories":["Burger Spots"]},{"id":"burgersRestaurants_b47d84823c91","slug":"the-burger-joint-b47d","kind":"restaurant","name":"The Burger Joint","lat":37.942262724437896,"lng":23.71398429679752,"url":"https://maps.app.goo.gl/4gyyrfZJhxvHeHNj8?g_st=ipc","address":"Λεωφ. Ελ. Βενιζέλου 93, Νέα Σμύρνη 171 22","categoryIds":["burgers"],"categories":["Burger Spots"]},{"id":"burgersRestaurants_0329702a3adc","slug":"hankypanky-0329","kind":"restaurant","name":"HankyPanky","lat":37.967400114692225,"lng":23.71303845092353,"url":"https://maps.app.goo.gl/nQP3ShaVnqxgTCSC7?g_st=ipc","address":"Δεινοχαρους 1, Αθήνα 118 52","categoryIds":["burgers"],"categories":["Burger Spots"]},{"id":"burgersRestaurants_7bcb47e330c5","slug":"tryfonas-kempaptzidikon-hamburgerie-7bcb","kind":"restaurant","name":"Τρύφωνας Κεμπαπτζίδικoν - Hamburgerie","lat":38.0125506362582,"lng":23.70608974489792,"url":"https://maps.app.goo.gl/cE9CbEn5LYoZ6WKj7?g_st=ipc","address":"Παρασκευοπούλου 51, Περιστέρι 121 34","categoryIds":["burgers","cheap-eats"],"categories":["Burger Spots","Gyros & Cheap Eats"],"legacySlugs":["tryfonas-kempaptzidikon-hamburgerie-390d"]},{"id":"burgersRestaurants_af2bce83bf0a","slug":"mpar-mpee-kioy-af2b","kind":"restaurant","name":"Μπαρ Μπεε Κιου","lat":37.947758433049515,"lng":23.715813044078192,"url":"https://maps.app.goo.gl/4dN2cUdHdLqSEgRQA?g_st=ipc","address":"Λεωφ. Ελ. Βενιζέλου 18, Νέα Σμύρνη 171 23","categoryIds":["burgers"],"categories":["Burger Spots"]}],"nearby":[{"id":"fishTavernasRestaurants_280f68f1857d","slug":"kavos-280f","kind":"restaurant","name":"Κάβος","lat":37.9019948722367,"lng":23.01292994879006,"url":"https://maps.app.goo.gl/PptKq3WRsYvpTsqu5?g_st=ipc","address":"Ίσθμια 201 00","categoryIds":["fish-tavernas","luxury-dining"],"categories":["Fish Tavernas","Luxury Dining"],"legacySlugs":["kavos-1d0d"],"distanceKm":3.7445545067893975},{"id":"cheapEatsRestaurants_0b1305dba65e","slug":"fytampanis-g-psitopoleio-soyvlatzidiko-0b13","kind":"restaurant","name":"Φυταμπανης Γ. Ψητοπωλειο - Σουβλατζιδικο","lat":37.92024228635265,"lng":22.99364053559187,"url":"https://maps.app.goo.gl/xoTkQyq8YGQpxjaU8?g_st=ipc","address":"ΕΟ Ισθμού Αρχαίας Επιδαύρου 21, Ίσθμια 200 10","categoryIds":["cheap-eats"],"categories":["Gyros & Cheap Eats"],"distanceKm":4.568636916836185},{"id":"familyFriendly_8b9ba7b9f729","slug":"splash-waterpark-isthmos-8b9b","kind":"restaurant","name":"Splash Waterpark Isthmos","lat":37.92495583561113,"lng":22.991604427588854,"url":"https://maps.app.goo.gl/eqCZacM2mh9hh5mi8?g_st=ipc","address":"Ισθμού, Λουτράκι 203 00","categoryIds":["family-friendly"],"categories":["Kid Friendly Locations"],"distanceKm":4.732608722672255},{"id":"mustSeeAttractions_548e87d4f0b8","slug":"dioryga-tis-korinthoy-548e","kind":"restaurant","name":"Διώρυγα της Κορίνθου","lat":37.934260646159885,"lng":22.98428860726812,"url":"https://maps.app.goo.gl/cmoYHbzQvg5Nv9KN7?g_st=ipc","address":"Λουτράκι 203 00","categoryIds":["attractions"],"categories":["Must-See Attractions"],"distanceKm":5.498219158118926},{"id":"greekRestaurants_87ece57093df","slug":"maistrali-87ec","kind":"restaurant","name":"Μαϊστράλι","lat":37.967119636762334,"lng":22.972511635572165,"url":"https://maps.app.goo.gl/TngD3F1b3PDVc4187?g_st=ipc","address":"Ποσειδώνος 81, Λουτράκι 203 00","categoryIds":["greek-restaurants"],"categories":["Greek Restaurants"],"distanceKm":8.017899659681863},{"id":"fishTavernasRestaurants_f1a82ca58a60","slug":"paolo-nikos-restaurant-f1a8","kind":"restaurant","name":"Paolo Nikos Restaurant","lat":37.97387325898538,"lng":22.97577321461108,"url":"https://maps.app.goo.gl/55rvgJM2cg2quvQr9?g_st=ipc","address":"Ποσειδώνος, Λουτράκι 203 00","categoryIds":["fish-tavernas"],"categories":["Fish Tavernas"],"distanceKm":8.27727575499977},{"id":"familyFriendly_382b225783e0","slug":"athloypoli-382b","kind":"restaurant","name":"Αθλούπολη","lat":37.92596676764985,"lng":22.950761882031436,"url":"https://maps.app.goo.gl/1hz4bXK4e1zKMcW19?g_st=ipc","address":"Θέση Μπαθαρίστρα, Δήμος Κορινθίων 201 00","categoryIds":["family-friendly"],"categories":["Kid Friendly Locations"],"distanceKm":8.316735429497149},{"id":"municipalities_2601b1f9b5a8","slug":"loytraki-perachora-ag-theodoroi-2601","kind":"municipality","name":"Λουτράκι - Περαχώρα - Αγ. Θεόδωροι","lat":37.9747,"lng":22.975,"region":"Κορινθία","name_en":"Loutraki - Perachora - Agioi Theodoroi","region_en":"Corinthia","distanceKm":8.389314882726397},{"id":"municipalities_27d87fc31abf","slug":"korinthos-27d8","kind":"municipality","name":"Κόρινθος","lat":37.9401,"lng":22.9513,"aliases":["Κορινθος"],"region":"Κορινθία","name_en":"Corinth","region_en":"Corinthia","distanceKm":8.463175192090663},{"id":"fishTavernasRestaurants_ec6fbfb939ca","slug":"oyzeri-o-giannis-ec6f","kind":"restaurant","name":"Ουζερί ο Γιάννης","lat":37.97847865950633,"lng":22.976754663547947,"url":"https://maps.app.goo.gl/9WDCt3PAuTfMs7ke8?g_st=ipc","address":"Γεωρ. Λέκκα 3, Λουτράκι 203 00","categoryIds":["fish-tavernas"],"categories":["Fish Tavernas"],"distanceKm":8.569646186393447},{"id":"fishTavernasRestaurants_08b5ab011888","slug":"almyriki-08b5","kind":"restaurant","name":"ΑΛΜΥΡΙΚΙ","lat":37.852743518617515,"lng":23.00215185401227,"url":"https://maps.app.goo.gl/hdAPtt1dSNxNigaPA?g_st=ipc","address":"R2X3+G5, Epar.Od. Moni Taxiarchon - Kato Almiri, Kato Almiri 201 00","categoryIds":["fish-tavernas"],"categories":["Fish Tavernas"],"distanceKm":8.763197969709386},{"id":"monasteriesChurches_27ad1b8957bf","slug":"iera-moni-osioy-patapioy-27ad","kind":"restaurant","name":"Ιερά Μονή Οσίου Παταπίου","lat":37.995800173616075,"lng":22.97687851305677,"url":"https://maps.app.goo.gl/pK5oCv6PgGwT3qg66?g_st=ipc","address":"Σχολής Μηχανικού 26, Λουτράκι 203 00","categoryIds":["monasteries-churches"],"categories":["Monasteries & Spiritual Sites"],"distanceKm":10.023061003412309},{"id":"fishTavernasRestaurants_f33d801592a8","slug":"fanis-f33d","kind":"restaurant","name":"Φάνης","lat":37.93929883889628,"lng":22.920388237170222,"url":"https://maps.app.goo.gl/fTiUsZtuT7FzXx5m8?g_st=ipc","address":"Γεωρ. Παπανδρέου 87, Κόρινθος 201 00","categoryIds":["fish-tavernas"],"categories":["Fish Tavernas"],"distanceKm":11.111908149335543},{"id":"greekRestaurants_95a7c55fd3b7","slug":"panorama-95a7","kind":"restaurant","name":"PANORAMA","lat":38.00713857434971,"lng":22.938193442340463,"url":"https://maps.app.goo.gl/iZ1dcxAEfMtNzWnJ6?g_st=ipc","address":"Λουτράκι 203 00","categoryIds":["greek-restaurants"],"categories":["Greek Restaurants"],"distanceKm":13.212824750277512},{"id":"greekRestaurants_cb449644830d","slug":"taverna-mpekos-cb44","kind":"restaurant","name":"ΤΑΒΕΡΝΑ ΜΠΕΚΟΣ","lat":37.882103671834614,"lng":22.89083633129398,"url":"https://maps.app.goo.gl/WFqWdQskbVXwmo339?g_st=ipc","address":"ΕΟ Κορίνθου Άργους 36, Σολομός 201 00","categoryIds":["greek-restaurants"],"categories":["Greek Restaurants"],"distanceKm":14.340631836382686},{"id":"mustSeeAttractions_10ed76689ca7","slug":"archaia-korinthos-10ed","kind":"restaurant","name":"Αρχαία Κόρινθος","lat":37.90716292407013,"lng":22.881429703730713,"url":"https://maps.app.goo.gl/Wa4GWgjzXVLMVAyZ7?g_st=ipc","address":"Αρχαία Κόρινθος 200 07","categoryIds":["attractions"],"categories":["Must-See Attractions"],"distanceKm":14.513470644136321},{"id":"mustSeeAttractions_6f7525d9828a","slug":"naos-toy-apollona-6f75","kind":"restaurant","name":"Ναός του Απόλλωνα","lat":37.905934819191934,"lng":22.879090197503242,"url":"https://maps.app.goo.gl/8vWipRURHj9oGwSj8?g_st=ipc","address":"Άργους 105, Αρχαία Κόρινθος 200 07","categoryIds":["attractions"],"categories":["Must-See Attractions"],"distanceKm":14.734897683035031},{"id":"fishTavernasRestaurants_bedd9566b385","slug":"thealos-thealos-bedd","kind":"restaurant","name":"Θέαλος - Thealos","lat":37.94991846803997,"lng":22.83722013675207,"url":"https://maps.app.goo.gl/Aaq7XhnhCgZUhsH29?g_st=ipc","address":"Unnamed Rd, Kato Assos 200 06","categoryIds":["fish-tavernas"],"categories":["Fish Tavernas"],"distanceKm":18.499752468539416},{"id":"fishTavernasRestaurants_1987f39aed70","slug":"petrokaravo-kostas-doschoris-1987","kind":"restaurant","name":"Πετροκάραβο Κώστας Δόσχορης","lat":38.05084603587256,"lng":22.892852891023853,"url":"https://maps.app.goo.gl/mPqqGc7qF5ff2aPP9?g_st=ipc","address":"Κορινθιακός κόλπος Στέρνα, Loutraki Perachora 203 00","categoryIds":["fish-tavernas"],"categories":["Fish Tavernas"],"distanceKm":19.464100363478913},{"id":"greekRestaurants_b760cd0c2463","slug":"chavon-restobar-b760","kind":"restaurant","name":"Chavon Restobar","lat":37.96210160412795,"lng":22.806527700162825,"url":"https://maps.app.goo.gl/gHNgPE2wUtHLY6F1A?g_st=ipc","address":"Parodos Andrea Lazana 101, Βραχάτι 200 06","categoryIds":["greek-restaurants"],"categories":["Greek Restaurants"],"distanceKm":21.388967105309572},{"id":"greekRestaurants_f0875a0de3a8","slug":"eviva-taverna-f087","kind":"restaurant","name":"Εβίβα Ταβέρνα","lat":37.94826596142861,"lng":22.791019779670105,"url":"https://maps.app.goo.gl/D8Mr8bUZPttfMux47?g_st=ipc","address":"Επαρ.Οδ. Βραχατίου - Νεμέας 255, Βοχαϊκό 200 06","categoryIds":["greek-restaurants"],"categories":["Greek Restaurants"],"distanceKm":22.48716509688774},{"id":"familyFriendly_52cd4997ee89","slug":"farma-ampelos-vochaikou-52cd","kind":"restaurant","name":"FARMA AMPELOS VOCHAIKOU","lat":37.932680344972496,"lng":22.771047365230917,"url":"https://maps.app.goo.gl/cQ3vrm4TKeMAyCsq6?g_st=ipc","address":"ΑΓΡΟΤΙΚΗ ΟΔΟΣ, Βοχαϊκό 200 06","categoryIds":["family-friendly"],"categories":["Kid Friendly Locations"],"distanceKm":24.095687942751525},{"id":"monasteriesChurches_853ade4b065f","slug":"iera-moni-koimiseos-tis-theotokoy-agnoyntos-853a","kind":"restaurant","name":"Ιερά Μονή Κοιμήσεως της Θεοτόκου Αγνούντος","lat":37.71054987478057,"lng":23.131785879590392,"url":"https://maps.app.goo.gl/hdbTG2TdzToXT6nz8?g_st=ipc","address":"Επίδαυρος 210 54","categoryIds":["monasteries-churches"],"categories":["Monasteries & Spiritual Sites"],"distanceKm":24.88537874809198}],"sameRegion":[],"mentionedGuides":[],"canonicalSlug":"diner-72-fc37","isCanonicalEntity":true,"enrichment":{"summary_en":"Diner 72 is a curated restaurant in Δήμος Λουτρακίου - Αγίων Θεοδώρων 200 03 in the Burger Spots collection. It is connected to 0 nearby Googlementor picks to help travelers build a stronger local route.","summary_el":"Diner 72 είναι ένα επιλεγμένο σημείο φαγητού στην περιοχή Δήμος Λουτρακίου - Αγίων Θεοδώρων 200 03 και ανήκει στη συλλογή Burger Spots. Συνδέεται με 0 κοντινές προτάσεις του Googlementor για πιο ολοκληρωμένη εμπειρία.","vibe_tags":["curated"],"best_for":["first-time visitors","food lovers"],"visit_moments":["lunch stop","dinner stop"],"practical_note":"Address and direct map link are available for easy turn-by-turn access.","nearby_walkable_count":0,"nearby_count_2km":0,"confidence":0.9},"areaContext":null,"intentContexts":[]},"__N_SSG":true}