{"pageProps":{"entity":{"id":"coffeeBrunchRestaurants_63f25ca28818","slug":"ear-cafe-bar-63f2","kind":"restaurant","name":"Έαρ Cafe Bar","lat":37.67079207904159,"lng":22.182043630957757,"url":"https://maps.app.goo.gl/JnZa27RuEpaKVL4p6?g_st=ipc","address":"Τρύφωνα Ζαχαρόπουλου, Vitina 220 10","categoryIds":["coffee-brunch"],"categories":["Coffee & Brunch Spots"]},"sameCategory":[{"id":"coffeeBrunchRestaurants_4eafd9c8fe54","slug":"ar-ko-4eaf","kind":"restaurant","name":"Ar&Ko","lat":37.565832099209665,"lng":22.80288803557191,"url":"https://maps.app.goo.gl/VsqimzGRSLvrL3FN7?g_st=ipc","address":"Πάρκο Κολοκοτρώνη, Vasileos Pavlou, Nafplio 211 00","categoryIds":["coffee-brunch"],"categories":["Coffee & Brunch Spots"]},{"id":"coffeeBrunchRestaurants_1d9f7f941901","slug":"liberty-view-of-nafplio-1d9f","kind":"restaurant","name":"Liberty View Of Nafplio","lat":37.56620305969031,"lng":22.806201213990434,"url":"https://maps.app.goo.gl/ZB4UYRxyx55zXBkS9?g_st=ipc","address":"Sidiras Merarchias 39, Nafplio 211 00","categoryIds":["coffee-brunch"],"categories":["Coffee & Brunch Spots"]},{"id":"coffeeBrunchRestaurants_de7e3474dbb3","slug":"bouka-bouka-mare-de7e","kind":"restaurant","name":"Bouka Bouka Mare","lat":37.013989599006756,"lng":21.99717016667302,"url":"https://maps.app.goo.gl/8DUAGWFE2uqSxjoi6?g_st=ipc","address":"Παραλία, Messini 242 00","categoryIds":["coffee-brunch"],"categories":["Coffee & Brunch Spots"]},{"id":"coffeeBrunchRestaurants_f84032a69c94","slug":"zeabakery-f840","kind":"restaurant","name":"zeabakery","lat":38.24285092491478,"lng":21.73125949400658,"url":"https://maps.app.goo.gl/2ULzYbujrWoB52n26?g_st=ipc","address":"Korinthou 302, Patra 262 22","categoryIds":["coffee-brunch"],"categories":["Coffee & Brunch Spots"]},{"id":"coffeeBrunchRestaurants_e7e97fb2d3e5","slug":"anemos-cafe-bar-e7e9","kind":"restaurant","name":"Anemos Cafe Bar","lat":37.77116024105471,"lng":21.29250825374054,"url":"https://maps.app.goo.gl/M2pxCK9uxiBVApkD7?g_st=ipc","address":"Kourouta 272 00","categoryIds":["coffee-brunch"],"categories":["Coffee & Brunch Spots"]},{"id":"coffeeBrunchRestaurants_b487e1e8e4bb","slug":"la-mer-b487","kind":"restaurant","name":"La Mer","lat":38.15655535964722,"lng":21.36777415023951,"url":"https://maps.app.goo.gl/ijDMxEmSaLdDH7FR8?g_st=ipc","address":"Larisos 270 52","categoryIds":["coffee-brunch"],"categories":["Coffee & Brunch Spots"]},{"id":"coffeeBrunchRestaurants_b9249c7456d4","slug":"patriko-pub-cafe-b924","kind":"restaurant","name":"Patriko Pub-Cafe","lat":36.844945849235245,"lng":22.259663624938703,"url":"https://maps.app.goo.gl/cmXtN3A11tRUN13MA?g_st=ipc","address":"Παραλία Στούπας, Stoupa 240 24","categoryIds":["coffee-brunch"],"categories":["Coffee & Brunch Spots"]},{"id":"coffeeBrunchRestaurants_8e8ab9c3ae16","slug":"alatiera-8e8a","kind":"restaurant","name":"Alatiera","lat":38.36054133352401,"lng":21.42496004301919,"url":"https://maps.app.goo.gl/CmTSEDR1jZPW7D6x6?g_st=ipc","address":"Epar.Od. Mesologgiou - Alikon Tourlidas 27, Missolonghi 302 00","categoryIds":["coffee-brunch"],"categories":["Coffee & Brunch Spots"]},{"id":"coffeeBrunchRestaurants_a0f98e1c2b12","slug":"aiakeion-a0f9","kind":"restaurant","name":"Αιάκειον","lat":37.746460271999695,"lng":23.42831871522419,"url":"https://maps.app.goo.gl/Qzj36fpjYDeGE7CdA?g_st=ipc","address":"Λεωφ. Δημοκρατίας 18, Αίγινα 180 10","categoryIds":["coffee-brunch"],"categories":["Coffee & Brunch Spots"]},{"id":"coffeeBrunchRestaurants_376f978cdcbd","slug":"leof-dimokratias-51-aigina-180-10-376f","kind":"restaurant","name":"Λεωφ. Δημοκρατίας 51, Αίγινα 180 10","lat":37.74458755004641,"lng":23.429733301742875,"url":"https://maps.app.goo.gl/iAGPEbpGe5cmBZmJ9?g_st=ipc","address":"Λεωφ. Δημοκρατίας 51, Αίγινα 180 10","categoryIds":["coffee-brunch"],"categories":["Coffee & Brunch Spots"]},{"id":"coffeeBrunchRestaurants_52f2d70fc21e","slug":"to-mikro-cafe-52f2","kind":"restaurant","name":"Το Μικρό Cafe","lat":37.69190688153916,"lng":23.451237398771788,"url":"https://maps.app.goo.gl/KwgXY17CGsEWtAUX7?g_st=ipc","address":"Unnamed Road, Πέρδικα 180 10","categoryIds":["coffee-brunch"],"categories":["Coffee & Brunch Spots"]},{"id":"coffeeBrunchRestaurants_ebff8d600624","slug":"jenkins-lounge-eatery-ebff","kind":"restaurant","name":"Jenkins Lounge Eatery","lat":37.786543893628924,"lng":20.898568985854595,"url":"https://maps.app.goo.gl/1TG8uMAi1MTZQgiY8?g_st=ipc","address":"Psaron 3, Zakinthos 291 00","categoryIds":["coffee-brunch"],"categories":["Coffee & Brunch Spots"]}],"nearby":[{"id":"greekRestaurants_85ac3be3e822","slug":"paradosiaki-taverna-o-pantelis-85ac","kind":"restaurant","name":"Παραδοσιακή Ταβέρνα Ο Παντελής","lat":37.66932870704655,"lng":22.182333342140492,"url":"https://maps.app.goo.gl/cvHML6eFSjSNc5Sb7?g_st=ipc","address":"Βυτίνα 220 10","categoryIds":["greek-restaurants"],"categories":["Greek Restaurants"],"distanceKm":0.16470535197543706},{"id":"greekRestaurants_3078ffee852c","slug":"koympoyris-1970-3078","kind":"restaurant","name":"Κουμπούρης 1970","lat":37.68399722999656,"lng":22.295929513779615,"url":"https://maps.app.goo.gl/YMUJHncJTMJQozvE7?g_st=ipc","address":"ΕΟ74 10, Λεβίδι 220 02","categoryIds":["greek-restaurants"],"categories":["Greek Restaurants"],"distanceKm":10.129725103335781},{"id":"greekRestaurants_7c9f07a3160d","slug":"maniatis-restaurant-7c9f","kind":"restaurant","name":"MANIATIS RESTAURANT","lat":37.68177813612369,"lng":22.029455603164294,"url":"https://maps.app.goo.gl/XpSe1XvM3UDbKs8K7?g_st=ipc","address":"Λαγκάδια 220 03","categoryIds":["greek-restaurants"],"categories":["Greek Restaurants"],"distanceKm":13.484440908725388},{"id":"greekRestaurants_46410f580a23","slug":"to-steki-toy-moria-4641","kind":"restaurant","name":"ΤΟ ΣΤΕΚΙ ΤΟΥ ΜΩΡΙΑ","lat":37.54602303804999,"lng":22.21106333556993,"url":"https://maps.app.goo.gl/MuJ25Kkm8d6nFJDU9?g_st=ipc","address":"Επαρ.Οδ. Κάτω Δαβιάς - Δημητσάνας 42, Χρυσοβίτσι 221 00","categoryIds":["greek-restaurants"],"categories":["Greek Restaurants"],"distanceKm":14.107225500498675},{"id":"municipalities_0476aca6edd0","slug":"dimitsana-0476","kind":"municipality","name":"Δημητσάνα","lat":37.5958,"lng":22.0431,"aliases":["Δημητσανα"],"region":"Αρκαδία","name_en":"Dimitsana","region_en":"Arcadia","distanceKm":14.80662038562963},{"id":"municipalities_9871842f9b03","slug":"stemnitsa-9871","kind":"municipality","name":"Στεμνίτσα","lat":37.5381,"lng":22.0706,"aliases":["Στεμνιτσα"],"region":"Αρκαδία","name_en":"Stemnitsa","region_en":"Arcadia","distanceKm":17.722380016697443},{"id":"greekRestaurants_5a5748f68d29","slug":"taverna-zerzova-5a57","kind":"restaurant","name":"Ταβέρνα Ζέρζοβα","lat":37.55978422678044,"lng":22.035182022142255,"url":"https://maps.app.goo.gl/nmUY7Lp6mDtzAwTm8?g_st=ipc","address":"Unnamed Rd, Γορτυνία 220 07","categoryIds":["greek-restaurants"],"categories":["Greek Restaurants"],"distanceKm":17.87995741624041},{"id":"wineriesVineyards_2941ab0a3cb2","slug":"ktima-spyropoylos-2941","kind":"restaurant","name":"Κτήμα Σπυρόπουλος","lat":37.63241805452202,"lng":22.386158704913175,"url":"https://maps.app.goo.gl/yaMLQMfuQx4GhqbF7?g_st=ipc","address":"Μαντινεία 221 00","categoryIds":["wineries-vineyards"],"categories":["Wineries & Vineyards"],"distanceKm":18.46942693346761},{"id":"greekRestaurants_ba48f33d62eb","slug":"taverna-toy-taloymi-ba48","kind":"restaurant","name":"Ταβέρνα του Ταλούμη","lat":37.5209406617155,"lng":22.072800838010828,"url":"https://maps.app.goo.gl/4iPhGQLM9AExuZCk6?g_st=ipc","address":"Pl. Smirnis, Elliniko 222 00","categoryIds":["greek-restaurants"],"categories":["Greek Restaurants"],"distanceKm":19.242668118390164},{"id":"wineriesVineyards_b3c21913429a","slug":"oinopoieio-troypi-troupis-winery-b3c2","kind":"restaurant","name":"Οινοποιείο Τρουπή - Troupis Winery","lat":37.578821168768364,"lng":22.391134196287375,"url":"https://maps.app.goo.gl/y97jAfhSNsjXAtQt7?g_st=ipc","address":"Μηλιά, Μηλιά Τριπόλεως 221 00","categoryIds":["wineries-vineyards"],"categories":["Wineries & Vineyards"],"distanceKm":21.063632851720783},{"id":"municipalities_ae8cab121b61","slug":"tripoli-ae8c","kind":"municipality","name":"Τρίπολη","lat":37.5099,"lng":22.3794,"aliases":["Τριπολη"],"region":"Αρκαδία","name_en":"Tripoli","region_en":"Arcadia","distanceKm":24.948847917742132},{"id":"greekRestaurants_4c4401a7e8ee","slug":"oi-moyries-4c44","kind":"restaurant","name":"Οι Μουριές","lat":37.896633092738924,"lng":22.12341346377816,"url":"https://maps.app.goo.gl/42bbkghREKadwJ7d7?g_st=ipc","address":"Epar.Od. Kalavriton-Filias 12, Klitoria 250 07","categoryIds":["greek-restaurants"],"categories":["Greek Restaurants"],"distanceKm":25.6355039479496},{"id":"greekRestaurants_c2f3bf63f9d6","slug":"trikrina-c2f3","kind":"restaurant","name":"Τρίκρηνα","lat":37.908133647835946,"lng":22.32453249327104,"url":"https://maps.app.goo.gl/eeiwiRoH3oKaZhjc6?g_st=ipc","address":"Unnamed Road,, Φενεός 200 14","categoryIds":["greek-restaurants"],"categories":["Greek Restaurants"],"distanceKm":29.210783668522467},{"id":"municipalities_27f1dfa74ddf","slug":"megalopoli-27f1","kind":"municipality","name":"Μεγαλόπολη","lat":37.403,"lng":22.142,"region":"Αρκαδία","name_en":"Megalopoli","region_en":"Arcadia","distanceKm":29.985717205378187}],"sameRegion":[],"mentionedGuides":[],"canonicalSlug":"ear-cafe-bar-63f2","isCanonicalEntity":true,"enrichment":{"summary_en":"Έαρ Cafe Bar is a curated restaurant in Vitina 220 10 in the Coffee & Brunch Spots collection. It is connected to 1 nearby Googlementor picks to help travelers build a stronger local route.","summary_el":"Έαρ Cafe Bar είναι ένα επιλεγμένο σημείο φαγητού στην περιοχή Vitina 220 10 και ανήκει στη συλλογή Coffee & Brunch Spots. Συνδέεται με 1 κοντινές προτάσεις του Googlementor για πιο ολοκληρωμένη εμπειρία.","vibe_tags":["curated","daytime-favorite"],"best_for":["first-time visitors","food lovers"],"visit_moments":["early morning","late brunch"],"practical_note":"Address and direct map link are available for easy turn-by-turn access.","nearby_walkable_count":1,"nearby_count_2km":1,"confidence":0.9},"areaContext":null,"intentContexts":[]},"__N_SSG":true}