{"pageProps":{"entity":{"id":"cheapEatsRestaurants_c98ce12d9800","slug":"f-g-k-fagito-gia-kollimenoys-c98c","kind":"restaurant","name":"Φ.Γ.Κ. Φαγητό Για Κολλημένους","lat":38.042711505406885,"lng":23.682873455447876,"url":"https://maps.app.goo.gl/52UR7h68kqnaDZDr7?g_st=ipc","address":"25ης Μαρτίου 66, Πετρούπολη 132 31","categoryIds":["cheap-eats"],"categories":["Gyros & Cheap Eats"]},"sameCategory":[{"id":"cheapEatsRestaurants_1eb67b7cda57","slug":"kempaptzidikon-o-mpotsaris-kreatofageion-1eb6","kind":"restaurant","name":"Κεμπαπτζίδικον ο Μπότσαρης Κρεατοφαγείον","lat":38.04278396237398,"lng":23.683368051113483,"url":"https://maps.app.goo.gl/b9xJL1JcpT29iJ776?g_st=ipc","address":"25ης Μαρτίου 75, Πετρούπολη 132 31","categoryIds":["cheap-eats"],"categories":["Gyros & Cheap Eats"]},{"id":"cheapEatsRestaurants_94d8d8e87224","slug":"nesta-94d8","kind":"restaurant","name":"NeSta","lat":38.025350500036026,"lng":23.68251901127124,"url":"https://maps.app.goo.gl/M4mxfLaTjiY1TWnn6?g_st=ipc","address":"Αγίου Ιεροθέου 97, Περιστέρι 121 35","categoryIds":["cheap-eats"],"categories":["Gyros & Cheap Eats"]},{"id":"cheapEatsRestaurants_23208072a530","slug":"o-mparmpas-choriatiki-kantina-2320","kind":"restaurant","name":"Ο Μπάρμπας Χωριάτικη Καντίνα","lat":38.03834405515059,"lng":23.705313931462435,"url":"https://maps.app.goo.gl/rw8Py2VR6j9NeDLn6?g_st=ipc","address":"Αγίου Νικολάου 2, Ίλιον 131 23","categoryIds":["cheap-eats"],"categories":["Gyros & Cheap Eats"]},{"id":"cheapEatsRestaurants_1be49628e345","slug":"eylogison-psitopoleia-ilion-1be4","kind":"restaurant","name":"ΕΥΛΟΓΗΣΟΝ-ΨΗΤΟΠΩΛΕΙΑ ΙΛΙΟΝ","lat":38.029256363760155,"lng":23.699607500108378,"url":"https://maps.app.goo.gl/ytds7DdcMdh2G5oA8?g_st=ipc","address":"Thivon 481, Ilion 131 21","categoryIds":["cheap-eats"],"categories":["Gyros & Cheap Eats"]},{"id":"cheapEatsRestaurants_158ee5dd1d4f","slug":"cocorico-158e","kind":"restaurant","name":"Cocorico","lat":38.03523380190847,"lng":23.705868008544936,"url":"https://maps.app.goo.gl/4u4xPrqXGjRF9V9cA?g_st=ipc","address":"Ιφιγένειας 31, Ίλιον 131 22","categoryIds":["cheap-eats","mexican"],"categories":["Gyros & Cheap Eats","Mexican Restaurants"],"legacySlugs":["cocorico-35c4"]},{"id":"cheapEatsRestaurants_5aa0772c387e","slug":"psitopoleio-o-kostas-5aa0","kind":"restaurant","name":"Ψητοπωλείο Ο Κώστας","lat":38.022231500145956,"lng":23.689859003426026,"url":"https://maps.app.goo.gl/FkX4m8b5w9RxDkZP6?g_st=ipc","address":"Αχαΐας 8, Περιστέρι 121 35","categoryIds":["cheap-eats"],"categories":["Gyros & Cheap Eats"]},{"id":"cheapEatsRestaurants_9bf1f7743a87","slug":"dekapentalepto-9bf1","kind":"restaurant","name":"Δεκαπενταλεπτο","lat":38.0332432504206,"lng":23.708153853689517,"url":"https://maps.app.goo.gl/pgrPE8JqcHDwR95q6?g_st=ipc","address":"Πάριδος 90, Ίλιον 131 22","categoryIds":["cheap-eats"],"categories":["Gyros & Cheap Eats"]},{"id":"cheapEatsRestaurants_89bd0bf927d5","slug":"soyvlakia-gkoymas-89bd","kind":"restaurant","name":"Σουβλάκια Γκούμας","lat":38.023248902145305,"lng":23.69985643748309,"url":"https://maps.app.goo.gl/cMeAjTZUY1MyiZmPA?g_st=ipc","address":"Μαυρομιχάλη 3, Ίλιον 131 21","categoryIds":["cheap-eats"],"categories":["Gyros & Cheap Eats"]},{"id":"cheapEatsRestaurants_9b3a59c497dd","slug":"to-magkali-peristeri-9b3a","kind":"restaurant","name":"Το Μαγκάλι (Περιστέρι)","lat":38.01338073065152,"lng":23.686862336191798,"url":"https://maps.app.goo.gl/cpKq1vTipGxLPNCu7?g_st=ipc","address":"Δωδεκανήσου 24, Πελοπίδα 48, Περιστέρι 121 34","categoryIds":["cheap-eats"],"categories":["Gyros & Cheap Eats"]},{"id":"cheapEatsRestaurants_f4852478be70","slug":"kantina-mpilis-f485","kind":"restaurant","name":"Καντίνα Μπίλης","lat":38.01164780075542,"lng":23.6884871707283,"url":"https://maps.app.goo.gl/CHy9bu3k15qybj71A?g_st=ipc","address":"Πελασγίας 7, Περιστέρι 121 31","categoryIds":["cheap-eats"],"categories":["Gyros & Cheap Eats"]},{"id":"cheapEatsRestaurants_64ecfbc2f3f4","slug":"mayro-alati-64ec","kind":"restaurant","name":"Μαύρο Αλάτι","lat":38.011756038342455,"lng":23.693312637532987,"url":"https://maps.app.goo.gl/WBopamZ7xeysedvt5?g_st=ipc","address":"Αιμιλίου Βεάκη 44, Περιστέρι 121 34","categoryIds":["cheap-eats"],"categories":["Gyros & Cheap Eats"]},{"id":"cheapEatsRestaurants_58cd33367600","slug":"no-mama-s-boy-58cd","kind":"restaurant","name":"No mama's boy","lat":38.02704131964815,"lng":23.71833984165418,"url":"https://maps.app.goo.gl/JSTFEbHbfetiYWWd6?g_st=ipc","address":"Λεωφ. Δημοκρατίας 60, Άγιοι Ανάργυροι 135 61","categoryIds":["cheap-eats"],"categories":["Gyros & Cheap Eats"]}],"nearby":[{"id":"cheapEatsRestaurants_1eb67b7cda57","slug":"kempaptzidikon-o-mpotsaris-kreatofageion-1eb6","kind":"restaurant","name":"Κεμπαπτζίδικον ο Μπότσαρης Κρεατοφαγείον","lat":38.04278396237398,"lng":23.683368051113483,"url":"https://maps.app.goo.gl/b9xJL1JcpT29iJ776?g_st=ipc","address":"25ης Μαρτίου 75, Πετρούπολη 132 31","categoryIds":["cheap-eats"],"categories":["Gyros & Cheap Eats"],"distanceKm":0.044055562036596135},{"id":"dessertsRestaurants_ba91e534476f","slug":"zacharoplasteio-andreadakis-petroypoli-ba91","kind":"restaurant","name":"Ζαχαροπλαστείο Ανδρεαδάκης Πετρούπολη","lat":38.03612210316234,"lng":23.688342676106394,"url":"https://maps.app.goo.gl/YRfC48ExzTQfDLe69?g_st=ipc","address":"Ανατολικής Ρωμυλίας 152, Πετρούπολη 131 21","categoryIds":["desserts"],"categories":["Dessert Shops"],"distanceKm":0.8753708426582291},{"id":"coffeeBrunchRestaurants_032174c082b8","slug":"terra-petra-0321","kind":"restaurant","name":"Terra Petra","lat":38.044831606976764,"lng":23.672941058577717,"url":"https://maps.app.goo.gl/NkdERDh1FhW3YswW7?g_st=ipc","address":"Ανατολικής Ρωμυλίας 1, Πετρούπολη 132 31","categoryIds":["coffee-brunch"],"categories":["Coffee & Brunch Spots"],"distanceKm":0.9011664093143964},{"id":"municipalities_aa49daff0d15","slug":"petroypoli-aa49","kind":"municipality","name":"Πετρούπολη","lat":38.0333,"lng":23.6833,"region":"Δυτικά Προάστια","name_en":"Petroupoli","region_en":"Western Suburbs","distanceKm":1.047178153466016},{"id":"italianRestaurants_9ad90cbc1718","slug":"goloso-cucina-e-pizza-italiana-9ad9","kind":"restaurant","name":"Goloso Cucina e Pizza Italiana","lat":38.034154813582916,"lng":23.69590782983928,"url":"https://maps.app.goo.gl/pg641ieu7sSBX3fa7","address":"Petroupoleos 68-70, Petroupoli 131 23","categoryIds":["italian"],"categories":["Italian Restaurants"],"distanceKm":1.486042239238048},{"id":"municipalities_ef8568a05e9e","slug":"ilion-ef85","kind":"municipality","name":"Ίλιον","lat":38.038,"lng":23.703,"region":"Δυτικά Προάστια","name_en":"Ilion","region_en":"Western Suburbs","distanceKm":1.83878517614733},{"id":"dessertsRestaurants_935fad998e8c","slug":"fraoylino-935f","kind":"restaurant","name":"Φραουλίνο","lat":38.02571847935665,"lng":23.682602344058107,"url":"https://maps.app.goo.gl/UsSfWkbfNh2ToQsu8?g_st=ipc","address":"Αγίου Ιεροθέου 110, Περιστέρι 121 35","categoryIds":["desserts"],"categories":["Dessert Shops"],"distanceKm":1.889687468841225},{"id":"familyFriendly_d58d453a4afe","slug":"hado-peristeri-d58d","kind":"restaurant","name":"HADO Περιστέρι","lat":38.02563091830247,"lng":23.685245432173534,"url":"https://maps.app.goo.gl/wwQRT4HuTNPHeVR97?g_st=ipc","address":"Ταντάλου 10, Περιστέρι 121 35","categoryIds":["family-friendly"],"categories":["Kid Friendly Locations"],"distanceKm":1.910602262673795},{"id":"italianRestaurants_f98d171cbc3e","slug":"la-greca-ilion-f98d","kind":"restaurant","name":"La Greca Ίλιον","lat":38.033370068810264,"lng":23.70123370557317,"url":"https://maps.app.goo.gl/Btmva8rtUGkuoUtX6?g_st=ipc","address":"Έκτορος 140, Ίλιον 131 23","categoryIds":["italian"],"categories":["Italian Restaurants"],"distanceKm":1.9142664943250216},{"id":"cheapEatsRestaurants_94d8d8e87224","slug":"nesta-94d8","kind":"restaurant","name":"NeSta","lat":38.025350500036026,"lng":23.68251901127124,"url":"https://maps.app.goo.gl/M4mxfLaTjiY1TWnn6?g_st=ipc","address":"Αγίου Ιεροθέου 97, Περιστέρι 121 35","categoryIds":["cheap-eats"],"categories":["Gyros & Cheap Eats"],"distanceKm":1.930705298061492},{"id":"cheapEatsRestaurants_23208072a530","slug":"o-mparmpas-choriatiki-kantina-2320","kind":"restaurant","name":"Ο Μπάρμπας Χωριάτικη Καντίνα","lat":38.03834405515059,"lng":23.705313931462435,"url":"https://maps.app.goo.gl/rw8Py2VR6j9NeDLn6?g_st=ipc","address":"Αγίου Νικολάου 2, Ίλιον 131 23","categoryIds":["cheap-eats"],"categories":["Gyros & Cheap Eats"],"distanceKm":2.0243259367143605},{"id":"cheapEatsRestaurants_1be49628e345","slug":"eylogison-psitopoleia-ilion-1be4","kind":"restaurant","name":"ΕΥΛΟΓΗΣΟΝ-ΨΗΤΟΠΩΛΕΙΑ ΙΛΙΟΝ","lat":38.029256363760155,"lng":23.699607500108378,"url":"https://maps.app.goo.gl/ytds7DdcMdh2G5oA8?g_st=ipc","address":"Thivon 481, Ilion 131 21","categoryIds":["cheap-eats"],"categories":["Gyros & Cheap Eats"],"distanceKm":2.094355102968421},{"id":"cheapEatsRestaurants_158ee5dd1d4f","slug":"cocorico-158e","kind":"restaurant","name":"Cocorico","lat":38.03523380190847,"lng":23.705868008544936,"url":"https://maps.app.goo.gl/4u4xPrqXGjRF9V9cA?g_st=ipc","address":"Ιφιγένειας 31, Ίλιον 131 22","categoryIds":["cheap-eats","mexican"],"categories":["Gyros & Cheap Eats","Mexican Restaurants"],"legacySlugs":["cocorico-35c4"],"distanceKm":2.1786823191535363},{"id":"greekRestaurants_ca3f37d54af0","slug":"to-kastro-mezedopoleio-ca3f","kind":"restaurant","name":"Το Κάστρο - Μεζεδοπωλείο","lat":38.029707505192306,"lng":23.701561203164797,"url":"https://maps.app.goo.gl/ntunDXdn4W56VrG16","address":"Πολυτέκνων 80, Ίλιον 131 21","categoryIds":["greek-restaurants"],"categories":["Greek Restaurants"],"distanceKm":2.1839238862449553},{"id":"dessertsRestaurants_4eb0f195642c","slug":"the-twins-inspiration-4eb0","kind":"restaurant","name":"The Twins Inspiration","lat":38.03397180922058,"lng":23.706833795528777,"url":"https://maps.app.goo.gl/yUZVBieRsMh4Pe6P8?g_st=ipc","address":"Αίαντος 103, Ίλιον 131 22","categoryIds":["desserts"],"categories":["Dessert Shops"],"distanceKm":2.3124851219813474},{"id":"cheapEatsRestaurants_5aa0772c387e","slug":"psitopoleio-o-kostas-5aa0","kind":"restaurant","name":"Ψητοπωλείο Ο Κώστας","lat":38.022231500145956,"lng":23.689859003426026,"url":"https://maps.app.goo.gl/FkX4m8b5w9RxDkZP6?g_st=ipc","address":"Αχαΐας 8, Περιστέρι 121 35","categoryIds":["cheap-eats"],"categories":["Gyros & Cheap Eats"],"distanceKm":2.358028241384803},{"id":"cheapEatsRestaurants_9bf1f7743a87","slug":"dekapentalepto-9bf1","kind":"restaurant","name":"Δεκαπενταλεπτο","lat":38.0332432504206,"lng":23.708153853689517,"url":"https://maps.app.goo.gl/pgrPE8JqcHDwR95q6?g_st=ipc","address":"Πάριδος 90, Ίλιον 131 22","categoryIds":["cheap-eats"],"categories":["Gyros & Cheap Eats"],"distanceKm":2.451569451458884},{"id":"coffeeBrunchRestaurants_6a4b180ed5c1","slug":"le-pain-du-chef-6a4b","kind":"restaurant","name":"LE PAIN - Du chef","lat":38.03133472316872,"lng":23.707950598464468,"url":"https://maps.app.goo.gl/qm2cf1KQg3gUAF9QA?g_st=ipc","address":"Idomeneos, Nestoros 41, Ilion 131 22","categoryIds":["coffee-brunch"],"categories":["Coffee & Brunch Spots"],"distanceKm":2.5345035225291315},{"id":"asianRestaurants_d86051389e82","slug":"kaii-sushi-bar-d860","kind":"restaurant","name":"Kaii sushi bar","lat":38.029067505855075,"lng":23.706941325356716,"url":"https://maps.app.goo.gl/oEMoWWtVbmE4QW2W7?g_st=ipc","address":"Βρισηίδος 47, Δαναών 44, Ίλιον 131 22","categoryIds":["asian"],"categories":["Asian Restaurants"],"distanceKm":2.59707624126631},{"id":"cheapEatsRestaurants_89bd0bf927d5","slug":"soyvlakia-gkoymas-89bd","kind":"restaurant","name":"Σουβλάκια Γκούμας","lat":38.023248902145305,"lng":23.69985643748309,"url":"https://maps.app.goo.gl/cMeAjTZUY1MyiZmPA?g_st=ipc","address":"Μαυρομιχάλη 3, Ίλιον 131 21","categoryIds":["cheap-eats"],"categories":["Gyros & Cheap Eats"],"distanceKm":2.6260145889370525},{"id":"dessertsRestaurants_0bd970e0964c","slug":"galaktopoleio-stamoy-0bd9","kind":"restaurant","name":"Γαλακτοπωλείο ΣΤΑΜΟΥ","lat":38.01935756256588,"lng":23.693353122137157,"url":"https://maps.app.goo.gl/edSgLeEb2PdXqjbp6?g_st=ipc","address":"Θηβών 240, Περιστέρι 121 34","categoryIds":["desserts"],"categories":["Dessert Shops"],"distanceKm":2.754280528066555},{"id":"greekRestaurants_d84b869185a4","slug":"rigalos-psistaria-provato-sta-karvoyna-d84b","kind":"restaurant","name":"Ρηγάλος Ψησταριά - Πρόβατο στα κάρβουνα","lat":38.02876561192483,"lng":23.709228688807336,"url":"https://maps.app.goo.gl/KcrSRWtpYRZVpLT68","address":"Πάριδος 32, Ίλιον 131 22","categoryIds":["greek-restaurants"],"categories":["Greek Restaurants"],"distanceKm":2.7807312704681073},{"id":"familyFriendly_8e9d5a82d610","slug":"alsos-peristerioy-8e9d","kind":"restaurant","name":"Άλσος Περιστερίου","lat":38.01691760996396,"lng":23.68608991560274,"url":"https://maps.app.goo.gl/RLSd71ewXvmvT1cB6?g_st=ipc","address":"Αγίου Βασιλείου 63, Περιστέρι 121 35","categoryIds":["family-friendly"],"categories":["Kid Friendly Locations"],"distanceKm":2.8819529340200463},{"id":"dessertsRestaurants_05b930fb8ac7","slug":"zacharoplasteio-andreadakis-peristeri-05b9","kind":"restaurant","name":"Ζαχαροπλαστείο Ανδρεαδάκης Περιστέρι","lat":38.01702641407976,"lng":23.675166561774304,"url":"https://maps.app.goo.gl/zRyi93GrVsyvFdqa8?g_st=ipc","address":"Πελοπίδα 172, Περιστέρι 121 37","categoryIds":["desserts"],"categories":["Dessert Shops"],"distanceKm":2.9347385119631433}],"sameRegion":[],"mentionedGuides":[],"canonicalSlug":"f-g-k-fagito-gia-kollimenoys-c98c","isCanonicalEntity":true,"enrichment":{"summary_en":"Φ.Γ.Κ. Φαγητό Για Κολλημένους is a curated restaurant in Πετρούπολη 132 31 in the Gyros & Cheap Eats collection. It is connected to 1 nearby Googlementor picks to help travelers build a stronger local route.","summary_el":"Φ.Γ.Κ. Φαγητό Για Κολλημένους είναι ένα επιλεγμένο σημείο φαγητού στην περιοχή Πετρούπολη 132 31 και ανήκει στη συλλογή Gyros & Cheap Eats. Συνδέεται με 1 κοντινές προτάσεις του Googlementor για πιο ολοκληρωμένη εμπειρία.","vibe_tags":["curated","budget-friendly"],"best_for":["first-time visitors","food lovers","budget travelers"],"visit_moments":["lunch stop","dinner stop"],"practical_note":"Address and direct map link are available for easy turn-by-turn access.","nearby_walkable_count":1,"nearby_count_2km":10,"confidence":0.9},"areaContext":{"slug":"petroypoli","name":"Petroupoli"},"intentContexts":[{"href":"/cheap-eats/petroypoli","label":"Gyros & Cheap Eats in Petroupoli","categorySlug":"cheap-eats","categoryName":"Gyros & Cheap Eats","areaSlug":"petroypoli","areaName":"Petroupoli"}]},"__N_SSG":true}