{"pageProps":{"entity":{"id":"burgersRestaurants_2c0faaef9d53","slug":"holy-smoke-bbq-streetfood-2c0f","kind":"restaurant","name":"Holy Smoke BBQ Streetfood","lat":40.846110747356505,"lng":25.87110606697465,"url":"https://maps.app.goo.gl/QRyzxeSuPPkZ7om56?g_st=ipc","address":"Eth. Antistaseos 136, Alexandroupoli 681 00","categoryIds":["burgers","cheap-eats"],"categories":["Burger Spots","Gyros & Cheap Eats"],"legacySlugs":["holy-smoke-bbq-streetfood-b910"]},"sameCategory":[{"id":"burgersRestaurants_4060fc5be247","slug":"maestro-cantina-4060","kind":"restaurant","name":"Maestro Cantina","lat":40.539870288194706,"lng":23.0207573353921,"url":"https://maps.app.goo.gl/WJTaYcJdPxACzwkXA?g_st=ipc","address":"EO Thessalonikis Poligirou 32, Thermi 570 01","categoryIds":["burgers","cheap-eats"],"categories":["Burger Spots","Gyros & Cheap Eats"],"legacySlugs":["maestro-cantina-5ff9"]},{"id":"burgersRestaurants_54aa085a6ef8","slug":"sinners-smash-burgers-54aa","kind":"restaurant","name":"Sinners Smash Burgers","lat":40.57608642412674,"lng":22.98935981589618,"url":"https://maps.app.goo.gl/Y2NDJtMWMoJrutpZ6?g_st=ipc","address":"Στέλιου Καζαντζίδη 31, Pilea 555 35","categoryIds":["burgers","cheap-eats"],"categories":["Burger Spots","Gyros & Cheap Eats"],"legacySlugs":["sinners-smash-burgers-e79f"]},{"id":"burgersRestaurants_c2797cbf1cc8","slug":"jacaranda-c279","kind":"restaurant","name":"Jacaranda","lat":40.583007556132294,"lng":22.982557958626895,"url":"https://maps.app.goo.gl/1GxBYUFXBeTUU8iq6?g_st=ipc","address":"Στέλιου Καζαντζίδη 24, Pilea 555 35","categoryIds":["burgers","cheap-eats"],"categories":["Burger Spots","Gyros & Cheap Eats"],"legacySlugs":["jacaranda-05fa"]},{"id":"burgersRestaurants_8f11f76e2e42","slug":"maverick-handmade-street-food-8f11","kind":"restaurant","name":"MAVERICK Handmade Street Food","lat":40.5733294711661,"lng":22.971759802516267,"url":"https://maps.app.goo.gl/Bc8D8iLK2oBQoFcm8?g_st=ipc","address":"Eth. Antistaseos 179, Kalamaria 551 34","categoryIds":["burgers","cheap-eats"],"categories":["Burger Spots","Gyros & Cheap Eats"],"legacySlugs":["maverick-handmade-street-food-77c2"]},{"id":"burgersRestaurants_c3d0c3efec16","slug":"ohmami-street-food-thessaloniki-c3d0","kind":"restaurant","name":"Ohmami - Street Food / Thessaloniki","lat":40.63556199320903,"lng":22.947562092920837,"url":"https://maps.app.goo.gl/NzN9wf8WYr2rjWbd7","address":"Patriarchoi Dionisii E 1, Thessaloniki 546 31","categoryIds":["burgers","cheap-eats"],"categories":["Burger Spots","Gyros & Cheap Eats"],"legacySlugs":["ohmami-street-food-thessaloniki-b6d7"]},{"id":"burgersRestaurants_0c007445e9cc","slug":"balboa-thessaloniki-0c00","kind":"restaurant","name":"Balboa Thessaloniki","lat":40.631911246314864,"lng":22.947511059222414,"url":"https://maps.app.goo.gl/Lys3ApFbCS6C7HCt8","address":"P. Mela 42, Thessaloniki 546 22","categoryIds":["burgers","cheap-eats"],"categories":["Burger Spots","Gyros & Cheap Eats"],"legacySlugs":["balboa-thessaloniki-bd4c"]},{"id":"burgersRestaurants_8a735b95eb4f","slug":"paul-s-burger-8a73","kind":"restaurant","name":"Paul’s Burger","lat":40.59788362738132,"lng":22.95216160608432,"url":"https://maps.app.goo.gl/9L8fryr5EiA3D5rR9?g_st=ipc","address":"Geor. Papandreou 38, Thessaloniki 546 46","categoryIds":["burgers","cheap-eats"],"categories":["Burger Spots","Gyros & Cheap Eats"],"legacySlugs":["paul-s-burger-a56a"]},{"id":"burgersRestaurants_d27855febf5e","slug":"cantina-manara-d278","kind":"restaurant","name":"Cantina Manara","lat":40.6371113197463,"lng":22.93922534676657,"url":"https://maps.app.goo.gl/51NLWv682h6DK989A?g_st=ipc","address":"Στοά, Ermou 1, Thessaloniki 546 25","categoryIds":["burgers","cheap-eats"],"categories":["Burger Spots","Gyros & Cheap Eats"],"legacySlugs":["cantina-manara-3308"]},{"id":"burgersRestaurants_90d16bd5f050","slug":"pratina-burger-project-90d1","kind":"restaurant","name":"PRATINA Burger Project","lat":40.63713764523389,"lng":22.937597600102066,"url":"https://maps.app.goo.gl/rE8kgxhDvdzbh9hw7","address":"Veroias 5, Thessaloniki 546 25","categoryIds":["burgers","cheap-eats"],"categories":["Burger Spots","Gyros & Cheap Eats"],"legacySlugs":["pratina-burger-project-47ac"]},{"id":"burgersRestaurants_7709ed422386","slug":"raw-street-burger-thessaloniki-7709","kind":"restaurant","name":"Raw Street Burger - Thessaloniki","lat":40.6360216575253,"lng":22.93735358036402,"url":"https://maps.app.goo.gl/8jf35cPRudvWnsoP7?g_st=ipc","address":"Politechniou 53, Thessaloniki 546 25","categoryIds":["burgers","cheap-eats"],"categories":["Burger Spots","Gyros & Cheap Eats"],"legacySlugs":["raw-street-burger-thessaloniki-a3ea"]},{"id":"burgersRestaurants_d1dcd32d4d8e","slug":"stivos-burger-steak-d1dc","kind":"restaurant","name":"STIVOS BURGER & STEAK","lat":40.669593987579994,"lng":22.91138406394072,"url":"https://maps.app.goo.gl/7TUUVwTEcxqLX9347?g_st=ipc","address":"Ευαγγελισμού της Θεοτόκου 43, Evosmos 562 24","categoryIds":["burgers","cheap-eats"],"categories":["Burger Spots","Gyros & Cheap Eats"],"legacySlugs":["stivos-burger-steak-c884"]},{"id":"burgersRestaurants_e6cca423021b","slug":"rookie-skg-e6cc","kind":"restaurant","name":"Rookie.skg","lat":40.66725084444489,"lng":22.911546340289146,"url":"https://maps.app.goo.gl/UbXbrxK1VEFkvDdp7?g_st=ipc","address":"P. Mela 28, Evosmos 562 24","categoryIds":["burgers","cheap-eats"],"categories":["Burger Spots","Gyros & Cheap Eats"],"legacySlugs":["rookie-skg-91f7"]}],"nearby":[{"id":"municipalities_d9c8f1d08440","slug":"alexandroypoli-d9c8","kind":"municipality","name":"Αλεξανδρούπολη","lat":40.85,"lng":25.873,"region":"Ανατολική Μακεδονία και Θράκη","name_en":"Alexandroupoli","region_en":"Eastern Macedonia & Thrace","distanceKm":0.46087311649410057},{"id":"fishTavernasRestaurants_2332c66868ee","slug":"st-george-s-tavern-2332","kind":"restaurant","name":"St George's Tavern","lat":40.84895697847809,"lng":25.756806933273776,"url":"https://maps.app.goo.gl/Lq4bMhx6VUhzaNx37?g_st=ipc","address":"RQX4+HP, Makri 68150","categoryIds":["fish-tavernas"],"categories":["Fish Tavernas"],"distanceKm":9.619330461868685}],"sameRegion":[],"mentionedGuides":[],"canonicalSlug":"holy-smoke-bbq-streetfood-2c0f","isCanonicalEntity":false,"enrichment":{"summary_en":"Holy Smoke BBQ Streetfood is a curated restaurant in Alexandroupoli 681 00 in the Burger Spots collection. It is connected to 1 nearby Googlementor picks to help travelers build a stronger local route.","summary_el":"Holy Smoke BBQ Streetfood είναι ένα επιλεγμένο σημείο φαγητού στην περιοχή Alexandroupoli 681 00 και ανήκει στη συλλογή Burger Spots. Συνδέεται με 1 κοντινές προτάσεις του Googlementor για πιο ολοκληρωμένη εμπειρία.","vibe_tags":["curated","budget-friendly"],"best_for":["first-time visitors","food lovers","budget travelers"],"visit_moments":["lunch stop","dinner stop"],"practical_note":"Address and direct map link are available for easy turn-by-turn access.","nearby_walkable_count":1,"nearby_count_2km":1,"confidence":0.9},"areaContext":null,"intentContexts":[]},"__N_SSG":true}