{"pageProps":{"entity":{"id":"mustSeeAttractions_3720c0633a0c","slug":"holy-monastery-of-the-virgin-mary-chozoviotissa-3720","kind":"restaurant","name":"Holy Monastery of the Virgin Mary Chozoviotissa","lat":36.834565267585596,"lng":25.909512235575725,"url":"https://maps.app.goo.gl/v6AEM7JEAUPMzrvP7?g_st=ipc","address":"Amorgos 840 08","categoryIds":["attractions"],"categories":["Must-See Attractions"]},"sameCategory":[{"id":"mustSeeAttractions_a300a861d115","slug":"temple-of-apollo-portara-a300","kind":"restaurant","name":"Temple of Apollo (Portara)","lat":37.110129464281634,"lng":25.372467767266336,"url":"https://maps.app.goo.gl/baiRLz2tmYaTbVkt8?g_st=ipc","address":"Naxos 843 00","categoryIds":["attractions"],"categories":["Must-See Attractions"]},{"id":"mustSeeAttractions_fcaf48a77b52","slug":"akrotiri-fcaf","kind":"restaurant","name":"Akrotiri","lat":36.351796236748676,"lng":25.403447201033227,"url":"https://maps.app.goo.gl/wBKcGui1HWeMLpjPA?g_st=ipc","address":"Fira 847 00","categoryIds":["attractions"],"categories":["Must-See Attractions"]},{"id":"mustSeeAttractions_dd3b16c50b83","slug":"holy-monastery-of-saint-john-the-theologian-dd3b","kind":"restaurant","name":"Holy Monastery of Saint John the Theologian","lat":37.30929209644781,"lng":26.547790252510435,"url":"https://maps.app.goo.gl/KRvkAKujnAt5Cebt6?g_st=ipc","address":"Patmos 855 00","categoryIds":["attractions"],"categories":["Must-See Attractions"]},{"id":"mustSeeAttractions_5cb6c86470e2","slug":"holy-cave-of-the-apocalypse-5cb6","kind":"restaurant","name":"Holy Cave of the Apocalypse","lat":37.3145181446206,"lng":26.544738455388703,"url":"https://maps.app.goo.gl/WRBFuHyUphGycx6B6?g_st=ipc","address":"Patmos Municipality 855 00","categoryIds":["attractions"],"categories":["Must-See Attractions"]},{"id":"mustSeeAttractions_fd0e893870f5","slug":"delos-fd0e","kind":"restaurant","name":"Delos","lat":37.39618494324863,"lng":25.268932318593706,"url":"https://maps.app.goo.gl/8aSHhZk2bT9dK56z5?g_st=ipc","address":"Delos 846 00","categoryIds":["attractions"],"categories":["Must-See Attractions"]},{"id":"mustSeeAttractions_ef451c3fb153","slug":"asclepieion-at-kos-ef45","kind":"restaurant","name":"Asclepieion at Kos","lat":36.87634063821304,"lng":27.25929156442587,"url":"https://maps.app.goo.gl/KY1PY5mwkiEPn6JS6?g_st=ipc","address":"Kos 853 00","categoryIds":["attractions"],"categories":["Must-See Attractions"]},{"id":"mustSeeAttractions_54fb3772eb37","slug":"archaeological-site-of-heraion-of-samos-54fb","kind":"restaurant","name":"Archaeological Site of Heraion of Samos","lat":37.67350522925315,"lng":26.88799727034567,"url":"https://maps.app.goo.gl/aSS6QjyqGgHanzsj8?g_st=ipc","address":"Pythagoreio 831 03","categoryIds":["attractions"],"categories":["Must-See Attractions"]},{"id":"mustSeeAttractions_0e0154b8338b","slug":"pythagoras-statue-0e01","kind":"restaurant","name":"Pythagoras Statue","lat":37.689752282548156,"lng":26.94490447179151,"url":"https://maps.app.goo.gl/9QY7VwS3H1acWG6g8?g_st=ipc","address":"Samos 831 03","categoryIds":["attractions"],"categories":["Must-See Attractions"]},{"id":"mustSeeAttractions_e7d3f595ce74","slug":"spilaio-katafyki-e7d3","kind":"restaurant","name":"Σπήλαιο Καταφύκι","lat":37.381809266398925,"lng":24.430137129464182,"url":"https://maps.app.goo.gl/ihjdRvavpYz6Jjd5A?g_st=ipc","address":"Δρυοπίδα 840 06","categoryIds":["attractions"],"categories":["Must-See Attractions"]},{"id":"mustSeeAttractions_f86e07718582","slug":"holy-monastery-of-the-taxiarch-michael-panormitis-f86e","kind":"restaurant","name":"Holy Monastery of the Taxiarch Michael Panormitis","lat":36.548390185765086,"lng":27.846271064424094,"url":"https://maps.app.goo.gl/CBJzDDUuaoXFiWW6A?g_st=ipc","address":"Panormitis 856 00","categoryIds":["attractions"],"categories":["Must-See Attractions"]},{"id":"mustSeeAttractions_32e162886e33","slug":"knossos-palace-32e1","kind":"restaurant","name":"Knossos Palace","lat":35.29796093261648,"lng":25.162788626146504,"url":"https://maps.app.goo.gl/rAusZkVNEW96qAfY9?g_st=ipc","address":"Knossos 714 09","categoryIds":["attractions"],"categories":["Must-See Attractions"]},{"id":"mustSeeAttractions_d2b428b50440","slug":"archaiologikos-choros-soynioy-d2b4","kind":"restaurant","name":"Αρχαιολογικός Χώρος Σουνίου","lat":37.65015898457581,"lng":24.02460331248824,"url":"https://maps.app.goo.gl/H1hDYWZinAPpvjKR9?g_st=ipc","address":"Λαυρεωτική 195 00","categoryIds":["attractions"],"categories":["Must-See Attractions"]}],"nearby":[{"id":"municipalities_b6a30a076a6a","slug":"amorgos-b6a3","kind":"municipality","name":"Αμοργός","lat":36.8333,"lng":25.9,"region":"Κυκλάδες","name_en":"Amorgos","region_en":"Cyclades","distanceKm":0.8581791990443844},{"id":"greekRestaurants_4c848985d221","slug":"magiasi-4c84","kind":"restaurant","name":"Μαγιάσι","lat":36.831832905496256,"lng":25.899580231122016,"url":"https://maps.app.goo.gl/9Hs7jmTaUVVySR3V6?g_st=ipc","address":"Ano plateaki 840 08","categoryIds":["greek-restaurants"],"categories":["Greek Restaurants"],"distanceKm":0.9346928253396258},{"id":"greekRestaurants_d5207c2cea1d","slug":"armparoriza-d520","kind":"restaurant","name":"Aρμπαρόριζα","lat":36.83126528874217,"lng":25.899780664474996,"url":"https://maps.app.goo.gl/t6VhmiWHapwM9cy88?g_st=ipc","address":"ΧΩΡΑ ΑΜΟΡΓΟΣ ΚΥΚΛΑΔΕΣ, ΑΜΟΡΓΟΣ ΧΩΡΑ 840 08","categoryIds":["greek-restaurants"],"categories":["Greek Restaurants"],"distanceKm":0.9406246705729449},{"id":"luxuryDiningRestaurants_da6f148eb7d8","slug":"apospero-da6f","kind":"restaurant","name":"Apospero","lat":36.83183844559143,"lng":25.899499966261363,"url":"https://maps.app.goo.gl/j3TAqCiUnajPnQUUA?g_st=ipc","address":"Χώρα 840 08","categoryIds":["luxury-dining"],"categories":["Luxury Dining"],"distanceKm":0.9412525780960537},{"id":"italianRestaurants_f73393157432","slug":"pizza-petrino-f733","kind":"restaurant","name":"Pizza Petrino","lat":36.83162048389455,"lng":25.898532535817935,"url":"https://maps.app.goo.gl/BxpBdgAak6UKLRYL7?g_st=ipc","address":"Χώρα 840 08","categoryIds":["italian"],"categories":["Italian Restaurants"],"distanceKm":1.0305827212534842},{"id":"dessertsRestaurants_2726c61e3f6e","slug":"mikraki-gelato-2726","kind":"restaurant","name":"Μικράκι gelato","lat":36.83144131849213,"lng":25.898487086486654,"url":"https://maps.app.goo.gl/QD97vczb4ZtE7gzR9?g_st=ipc","address":"Χώρα 840 08","categoryIds":["desserts"],"categories":["Dessert Shops"],"distanceKm":1.040897892230019},{"id":"coffeeBrunchRestaurants_15f758934efb","slug":"jazzmin-15f7","kind":"restaurant","name":"Jazzmin","lat":36.83137874729602,"lng":25.898307325862916,"url":"https://maps.app.goo.gl/YcQVqpGJyQtWEuk59?g_st=ipc","address":"Χώρα 840 08","categoryIds":["coffee-brunch"],"categories":["Coffee & Brunch Spots"],"distanceKm":1.0583022051519957},{"id":"greekRestaurants_47770432a20a","slug":"kastanis-estiatorio-4777","kind":"restaurant","name":"Καστάνης Εστιατόριο","lat":36.83158752520646,"lng":25.898124106946245,"url":"https://maps.app.goo.gl/HGPYt5HhJh8iT4G56?g_st=ipc","address":"Χώρα 840 08","categoryIds":["greek-restaurants"],"categories":["Greek Restaurants"],"distanceKm":1.0662440237328423},{"id":"greekRestaurants_988a85889bca","slug":"tranzistoraki-988a","kind":"restaurant","name":"ΤρανζισΤοΡάκι","lat":36.83158272407629,"lng":25.897896255980164,"url":"https://maps.app.goo.gl/sp5wVpBx6d45B63S8?g_st=ipc","address":"Χώρα 840 08","categoryIds":["greek-restaurants"],"categories":["Greek Restaurants"],"distanceKm":1.0857011881392102},{"id":"greekRestaurants_3fefb3b2b9b2","slug":"mpyr-zolaki-3fef","kind":"restaurant","name":"Μπυρ...ζολάκι","lat":36.83162335048387,"lng":25.897767804584305,"url":"https://maps.app.goo.gl/qnA3672RAyo5iyaZ9?g_st=ipc","address":"Amorgos island, Χώρα 840 08","categoryIds":["greek-restaurants"],"categories":["Greek Restaurants"],"distanceKm":1.0952343375502873},{"id":"dessertsRestaurants_4247bc679f6e","slug":"kallisto-4247","kind":"restaurant","name":"Kallisto","lat":36.83193327608509,"lng":25.897182643444378,"url":"https://maps.app.goo.gl/zxMDWyaDa8oTgjvt6?g_st=ipc","address":"Χώρα 840 08","categoryIds":["desserts"],"categories":["Dessert Shops"],"distanceKm":1.1356740619740509},{"id":"greekRestaurants_b0d37034cad9","slug":"liotrivi-estiatorio-kafe-mpar-b0d3","kind":"restaurant","name":"Λιοτρίβι εστιατόριο καφέ μπαρ","lat":36.83150696646691,"lng":25.89638993777969,"url":"https://maps.app.goo.gl/CYARdJ4AMpe1LegF8?g_st=ipc","address":"ΑΜΟΡΓΟΣ ΧΩΡΑ ΧΩΡΑ, ΑΜΟΡΓΟΥ 840 08","categoryIds":["greek-restaurants"],"categories":["Greek Restaurants"],"distanceKm":1.2163736183417357},{"id":"vegetarianRestaurants_b8ffd99027d0","slug":"amorgos-organic-b8ff","kind":"restaurant","name":"Amorgos Organic","lat":36.82494496537346,"lng":25.86937679325385,"url":"https://maps.app.goo.gl/LLqFWY5v6jQQxyzV9?g_st=ipc","address":"Epar.Od. Katapolon-Mavris Mitis, Rachidi 840 08","categoryIds":["vegetarian"],"categories":["Vegetarian Friendly Restaurants"],"distanceKm":3.728894650741534},{"id":"fishTavernasRestaurants_8f48155428a0","slug":"almyriki-8f48","kind":"restaurant","name":"Almyriki","lat":36.83118579310379,"lng":25.86459980269408,"url":"https://maps.app.goo.gl/eknLukeQuWd7G4fW8?g_st=ipc","address":"Katapola, Xilokeratidi 840 08","categoryIds":["fish-tavernas"],"categories":["Fish Tavernas"],"distanceKm":4.014788067379752},{"id":"greekRestaurants_b17830ed7512","slug":"fata-morgana-amorgos-est-2022-b178","kind":"restaurant","name":"Fata Morgana - Amorgos (est. 2022)","lat":36.831448706178094,"lng":25.864214040888726,"url":"https://maps.app.goo.gl/z4Un87D7stMZaFHp7?g_st=ipc","address":"Ξυλοκερατίδι 840 08","categoryIds":["greek-restaurants"],"categories":["Greek Restaurants"],"distanceKm":4.046355616694763},{"id":"fishTavernasRestaurants_5505aae10c35","slug":"capetan-dimos-5505","kind":"restaurant","name":"Capetan Dimos","lat":36.826649786040434,"lng":25.864391545420993,"url":"https://maps.app.goo.gl/J1yUSdS75CdNMzon8?g_st=ipc","address":"Κατάπολα 840 08","categoryIds":["fish-tavernas"],"categories":["Fish Tavernas"],"distanceKm":4.111139555316075},{"id":"coffeeBrunchRestaurants_e2f6b0012785","slug":"arleta-e2f6","kind":"restaurant","name":"Arleta","lat":36.82638304281154,"lng":25.864058083086626,"url":"https://maps.app.goo.gl/W2NJQiPuDrDGXEQw5?g_st=ipc","address":"Κατάπολα 840 08","categoryIds":["coffee-brunch"],"categories":["Coffee & Brunch Spots"],"distanceKm":4.146548756512494},{"id":"fishTavernasRestaurants_32f44df2e3e6","slug":"mouragio-taverna-32f4","kind":"restaurant","name":"Mouragio Taverna","lat":36.82713304585838,"lng":25.86300862920973,"url":"https://maps.app.goo.gl/qeiMhDDAhTy881ZMA?g_st=ipc","address":"Κατάπολα 840 08","categoryIds":["fish-tavernas"],"categories":["Fish Tavernas"],"distanceKm":4.220586746519391},{"id":"greekRestaurants_4a408ca96f0f","slug":"giorgalinis-4a40","kind":"restaurant","name":"Γιωργαλίνης","lat":36.79866266620689,"lng":25.81985305918722,"url":"https://maps.app.goo.gl/BHKAVy4JM8FKJLZr9?g_st=ipc","address":"Βρούτσης 840 08","categoryIds":["greek-restaurants"],"categories":["Greek Restaurants"],"distanceKm":8.924030075566906},{"id":"coffeeBrunchRestaurants_7ba1b6bfb809","slug":"embassa-cafe-bar-7ba1","kind":"restaurant","name":"embassa cafe bar","lat":36.901100293710016,"lng":25.976110975169213,"url":"https://maps.app.goo.gl/EQeLPXrV9KJNt6Ut5?g_st=ipc","address":"Aigiali, Ormos Egialis 840 08","categoryIds":["coffee-brunch"],"categories":["Coffee & Brunch Spots"],"distanceKm":9.478161318825027},{"id":"vegetarianRestaurants_fcbe4baf2c7e","slug":"falafel-fcbe","kind":"restaurant","name":"Falafel","lat":36.90090309185306,"lng":25.976584244849658,"url":"https://maps.app.goo.gl/aKeeZyXVaADfNUQU9?g_st=ipc","address":"Ormos Egialis 840 08","categoryIds":["vegetarian"],"categories":["Vegetarian Friendly Restaurants"],"distanceKm":9.48748050476423},{"id":"fishTavernasRestaurants_da1220f4c7c3","slug":"limani-restaurant-da12","kind":"restaurant","name":"Limani Restaurant","lat":36.901162221052765,"lng":25.976288792173918,"url":"https://maps.app.goo.gl/CFKDV9FzeK4koTmt5?g_st=ipc","address":"Αιγιάλη 840 08","categoryIds":["fish-tavernas"],"categories":["Fish Tavernas"],"distanceKm":9.493425764489091},{"id":"fishTavernasRestaurants_66fa6dbae79f","slug":"amorgialos-66fa","kind":"restaurant","name":"Amorgialos","lat":36.90135301074789,"lng":25.97627688507805,"url":"https://maps.app.goo.gl/XzSf26up7JduLUrV9?g_st=ipc","address":"αιγιαλη, αμοργος 840 08","categoryIds":["fish-tavernas"],"categories":["Fish Tavernas"],"distanceKm":9.509317198223945},{"id":"cheapEatsRestaurants_45215b23c30d","slug":"bloom-brothers-canteen-4521","kind":"restaurant","name":"Bloom Brothers canteen","lat":36.90173482477818,"lng":25.977068594760553,"url":"https://maps.app.goo.gl/JYSXRpKjkMx7aNHS7?g_st=ipc","address":"Λιμάνι, Lagada 840 08","categoryIds":["cheap-eats"],"categories":["Gyros & Cheap Eats"],"distanceKm":9.586494722847723}],"sameRegion":[],"mentionedGuides":[],"canonicalSlug":"holy-monastery-of-the-virgin-mary-chozoviotissa-3720","isCanonicalEntity":true,"enrichment":{"summary_en":"Holy Monastery of the Virgin Mary Chozoviotissa is a curated restaurant in Greece in the Must-See Attractions collection. It is connected to 0 nearby Googlementor picks to help travelers build a stronger local route.","summary_el":"Holy Monastery of the Virgin Mary Chozoviotissa είναι ένα επιλεγμένο σημείο φαγητού στην περιοχή Greece και ανήκει στη συλλογή Must-See Attractions. Συνδέεται με 0 κοντινές προτάσεις του Googlementor για πιο ολοκληρωμένη εμπειρία.","vibe_tags":["curated"],"best_for":["first-time visitors","food lovers"],"visit_moments":["lunch stop","dinner stop"],"practical_note":"Address and direct map link are available for easy turn-by-turn access.","nearby_walkable_count":0,"nearby_count_2km":12,"confidence":0.9},"areaContext":{"slug":"amorgos","name":"Amorgos"},"intentContexts":[]},"__N_SSG":true}