{"pageProps":{"entity":{"id":"dessertsRestaurants_7f61f06e1814","slug":"ice-queen-gelato-7f61","kind":"restaurant","name":"Ice Queen Gelato","lat":37.96875198593791,"lng":23.729719578537868,"url":"https://maps.app.goo.gl/HyCCcJSVYZCw8dMV7?g_st=ipc","address":"Μακρυγιάννη 9, Αθήνα 117 42","categoryIds":["desserts","vegetarian"],"categories":["Dessert Shops","Vegetarian Friendly Restaurants"],"legacySlugs":["ice-queen-gelato-e688"]},"sameCategory":[{"id":"dessertsRestaurants_c341ccbd87e0","slug":"ariston-lompotesis-c341","kind":"restaurant","name":"ΑΡΙΣΤΟΝ ΛΟΜΠΟΤΕΣΗΣ","lat":37.97670511785389,"lng":23.732649290748736,"url":"https://maps.app.goo.gl/GQVtxtBLY3rpmzsa9?g_st=ipc","address":"Βουλής 10, Αθήνα 105 62","categoryIds":["desserts","vegetarian"],"categories":["Dessert Shops","Vegetarian Friendly Restaurants"],"legacySlugs":["ariston-lompotesis-daef"]},{"id":"dessertsRestaurants_ae317ae9a63f","slug":"plan-e-t-ice-cream-ae31","kind":"restaurant","name":"Plan(e)t Ice Cream","lat":37.9768796209685,"lng":23.725383311814642,"url":"https://maps.app.goo.gl/zzypW34gBH83e5G99?g_st=ipc","address":"Ερμού 86, Αθήνα 105 54","categoryIds":["desserts","vegetarian"],"categories":["Dessert Shops","Vegetarian Friendly Restaurants"],"legacySlugs":["plan-e-t-ice-cream-bddb"]},{"id":"dessertsRestaurants_a146fa72ad20","slug":"ohh-boy-a146","kind":"restaurant","name":"Ohh Boy","lat":37.97243442670494,"lng":23.745570951608226,"url":"https://maps.app.goo.gl/6UUhjHiN4qG6gyXg6?g_st=ipc","address":"Αρχελάου 32, Αθήνα 116 35","categoryIds":["desserts","vegetarian"],"categories":["Dessert Shops","Vegetarian Friendly Restaurants"],"legacySlugs":["ohh-boy-1239"]},{"id":"dessertsRestaurants_a6a41ba19f78","slug":"exereton-a6a4","kind":"restaurant","name":"Exereton","lat":40.63128878529408,"lng":22.94431478557479,"url":"https://maps.app.goo.gl/gScJKVggjQfTPnLP8?g_st=ipc","address":"Mitropoleos 69, Thessaloniki 546 23","categoryIds":["desserts","vegetarian"],"categories":["Dessert Shops","Vegetarian Friendly Restaurants"],"legacySlugs":["exereton-e657"]},{"id":"dessertsRestaurants_22239c987b1a","slug":"patisserie-artemis-gelateria-ice-cream-2223","kind":"restaurant","name":"Patisserie Artemis - Gelateria Ice Cream","lat":37.96786547488155,"lng":23.729346783174314,"url":"https://maps.app.goo.gl/dE6muCbG7gwaWz9H8?g_st=ipc","address":"Μακρυγιάννη 33, Αθήνα 117 42","categoryIds":["desserts"],"categories":["Dessert Shops"]},{"id":"vegetarianRestaurants_aff422e1c3ba","slug":"mama-tierra-acropolis-vegan-street-food-aff4","kind":"restaurant","name":"Mama Tierra Acropolis - Vegan street food","lat":37.967546083723775,"lng":23.729864462543613,"url":"https://maps.app.goo.gl/3M9tmest5ooaQwtE8?g_st=ipc","address":"Χατζηχρήστου 29, Αθήνα 117 42","categoryIds":["vegetarian"],"categories":["Vegetarian Friendly Restaurants"]},{"id":"vegetarianRestaurants_981aa1875a12","slug":"indian-haveli-981a","kind":"restaurant","name":"Indian Haveli","lat":37.96857000104929,"lng":23.731444541000045,"url":"https://maps.app.goo.gl/2tEYTJw1y4aL2Rgo7?g_st=ipc","address":"Λεωφ. Ανδρέα Συγγρού 12, Αθήνα 117 42","categoryIds":["vegetarian"],"categories":["Vegetarian Friendly Restaurants"]},{"id":"dessertsRestaurants_44e6918dfa7f","slug":"alchimistis-cafe-patisserie-44e6","kind":"restaurant","name":"Αλχημιστής Cafe Patisserie","lat":37.96784501160447,"lng":23.7283241033881,"url":"https://maps.app.goo.gl/n2exdkXc6qfVR4fM9?g_st=ipc","address":"Χατζηχρήστου 8, Αθήνα 117 42","categoryIds":["desserts"],"categories":["Dessert Shops"]},{"id":"dessertsRestaurants_2a3970a71069","slug":"django-gelato-athens-2a39","kind":"restaurant","name":"Django Gelato Athens","lat":37.96685228149483,"lng":23.72787408682893,"url":"https://maps.app.goo.gl/uXMPHW7X8YEMKDvp9?g_st=ipc","address":"Βεΐκου 15, Αθήνα 117 42","categoryIds":["desserts"],"categories":["Dessert Shops"]},{"id":"vegetarianRestaurants_0ae45380f9c5","slug":"veganaki-0ae4","kind":"restaurant","name":"Veganaki","lat":37.96756765452738,"lng":23.732928786701812,"url":"https://maps.app.goo.gl/t4BDCPnwuYDPfBZS9?g_st=ipc","address":"Αθανασίου Διάκου 38 (38, Αθήνα 117 43","categoryIds":["vegetarian"],"categories":["Vegetarian Friendly Restaurants"]},{"id":"dessertsRestaurants_db3d47fd588a","slug":"arte-athens-db3d","kind":"restaurant","name":"Arte Athens","lat":37.97243004672386,"lng":23.729479004279412,"url":"https://maps.app.goo.gl/Lqr3t1JFkHesFNnk6?g_st=ipc","address":"Τριπόδων 16, Αθήνα 105 58","categoryIds":["desserts"],"categories":["Dessert Shops"]},{"id":"cheapEatsRestaurants_ccda7a47a1b9","slug":"falafel-bar-to-revithi-ccda","kind":"restaurant","name":"falafel bar ΤΟ ΡΕΒΙΘΙ","lat":37.96631483519238,"lng":23.7261110398094,"url":"https://maps.app.goo.gl/4FqJYg2raYZvXHja7?g_st=ipc","address":"Παρθενώνος 1, Αθήνα 117 42","categoryIds":["cheap-eats","vegetarian"],"categories":["Gyros & Cheap Eats","Vegetarian Friendly Restaurants"],"legacySlugs":["falafel-bar-to-revithi-dec0"]}],"nearby":[{"id":"cheapEatsRestaurants_7d6699a91456","slug":"o-gyros-poy-gyreyeis-7d66","kind":"restaurant","name":"ο γύρος που γυρεύεις","lat":37.968706021561665,"lng":23.729791439377735,"url":"https://maps.app.goo.gl/bMFjRtNN6Ztw4H43A?g_st=ipc","address":"Αθανασίου Διάκου 1 Ακρόπολη, Αθήνα 117 42","categoryIds":["cheap-eats"],"categories":["Gyros & Cheap Eats"],"distanceKm":0.00811196392663315},{"id":"italianRestaurants_354541199b79","slug":"aglio-olio-peperoncino-3545","kind":"restaurant","name":"AGLIO, OLIO & PEPERONCINO","lat":37.96798831953671,"lng":23.7299912754838,"url":"https://maps.app.goo.gl/EgPatpb6TGQzX94s6?g_st=ipc","address":"Πορίνου 13, Αθήνα 117 42","categoryIds":["italian"],"categories":["Italian Restaurants"],"distanceKm":0.08819270303366931},{"id":"dessertsRestaurants_22239c987b1a","slug":"patisserie-artemis-gelateria-ice-cream-2223","kind":"restaurant","name":"Patisserie Artemis - Gelateria Ice Cream","lat":37.96786547488155,"lng":23.729346783174314,"url":"https://maps.app.goo.gl/dE6muCbG7gwaWz9H8?g_st=ipc","address":"Μακρυγιάννη 33, Αθήνα 117 42","categoryIds":["desserts"],"categories":["Dessert Shops"],"distanceKm":0.10385125976187294},{"id":"mustSeeAttractions_8c69e6a7063e","slug":"moyseio-akropolis-8c69","kind":"restaurant","name":"Μουσείο Ακρόπολης","lat":37.96845037815513,"lng":23.728523216398074,"url":"https://maps.app.goo.gl/ZqiBPBtN3PxoeXmY8?g_st=ipc","address":"Διονυσίου Αρεοπαγίτου 15, Αθήνα 117 42","categoryIds":["attractions"],"categories":["Must-See Attractions"],"distanceKm":0.11010536399508795},{"id":"mustSeeAttractions_397dfba9f16b","slug":"notia-klitys-akropolis-athinon-397d","kind":"restaurant","name":"Νότια Κλιτύς Ακρόπολης Αθηνών","lat":37.96962866994438,"lng":23.729046031418846,"url":"https://maps.app.goo.gl/5RAt8qpszUA945pG8?g_st=ipc","address":"Διονυσίου Αρεοπαγίτου, Αθήνα 105 58","categoryIds":["attractions"],"categories":["Must-See Attractions"],"distanceKm":0.11396911599474407},{"id":"greekRestaurants_c15edd7fcde2","slug":"estiatorio-smile-c15e","kind":"restaurant","name":"Εστιατόριο Smile","lat":37.967615812266935,"lng":23.729979287152204,"url":"https://maps.app.goo.gl/dzqWtwgMFs9Vcqew6","address":"Πλ. Τσώκρη 1, Αθήνα 117 42","categoryIds":["greek-restaurants"],"categories":["Greek Restaurants"],"distanceKm":0.12837163511406907},{"id":"luxuryDiningRestaurants_6d0eec69a8bb","slug":"sense-modern-greek-cuisine-6d0e","kind":"restaurant","name":"SENSE Modern Greek Cuisine","lat":37.96950501164825,"lng":23.730857786980206,"url":"https://maps.app.goo.gl/BrJr73pSejAaUrbq6?g_st=ipc","address":"Διονυσίου Αρεοπαγίτου 5, Αθήνα 117 42","categoryIds":["luxury-dining","rooftop-lounges"],"categories":["Luxury Dining","Rooftop Lounges"],"legacySlugs":["sense-modern-greek-cuisine-ffb0"],"distanceKm":0.1302543703006046},{"id":"vegetarianRestaurants_aff422e1c3ba","slug":"mama-tierra-acropolis-vegan-street-food-aff4","kind":"restaurant","name":"Mama Tierra Acropolis - Vegan street food","lat":37.967546083723775,"lng":23.729864462543613,"url":"https://maps.app.goo.gl/3M9tmest5ooaQwtE8?g_st=ipc","address":"Χατζηχρήστου 29, Αθήνα 117 42","categoryIds":["vegetarian"],"categories":["Vegetarian Friendly Restaurants"],"distanceKm":0.13469035062616438},{"id":"rooftopLoungesRestaurants_f8cacb8baac7","slug":"athens-gate-rooftop-bar-restaurant-f8ca","kind":"restaurant","name":"Athens Gate Rooftop Bar & Restaurant","lat":37.968775997362016,"lng":23.73145032913701,"url":"https://maps.app.goo.gl/q9X7pZzbyKPo8wEb6?g_st=ipc","address":"Leof. Andrea Siggrou 10, Athina 117 41","categoryIds":["rooftop-lounges"],"categories":["Rooftop Lounges"],"distanceKm":0.1517412730428834},{"id":"vegetarianRestaurants_981aa1875a12","slug":"indian-haveli-981a","kind":"restaurant","name":"Indian Haveli","lat":37.96857000104929,"lng":23.731444541000045,"url":"https://maps.app.goo.gl/2tEYTJw1y4aL2Rgo7?g_st=ipc","address":"Λεωφ. Ανδρέα Συγγρού 12, Αθήνα 117 42","categoryIds":["vegetarian"],"categories":["Vegetarian Friendly Restaurants"],"distanceKm":0.15255862674031356},{"id":"dessertsRestaurants_44e6918dfa7f","slug":"alchimistis-cafe-patisserie-44e6","kind":"restaurant","name":"Αλχημιστής Cafe Patisserie","lat":37.96784501160447,"lng":23.7283241033881,"url":"https://maps.app.goo.gl/n2exdkXc6qfVR4fM9?g_st=ipc","address":"Χατζηχρήστου 8, Αθήνα 117 42","categoryIds":["desserts"],"categories":["Dessert Shops"],"distanceKm":0.15854059437593182},{"id":"greekRestaurants_104d52bd2241","slug":"mpalkoni-estiatorio-kai-mpar-104d","kind":"restaurant","name":"Μπαλκόνι Εστιατόριο και Μπαρ","lat":37.96744106512062,"lng":23.72879886025239,"url":"https://maps.app.goo.gl/7XXsfB27aRZAsikR7","address":"Βεΐκου 1, Αθήνα 117 42","categoryIds":["greek-restaurants"],"categories":["Greek Restaurants"],"distanceKm":0.16662082766880984},{"id":"rooftopLoungesRestaurants_208f904925e8","slug":"stork-rooftop-bar-restaurant-208f","kind":"restaurant","name":"stork rooftop bar restaurant","lat":37.967099364958976,"lng":23.7303307646006,"url":"https://maps.app.goo.gl/AF5AEBzt63j5tves7?g_st=ipc","address":"Λεωφόρος Συγγρού 21, Βούρβαχη 2, Αθήνα 117 43","categoryIds":["rooftop-lounges"],"categories":["Rooftop Lounges"],"distanceKm":0.19141417596161897},{"id":"coffeeBrunchRestaurants_ce537fc177ce","slug":"fika-coffee-croissant-ce53","kind":"restaurant","name":"Fika coffee & croissant","lat":37.96693585116076,"lng":23.730676001624726,"url":"https://maps.app.goo.gl/aGhcjD61LQ7BLCn98?g_st=ipc","address":"Βούρβαχη 6, Αθήνα 117 43","categoryIds":["coffee-brunch"],"categories":["Coffee & Brunch Spots"],"distanceKm":0.21865753844351635},{"id":"italianRestaurants_d5b2689c4a11","slug":"romatella-pinsa-romana-d5b2","kind":"restaurant","name":"Romatella - Pinsa Romana","lat":37.96690380968513,"lng":23.72869589039828,"url":"https://maps.app.goo.gl/qy2UDY83bx3RhcUU9?g_st=ipc","address":"Φαλήρου 4, Αθήνα 117 42","categoryIds":["italian"],"categories":["Italian Restaurants"],"distanceKm":0.2242461371122266},{"id":"coffeeBrunchRestaurants_da9d2fc56763","slug":"acai-verao-athens-da9d","kind":"restaurant","name":"Açaí Verão Athens","lat":37.966845247384065,"lng":23.728622894774116,"url":"https://maps.app.goo.gl/zSWkUCcCMEwv3K5Y7?g_st=ipc","address":"Φαλήρου 6, Αθήνα 117 42","categoryIds":["coffee-brunch"],"categories":["Coffee & Brunch Spots"],"distanceKm":0.2327973253345965},{"id":"luxuryDiningRestaurants_8f9976dae124","slug":"point-a-acropolis-point-8f99","kind":"restaurant","name":"POINT A (Acropolis Point)","lat":37.968415622994755,"lng":23.72706617377212,"url":"https://maps.app.goo.gl/NiwbpnxKE4g22Tzw6?g_st=ipc","address":"Ροβέρτου Γκάλι 4a, Αθήνα 117 42","categoryIds":["luxury-dining","rooftop-lounges"],"categories":["Luxury Dining","Rooftop Lounges"],"legacySlugs":["point-a-acropolis-point-fcea"],"distanceKm":0.2355862364563929},{"id":"cheapEatsRestaurants_7c127d112eef","slug":"dirty-manh-7c12","kind":"restaurant","name":"Dirty Manh","lat":37.96689597541608,"lng":23.728371721835774,"url":"https://maps.app.goo.gl/LaZcss8aznDJpxm89?g_st=ipc","address":"Νικ. Δημητρακοπούλου 5, Αθήνα 117 42","categoryIds":["cheap-eats"],"categories":["Gyros & Cheap Eats"],"distanceKm":0.23780837535136165},{"id":"coffeeBrunchRestaurants_63e3afc9669a","slug":"little-tree-books-and-coffee-63e3","kind":"restaurant","name":"Little Tree Books and Coffee","lat":37.968164539601474,"lng":23.727051388410462,"url":"https://maps.app.goo.gl/EJkNXutNZiWJ1hrHA?g_st=ipc","address":"Καβαλλότι 2, Αθήνα 117 42","categoryIds":["coffee-brunch"],"categories":["Coffee & Brunch Spots"],"distanceKm":0.24284484660184177},{"id":"coffeeBrunchRestaurants_b61f62d1d8af","slug":"coffee-joint-b61f","kind":"restaurant","name":"Coffee Joint","lat":37.9668407337925,"lng":23.731062695575126,"url":"https://maps.app.goo.gl/LK48eZA7q9nxiZiR6?g_st=ipc","address":"Βούρβαχη 5-9, Αθήνα 117 43","categoryIds":["coffee-brunch"],"categories":["Coffee & Brunch Spots"],"distanceKm":0.24295669714187346},{"id":"luxuryDiningRestaurants_3c6581cd9485","slug":"esthio-athens-3c65","kind":"restaurant","name":"Esthio Athens","lat":37.96676654589047,"lng":23.72827244889686,"url":"https://maps.app.goo.gl/Ldu5GaEmi8GWuxbX6?g_st=ipc","address":"Δημητρακοπούλου 7, Αθήνα 117 42","categoryIds":["luxury-dining"],"categories":["Luxury Dining"],"distanceKm":0.2546223495444957},{"id":"mustSeeAttractions_a3aa8075d8fc","slug":"arch-of-hadrian-a3aa","kind":"restaurant","name":"Arch of Hadrian","lat":37.970210610652515,"lng":23.73198089152641,"url":"https://maps.app.goo.gl/XDM6bEzic8EMa3FX7?g_st=ipc","address":"Leof. Vasilisis Amalias 50, Athina 105 58","categoryIds":["attractions"],"categories":["Must-See Attractions"],"distanceKm":0.25612357971114474},{"id":"luxuryDiningRestaurants_08d018b1cd7a","slug":"manimani-08d0","kind":"restaurant","name":"ΜΑΝΗΜΑΝΗ","lat":37.96669521915854,"lng":23.72836820432756,"url":"https://maps.app.goo.gl/XJabCFiZNQjmGZzb7?g_st=ipc","address":"Φαλήρου 10, Αθήνα 117 42","categoryIds":["luxury-dining"],"categories":["Luxury Dining"],"distanceKm":0.25756197146741205},{"id":"mustSeeAttractions_8085cf28024a","slug":"choragic-monument-of-lysicrates-8085","kind":"restaurant","name":"Choragic Monument of Lysicrates","lat":37.97108971386169,"lng":23.72994596958006,"url":"https://maps.app.goo.gl/7Xgk65sqPNFM93Sy9?g_st=ipc","address":"Epimenidou 3, Athina 105 58","categoryIds":["attractions"],"categories":["Must-See Attractions"],"distanceKm":0.2606999144193007}],"sameRegion":[],"mentionedGuides":[],"canonicalSlug":"ice-queen-gelato-7f61","isCanonicalEntity":false,"enrichment":{"summary_en":"Ice Queen Gelato is a curated restaurant in Αθήνα 117 42 in the Dessert Shops collection. It is connected to 168 nearby Googlementor picks to help travelers build a stronger local route.","summary_el":"Ice Queen Gelato είναι ένα επιλεγμένο σημείο φαγητού στην περιοχή Αθήνα 117 42 και ανήκει στη συλλογή Dessert Shops. Συνδέεται με 168 κοντινές προτάσεις του Googlementor για πιο ολοκληρωμένη εμπειρία.","vibe_tags":["curated","sweet-stop"],"best_for":["first-time visitors","food lovers"],"visit_moments":["afternoon break","after dinner"],"practical_note":"Address and direct map link are available for easy turn-by-turn access.","nearby_walkable_count":168,"nearby_count_2km":632,"confidence":0.98},"areaContext":{"slug":"plaka","name":"Plaka"},"intentContexts":[{"href":"/desserts/plaka","label":"Dessert Shops in Plaka","categorySlug":"desserts","categoryName":"Dessert Shops","areaSlug":"plaka","areaName":"Plaka"},{"href":"/vegetarian/plaka","label":"Vegetarian Friendly Restaurants in Plaka","categorySlug":"vegetarian","categoryName":"Vegetarian Friendly Restaurants","areaSlug":"plaka","areaName":"Plaka"}]},"__N_SSG":true}