{"pageProps":{"entity":{"id":"monasteriesChurches_0be61b94a0f8","slug":"ieros-naos-agias-marinas-ekalis-0be6","kind":"restaurant","name":"Ιερός Ναός Αγίας Μαρίνας Εκάλης","lat":38.10774629476024,"lng":23.837173739444502,"url":"https://maps.app.goo.gl/rDcWxEZj5h9aqKaW6?g_st=ipc","address":"Λεωφ. Θησέως 54, Εκάλη 145 78","categoryIds":["monasteries-churches"],"categories":["Monasteries & Spiritual Sites"]},"sameCategory":[{"id":"monasteriesChurches_8c6aab96c311","slug":"iera-moni-agioy-panteleimonos-kokkinara-pentelis-8c6a","kind":"restaurant","name":"Ιερά Μονή Αγίου Παντελεήμονος Κοκκιναρά Πεντέλης","lat":38.088041404491655,"lng":23.864689883498706,"url":"https://maps.app.goo.gl/57pNkxA8Hvik3tA97?g_st=ipc","address":"3VP8+Q2, Κηφισιά 145 63","categoryIds":["monasteries-churches"],"categories":["Monasteries & Spiritual Sites"]},{"id":"monasteriesChurches_8565772cb25f","slug":"ieros-naos-metamorfosis-toy-sotiros-8565","kind":"restaurant","name":"Ιερός Ναός Μεταμόρφωσης του Σωτήρος","lat":38.074902566685026,"lng":23.819660581938585,"url":"https://maps.app.goo.gl/aHzFfMJMwLVAE89e9?g_st=ipc","address":"Κολοκοτρώνη, Κηφισιά 145 62","categoryIds":["monasteries-churches"],"categories":["Monasteries & Spiritual Sites"]},{"id":"monasteriesChurches_5170cd1cd8e1","slug":"monastiri-agias-eirinis-chrysovalantoy-5170","kind":"restaurant","name":"Μοναστήρι Αγίας Ειρήνης Χρυσοβαλάντου","lat":38.0757087984453,"lng":23.784060169292047,"url":"https://maps.app.goo.gl/Kmbb6BYr6fSV4pFRA?g_st=ipc","address":"Δημητσάνας 1, Λυκόβρυση 141 23","categoryIds":["monasteries-churches"],"categories":["Monasteries & Spiritual Sites"]},{"id":"monasteriesChurches_2ed5c9c74a50","slug":"iera-moni-pentelis-koimiseos-tis-theotokoy-2ed5","kind":"restaurant","name":"Ιερά Μονή Πεντέλης (Κοιμήσεως της Θεοτόκου)","lat":38.052651924953615,"lng":23.86703856624407,"url":"https://maps.app.goo.gl/Xf9ygVb29EqkAQUs7?g_st=ipc","address":"Πεντέλη 152 36","categoryIds":["monasteries-churches"],"categories":["Monasteries & Spiritual Sites"]},{"id":"monasteriesChurches_c2b99534a746","slug":"osioy-fraim-c2b9","kind":"restaurant","name":"Οσίου Ἐφραίμ","lat":38.07494568017478,"lng":23.95319576902227,"url":"https://maps.app.goo.gl/t1Fe5nBcUY3vmfcE7?g_st=ipc","address":"Αγίου Εφραίμ, Νέα Μάκρη 190 05","categoryIds":["monasteries-churches"],"categories":["Monasteries & Spiritual Sites"]},{"id":"monasteriesChurches_20d9168100a7","slug":"iera-moni-agioy-ioannoy-toy-kynigoy-20d9","kind":"restaurant","name":"Ιερά Μονή Αγίου Ιωάννου του Κυνηγού","lat":38.00278956163498,"lng":23.836715813242602,"url":"https://maps.app.goo.gl/TkGr97r8sSTcdTYu9?g_st=ipc","address":"Ανατολικής Μεσογείου, Αγ. Παρασκευή 153 42","categoryIds":["monasteries-churches"],"categories":["Monasteries & Spiritual Sites"]},{"id":"monasteriesChurches_24b60ec568ad","slug":"iera-moni-tao-ntaoy-pentelis-24b6","kind":"restaurant","name":"Ιερά Μονή Ταώ (Νταού) Πεντέλης","lat":38.03988340784935,"lng":23.948125074372278,"url":"https://maps.app.goo.gl/xtRHYrHMqEtBMfwK9?g_st=ipc","address":"Νταού Πεντέλη 152 36","categoryIds":["monasteries-churches"],"categories":["Monasteries & Spiritual Sites"]},{"id":"monasteriesChurches_7d585aed6cfa","slug":"ieros-naos-koimiseos-tis-theotokoy-panagitsa-7d58","kind":"restaurant","name":"Ιερός Ναός Κοιμήσεως της Θεοτόκου (Παναγίτσα)","lat":38.01727711784317,"lng":23.744778782538283,"url":"https://maps.app.goo.gl/RDMFUG49GBgqceAu8?g_st=ipc","address":"Ανδρεόπουλου 2, Αθήνα 111 41","categoryIds":["monasteries-churches"],"categories":["Monasteries & Spiritual Sites"]},{"id":"monasteriesChurches_03a62bb89dba","slug":"iera-moni-agioy-kyprianoy-03a6","kind":"restaurant","name":"Ιερά Μονή Αγίου Κυπριανού","lat":38.11439120183363,"lng":23.677888094487148,"url":"https://maps.app.goo.gl/4CSBCi4A57QqcY1JA?g_st=ipc","address":"μονη, Αγ. Κυπριανού, Φυλή 133 51","categoryIds":["monasteries-churches"],"categories":["Monasteries & Spiritual Sites"]},{"id":"monasteriesChurches_f9758a225b79","slug":"iera-moni-taxiarchon-asterioy-f975","kind":"restaurant","name":"Ιερά Μονή Ταξιαρχών Αστερίου","lat":37.96963791637043,"lng":23.811299998354023,"url":"https://maps.app.goo.gl/3bMH4x4NEyFmUZJ97?g_st=ipc","address":"Ζωγράφου 157 72","categoryIds":["monasteries-churches"],"categories":["Monasteries & Spiritual Sites"]},{"id":"monasteriesChurches_680860666634","slug":"iera-moni-koimiseos-tis-theotokoy-kleiston-6808","kind":"restaurant","name":"Ιερά Μονή Κοιμήσεως της Θεοτόκου Κλειστών","lat":38.13109301050575,"lng":23.65695380658108,"url":"https://maps.app.goo.gl/BjSRHN6tAZGnfJ9p8?g_st=ipc","address":"Φυλή 133 41","categoryIds":["monasteries-churches"],"categories":["Monasteries & Spiritual Sites"]},{"id":"monasteriesChurches_caa9124a394d","slug":"ieros-naos-agion-isidoron-lykavittoy-caa9","kind":"restaurant","name":"Ιερός Ναός Αγίων Ισιδώρων Λυκαβηττού","lat":37.982296617522,"lng":23.742795127887568,"url":"https://maps.app.goo.gl/vi4b8bvA5jdYKcqf9?g_st=ipc","address":"Μονοπατι Λυκαβηττου, Αθήνα 114 71","categoryIds":["monasteries-churches","attractions"],"categories":["Monasteries & Spiritual Sites","Must-See Attractions"],"legacySlugs":["ieros-naos-agion-isidoron-lykavittoy-361f"]}],"nearby":[{"id":"familyFriendly_993db4ae8c60","slug":"paidikes-ekdiloseis-xenes-glosses-petit-paris-993d","kind":"restaurant","name":"ΠΑΙΔΙΚΕΣ ΕΚΔΗΛΩΣΕΙΣ-ΞΕΝΕΣ ΓΛΩΣΣΕΣ | PETIT PARIS","lat":38.10232524306243,"lng":23.827672622944732,"url":"https://maps.app.goo.gl/4YmyHX6EqG7wK1GEA?g_st=ipc","address":"Κρίνων 2, Νέα Ερυθραία 146 71","categoryIds":["family-friendly"],"categories":["Kid Friendly Locations"],"distanceKm":1.026866069358235},{"id":"municipalities_51534bbed11a","slug":"ekali-5153","kind":"municipality","name":"Εκάλη","lat":38.1177,"lng":23.8368,"region":"Βόρεια Προάστια","name_en":"Ekali","region_en":"North Suburbs","distanceKm":1.1072844046434207},{"id":"italianRestaurants_b94ef05a5cdb","slug":"nebbiolo-b94e","kind":"restaurant","name":"Nebbiolo","lat":38.114438017917074,"lng":23.849732672241302,"url":"https://maps.app.goo.gl/wzivni6cAptzeBTTA","address":"Leof. Thiseos 111, Ekali 145 78","categoryIds":["italian"],"categories":["Italian Restaurants"],"distanceKm":1.3270193666006556},{"id":"familyFriendly_53d1fe8092e8","slug":"parko-andrea-papandreoy-53d1","kind":"restaurant","name":"Πάρκο Ανδρέα Παπανδρέου","lat":38.1031196150353,"lng":23.81935226972679,"url":"https://maps.app.goo.gl/DqJ2RQU9EoTQdjWRA?g_st=ipc","address":"146 71, Αισχύλου 18, Νέα Ερυθραία 146 71","categoryIds":["family-friendly"],"categories":["Kid Friendly Locations"],"distanceKm":1.6419955375822517},{"id":"luxuryDiningRestaurants_822bea0f73cd","slug":"zaatar-822b","kind":"restaurant","name":"Ζάαταρ","lat":38.09899314317068,"lng":23.81974662163474,"url":"https://maps.app.goo.gl/YmorNGxoDArPTMg56?g_st=ipc","address":"Χειμάρρας 7, Νέα Ερυθραία 146 71","categoryIds":["luxury-dining"],"categories":["Luxury Dining"],"distanceKm":1.809009777304289},{"id":"municipalities_b9a5c4b0e427","slug":"dionysos-b9a5","kind":"municipality","name":"Διόνυσος","lat":38.106,"lng":23.8583,"region":"Βόρεια Προάστια","name_en":"Dionysos","region_en":"North Suburbs","distanceKm":1.858612418719751},{"id":"municipalities_21a4cf6d5b03","slug":"nea-erythraia-21a4","kind":"municipality","name":"Νέα Ερυθραία","lat":38.1025,"lng":23.817,"region":"Βόρεια Προάστια","name_en":"Nea Erythraia","region_en":"Northern Suburbs","distanceKm":1.8590424794688991},{"id":"familyFriendly_56591c06f8ca","slug":"geor-papandreoy-5659","kind":"restaurant","name":"Γεωρ. Παπανδρέου","lat":38.09209780213087,"lng":23.824819042791706,"url":"https://maps.app.goo.gl/93r82jmmMvCfQwZe8?g_st=ipc","address":"Κηφισιά 146 71","categoryIds":["family-friendly"],"categories":["Kid Friendly Locations"],"distanceKm":2.0485216663480412},{"id":"asianRestaurants_d8c154eb91c4","slug":"cho-cho-san-drosia-d8c1","kind":"restaurant","name":"Cho Cho San Drosiá","lat":38.12004731625109,"lng":23.859184242640065,"url":"https://maps.app.goo.gl/uWRDz7jVt5VDWMv8A?g_st=ipc","address":"Πεύκων 17, Δροσιά 145 72","categoryIds":["asian"],"categories":["Asian Restaurants"],"distanceKm":2.3619759230835013},{"id":"burgersRestaurants_95cc953a5a70","slug":"con-voi-brunch-burgers-cocktails-95cc","kind":"restaurant","name":"Con Voi Brunch - Burgers & Cocktails","lat":38.12062536277459,"lng":23.858921152377892,"url":"https://maps.app.goo.gl/Nzdtzrh2vbG4T4VM8?g_st=ipc","address":"Λεωφ. Δροσιάς Σταματάς 2, Δροσιά 145 72","categoryIds":["burgers"],"categories":["Burger Spots"],"distanceKm":2.3813344227384645},{"id":"cheapEatsRestaurants_0da1d84ce28f","slug":"mitsos-0da1","kind":"restaurant","name":"Μητσος","lat":38.120677354658696,"lng":23.859244908556484,"url":"https://maps.app.goo.gl/5G7Zm7z9NT4rMbC6A?g_st=ipc","address":"Λεωφ. Δροσιάς Σταματάς 4, Δροσιά 145 75","categoryIds":["cheap-eats"],"categories":["Gyros & Cheap Eats"],"distanceKm":2.407472585917808},{"id":"cheapEatsRestaurants_296b6ad90f0e","slug":"o-ntellos-296b","kind":"restaurant","name":"Ο ΝΤΕΛΛΟΣ","lat":38.09071592781455,"lng":23.82013374189109,"url":"https://maps.app.goo.gl/uCpkqt4dsAjh6LfU7?g_st=ipc","address":"Ελ. Βενιζέλου 139, Νέα Ερυθραία 146 71","categoryIds":["cheap-eats"],"categories":["Gyros & Cheap Eats"],"distanceKm":2.4102597644891564},{"id":"italianRestaurants_7494ebc89891","slug":"amici-miei-cucina-italiana-7494","kind":"restaurant","name":"Amici Miei Cucina Italiana","lat":38.1201358654641,"lng":23.85982839112877,"url":"https://maps.app.goo.gl/TKR7jw9ozmdL38DBA?g_st=ipc","address":"στρατηγού πετρίτη 7, Δροσιά 145 72","categoryIds":["italian"],"categories":["Italian Restaurants"],"distanceKm":2.4137456625515763},{"id":"greekRestaurants_a8f96784536e","slug":"peinirli-eleytheriadis-a8f9","kind":"restaurant","name":"Πεϊνιρλί Ελευθεριάδης","lat":38.11739320879304,"lng":23.862199451872925,"url":"https://maps.app.goo.gl/hWqtsGrqa7nCZyh16","address":"Σολωμού 26, Δροσιά 145 72","categoryIds":["greek-restaurants"],"categories":["Greek Restaurants"],"distanceKm":2.4381063359482447},{"id":"cheapEatsRestaurants_ec13b3ed8963","slug":"panerythraikos-ec13","kind":"restaurant","name":"Πανερυθραικος","lat":38.09029256559895,"lng":23.818809766039287,"url":"https://maps.app.goo.gl/E91HSqNkPsC6UtWw7?g_st=ipc","address":"Αναξαγόρα 11, Νέα Ερυθραία 146 71","categoryIds":["cheap-eats"],"categories":["Gyros & Cheap Eats"],"distanceKm":2.5196804679976683},{"id":"vegetarianRestaurants_ce13a880a3a7","slug":"the-vegan-fairies-ce13","kind":"restaurant","name":"The Vegan Fairies","lat":38.09075591737279,"lng":23.81765935301376,"url":"https://maps.app.goo.gl/Py2rEQ8tcKsxB97Y9?g_st=ipc","address":"Νικ. Πλαστήρα 29, Νέα Ερυθραία 146 71","categoryIds":["vegetarian"],"categories":["Vegetarian Friendly Restaurants"],"distanceKm":2.546585972149096},{"id":"burgersRestaurants_07b3e771beba","slug":"layers-07b3","kind":"restaurant","name":"LAYERS","lat":38.089833221029615,"lng":23.818428541225927,"url":"https://maps.app.goo.gl/mDaB4XdfNqu4hp5i8?g_st=ipc","address":"Αναξαγόρα 7, Νέα Ερυθραία 146 71","categoryIds":["burgers"],"categories":["Burger Spots"],"distanceKm":2.580309064572423},{"id":"municipalities_10b34011c7ab","slug":"stamata-10b3","kind":"municipality","name":"Σταμάτα","lat":38.108,"lng":23.8669,"region":"Βόρεια Προάστια","name_en":"Stamata","region_en":"North Suburbs","distanceKm":2.6010150849221056},{"id":"dessertsRestaurants_1c368e954317","slug":"pavlov-patisserie-1c36","kind":"restaurant","name":"Pavlov Patisserie","lat":38.08975934404975,"lng":23.817098827828467,"url":"https://maps.app.goo.gl/ubJrroH9LAtGxodP6?g_st=ipc","address":"Πατριάρχου Γρηγορίου Ε 15, Νέα Ερυθραία 146 71","categoryIds":["desserts"],"categories":["Dessert Shops"],"distanceKm":2.661962617443086},{"id":"italianRestaurants_d9d720a42c99","slug":"pizza-park-d9d7","kind":"restaurant","name":"Pizza Park","lat":38.09198960934523,"lng":23.81402750121575,"url":"https://maps.app.goo.gl/Qw99VuJkc2GbipvDA?g_st=ipc","address":"Ηρ. Πολυτεχνείου 24, Νέα Ερυθραία 146 71","categoryIds":["italian"],"categories":["Italian Restaurants"],"distanceKm":2.6780333765020963},{"id":"greekRestaurants_c38384cb3d4e","slug":"gakias-c383","kind":"restaurant","name":"Γάκιας","lat":38.09024721634053,"lng":23.815925478181978,"url":"https://maps.app.goo.gl/5fW7sQn1VfXFue1i8","address":"Ευαγγελίστριας και Κρήνης, Νέα Ερυθραία 146 71","categoryIds":["greek-restaurants"],"categories":["Greek Restaurants"],"distanceKm":2.691324498189034},{"id":"familyFriendly_914b28d0bdc8","slug":"playmobil-funpark-914b","kind":"restaurant","name":"PLAYMOBIL FunPark","lat":38.101749739078855,"lng":23.80667805908177,"url":"https://maps.app.goo.gl/iUSz6s7BVEgZACCj9?g_st=ipc","address":"Αμαλιάδος 4, Κηφισιά 145 64","categoryIds":["family-friendly"],"categories":["Kid Friendly Locations"],"distanceKm":2.7503465301803307},{"id":"burgersRestaurants_4176fe5b3851","slug":"guilty-adam-4176","kind":"restaurant","name":"Guilty Adam","lat":38.08882457129293,"lng":23.81690449930271,"url":"https://maps.app.goo.gl/cYunjwXkadMCnitz6?g_st=ipc","address":"Χαριλάου Τρικούπη, Στροφυλίου 146, Νέα Ερυθραία 146 71","categoryIds":["burgers"],"categories":["Burger Spots"],"distanceKm":2.7518540386049977},{"id":"italianRestaurants_e295fedca4ff","slug":"margherita-pizza-artigianale-nea-erythraia-e295","kind":"restaurant","name":"Margherita Pizza Artigianale Νέα Ερυθραία","lat":38.08856611677621,"lng":23.816718880082657,"url":"https://maps.app.goo.gl/v1cfqn2UJ11ZTMJq6?g_st=ipc","address":"Χαριλάου τρικούπη 146 &, Strofiliou, Nea Erithrea 146 71","categoryIds":["italian"],"categories":["Italian Restaurants"],"distanceKm":2.7843047142211486}],"sameRegion":[],"mentionedGuides":[],"canonicalSlug":"ieros-naos-agias-marinas-ekalis-0be6","isCanonicalEntity":true,"enrichment":{"summary_en":"Ιερός Ναός Αγίας Μαρίνας Εκάλης is a curated restaurant in Εκάλη 145 78 in the Monasteries & Spiritual Sites collection. It is connected to 0 nearby Googlementor picks to help travelers build a stronger local route.","summary_el":"Ιερός Ναός Αγίας Μαρίνας Εκάλης είναι ένα επιλεγμένο σημείο φαγητού στην περιοχή Εκάλη 145 78 και ανήκει στη συλλογή Monasteries & Spiritual Sites. Συνδέεται με 0 κοντινές προτάσεις του Googlementor για πιο ολοκληρωμένη εμπειρία.","vibe_tags":["curated"],"best_for":["first-time visitors","food lovers"],"visit_moments":["lunch stop","dinner stop"],"practical_note":"Address and direct map link are available for easy turn-by-turn access.","nearby_walkable_count":0,"nearby_count_2km":7,"confidence":0.9},"areaContext":{"slug":"ekali","name":"Ekali"},"intentContexts":[]},"__N_SSG":true}