{"pageProps":{"entity":{"id":"italianRestaurants_161f75313435","slug":"incontro-via108-161f","kind":"restaurant","name":"Incontro Via108","lat":37.95597000000485,"lng":23.6616563361716,"url":"https://maps.app.goo.gl/PHAu91Gt4K1K24iZ8?g_st=ipc","address":"Αγ. Ελευθερίου 108, Πειραιάς 185 41","categoryIds":["italian"],"categories":["Italian Restaurants"]},"sameCategory":[{"id":"italianRestaurants_deede59c2ee6","slug":"la-greca-nikaia-deed","kind":"restaurant","name":"La Greca Νίκαια","lat":37.96989287630008,"lng":23.649375358414368,"url":"https://maps.app.goo.gl/TRUJmqRbfNqYTojR9?g_st=ipc","address":"Ανακρέοντος 5, Νίκαια 184 53","categoryIds":["italian"],"categories":["Italian Restaurants"]},{"id":"italianRestaurants_4128f283696a","slug":"santa-pasta-cucina-italiana-4128","kind":"restaurant","name":"SANTA PASTA Cucina Italiana","lat":37.94068201075252,"lng":23.64952027321399,"url":"https://maps.app.goo.gl/s3jT1Jfm88nb6Y8f8?g_st=ipc","address":"Γρ. Λαμπράκη 144, Πειραιάς 185 35","categoryIds":["italian"],"categories":["Italian Restaurants"]},{"id":"italianRestaurants_245a69e4c28d","slug":"italida-restaurant-245a","kind":"restaurant","name":"Italida Restaurant","lat":37.939531794803344,"lng":23.64139153468878,"url":"https://maps.app.goo.gl/vJFoPpuhcPupJ3ju7?g_st=ipc","address":"Φιλελλήνων 9, Πειραιάς 185 36","categoryIds":["italian"],"categories":["Italian Restaurants"]},{"id":"italianRestaurants_5214577033fb","slug":"portofino-cucina-italiana-5214","kind":"restaurant","name":"Portofino Cucina Italiana","lat":37.933560056703215,"lng":23.64800969933006,"url":"https://maps.app.goo.gl/V1DfNbY33j2yeRfy7?g_st=ipc","address":"Μαρίνα Ζέας, Πειραιάς 185 36","categoryIds":["italian"],"categories":["Italian Restaurants"]},{"id":"italianRestaurants_5ab192a29154","slug":"pizza-tros-5ab1","kind":"restaurant","name":"Pizza Tros","lat":37.93310764502524,"lng":23.647126189869965,"url":"https://maps.app.goo.gl/R29dtEiZf13f8My98?g_st=ipc","address":"Μαρίνα Ζέας, Πειραιάς 185 36","categoryIds":["italian"],"categories":["Italian Restaurants"]},{"id":"italianRestaurants_a8f55f60daad","slug":"napolitivo-a8f5","kind":"restaurant","name":"Napolitivo","lat":37.931139363113324,"lng":23.68556698847028,"url":"https://maps.app.goo.gl/iJWXQzLD79YWLeji9?g_st=ipc","address":"Λεωφ. Ποσειδώνος 702, Παλαιό Φάληρο 175 61","categoryIds":["italian"],"categories":["Italian Restaurants"]},{"id":"italianRestaurants_47773e592b01","slug":"vitello-trattoria-romana-4777","kind":"restaurant","name":"Vitello Trattoria Romana","lat":37.93748817614671,"lng":23.699162197380616,"url":"https://maps.app.goo.gl/QapvvUw9jwdJSAM69?g_st=ipc","address":"Ζησιμοπούλου 41, Παλαιό Φάληρο 175 64","categoryIds":["italian"],"categories":["Italian Restaurants"]},{"id":"italianRestaurants_4319df2d5e15","slug":"da-bruno-4319","kind":"restaurant","name":"da Bruno","lat":37.92917795499007,"lng":23.694489698206436,"url":"https://maps.app.goo.gl/1dA2z4yKDCdZQUGbA","address":"Agiou Alexandrou 46, Paleo Faliro 175 61","categoryIds":["italian"],"categories":["Italian Restaurants"]},{"id":"italianRestaurants_fb4db3d6df69","slug":"akakios-makaronadiko-fb4d","kind":"restaurant","name":"Ακάκιος μακαρονάδικο","lat":37.932532942991465,"lng":23.699425438393305,"url":"https://maps.app.goo.gl/Mjwxjxeqf2KWt2Hq5?g_st=ipc","address":"Αγίας Τριάδος 1, Παλαιό Φάληρο 175 64","categoryIds":["italian"],"categories":["Italian Restaurants"]},{"id":"italianRestaurants_c97c0ccdbf8c","slug":"o-italos-c97c","kind":"restaurant","name":"Ο Ιταλός","lat":37.926673536986776,"lng":23.69220389211545,"url":"https://maps.app.goo.gl/up3EpvmXnu7L2VC67?g_st=ipc","address":"Αλκυόνης 16, Παλαιό Φάληρο 175 61","categoryIds":["italian"],"categories":["Italian Restaurants"]},{"id":"italianRestaurants_a0a70f822848","slug":"il-trovatore-a0a7","kind":"restaurant","name":"Il Trovatore","lat":37.93426882606043,"lng":23.704929709402517,"url":"https://maps.app.goo.gl/VEjqHzj7oG8PDciG7?g_st=ipc","address":"Γοργοποτάμου 14, Παλαιό Φάληρο 175 64","categoryIds":["italian"],"categories":["Italian Restaurants"]},{"id":"italianRestaurants_a131f0639f33","slug":"trattoria-italia-d-onofrio-a131","kind":"restaurant","name":"Trattoria Italia D'onofrio","lat":37.96439892270411,"lng":23.71376404461326,"url":"https://maps.app.goo.gl/QybTqvRE6JzNcqyYA?g_st=ipc","address":"Βαρνουντος 6, Αθήνα 117 41","categoryIds":["italian"],"categories":["Italian Restaurants"]}],"nearby":[{"id":"greekRestaurants_31681c66c6ca","slug":"zoodochos-pigi-oinomageirion-3168","kind":"restaurant","name":"Ζωοδόχος Πηγή Οινομαγειρίον","lat":37.95501437395202,"lng":23.663299464502014,"url":"https://maps.app.goo.gl/Yhe2M5tujhjVHEAG6","address":"Κατσούλη 77, Πειραιάς 185 41","categoryIds":["greek-restaurants"],"categories":["Greek Restaurants"],"distanceKm":0.17901243631782163},{"id":"greekRestaurants_77340ab1d76d","slug":"zachos-kaminia-7734","kind":"restaurant","name":"Ζάχος Καμίνια","lat":37.95283160176507,"lng":23.658993462418696,"url":"https://maps.app.goo.gl/24c8zd5zA2MCbP6f8","address":"185 41, Κομοτηνής 37, Πειραιάς 185 41","categoryIds":["greek-restaurants"],"categories":["Greek Restaurants"],"distanceKm":0.41987221984586354},{"id":"greekRestaurants_16a49956bee9","slug":"mparmpalexis-anatolitikes-geyseis-16a4","kind":"restaurant","name":"Μπαρμπαλέξης Ανατολίτικες Γεύσεις","lat":37.95564763526353,"lng":23.669084735339375,"url":"https://maps.app.goo.gl/8iwKbcyFQg5iwckU9?g_st=ipc","address":"Flemingk 48, Ag. Ioannis Rentis 182 33","categoryIds":["greek-restaurants"],"categories":["Greek Restaurants"],"distanceKm":0.6522748229671621},{"id":"cheapEatsRestaurants_d6753e770498","slug":"o-aris-d675","kind":"restaurant","name":"Ο ΑΡΗΣ","lat":37.95672934899719,"lng":23.669396304305284,"url":"https://maps.app.goo.gl/UpknKH1CFKmC87ij6?g_st=ipc","address":"Π. Μελά 14, Αγ. Ιωάννης Ρέντης 182 33","categoryIds":["cheap-eats"],"categories":["Gyros & Cheap Eats"],"distanceKm":0.6838339749892757},{"id":"fishTavernasRestaurants_cfbde0cf6e1b","slug":"psaraki-meze-cfbd","kind":"restaurant","name":"Ψαράκι μεζέ","lat":37.954110812866894,"lng":23.653950848247767,"url":"https://maps.app.goo.gl/xP92x5imjgkE5bYk8?g_st=ipc","address":"Αραχώβης 21, Πειραιάς 185 40","categoryIds":["fish-tavernas"],"categories":["Fish Tavernas"],"distanceKm":0.7065127183515573},{"id":"greekRestaurants_a448ec3cfffd","slug":"to-koytoyki-toy-antoni-a448","kind":"restaurant","name":"Το κουτούκι του Αντώνη","lat":37.9618540673877,"lng":23.656289861821378,"url":"https://maps.app.goo.gl/SJ9Ya21w7zZToFhx8","address":"Αργυροκάστρου 26, Πειραιάς 185 42","categoryIds":["greek-restaurants"],"categories":["Greek Restaurants"],"distanceKm":0.8058784147940414},{"id":"cheapEatsRestaurants_2f84b1901b79","slug":"soyvlakia-o-serkos-2f84","kind":"restaurant","name":"Σουβλάκια ο Σέρκος","lat":37.96321249323642,"lng":23.6546161405587,"url":"https://maps.app.goo.gl/g55ZF34fH7dzCpi29?g_st=ipc","address":"Ίωνος Δραγούμη 39-41, Πειραιάς 185 42","categoryIds":["cheap-eats"],"categories":["Gyros & Cheap Eats"],"distanceKm":1.014650800584436},{"id":"cheapEatsRestaurants_b825154bd7ab","slug":"systimatiko-soyvlatzidiko-o-karampelas-b825","kind":"restaurant","name":"Συστηματικό Σουβλατζίδικο Ο Καράμπελας","lat":37.94518871094833,"lng":23.654274337068934,"url":"https://maps.app.goo.gl/DkaV9CriKcsiVg296?g_st=ipc","address":"Πύλης 53, Πειραιάς 185 34","categoryIds":["cheap-eats"],"categories":["Gyros & Cheap Eats"],"distanceKm":1.3624005262473367},{"id":"cheapEatsRestaurants_9166d63b45f7","slug":"enty-9166","kind":"restaurant","name":"ΕΝΤΥ","lat":37.96700050503918,"lng":23.65031239624474,"url":"https://maps.app.goo.gl/TJbtwJ75EUsRPcRt8?g_st=ipc","address":"Δημ. Καρακουλουξή 4, Νίκαια 184 54","categoryIds":["cheap-eats"],"categories":["Gyros & Cheap Eats"],"distanceKm":1.5790631092362701},{"id":"coffeeBrunchRestaurants_a7d2f7f99d61","slug":"flaked-croissanterie-moschato-a7d2","kind":"restaurant","name":"Flaked Croissanterie Moschato","lat":37.950290767501926,"lng":23.678176231264157,"url":"https://maps.app.goo.gl/dnEf78CD1KTT1Ewu8?g_st=ipc","address":"Ομήρου 67, Μοσχάτο 183 45","categoryIds":["coffee-brunch"],"categories":["Coffee & Brunch Spots"],"distanceKm":1.580121769448867},{"id":"cheapEatsRestaurants_06d5422f5e7f","slug":"o-mitsos-06d5","kind":"restaurant","name":"Ο Μήτσος","lat":37.951501915719206,"lng":23.678968163051703,"url":"https://maps.app.goo.gl/dt9dXWs5vWdhfFah6?g_st=ipc","address":"Στρ. Μακρυγιάννη 92, Μοσχάτο 183 45","categoryIds":["cheap-eats"],"categories":["Gyros & Cheap Eats"],"distanceKm":1.597109605622216},{"id":"cheapEatsRestaurants_e1efa6cc4eb9","slug":"kebab-hub-e1ef","kind":"restaurant","name":"KEBAB HUB","lat":37.96544893408382,"lng":23.64762675898248,"url":"https://maps.app.goo.gl/1jU1MDHhWUfkjuNTA?g_st=ipc","address":"Εφέσου 49, Νίκαια 184 50","categoryIds":["cheap-eats"],"categories":["Gyros & Cheap Eats"],"distanceKm":1.619802410044051},{"id":"dessertsRestaurants_bfa57b4eb085","slug":"little-bear-piraeus-vegan-patisserie-bistro-bfa5","kind":"restaurant","name":"Little Bear Piraeus - Vegan Patisserie & Bistro","lat":37.946303720961154,"lng":23.647731238367324,"url":"https://maps.app.goo.gl/u2qFa1uh9dMczD9G6?g_st=ipc","address":"Ελ. Βενιζέλου 14, Πειραιάς 185 31","categoryIds":["desserts"],"categories":["Dessert Shops"],"distanceKm":1.6266677074584173},{"id":"vegetarianRestaurants_8b929e1b12ca","slug":"little-bear-piraeus-vegan-patisserie-bistro-8b92","kind":"restaurant","name":"Little Bear Piraeus - Vegan Patisserie & Bistro","lat":37.94629157937497,"lng":23.647726020498503,"url":"https://maps.app.goo.gl/JNBSLzAJfWz7F5zV6?g_st=ipc","address":"Little Bear Piraeus - Vegan Patisserie & Bistro","categoryIds":["vegetarian"],"categories":["Vegetarian Friendly Restaurants"],"distanceKm":1.6279034264353647},{"id":"fishTavernasRestaurants_ae0677e73373","slug":"zarkadoylas-ta-kavoyrakia-ae06","kind":"restaurant","name":"ΖΑΡΚΑΔΟΥΛΑΣ - ΤΑ ΚΑΒΟΥΡΑΚΙΑ","lat":37.966878654895595,"lng":23.649066817348377,"url":"https://maps.app.goo.gl/NBfwV1GcmoeRk6M28?g_st=ipc","address":"Βιθυνίας 32, Νίκαια 184 50","categoryIds":["fish-tavernas"],"categories":["Fish Tavernas"],"distanceKm":1.6399728461545142},{"id":"greekRestaurants_8e907eeb8136","slug":"fagopoteion-stoy-thoma-8e90","kind":"restaurant","name":"Φαγοποτείον στου Θωμά","lat":37.954509819048326,"lng":23.642613690114224,"url":"https://maps.app.goo.gl/jQSs2dndkMDG9Tsq7","address":"Μαυρομιχάλη 22-24, Πειραιάς 185 45","categoryIds":["greek-restaurants"],"categories":["Greek Restaurants"],"distanceKm":1.6774641000005093},{"id":"asianRestaurants_cb2b61b87e3c","slug":"toukta-thai-food-cb2b","kind":"restaurant","name":"Toukta Thai food","lat":37.96875566688742,"lng":23.650805513802922,"url":"https://maps.app.goo.gl/U33KjMR5URvuLe1m6?g_st=ipc","address":"Ιωνίας 3, Νίκαια 184 50","categoryIds":["asian"],"categories":["Asian Restaurants"],"distanceKm":1.7105974917992868},{"id":"municipalities_40326566c574","slug":"nikaia-4032","kind":"municipality","name":"Νίκαια","lat":37.9667,"lng":23.6472,"aliases":["Nikaia","Nikea"],"region":"Δυτικά Προάστια","name_en":"Nikaia","region_en":"Western Suburbs","distanceKm":1.7406238270986496},{"id":"luxuryDiningRestaurants_223cae9767cf","slug":"nest-rooftop-monte-kastella-223c","kind":"restaurant","name":"ΝΕΣΤ Rooftop - Monte Kastella","lat":37.93966255701075,"lng":23.661584217897186,"url":"https://maps.app.goo.gl/KrWjCjHhBZcKtAsU9?g_st=ipc","address":"Λεωφ. Αλ. Παπαναστασίου 109, Πειραιάς 185 33","categoryIds":["luxury-dining","rooftop-lounges"],"categories":["Luxury Dining","Rooftop Lounges"],"legacySlugs":["nest-rooftop-monte-kastella-d731"],"distanceKm":1.813315954053195},{"id":"greekRestaurants_be3d05b1fe1e","slug":"to-zempereki-koytoyki-moschato-be3d","kind":"restaurant","name":"Το Ζεμπερέκι - Κουτούκι | Μοσχάτο","lat":37.95039414676294,"lng":23.681530575454058,"url":"https://maps.app.goo.gl/D3JyGs93dHL849c59","address":"Σολωμού 92, Μοσχάτο 183 45","categoryIds":["greek-restaurants"],"categories":["Greek Restaurants"],"distanceKm":1.8495622097758888},{"id":"cheapEatsRestaurants_44069571c770","slug":"o-giorgos-4406","kind":"restaurant","name":"Ο Γιώργος","lat":37.94626514113319,"lng":23.644321784628165,"url":"https://maps.app.goo.gl/41PfRyTP8uJ6c3uy9?g_st=ipc","address":"Γούναρη 18 και, Νικήτα, Πειραιάς 185 31","categoryIds":["cheap-eats"],"categories":["Gyros & Cheap Eats"],"distanceKm":1.8640444710478543},{"id":"italianRestaurants_deede59c2ee6","slug":"la-greca-nikaia-deed","kind":"restaurant","name":"La Greca Νίκαια","lat":37.96989287630008,"lng":23.649375358414368,"url":"https://maps.app.goo.gl/TRUJmqRbfNqYTojR9?g_st=ipc","address":"Ανακρέοντος 5, Νίκαια 184 53","categoryIds":["italian"],"categories":["Italian Restaurants"],"distanceKm":1.8857163876678902},{"id":"municipalities_3f3b35dfaf09","slug":"kaminia-3f3b","kind":"municipality","name":"Καμίνια","lat":37.9525,"lng":23.6406,"aliases":["Καμινια"],"region":"Πειραιάς","name_en":"Kaminia","region_en":"Piraeus","distanceKm":1.8860556468568905},{"id":"rooftopLoungesRestaurants_70a332fffcc8","slug":"horizon-rooftop-of-senses-70a3","kind":"restaurant","name":"Horizon Rooftop Of Senses","lat":37.93866165468551,"lng":23.659642211558037,"url":"https://maps.app.goo.gl/viDajdxAvyspFBBt6?g_st=ipc","address":"Ακτή Κουμουνδούρου 24, Πειραιάς 185 33","categoryIds":["rooftop-lounges"],"categories":["Rooftop Lounges"],"distanceKm":1.9326864609191574}],"sameRegion":[],"mentionedGuides":[],"canonicalSlug":"incontro-via108-161f","isCanonicalEntity":true,"enrichment":{"summary_en":"Incontro Via108 is a curated restaurant in Πειραιάς 185 41 in the Italian Restaurants collection. It is connected to 5 nearby Googlementor picks to help travelers build a stronger local route.","summary_el":"Incontro Via108 είναι ένα επιλεγμένο σημείο φαγητού στην περιοχή Πειραιάς 185 41 και ανήκει στη συλλογή Italian Restaurants. Συνδέεται με 5 κοντινές προτάσεις του Googlementor για πιο ολοκληρωμένη εμπειρία.","vibe_tags":["curated"],"best_for":["first-time visitors","food lovers"],"visit_moments":["lunch stop","dinner stop"],"practical_note":"Address and direct map link are available for easy turn-by-turn access.","nearby_walkable_count":5,"nearby_count_2km":27,"confidence":0.98},"areaContext":{"slug":"nikaia","name":"Nikaia"},"intentContexts":[]},"__N_SSG":true}