{"pageProps":{"entity":{"id":"coffeeBrunchRestaurants_9b9341bfba14","slug":"join-juice-bars-9b93","kind":"restaurant","name":"JOIN juice bars","lat":40.646571727400875,"lng":22.92141339579847,"url":"https://maps.app.goo.gl/pSgB53k7vyQwHX78A?g_st=ipc","address":"Giannitson 61, Thessaloniki 546 27","categoryIds":["coffee-brunch","vegetarian"],"categories":["Coffee & Brunch Spots","Vegetarian Friendly Restaurants"],"legacySlugs":["join-juice-bars-3c92"]},"sameCategory":[{"id":"coffeeBrunchRestaurants_1b425a72f2b5","slug":"join-juice-bars-1b42","kind":"restaurant","name":"JOIN Juice bars","lat":40.63111893989398,"lng":22.94663938125253,"url":"https://maps.app.goo.gl/N6nKzENHvyunx5Mi6?g_st=ipc","address":"Paleon Patron Germanou 10, Thessaloniki 546 22","categoryIds":["coffee-brunch","vegetarian"],"categories":["Coffee & Brunch Spots","Vegetarian Friendly Restaurants"],"legacySlugs":["join-juice-bars-6dea"]},{"id":"coffeeBrunchRestaurants_459993a6b6f4","slug":"join-juice-bars-4599","kind":"restaurant","name":"JOIN juice bars","lat":40.62769069211422,"lng":22.947117280367095,"url":"https://maps.app.goo.gl/7fKny43wd3q96T1s5?g_st=ipc","address":"Leof. Nikis 73, Thessaloniki 546 22","categoryIds":["coffee-brunch","vegetarian"],"categories":["Coffee & Brunch Spots","Vegetarian Friendly Restaurants"],"legacySlugs":["join-juice-bars-c6f3"]},{"id":"coffeeBrunchRestaurants_3f47d83b09c0","slug":"butterflies-and-hurricanes-3f47","kind":"restaurant","name":"Butterflies And Hurricanes","lat":40.61464844201882,"lng":22.960841697890658,"url":"https://maps.app.goo.gl/Gesp19RwCPBWQ9s58?g_st=ipc","address":"Pindarou 1, Thessaloniki 546 39","categoryIds":["coffee-brunch","vegetarian"],"categories":["Coffee & Brunch Spots","Vegetarian Friendly Restaurants"],"legacySlugs":["butterflies-and-hurricanes-37b6"]},{"id":"coffeeBrunchRestaurants_b086083463ae","slug":"join-juice-bars-b086","kind":"restaurant","name":"JOIN juice bars","lat":40.60107511267006,"lng":22.949804539088774,"url":"https://maps.app.goo.gl/LQXcNjB3LwE4q56r7?g_st=ipc","address":"Marias Kallas 1, Thessaloniki 546 45","categoryIds":["coffee-brunch","vegetarian"],"categories":["Coffee & Brunch Spots","Vegetarian Friendly Restaurants"],"legacySlugs":["join-juice-bars-124c"]},{"id":"coffeeBrunchRestaurants_cae5ad9a4492","slug":"join-juice-bars-cae5","kind":"restaurant","name":"JOIN juice bars","lat":40.555069982077164,"lng":22.99254169325442,"url":"https://maps.app.goo.gl/VvKcZzDAukezDVie8?g_st=ipc","address":"11ο χλμ εθνικής οδού, A/D Thessalonikis Neon Moudanion, Thessaloniki 570 01","categoryIds":["coffee-brunch","vegetarian"],"categories":["Coffee & Brunch Spots","Vegetarian Friendly Restaurants"],"legacySlugs":["join-juice-bars-7a1d"]},{"id":"coffeeBrunchRestaurants_6a62e770d50a","slug":"mind-the-cup-6a62","kind":"restaurant","name":"Mind The Cup","lat":38.01157944836187,"lng":23.693274104432696,"url":"https://maps.app.goo.gl/ztF6fFTkc58DpW1r6?g_st=ipc","address":"Αιμιλίου Βεάκη 29, Περιστέρι 121 34","categoryIds":["coffee-brunch","vegetarian"],"categories":["Coffee & Brunch Spots","Vegetarian Friendly Restaurants"],"legacySlugs":["mind-the-cup-0167"]},{"id":"coffeeBrunchRestaurants_c2dcfed13dc1","slug":"to-vazaki-juice-bar-c2dc","kind":"restaurant","name":"Το Βαζάκι Juice Bar","lat":38.021003514175945,"lng":23.80272580711501,"url":"https://maps.app.goo.gl/nDbFuEsz56BPrtWV8?g_st=ipc","address":"Αριστοτέλους 33, Χαλάνδρι 152 34","categoryIds":["coffee-brunch","vegetarian"],"categories":["Coffee & Brunch Spots","Vegetarian Friendly Restaurants"],"legacySlugs":["to-vazaki-juice-bar-fee3"]},{"id":"coffeeBrunchRestaurants_4c997e8e7df4","slug":"the-place-secret-yard-4c99","kind":"restaurant","name":"The Place Secret Yard","lat":37.979297007842895,"lng":23.7118945584477,"url":"https://maps.app.goo.gl/H2MApFAjiqUyTf7B8?g_st=ipc","address":"Τριπτολέμου 26, Αθήνα 118 54","categoryIds":["coffee-brunch","vegetarian"],"categories":["Coffee & Brunch Spots","Vegetarian Friendly Restaurants"],"legacySlugs":["the-place-secret-yard-0734"]},{"id":"coffeeBrunchRestaurants_3bd143dc0b3c","slug":"anana-coffee-food-3bd1","kind":"restaurant","name":"Anana Coffee|Food","lat":37.9790791623964,"lng":23.72939339771832,"url":"https://maps.app.goo.gl/LVwtjjfHm1ZP7KNd9?g_st=ipc","address":"Πραξιτέλους 33, Αθήνα 105 60","categoryIds":["coffee-brunch","vegetarian"],"categories":["Coffee & Brunch Spots","Vegetarian Friendly Restaurants"],"legacySlugs":["anana-coffee-food-aa80"]},{"id":"coffeeBrunchRestaurants_26528fa68af9","slug":"the-brunchers-2652","kind":"restaurant","name":"The Brunchers","lat":37.97723167635048,"lng":23.724930062728706,"url":"https://maps.app.goo.gl/28Tan1nmqMaPBFMr7?g_st=ipc","address":"Αγ. Θέκλας 5, Αθήνα 105 54","categoryIds":["coffee-brunch","vegetarian"],"categories":["Coffee & Brunch Spots","Vegetarian Friendly Restaurants"],"legacySlugs":["the-brunchers-2110"]},{"id":"coffeeBrunchRestaurants_8ebbeeadfb00","slug":"jerry-s-8ebb","kind":"restaurant","name":"JERRY’S","lat":37.99081436071943,"lng":23.798622930452883,"url":"https://maps.app.goo.gl/s7TjtfQj1q9s9Tnk8?g_st=ipc","address":"Εθ. Αμύνης 27, Παπάγου 156 69","categoryIds":["coffee-brunch","vegetarian"],"categories":["Coffee & Brunch Spots","Vegetarian Friendly Restaurants"],"legacySlugs":["jerry-s-4010"]},{"id":"coffeeBrunchRestaurants_d047b317da2a","slug":"to-tsai-d047","kind":"restaurant","name":"To Tsai","lat":37.97897316301174,"lng":23.737126960431553,"url":"https://maps.app.goo.gl/xwzLF5n6xn8fr2tf8?g_st=ipc","address":"Αλ. Σούτσου 19, Αθήνα 106 71","categoryIds":["coffee-brunch","vegetarian"],"categories":["Coffee & Brunch Spots","Vegetarian Friendly Restaurants"],"legacySlugs":["to-tsai-23ba"]}],"nearby":[{"id":"cheapEatsRestaurants_4ad6c8183391","slug":"crats-mexican-4ad6","kind":"restaurant","name":"Crats Mexican","lat":40.646440943227944,"lng":22.920915607467233,"url":"https://maps.app.goo.gl/L84rScHZkgehJUri7?g_st=ipc","address":"Giannitson 61, Thessaloniki 546 27","categoryIds":["cheap-eats","mexican"],"categories":["Gyros & Cheap Eats","Mexican Restaurants"],"legacySlugs":["crats-mexican-d628"],"distanceKm":0.04444414755458249},{"id":"dessertsRestaurants_19a8d37c0b4c","slug":"cinnabon-19a8","kind":"restaurant","name":"Cinnabon","lat":40.646492769432,"lng":22.920799139987686,"url":"https://maps.app.goo.gl/Ndu5vJgYbtj4ou9s5?g_st=ipc","address":"Giannitson 61, Thessaloniki 546 27","categoryIds":["desserts"],"categories":["Dessert Shops"],"distanceKm":0.052562179369759265},{"id":"luxuryDiningRestaurants_f884c9044ca6","slug":"iberico-f884","kind":"restaurant","name":"Iberico","lat":40.644771791421974,"lng":22.920737302788805,"url":"https://maps.app.goo.gl/zswCQ5dz9hpLhfwE6?g_st=ipc","address":"Νικ. Μάντζαρου 18 &, Kotta Roulia, Thessaloniki 546 27","categoryIds":["luxury-dining"],"categories":["Luxury Dining"],"distanceKm":0.20811357649064224},{"id":"cheapEatsRestaurants_6688c0081a92","slug":"ta-babatsika-giro-6688","kind":"restaurant","name":"Ta Babatsika Giro","lat":40.647745410832044,"lng":22.928067747195957,"url":"https://maps.app.goo.gl/gB9jG1sW8aaCssEs7?g_st=ipc","address":"Αγίων Πάντων 28, Thessaloniki 561 23","categoryIds":["cheap-eats"],"categories":["Gyros & Cheap Eats"],"distanceKm":0.5763807441356901},{"id":"dessertsRestaurants_31d6f488c2f0","slug":"terkenlis-ose-31d6","kind":"restaurant","name":"Terkenlis OSE","lat":40.64470252527838,"lng":22.92850176756682,"url":"https://maps.app.goo.gl/6mo1DJtrfFXMber56?g_st=ipc","address":"Monastiriou, Thessaloniki 546 27","categoryIds":["desserts"],"categories":["Dessert Shops"],"distanceKm":0.6331304440945892},{"id":"cheapEatsRestaurants_65901adf52a7","slug":"mama-tereza-6590","kind":"restaurant","name":"Μαμά Τερέζα","lat":40.64077907495011,"lng":22.91819947384191,"url":"https://maps.app.goo.gl/huQUwoVx5eZ9dY357?g_st=ipc","address":"26is Oktovriou 15, Thessaloniki 546 27","categoryIds":["cheap-eats"],"categories":["Gyros & Cheap Eats"],"distanceKm":0.6988652481834735},{"id":"fishTavernasRestaurants_a0a70eb01c99","slug":"ouzeri-kosmas-a0a7","kind":"restaurant","name":"Ouzeri \"Kosmas\"","lat":40.64801268123014,"lng":22.93043130003418,"url":"https://maps.app.goo.gl/vEURBm27mFZ4pGJfA?g_st=ipc","address":"Vasilikis Papathanasiou 74, Thessaloniki 546 29","categoryIds":["fish-tavernas"],"categories":["Fish Tavernas"],"distanceKm":0.777505481987231},{"id":"cheapEatsRestaurants_2966a9f7f7df","slug":"karbouniariko-2966","kind":"restaurant","name":"Karbouniáriko","lat":40.65687885553669,"lng":22.9247874320993,"url":"https://maps.app.goo.gl/HehrRz31yKnDYNa49?g_st=ipc","address":"Nik. Plastira 11, Ampelokipi 561 23","categoryIds":["cheap-eats"],"categories":["Gyros & Cheap Eats"],"distanceKm":1.180917331532423},{"id":"coffeeBrunchRestaurants_9f516ac09de5","slug":"tsitsanki-9f51","kind":"restaurant","name":"Tsitsanki","lat":40.65105910915655,"lng":22.93545214874879,"url":"https://maps.app.goo.gl/fcosc9VFnpPap1qs5?g_st=ipc","address":"Λαγκαδά 116, Neapoli 567 27","categoryIds":["coffee-brunch"],"categories":["Coffee & Brunch Spots"],"distanceKm":1.2852019769352314},{"id":"fishTavernasRestaurants_20b8b4ae6be5","slug":"karnagio-psarotaverna-20b8","kind":"restaurant","name":"Καρνάγιο ΨΑΡΟΤΑΒΕΡΝΑ","lat":40.65672226446403,"lng":22.929289665430808,"url":"https://maps.app.goo.gl/dET6AhcimdU74KXm7?g_st=ipc","address":"Akriton 15, Ampelokipi 561 23","categoryIds":["fish-tavernas"],"categories":["Fish Tavernas"],"distanceKm":1.3097480010161615},{"id":"fishTavernasRestaurants_669c4e5a11b9","slug":"nisaki-669c","kind":"restaurant","name":"Nisaki","lat":40.656777734821844,"lng":22.92922500008805,"url":"https://maps.app.goo.gl/hvKpXiAYMeS5Y9za8?g_st=ipc","address":"Akriton 13, Ampelokipi 561 23","categoryIds":["fish-tavernas"],"categories":["Fish Tavernas"],"distanceKm":1.3123190208533617},{"id":"municipalities_e743acc9b81e","slug":"vardaris-e743","kind":"municipality","name":"Βαρδάρης","lat":40.6447,"lng":22.9381,"aliases":["Βαρδαρης"],"region":"Θεσσαλονίκη","name_en":"Vardaris","region_en":"Thessaloniki","distanceKm":1.4231406274672602},{"id":"coffeeBrunchRestaurants_dd910adc2566","slug":"beyond-the-walls-dd91","kind":"restaurant","name":"BEYOND The Walls","lat":40.63839199621431,"lng":22.934457510684794,"url":"https://maps.app.goo.gl/p8QR7tTcw9DAMN2e9?g_st=ipc","address":"Fragkon 2, Thessaloniki 546 26","categoryIds":["coffee-brunch"],"categories":["Coffee & Brunch Spots"],"distanceKm":1.427774773159587},{"id":"dessertsRestaurants_72b74e57e81d","slug":"pastelopoiion-72b7","kind":"restaurant","name":"Pastelopoiḯon","lat":40.63949021546042,"lng":22.936170041434007,"url":"https://maps.app.goo.gl/QqgTsF7F3e7rFPXh6?g_st=ipc","address":"Dodekanisou 3, Thessaloniki 546 26","categoryIds":["desserts"],"categories":["Dessert Shops"],"distanceKm":1.4731647530915177},{"id":"greekRestaurants_8f48f269fd50","slug":"koru-inspired-cuisine-8f48","kind":"restaurant","name":"KORU INSPIRED CUISINE","lat":40.6419170569474,"lng":22.93912654198058,"url":"https://maps.app.goo.gl/z6JvmY8nTC7yzJmFA?g_st=ipc","address":"Ολύμπου 15, Θεσσαλονίκη 546 30","categoryIds":["greek-restaurants"],"categories":["Greek Restaurants"],"distanceKm":1.5815669414257671},{"id":"italianRestaurants_767d6c96919e","slug":"funghi-pizza-pasta-767d","kind":"restaurant","name":"Funghi Pizza & Pasta","lat":40.6605072820276,"lng":22.9274131044966,"url":"https://maps.app.goo.gl/SJNcMHpxLNtQxnKLA?g_st=ipc","address":"Iatrou Gogousi 25, κέντρο 564 30","categoryIds":["italian"],"categories":["Italian Restaurants"],"distanceKm":1.6301273594086427},{"id":"greekRestaurants_35929975107f","slug":"tandur-meze-bar-3592","kind":"restaurant","name":"Tandur meze-bar","lat":40.65350641836204,"lng":22.93893939189117,"url":"https://maps.app.goo.gl/i8gDRLqa1MtexdZ17?g_st=ipc","address":"Αγίου Γεωργίου 42, Νεάπολη 567 27","categoryIds":["greek-restaurants"],"categories":["Greek Restaurants"],"distanceKm":1.6675557202534022},{"id":"cheapEatsRestaurants_41498834b457","slug":"crats-fried-chicken-egnatia-4149","kind":"restaurant","name":"Crats Fried Chicken Egnatia","lat":40.63898844732417,"lng":22.938638631354078,"url":"https://maps.app.goo.gl/ck9L5Pz4C9MGKVbV7?g_st=ipc","address":"Egnatia 27, Thessaloniki 546 30","categoryIds":["cheap-eats"],"categories":["Gyros & Cheap Eats"],"distanceKm":1.680249412247776},{"id":"coffeeBrunchRestaurants_1c6ae917ccf8","slug":"romantzo-1c6a","kind":"restaurant","name":"Romantzo","lat":40.637344096207045,"lng":22.93721658740342,"url":"https://maps.app.goo.gl/xTf6UJFe7tcY4vHU7?g_st=ipc","address":"Veroias 2, Thessaloniki 546 25","categoryIds":["coffee-brunch"],"categories":["Coffee & Brunch Spots"],"distanceKm":1.6824724352591716},{"id":"dessertsRestaurants_0eed40d3488f","slug":"helios-pastry-shop-0eed","kind":"restaurant","name":"Helios Pastry Shop","lat":40.639377492095335,"lng":22.93909008861793,"url":"https://maps.app.goo.gl/wxVoFxomNfq7egVX7?g_st=ipc","address":"Adigonidon 7, Thessaloniki 546 30","categoryIds":["desserts"],"categories":["Dessert Shops"],"distanceKm":1.6924273967111974},{"id":"burgersRestaurants_90d16bd5f050","slug":"pratina-burger-project-90d1","kind":"restaurant","name":"PRATINA Burger Project","lat":40.63713764523389,"lng":22.937597600102066,"url":"https://maps.app.goo.gl/rE8kgxhDvdzbh9hw7","address":"Veroias 5, Thessaloniki 546 25","categoryIds":["burgers","cheap-eats"],"categories":["Burger Spots","Gyros & Cheap Eats"],"legacySlugs":["pratina-burger-project-47ac"],"distanceKm":1.721952097016251},{"id":"burgersRestaurants_b5205e897d93","slug":"tarantino-sandwiches-fries-b520","kind":"restaurant","name":"Tarantino Sandwiches & Fries","lat":40.63667870510283,"lng":22.93716261995098,"url":"https://maps.app.goo.gl/NKZaYUsTivGGc1mU7?g_st=ipc","address":"Ernestou Emprar 5, Thessaloniki 546 25","categoryIds":["burgers"],"categories":["Burger Spots"],"distanceKm":1.7250844739440723},{"id":"asianRestaurants_8419e93bcb2d","slug":"ikigai-the-dumpling-experience-8419","kind":"restaurant","name":"Ikigai - The Dumpling Experience","lat":40.637093410026516,"lng":22.93763984161015,"url":"https://maps.app.goo.gl/zEYfCsMm5fXf8Dd78?g_st=ipc","address":"Veroias 5, Thessaloniki 546 25","categoryIds":["asian"],"categories":["Asian Restaurants"],"distanceKm":1.7277762102887357},{"id":"greekRestaurants_49d951272a6f","slug":"charoypi-49d9","kind":"restaurant","name":"Χαρούπι","lat":40.63543442383406,"lng":22.935693784240467,"url":"https://maps.app.goo.gl/Doz2MeGM9WFBW6vBA?g_st=ipc","address":"Δόξης 4, Θεσσαλονίκη 546 25","categoryIds":["greek-restaurants"],"categories":["Greek Restaurants"],"distanceKm":1.7278532408383414}],"sameRegion":[],"mentionedGuides":[],"canonicalSlug":"join-juice-bars-9b93","isCanonicalEntity":false,"enrichment":{"summary_en":"JOIN juice bars is a curated restaurant in Thessaloniki 546 27 in the Coffee & Brunch Spots collection. It is connected to 7 nearby Googlementor picks to help travelers build a stronger local route.","summary_el":"JOIN juice bars είναι ένα επιλεγμένο σημείο φαγητού στην περιοχή Thessaloniki 546 27 και ανήκει στη συλλογή Coffee & Brunch Spots. Συνδέεται με 7 κοντινές προτάσεις του Googlementor για πιο ολοκληρωμένη εμπειρία.","vibe_tags":["curated","daytime-favorite"],"best_for":["first-time visitors","food lovers"],"visit_moments":["early morning","late brunch"],"practical_note":"Address and direct map link are available for easy turn-by-turn access.","nearby_walkable_count":7,"nearby_count_2km":70,"confidence":0.98},"areaContext":{"slug":"vardaris","name":"Vardaris"},"intentContexts":[{"href":"/brunch/vardaris","label":"Coffee & Brunch Spots in Vardaris","categorySlug":"brunch","categoryName":"Coffee & Brunch Spots","areaSlug":"vardaris","areaName":"Vardaris"},{"href":"/vegetarian/vardaris","label":"Vegetarian Friendly Restaurants in Vardaris","categorySlug":"vegetarian","categoryName":"Vegetarian Friendly Restaurants","areaSlug":"vardaris","areaName":"Vardaris"}]},"__N_SSG":true}