{"pageProps":{"entity":{"id":"greekRestaurants_e8c6c63d9264","slug":"kapsoyli-e8c6","kind":"restaurant","name":"καψούλι","lat":41.116926466455745,"lng":25.401623976597524,"url":"https://maps.app.goo.gl/Z1dAApwmcfN1vv1z9?g_st=ipc","address":"Μαρώνειας 29, Κομοτηνή 691 32","categoryIds":["greek-restaurants"],"categories":["Greek Restaurants"]},"sameCategory":[{"id":"greekRestaurants_465f20138405","slug":"mezedotechnimata-465f","kind":"restaurant","name":"Mezedotechnimata","lat":41.10434218813076,"lng":24.899828458702697,"url":"https://maps.app.goo.gl/uhpur6cq4FRmH4H77?g_st=ipc","address":"Πετεινός 671 00","categoryIds":["greek-restaurants"],"categories":["Greek Restaurants"]},{"id":"greekRestaurants_4712fe0e994b","slug":"filio-4712","kind":"restaurant","name":"Filio","lat":41.131060070513215,"lng":24.896289548704306,"url":"https://maps.app.goo.gl/1p3faP8wz7aqdwVy6?g_st=ipc","address":"Xanthi 671 00","categoryIds":["greek-restaurants"],"categories":["Greek Restaurants"]},{"id":"greekRestaurants_fb7bf4ba66dc","slug":"allotino-grill-house-fb7b","kind":"restaurant","name":"Allotino - Grill House","lat":41.137361529682444,"lng":24.890010570024067,"url":"https://maps.app.goo.gl/AHRF8Wye7ZPQjHMo7?g_st=ipc","address":"Michail Karaoli 45, Xanthi 671 00","categoryIds":["greek-restaurants"],"categories":["Greek Restaurants"]},{"id":"greekRestaurants_61c89fcbc275","slug":"zesti-folia-61c8","kind":"restaurant","name":"Zesti Folia","lat":41.13899906419447,"lng":24.888177425507816,"url":"https://maps.app.goo.gl/1VBzoELGi776Qugm7?g_st=ipc","address":"Xanthi 671 00","categoryIds":["greek-restaurants"],"categories":["Greek Restaurants"]},{"id":"greekRestaurants_1834cddf4425","slug":"fanarakia-1834","kind":"restaurant","name":"Φαναράκια","lat":41.14032773851066,"lng":24.8879657823805,"url":"https://maps.app.goo.gl/y1nyTpLWQTNThXBHA?g_st=ipc","address":"Geor. Staurou 18, Xanthi 671 00","categoryIds":["greek-restaurants"],"categories":["Greek Restaurants"]},{"id":"greekRestaurants_b1f57c1f157a","slug":"xanthippi-b1f5","kind":"restaurant","name":"Ξανθίππη","lat":41.14719202764731,"lng":24.886025864538365,"url":"https://maps.app.goo.gl/2qTChTp88e8Jr9dA9?g_st=ipc","address":"1ο ΧΛΜ, Stavroupoli 671 00","categoryIds":["greek-restaurants"],"categories":["Greek Restaurants"]},{"id":"greekRestaurants_62acf7060367","slug":"strofi-sti-gefsi-62ac","kind":"restaurant","name":"Strofi sti gefsi","lat":41.138540641589884,"lng":24.88497591433977,"url":"https://maps.app.goo.gl/vZvezQfXoEwBDn1u6?g_st=ipc","address":"El. Venizelou 92, Xanthi 671 00","categoryIds":["greek-restaurants"],"categories":["Greek Restaurants"]},{"id":"greekRestaurants_a414563c8db5","slug":"agios-charalampos-taverna-a414","kind":"restaurant","name":"Άγιος Χαράλαμπος Ταβέρνα","lat":40.01545133045331,"lng":25.41273378484273,"url":"https://maps.app.goo.gl/vEMTZ2YkAnNc2a7e7?g_st=ipc","address":"Λημνος, Πλάκα 814 01","categoryIds":["greek-restaurants"],"categories":["Greek Restaurants"]},{"id":"greekRestaurants_8eab656c1491","slug":"i-eleni-8eab","kind":"restaurant","name":"Η Ελένη","lat":39.981893765467724,"lng":25.40667892238782,"url":"https://maps.app.goo.gl/DULQ8y35UGJe91Vp9?g_st=ipc","address":"Παναγία 814 01","categoryIds":["greek-restaurants"],"categories":["Greek Restaurants"]},{"id":"greekRestaurants_bcfe0c24d0b9","slug":"taverna-flomari-bcfe","kind":"restaurant","name":"Taverna Flomari","lat":39.9883429210675,"lng":25.15508018878464,"url":"https://maps.app.goo.gl/wJXUERDBm4i5UHSQ9?g_st=ipc","address":"Gomati Beach, Λήμνος 814 01","categoryIds":["greek-restaurants"],"categories":["Greek Restaurants"]},{"id":"greekRestaurants_5899d919db96","slug":"taverna-man-tella-5899","kind":"restaurant","name":"Ταβέρνα Μαν-Τέλλα","lat":39.939715902807876,"lng":25.14007617212637,"url":"https://maps.app.goo.gl/h7jXmADnqFj6jdww8?g_st=ipc","address":"Σαρδές 814 00","categoryIds":["greek-restaurants"],"categories":["Greek Restaurants"]},{"id":"greekRestaurants_207ce585e372","slug":"ennoia-po-chs-207c","kind":"restaurant","name":"Έννοια Πο'χς","lat":39.91619952692809,"lng":25.26615920965088,"url":"https://maps.app.goo.gl/Vo6exv2Lo4vvZm3q6?g_st=ipc","address":"Λύχνα 814 01","categoryIds":["greek-restaurants"],"categories":["Greek Restaurants"]}],"nearby":[{"id":"cheapEatsRestaurants_4b8e8b2c6c54","slug":"king-food-4b8e","kind":"restaurant","name":"King Food","lat":41.119343380363595,"lng":25.40306406826728,"url":"https://maps.app.goo.gl/YaQiwsqM5G144MKZ8?g_st=ipc","address":"Kilkis 12-14, Komotini 691 00","categoryIds":["cheap-eats"],"categories":["Gyros & Cheap Eats"],"distanceKm":0.2945822516032761},{"id":"municipalities_b35c4092fc93","slug":"komotini-b35c","kind":"municipality","name":"Κομοτηνή","lat":41.1236,"lng":25.412,"region":"Ανατολική Μακεδονία και Θράκη","name_en":"Komotini","region_en":"Eastern Macedonia & Thrace","distanceKm":1.1428488350257249}],"sameRegion":[],"mentionedGuides":[],"canonicalSlug":"kapsoyli-e8c6","isCanonicalEntity":true,"enrichment":{"summary_en":"καψούλι is a curated restaurant in Κομοτηνή 691 32 in the Greek Restaurants collection. It is connected to 1 nearby Googlementor picks to help travelers build a stronger local route.","summary_el":"καψούλι είναι ένα επιλεγμένο σημείο φαγητού στην περιοχή Κομοτηνή 691 32 και ανήκει στη συλλογή Greek Restaurants. Συνδέεται με 1 κοντινές προτάσεις του Googlementor για πιο ολοκληρωμένη εμπειρία.","vibe_tags":["curated"],"best_for":["first-time visitors","food lovers"],"visit_moments":["lunch stop","dinner stop"],"practical_note":"Address and direct map link are available for easy turn-by-turn access.","nearby_walkable_count":1,"nearby_count_2km":2,"confidence":0.9},"areaContext":null,"intentContexts":[]},"__N_SSG":true}