{"pageProps":{"entity":{"id":"municipalities_ddb6cfae0477","slug":"kythnos-ddb6","kind":"municipality","name":"Κύθνος","lat":37.3833,"lng":24.4167,"region":"Κυκλάδες","name_en":"Kythnos","region_en":"Cyclades"},"sameCategory":[],"nearby":[{"id":"mustSeeAttractions_e7d3f595ce74","slug":"spilaio-katafyki-e7d3","kind":"restaurant","name":"Σπήλαιο Καταφύκι","lat":37.381809266398925,"lng":24.430137129464182,"url":"https://maps.app.goo.gl/ihjdRvavpYz6Jjd5A?g_st=ipc","address":"Δρυοπίδα 840 06","categoryIds":["attractions"],"categories":["Must-See Attractions"],"distanceKm":1.1987593496314708},{"id":"coffeeBrunchRestaurants_0b65408056cb","slug":"jagger-0b65","kind":"restaurant","name":"Jagger","lat":37.382500546041285,"lng":24.430664724576324,"url":"https://maps.app.goo.gl/1vCbzZRojT45SSX8A?g_st=ipc","address":"Dryopida 840 06","categoryIds":["coffee-brunch"],"categories":["Coffee & Brunch Spots"],"distanceKm":1.2370517902125244},{"id":"greekRestaurants_432f5403f78b","slug":"chartino-karavi-432f","kind":"restaurant","name":"ΧΑΡΤΙΝΟ ΚΑΡΑΒΙ","lat":37.382790599679765,"lng":24.431004817048752,"url":"https://maps.app.goo.gl/6a5xfQQ1xwApv9Eb7?g_st=ipc","address":"Δρυοπίδα 840 06","categoryIds":["greek-restaurants"],"categories":["Greek Restaurants"],"distanceKm":1.265168670325783},{"id":"coffeeBrunchRestaurants_b5b417f95cd1","slug":"maistrali-b5b4","kind":"restaurant","name":"Maistrali","lat":37.38947704282166,"lng":24.39834020618754,"url":"https://maps.app.goo.gl/P46Mc4PY3VqCeaVF8?g_st=ipc","address":"Merihas 840 06","categoryIds":["coffee-brunch"],"categories":["Coffee & Brunch Spots"],"distanceKm":1.7615318129430035},{"id":"greekRestaurants_cf9861d9b1ba","slug":"fourles-cf98","kind":"restaurant","name":"Fourles","lat":37.38863369970779,"lng":24.397655998320165,"url":"https://maps.app.goo.gl/m4rPqMjHikQUW4So9?g_st=ipc","address":"Λιμάνι Μέριχα ΚΥΘΝΟΣ, Μεριχας 840 06","categoryIds":["greek-restaurants"],"categories":["Greek Restaurants"],"distanceKm":1.784031255787214},{"id":"coffeeBrunchRestaurants_c2c74292ab30","slug":"hamsa-beach-bar-restaurant-c2c7","kind":"restaurant","name":"Hamsa Beach Bar - Restaurant","lat":37.39312552655256,"lng":24.3982581144625,"url":"https://maps.app.goo.gl/atz6NCMG1oEDawJu9?g_st=ipc","address":"Μαρτινακια Κυθνος, 840 06","categoryIds":["coffee-brunch"],"categories":["Coffee & Brunch Spots"],"distanceKm":1.9617184660197824},{"id":"dessertsRestaurants_1f27ca8b7f3d","slug":"gigil-1f27","kind":"restaurant","name":"gigil","lat":37.41243516402313,"lng":24.430965794947877,"url":"https://maps.app.goo.gl/g3BuCBsD757ceaUU6?g_st=ipc","address":"Κύθνος 840 06","categoryIds":["desserts"],"categories":["Dessert Shops"],"distanceKm":3.4761550486498236},{"id":"greekRestaurants_4500da731c6a","slug":"to-steki-toy-ntetzi-4500","kind":"restaurant","name":"Το Στέκι του Ντέτζη","lat":37.412472796893596,"lng":24.43096202247223,"url":"https://maps.app.goo.gl/s21k1zGHkiQiQg4s7?g_st=ipc","address":"Κύθνος 840 06","categoryIds":["greek-restaurants"],"categories":["Greek Restaurants"],"distanceKm":3.4799345206627055},{"id":"coffeeBrunchRestaurants_e658f493120b","slug":"sourloulou-kythnos-e658","kind":"restaurant","name":"Sourloulou Kythnos","lat":37.41243148353528,"lng":24.43143339817302,"url":"https://maps.app.goo.gl/FGzjfcUPBsXsNNqj9?g_st=ipc","address":"Θεολόγος, Kithnos 840 06","categoryIds":["coffee-brunch"],"categories":["Coffee & Brunch Spots"],"distanceKm":3.4909624411547138},{"id":"coffeeBrunchRestaurants_aa05248e4e74","slug":"apokalipsi-kythnos-aa05","kind":"restaurant","name":"Apokalipsi Kythnos","lat":37.4124761463021,"lng":24.431457541279233,"url":"https://maps.app.goo.gl/AbpuvqbsTCXHg2oa7?g_st=ipc","address":"Κυκλαδες, Kithnos 840 06","categoryIds":["coffee-brunch"],"categories":["Coffee & Brunch Spots"],"distanceKm":3.4963656497880935},{"id":"coffeeBrunchRestaurants_b37184d12246","slug":"margiora-b371","kind":"restaurant","name":"Margiora","lat":37.412930533564115,"lng":24.430074872526156,"url":"https://maps.app.goo.gl/6LXk9Z8yUCSVckb96?g_st=ipc","address":"Κύθνος 840 06","categoryIds":["coffee-brunch"],"categories":["Coffee & Brunch Spots"],"distanceKm":3.5002017787799327},{"id":"greekRestaurants_3ecbeb295bc4","slug":"giagia-koykoy-kythnos-3ecb","kind":"restaurant","name":"ΓΙΑΓΙΑ ΚΟΥΚΟΥ Kythnos","lat":37.41258086001589,"lng":24.43247179288349,"url":"https://maps.app.goo.gl/9L488c2BBbXHP1Yz9?g_st=ipc","address":"Ανεμομυλος, Κύθνος 840 06","categoryIds":["greek-restaurants"],"categories":["Greek Restaurants"],"distanceKm":3.541452479573085},{"id":"fishTavernasRestaurants_3dad4b7d5b53","slug":"arodou-seafood-taverna-3dad","kind":"restaurant","name":"Arodou Seafood Taverna","lat":37.39685622322288,"lng":24.459369243856617,"url":"https://maps.app.goo.gl/LBNaRdz7e7zbNDVz5?g_st=ipc","address":"Unnamed Road, Kithnos 840 06","categoryIds":["fish-tavernas"],"categories":["Fish Tavernas"],"distanceKm":4.059889292707533},{"id":"greekRestaurants_a37bbb119452","slug":"archipelagos-restaurant-rooms-a37b","kind":"restaurant","name":"Archipelagos Restaurant & Rooms","lat":37.34777052448201,"lng":24.434798293695515,"url":"https://maps.app.goo.gl/KodGYY1d4Cqjk63n9?g_st=ipc","address":"Κανάλα 840 06","categoryIds":["greek-restaurants"],"categories":["Greek Restaurants"],"distanceKm":4.262186731339278},{"id":"greekRestaurants_463de52b148c","slug":"restaurant-cafe-manjavinos-463d","kind":"restaurant","name":"Restaurant-cafe 'MANJAVINOS'","lat":37.34603270151496,"lng":24.430502124554476,"url":"https://maps.app.goo.gl/nHY3UgamjzyyjZF98?g_st=ipc","address":"Unnamed Road, Κανάλα 840 06","categoryIds":["greek-restaurants"],"categories":["Greek Restaurants"],"distanceKm":4.319729752052013},{"id":"greekRestaurants_df3695f3e140","slug":"koytsikos-estiatorio-df36","kind":"restaurant","name":"Κούτσικος - Εστιατόριο","lat":37.436774168152716,"lng":24.424568422123198,"url":"https://maps.app.goo.gl/PTJMDf8CPhT12on69?g_st=ipc","address":"37°26'11.4\"N 24°25'28., 1, Σιντική 623 00","categoryIds":["greek-restaurants"],"categories":["Greek Restaurants"],"distanceKm":5.986531370348479},{"id":"fishTavernasRestaurants_b7db512b75ba","slug":"arias-restaurant-kythnos-b7db","kind":"restaurant","name":"Arias restaurant Kythnos","lat":37.43805920967631,"lng":24.433681333413276,"url":"https://maps.app.goo.gl/GWWwUXx8q4vncoUU7?g_st=ipc","address":"Unnamed Road, Ag. Irini, Kithnos 840 06","categoryIds":["fish-tavernas"],"categories":["Fish Tavernas"],"distanceKm":6.270945475831918},{"id":"greekRestaurants_ec533605b182","slug":"to-akrogiali-ec53","kind":"restaurant","name":"Το Ακρογιάλι","lat":37.311210551504175,"lng":24.374424292363123,"url":"https://maps.app.goo.gl/iE2gh5mtyHCHtnZs7","address":"Αγ. Δημήτριος 840 06","categoryIds":["greek-restaurants"],"categories":["Greek Restaurants"],"distanceKm":8.844289638785352},{"id":"greekRestaurants_792b73e9842d","slug":"o-milas-estiatorio-792b","kind":"restaurant","name":"Ο ΜΗΛΑΣ ΕΣΤΙΑΤΟΡΙΟ","lat":37.31063309409623,"lng":24.373887108876595,"url":"https://maps.app.goo.gl/ZFv4HFHAU9qj4ohD7?g_st=ipc","address":"ΑΓΙΟΣ ΔΗΜΗΤΡΙΟΣ, Αγ. Δημήτριος 840 06","categoryIds":["greek-restaurants"],"categories":["Greek Restaurants"],"distanceKm":8.922571096754876},{"id":"wineriesVineyards_659a4688a423","slug":"oinopoieio-chrysolora-659a","kind":"restaurant","name":"Οινοποιείο Χρυσολωρά","lat":37.186843478967006,"lng":24.50813577853972,"url":"https://maps.app.goo.gl/Mb44SR4hNKDDndUD6?g_st=ipc","address":"Φλάσκος - Προφήτης Ηλίας, Σέριφος 840 05","categoryIds":["wineries-vineyards"],"categories":["Wineries & Vineyards"],"distanceKm":23.294631725229014},{"id":"municipalities_402e7912632b","slug":"serifos-402e","kind":"municipality","name":"Σέριφος","lat":37.1537,"lng":24.5197,"aliases":["Σεριφος"],"region":"Κυκλάδες","name_en":"Serifos","region_en":"Cyclades","distanceKm":27.108515705969296},{"id":"fishTavernasRestaurants_8969975257d9","slug":"kalis-seafood-restaurant-8969","kind":"restaurant","name":"Kalis Seafood Restaurant","lat":37.142642900528166,"lng":24.514223256740497,"url":"https://maps.app.goo.gl/tQ8KG4SFF8YgjTwr9?g_st=ipc","address":"Λιβάδι 840 05","categoryIds":["fish-tavernas"],"categories":["Fish Tavernas"],"distanceKm":28.117139734083906},{"id":"municipalities_6d137de68b2c","slug":"kea-6d13","kind":"municipality","name":"Κέα","lat":37.6333,"lng":24.3333,"aliases":["Kea","Keios","Κέιος","Κεα"],"region":"Κυκλάδες","name_en":"Kea","region_en":"Cyclades","distanceKm":28.75564072745434},{"id":"greekRestaurants_68a9f7400481","slug":"to-steki-68a9","kind":"restaurant","name":"Το Στέκι","lat":37.64076026825118,"lng":24.343071921982645,"url":"https://maps.app.goo.gl/Jg5K19uN9xk81De17?g_st=ipc","address":"Ιουλίδα, Κέα 840 02","categoryIds":["greek-restaurants"],"categories":["Greek Restaurants"],"distanceKm":29.355621161698085}],"sameRegion":[{"id":"municipalities_094e7414e11a","slug":"mykonos-094e","kind":"municipality","name":"Μύκονος","lat":37.4467,"lng":25.3289,"aliases":["Mikonos","Μύκονα","Μυκονος","Mykonos","Myconos"],"region":"Κυκλάδες","name_en":"Mykonos","region_en":"Cyclades"},{"id":"municipalities_10c41fed1584","slug":"syros-10c4","kind":"municipality","name":"Σύρος","lat":37.4442,"lng":24.9428,"aliases":["Syros","Siros","Σύρα","Συρος","Συρο"],"region":"Κυκλάδες","name_en":"Syros","region_en":"Cyclades"},{"id":"municipalities_27d97a869977","slug":"schoinoysa-27d9","kind":"municipality","name":"Σχοινούσα","lat":36.8667,"lng":25.5167,"region":"Κυκλάδες","name_en":"Schinoussa","region_en":"Cyclades"},{"id":"municipalities_3cbd90a19d63","slug":"andros-3cbd","kind":"municipality","name":"Άνδρος","lat":37.8333,"lng":24.9333,"region":"Κυκλάδες","name_en":"Andros","region_en":"Cyclades"},{"id":"municipalities_402e7912632b","slug":"serifos-402e","kind":"municipality","name":"Σέριφος","lat":37.1537,"lng":24.5197,"aliases":["Σεριφος"],"region":"Κυκλάδες","name_en":"Serifos","region_en":"Cyclades"},{"id":"municipalities_444e7b37bb5a","slug":"koyfonisi-444e","kind":"municipality","name":"Κουφονήσι","lat":36.9333,"lng":25.6,"region":"Κυκλάδες","name_en":"Koufonisia","region_en":"Cyclades"},{"id":"municipalities_56cba484379e","slug":"anafi-56cb","kind":"municipality","name":"Ανάφη","lat":36.35,"lng":25.7667,"region":"Κυκλάδες","name_en":"Anafi","region_en":"Cyclades"},{"id":"municipalities_5b32b43e93f7","slug":"santorini-5b32","kind":"municipality","name":"Σαντορίνη","lat":36.3932,"lng":25.4615,"aliases":["Thira","Thera","Santorin","Σαντορίνα","Σαντορινη","Θήρα","Θηρα"],"region":"Κυκλάδες","name_en":"Santorini","region_en":"Cyclades"},{"id":"municipalities_6d137de68b2c","slug":"kea-6d13","kind":"municipality","name":"Κέα","lat":37.6333,"lng":24.3333,"aliases":["Kea","Keios","Κέιος","Κεα"],"region":"Κυκλάδες","name_en":"Kea","region_en":"Cyclades"},{"id":"municipalities_72366b2ec926","slug":"sifnos-7236","kind":"municipality","name":"Σίφνος","lat":36.9717,"lng":24.7036,"aliases":["Σιφνος"],"region":"Κυκλάδες","name_en":"Sifnos","region_en":"Cyclades"},{"id":"municipalities_7b6436cb2406","slug":"sikinos-7b64","kind":"municipality","name":"Σίκινος","lat":36.6833,"lng":25.1333,"region":"Κυκλάδες","name_en":"Sikinos","region_en":"Cyclades"},{"id":"municipalities_7f2e13a4b7d2","slug":"donoysa-7f2e","kind":"municipality","name":"Δονούσα","lat":37.1,"lng":25.8,"region":"Κυκλάδες","name_en":"Donousa","region_en":"Cyclades"},{"id":"municipalities_8e551d6fe098","slug":"irakleia-8e55","kind":"municipality","name":"Ηρακλειά","lat":36.8333,"lng":25.45,"region":"Κυκλάδες","name_en":"Heraklia","region_en":"Cyclades"},{"id":"municipalities_9268ba4d6ee8","slug":"paros-9268","kind":"municipality","name":"Πάρος","lat":37.085,"lng":25.15,"aliases":["Paros","Πάριος","Παρος"],"region":"Κυκλάδες","name_en":"Paros","region_en":"Cyclades"},{"id":"municipalities_927aa23a9fc7","slug":"kimolos-927a","kind":"municipality","name":"Κίμωλος","lat":36.7783,"lng":24.575,"aliases":["Κιμωλος"],"region":"Κυκλάδες","name_en":"Kimolos","region_en":"Cyclades"},{"id":"municipalities_b0831f971d7e","slug":"folegandros-b083","kind":"municipality","name":"Φολέγανδρος","lat":36.6167,"lng":24.9167,"aliases":["Φολεγανδρος"],"region":"Κυκλάδες","name_en":"Folegandros","region_en":"Cyclades"}],"mentionedGuides":[],"canonicalSlug":"kythnos-ddb6","isCanonicalEntity":true,"enrichment":{"summary_en":"Κύθνος is a curated neighborhood area in Κυκλάδες. It is connected to 0 nearby Googlementor picks to help travelers build a stronger local route.","summary_el":"Κύθνος είναι ένα επιλεγμένο σημείο ενδιαφέροντος στην περιοχή Κυκλάδες. Συνδέεται με 0 κοντινές προτάσεις του Googlementor για πιο ολοκληρωμένη εμπειρία.","vibe_tags":["local-neighborhood","base-for-exploring"],"best_for":["first-time visitors","walk-and-explore days","return visitors"],"visit_moments":["late morning walks","sunset exploration"],"practical_note":"0 curated places are within walkable distance from this area center.","nearby_walkable_count":0,"nearby_count_2km":6,"confidence":0.55},"areaContext":{"slug":"kythnos","name":"Kythnos"},"intentContexts":[]},"__N_SSG":true}