{"pageProps":{"entity":{"id":"municipalities_bb0eaebef589","slug":"leonidio-bb0e","kind":"municipality","name":"Λεωνίδιο","lat":37.167,"lng":22.85,"region":"Αρκαδία","name_en":"Leonidio","region_en":"Arcadia"},"sameCategory":[],"nearby":[{"id":"municipalities_ae8cab121b61","slug":"tripoli-ae8c","kind":"municipality","name":"Τρίπολη","lat":37.5099,"lng":22.3794,"aliases":["Τριπολη"],"region":"Αρκαδία","name_en":"Tripoli","region_en":"Arcadia","distanceKm":56.433309586438135},{"id":"municipalities_27f1dfa74ddf","slug":"megalopoli-27f1","kind":"municipality","name":"Μεγαλόπολη","lat":37.403,"lng":22.142,"region":"Αρκαδία","name_en":"Megalopoli","region_en":"Arcadia","distanceKm":67.91167309796829},{"id":"municipalities_9871842f9b03","slug":"stemnitsa-9871","kind":"municipality","name":"Στεμνίτσα","lat":37.5381,"lng":22.0706,"aliases":["Στεμνιτσα"],"region":"Αρκαδία","name_en":"Stemnitsa","region_en":"Arcadia","distanceKm":80.30415559810326},{"id":"municipalities_0476aca6edd0","slug":"dimitsana-0476","kind":"municipality","name":"Δημητσάνα","lat":37.5958,"lng":22.0431,"aliases":["Δημητσανα"],"region":"Αρκαδία","name_en":"Dimitsana","region_en":"Arcadia","distanceKm":85.76895630497542}],"sameRegion":[{"id":"municipalities_0476aca6edd0","slug":"dimitsana-0476","kind":"municipality","name":"Δημητσάνα","lat":37.5958,"lng":22.0431,"aliases":["Δημητσανα"],"region":"Αρκαδία","name_en":"Dimitsana","region_en":"Arcadia"},{"id":"municipalities_27f1dfa74ddf","slug":"megalopoli-27f1","kind":"municipality","name":"Μεγαλόπολη","lat":37.403,"lng":22.142,"region":"Αρκαδία","name_en":"Megalopoli","region_en":"Arcadia"},{"id":"municipalities_9871842f9b03","slug":"stemnitsa-9871","kind":"municipality","name":"Στεμνίτσα","lat":37.5381,"lng":22.0706,"aliases":["Στεμνιτσα"],"region":"Αρκαδία","name_en":"Stemnitsa","region_en":"Arcadia"},{"id":"municipalities_ae8cab121b61","slug":"tripoli-ae8c","kind":"municipality","name":"Τρίπολη","lat":37.5099,"lng":22.3794,"aliases":["Τριπολη"],"region":"Αρκαδία","name_en":"Tripoli","region_en":"Arcadia"}],"mentionedGuides":[],"canonicalSlug":"leonidio-bb0e","isCanonicalEntity":true,"enrichment":{"summary_en":"Λεωνίδιο is a curated neighborhood area in Αρκαδία. It is connected to 0 nearby Googlementor picks to help travelers build a stronger local route.","summary_el":"Λεωνίδιο είναι ένα επιλεγμένο σημείο ενδιαφέροντος στην περιοχή Αρκαδία. Συνδέεται με 0 κοντινές προτάσεις του Googlementor για πιο ολοκληρωμένη εμπειρία.","vibe_tags":["local-neighborhood","base-for-exploring"],"best_for":["first-time visitors","walk-and-explore days","return visitors"],"visit_moments":["late morning walks","sunset exploration"],"practical_note":"0 curated places are within walkable distance from this area center.","nearby_walkable_count":0,"nearby_count_2km":0,"confidence":0.55},"areaContext":null,"intentContexts":[]},"__N_SSG":true}