{"pageProps":{"entity":{"id":"greekRestaurants_157599a160bf","slug":"loykaki-xana-1575","kind":"restaurant","name":"Λουκακη ξανά","lat":36.905937102929585,"lng":25.996147144494767,"url":"https://maps.app.goo.gl/NuFZSR1qmSHyPK8o9?g_st=ipc","address":"Lagkada kaminaki, Λαγκάδα 840 08","categoryIds":["greek-restaurants"],"categories":["Greek Restaurants"]},"sameCategory":[{"id":"greekRestaurants_3d0cf30d6db4","slug":"taverna-o-nikos-3d0c","kind":"restaurant","name":"Ταβέρνα ο Νίκος","lat":36.905852710685856,"lng":25.99753414716498,"url":"https://maps.app.goo.gl/YuCx2QjnBWhU51L28?g_st=ipc","address":"Amorgos(Aegiali, Κατάπολα 840 08","categoryIds":["greek-restaurants"],"categories":["Greek Restaurants"]},{"id":"greekRestaurants_c0a6e0720e97","slug":"loydaros-taverna-c0a6","kind":"restaurant","name":"Λουδάρος Ταβέρνα","lat":36.906368588133276,"lng":25.997981507339322,"url":"https://maps.app.goo.gl/tSoCWYgeceicNCo67?g_st=ipc","address":"Λαγκάδα 840 08","categoryIds":["greek-restaurants"],"categories":["Greek Restaurants"]},{"id":"greekRestaurants_06432e64b492","slug":"taverna-to-panorama-0643","kind":"restaurant","name":"Ταβέρνα το Πανόραμα","lat":36.9174171661152,"lng":25.984684970241798,"url":"https://maps.app.goo.gl/DCLfAnauNS1Ji5Wc8?g_st=ipc","address":"Θολάρια 840 08","categoryIds":["greek-restaurants"],"categories":["Greek Restaurants"]},{"id":"greekRestaurants_d31023546146","slug":"kali-kardia-kafeoyzomezedopoleio-d310","kind":"restaurant","name":"Καλή Καρδιά - Καφεουζομεζεδοπωλείο","lat":36.917331887831665,"lng":25.98375725217952,"url":"https://maps.app.goo.gl/GnAK7zv61PBEP4Kv5?g_st=ipc","address":"Θολάρια 840 08","categoryIds":["greek-restaurants"],"categories":["Greek Restaurants"]},{"id":"greekRestaurants_4c848985d221","slug":"magiasi-4c84","kind":"restaurant","name":"Μαγιάσι","lat":36.831832905496256,"lng":25.899580231122016,"url":"https://maps.app.goo.gl/9Hs7jmTaUVVySR3V6?g_st=ipc","address":"Ano plateaki 840 08","categoryIds":["greek-restaurants"],"categories":["Greek Restaurants"]},{"id":"greekRestaurants_d5207c2cea1d","slug":"armparoriza-d520","kind":"restaurant","name":"Aρμπαρόριζα","lat":36.83126528874217,"lng":25.899780664474996,"url":"https://maps.app.goo.gl/t6VhmiWHapwM9cy88?g_st=ipc","address":"ΧΩΡΑ ΑΜΟΡΓΟΣ ΚΥΚΛΑΔΕΣ, ΑΜΟΡΓΟΣ ΧΩΡΑ 840 08","categoryIds":["greek-restaurants"],"categories":["Greek Restaurants"]},{"id":"greekRestaurants_47770432a20a","slug":"kastanis-estiatorio-4777","kind":"restaurant","name":"Καστάνης Εστιατόριο","lat":36.83158752520646,"lng":25.898124106946245,"url":"https://maps.app.goo.gl/HGPYt5HhJh8iT4G56?g_st=ipc","address":"Χώρα 840 08","categoryIds":["greek-restaurants"],"categories":["Greek Restaurants"]},{"id":"greekRestaurants_988a85889bca","slug":"tranzistoraki-988a","kind":"restaurant","name":"ΤρανζισΤοΡάκι","lat":36.83158272407629,"lng":25.897896255980164,"url":"https://maps.app.goo.gl/sp5wVpBx6d45B63S8?g_st=ipc","address":"Χώρα 840 08","categoryIds":["greek-restaurants"],"categories":["Greek Restaurants"]},{"id":"greekRestaurants_3fefb3b2b9b2","slug":"mpyr-zolaki-3fef","kind":"restaurant","name":"Μπυρ...ζολάκι","lat":36.83162335048387,"lng":25.897767804584305,"url":"https://maps.app.goo.gl/qnA3672RAyo5iyaZ9?g_st=ipc","address":"Amorgos island, Χώρα 840 08","categoryIds":["greek-restaurants"],"categories":["Greek Restaurants"]},{"id":"greekRestaurants_b0d37034cad9","slug":"liotrivi-estiatorio-kafe-mpar-b0d3","kind":"restaurant","name":"Λιοτρίβι εστιατόριο καφέ μπαρ","lat":36.83150696646691,"lng":25.89638993777969,"url":"https://maps.app.goo.gl/CYARdJ4AMpe1LegF8?g_st=ipc","address":"ΑΜΟΡΓΟΣ ΧΩΡΑ ΧΩΡΑ, ΑΜΟΡΓΟΥ 840 08","categoryIds":["greek-restaurants"],"categories":["Greek Restaurants"]},{"id":"greekRestaurants_b17830ed7512","slug":"fata-morgana-amorgos-est-2022-b178","kind":"restaurant","name":"Fata Morgana - Amorgos (est. 2022)","lat":36.831448706178094,"lng":25.864214040888726,"url":"https://maps.app.goo.gl/z4Un87D7stMZaFHp7?g_st=ipc","address":"Ξυλοκερατίδι 840 08","categoryIds":["greek-restaurants"],"categories":["Greek Restaurants"]},{"id":"greekRestaurants_4a408ca96f0f","slug":"giorgalinis-4a40","kind":"restaurant","name":"Γιωργαλίνης","lat":36.79866266620689,"lng":25.81985305918722,"url":"https://maps.app.goo.gl/BHKAVy4JM8FKJLZr9?g_st=ipc","address":"Βρούτσης 840 08","categoryIds":["greek-restaurants"],"categories":["Greek Restaurants"]}],"nearby":[{"id":"greekRestaurants_3d0cf30d6db4","slug":"taverna-o-nikos-3d0c","kind":"restaurant","name":"Ταβέρνα ο Νίκος","lat":36.905852710685856,"lng":25.99753414716498,"url":"https://maps.app.goo.gl/YuCx2QjnBWhU51L28?g_st=ipc","address":"Amorgos(Aegiali, Κατάπολα 840 08","categoryIds":["greek-restaurants"],"categories":["Greek Restaurants"],"distanceKm":0.12368047455164444},{"id":"greekRestaurants_c0a6e0720e97","slug":"loydaros-taverna-c0a6","kind":"restaurant","name":"Λουδάρος Ταβέρνα","lat":36.906368588133276,"lng":25.997981507339322,"url":"https://maps.app.goo.gl/tSoCWYgeceicNCo67?g_st=ipc","address":"Λαγκάδα 840 08","categoryIds":["greek-restaurants"],"categories":["Greek Restaurants"],"distanceKm":0.17001056204120715},{"id":"coffeeBrunchRestaurants_fa8dbaffc7b9","slug":"pergalidi-fa8d","kind":"restaurant","name":"Pergalídi","lat":36.9063101851879,"lng":25.998609552916683,"url":"https://maps.app.goo.gl/JbLEpGNTnyAChWqY7?g_st=ipc","address":"Lagada 840 08","categoryIds":["coffee-brunch"],"categories":["Coffee & Brunch Spots"],"distanceKm":0.22283753754519287},{"id":"fishTavernasRestaurants_b4d1c19f6fe6","slug":"askas-restaurant-b4d1","kind":"restaurant","name":"Askas Restaurant","lat":36.90689335338981,"lng":25.97877118696508,"url":"https://maps.app.goo.gl/aQ4u4RqjucDESjM66?g_st=ipc","address":"Epar.Od. Katapola-Thalarias, Paralia Tholarion 840 08","categoryIds":["fish-tavernas"],"categories":["Fish Tavernas"],"distanceKm":1.5486101968931423},{"id":"greekRestaurants_06432e64b492","slug":"taverna-to-panorama-0643","kind":"restaurant","name":"Ταβέρνα το Πανόραμα","lat":36.9174171661152,"lng":25.984684970241798,"url":"https://maps.app.goo.gl/DCLfAnauNS1Ji5Wc8?g_st=ipc","address":"Θολάρια 840 08","categoryIds":["greek-restaurants"],"categories":["Greek Restaurants"],"distanceKm":1.6334076054232651},{"id":"coffeeBrunchRestaurants_23961ab696ae","slug":"seladi-cafe-bar-2396","kind":"restaurant","name":"Seladi cafe bar","lat":36.91575288586461,"lng":25.98223632900659,"url":"https://maps.app.goo.gl/K7ieijzQ2tNdrR3y5?g_st=ipc","address":"Epar.Od. Katapola-Thalarias, Lagada 840 08","categoryIds":["coffee-brunch"],"categories":["Coffee & Brunch Spots"],"distanceKm":1.649526071386434},{"id":"greekRestaurants_d31023546146","slug":"kali-kardia-kafeoyzomezedopoleio-d310","kind":"restaurant","name":"Καλή Καρδιά - Καφεουζομεζεδοπωλείο","lat":36.917331887831665,"lng":25.98375725217952,"url":"https://maps.app.goo.gl/GnAK7zv61PBEP4Kv5?g_st=ipc","address":"Θολάρια 840 08","categoryIds":["greek-restaurants"],"categories":["Greek Restaurants"],"distanceKm":1.6789321387966014},{"id":"cheapEatsRestaurants_45215b23c30d","slug":"bloom-brothers-canteen-4521","kind":"restaurant","name":"Bloom Brothers canteen","lat":36.90173482477818,"lng":25.977068594760553,"url":"https://maps.app.goo.gl/JYSXRpKjkMx7aNHS7?g_st=ipc","address":"Λιμάνι, Lagada 840 08","categoryIds":["cheap-eats"],"categories":["Gyros & Cheap Eats"],"distanceKm":1.759574612574918},{"id":"vegetarianRestaurants_fcbe4baf2c7e","slug":"falafel-fcbe","kind":"restaurant","name":"Falafel","lat":36.90090309185306,"lng":25.976584244849658,"url":"https://maps.app.goo.gl/aKeeZyXVaADfNUQU9?g_st=ipc","address":"Ormos Egialis 840 08","categoryIds":["vegetarian"],"categories":["Vegetarian Friendly Restaurants"],"distanceKm":1.8273179632493182},{"id":"fishTavernasRestaurants_66fa6dbae79f","slug":"amorgialos-66fa","kind":"restaurant","name":"Amorgialos","lat":36.90135301074789,"lng":25.97627688507805,"url":"https://maps.app.goo.gl/XzSf26up7JduLUrV9?g_st=ipc","address":"αιγιαλη, αμοργος 840 08","categoryIds":["fish-tavernas"],"categories":["Fish Tavernas"],"distanceKm":1.8388562348521444},{"id":"fishTavernasRestaurants_da1220f4c7c3","slug":"limani-restaurant-da12","kind":"restaurant","name":"Limani Restaurant","lat":36.901162221052765,"lng":25.976288792173918,"url":"https://maps.app.goo.gl/CFKDV9FzeK4koTmt5?g_st=ipc","address":"Αιγιάλη 840 08","categoryIds":["fish-tavernas"],"categories":["Fish Tavernas"],"distanceKm":1.8438377586451533},{"id":"coffeeBrunchRestaurants_7ba1b6bfb809","slug":"embassa-cafe-bar-7ba1","kind":"restaurant","name":"embassa cafe bar","lat":36.901100293710016,"lng":25.976110975169213,"url":"https://maps.app.goo.gl/EQeLPXrV9KJNt6Ut5?g_st=ipc","address":"Aigiali, Ormos Egialis 840 08","categoryIds":["coffee-brunch"],"categories":["Coffee & Brunch Spots"],"distanceKm":1.8609636514667742},{"id":"mustSeeAttractions_3720c0633a0c","slug":"holy-monastery-of-the-virgin-mary-chozoviotissa-3720","kind":"restaurant","name":"Holy Monastery of the Virgin Mary Chozoviotissa","lat":36.834565267585596,"lng":25.909512235575725,"url":"https://maps.app.goo.gl/v6AEM7JEAUPMzrvP7?g_st=ipc","address":"Amorgos 840 08","categoryIds":["attractions"],"categories":["Must-See Attractions"],"distanceKm":11.06234796638907},{"id":"municipalities_b6a30a076a6a","slug":"amorgos-b6a3","kind":"municipality","name":"Αμοργός","lat":36.8333,"lng":25.9,"region":"Κυκλάδες","name_en":"Amorgos","region_en":"Cyclades","distanceKm":11.76383692537482},{"id":"greekRestaurants_4c848985d221","slug":"magiasi-4c84","kind":"restaurant","name":"Μαγιάσι","lat":36.831832905496256,"lng":25.899580231122016,"url":"https://maps.app.goo.gl/9Hs7jmTaUVVySR3V6?g_st=ipc","address":"Ano plateaki 840 08","categoryIds":["greek-restaurants"],"categories":["Greek Restaurants"],"distanceKm":11.903413291516664},{"id":"luxuryDiningRestaurants_da6f148eb7d8","slug":"apospero-da6f","kind":"restaurant","name":"Apospero","lat":36.83183844559143,"lng":25.899499966261363,"url":"https://maps.app.goo.gl/j3TAqCiUnajPnQUUA?g_st=ipc","address":"Χώρα 840 08","categoryIds":["luxury-dining"],"categories":["Luxury Dining"],"distanceKm":11.908140647110322},{"id":"greekRestaurants_d5207c2cea1d","slug":"armparoriza-d520","kind":"restaurant","name":"Aρμπαρόριζα","lat":36.83126528874217,"lng":25.899780664474996,"url":"https://maps.app.goo.gl/t6VhmiWHapwM9cy88?g_st=ipc","address":"ΧΩΡΑ ΑΜΟΡΓΟΣ ΚΥΚΛΑΔΕΣ, ΑΜΟΡΓΟΣ ΧΩΡΑ 840 08","categoryIds":["greek-restaurants"],"categories":["Greek Restaurants"],"distanceKm":11.93440069117026},{"id":"italianRestaurants_f73393157432","slug":"pizza-petrino-f733","kind":"restaurant","name":"Pizza Petrino","lat":36.83162048389455,"lng":25.898532535817935,"url":"https://maps.app.goo.gl/BxpBdgAak6UKLRYL7?g_st=ipc","address":"Χώρα 840 08","categoryIds":["italian"],"categories":["Italian Restaurants"],"distanceKm":11.987126266459464},{"id":"dessertsRestaurants_2726c61e3f6e","slug":"mikraki-gelato-2726","kind":"restaurant","name":"Μικράκι gelato","lat":36.83144131849213,"lng":25.898487086486654,"url":"https://maps.app.goo.gl/QD97vczb4ZtE7gzR9?g_st=ipc","address":"Χώρα 840 08","categoryIds":["desserts"],"categories":["Dessert Shops"],"distanceKm":12.003802015002742},{"id":"greekRestaurants_47770432a20a","slug":"kastanis-estiatorio-4777","kind":"restaurant","name":"Καστάνης Εστιατόριο","lat":36.83158752520646,"lng":25.898124106946245,"url":"https://maps.app.goo.gl/HGPYt5HhJh8iT4G56?g_st=ipc","address":"Χώρα 840 08","categoryIds":["greek-restaurants"],"categories":["Greek Restaurants"],"distanceKm":12.01599450136261},{"id":"coffeeBrunchRestaurants_15f758934efb","slug":"jazzmin-15f7","kind":"restaurant","name":"Jazzmin","lat":36.83137874729602,"lng":25.898307325862916,"url":"https://maps.app.goo.gl/YcQVqpGJyQtWEuk59?g_st=ipc","address":"Χώρα 840 08","categoryIds":["coffee-brunch"],"categories":["Coffee & Brunch Spots"],"distanceKm":12.020180645148182},{"id":"greekRestaurants_988a85889bca","slug":"tranzistoraki-988a","kind":"restaurant","name":"ΤρανζισΤοΡάκι","lat":36.83158272407629,"lng":25.897896255980164,"url":"https://maps.app.goo.gl/sp5wVpBx6d45B63S8?g_st=ipc","address":"Χώρα 840 08","categoryIds":["greek-restaurants"],"categories":["Greek Restaurants"],"distanceKm":12.031078607414402},{"id":"greekRestaurants_3fefb3b2b9b2","slug":"mpyr-zolaki-3fef","kind":"restaurant","name":"Μπυρ...ζολάκι","lat":36.83162335048387,"lng":25.897767804584305,"url":"https://maps.app.goo.gl/qnA3672RAyo5iyaZ9?g_st=ipc","address":"Amorgos island, Χώρα 840 08","categoryIds":["greek-restaurants"],"categories":["Greek Restaurants"],"distanceKm":12.036278703979237},{"id":"dessertsRestaurants_4247bc679f6e","slug":"kallisto-4247","kind":"restaurant","name":"Kallisto","lat":36.83193327608509,"lng":25.897182643444378,"url":"https://maps.app.goo.gl/zxMDWyaDa8oTgjvt6?g_st=ipc","address":"Χώρα 840 08","categoryIds":["desserts"],"categories":["Dessert Shops"],"distanceKm":12.050608161439303}],"sameRegion":[],"mentionedGuides":[],"canonicalSlug":"loykaki-xana-1575","isCanonicalEntity":true,"enrichment":{"summary_en":"Λουκακη ξανά is a curated restaurant in Λαγκάδα 840 08 in the Greek Restaurants collection. It is connected to 3 nearby Googlementor picks to help travelers build a stronger local route.","summary_el":"Λουκακη ξανά είναι ένα επιλεγμένο σημείο φαγητού στην περιοχή Λαγκάδα 840 08 και ανήκει στη συλλογή Greek Restaurants. Συνδέεται με 3 κοντινές προτάσεις του Googlementor για πιο ολοκληρωμένη εμπειρία.","vibe_tags":["curated"],"best_for":["first-time visitors","food lovers"],"visit_moments":["lunch stop","dinner stop"],"practical_note":"Address and direct map link are available for easy turn-by-turn access.","nearby_walkable_count":3,"nearby_count_2km":12,"confidence":0.9},"areaContext":null,"intentContexts":[]},"__N_SSG":true}