{"pageProps":{"entity":{"id":"fishTavernasRestaurants_4ce059d48e50","slug":"lsandsia-4ce0","kind":"restaurant","name":"lsandsia","lat":37.97936959687578,"lng":23.725957904871184,"url":"https://maps.app.goo.gl/VGsVN7MnXG9J2joA7?g_st=ipc","address":"Μελανθίου 2, Αθήνα 105 54","categoryIds":["fish-tavernas"],"categories":["Fish Tavernas"]},"sameCategory":[{"id":"fishTavernasRestaurants_258b48244975","slug":"linoy-soympasis-kai-sia-258b","kind":"restaurant","name":"ΛΙΝΟΥ ΣΟΥΜΠΑΣΗΣ ΚΑΙ ΣΙΑ","lat":37.97931845245544,"lng":23.725978511536088,"url":"https://maps.app.goo.gl/K7omqvkBiNsvXTkW8?g_st=ipc","address":"Μελανθίου 2, Αθήνα 105 54 &, Καλαμίδα 9, Αθήνα 105 54","categoryIds":["fish-tavernas"],"categories":["Fish Tavernas"]},{"id":"fishTavernasRestaurants_c043e36ec66a","slug":"nissos-seafood-tavern-c043","kind":"restaurant","name":"Nissos Seafood Tavern","lat":37.97768489940087,"lng":23.72367935167617,"url":"https://maps.app.goo.gl/zBgRFUhoxGYetbQc8?g_st=ipc","address":"Χριστοκοπίδου 1, Αθήνα 105 54","categoryIds":["fish-tavernas"],"categories":["Fish Tavernas"]},{"id":"fishTavernasRestaurants_a5c38664939e","slug":"atlantikos-a5c3","kind":"restaurant","name":"Ατλαντικός","lat":37.977418949870525,"lng":23.72294155796201,"url":"https://maps.app.goo.gl/1DKYSrvWDbxUg3YT6?g_st=ipc","address":"Αυλητών 7, Αθήνα 105 54","categoryIds":["fish-tavernas"],"categories":["Fish Tavernas"]},{"id":"fishTavernasRestaurants_96126d9ba88c","slug":"zisis-9612","kind":"restaurant","name":"Ζήσης","lat":37.97677236195616,"lng":23.729130321852065,"url":"https://maps.app.goo.gl/B6NXu9TchhZNtX1m9?g_st=ipc","address":"Αθηναΐδος 3, Αθήνα 105 63","categoryIds":["fish-tavernas"],"categories":["Fish Tavernas"]},{"id":"fishTavernasRestaurants_4f63eacbb9ca","slug":"athinaikon-4f63","kind":"restaurant","name":"Αθηναϊκόν","lat":37.97539194175071,"lng":23.731456162944593,"url":"https://maps.app.goo.gl/4i8vjPk72WB5DQgR6?g_st=ipc","address":"34, Μητροπόλεως str, Αθήνα 105 63","categoryIds":["fish-tavernas"],"categories":["Fish Tavernas"]},{"id":"fishTavernasRestaurants_2ec8563b4367","slug":"anefani-2ec8","kind":"restaurant","name":"Ανεφάνη","lat":37.973535712152035,"lng":23.727823659961384,"url":"https://maps.app.goo.gl/ZNPzCDATcCosWfhTA?g_st=ipc","address":"Μνησικλέους 24, Αθήνα 105 56","categoryIds":["fish-tavernas","rooftop-lounges"],"categories":["Fish Tavernas","Rooftop Lounges"],"legacySlugs":["anefani-d906"]},{"id":"fishTavernasRestaurants_9e5577c171da","slug":"i-stoa-allios-9e55","kind":"restaurant","name":"Η Στοά Αλλιώς","lat":37.984455169051934,"lng":23.73057480489291,"url":"https://maps.app.goo.gl/SAabW9ijLcFRSozJ6?g_st=ipc","address":"Γαμβέτα 14, Αθήνα 106 77","categoryIds":["fish-tavernas"],"categories":["Fish Tavernas"]},{"id":"fishTavernasRestaurants_94c27f69eb82","slug":"trata-94c2","kind":"restaurant","name":"ΤΡΑΤΑ","lat":37.9842462216536,"lng":23.73093735061636,"url":"https://maps.app.goo.gl/hterjoYbDhkZzWVF7?g_st=ipc","address":"Νικηταρά, Αθήνα 106 78","categoryIds":["fish-tavernas"],"categories":["Fish Tavernas"]},{"id":"fishTavernasRestaurants_f3208ead9a15","slug":"oyzeri-i-lesvos-f320","kind":"restaurant","name":"Ουζερί Η Λέσβος","lat":37.98449752332163,"lng":23.73299796536249,"url":"https://maps.app.goo.gl/zGLD1EQEqkqawMvG7?g_st=ipc","address":"Εμμανουήλ Μπενάκη 38, Αθήνα 106 78","categoryIds":["fish-tavernas"],"categories":["Fish Tavernas"]},{"id":"fishTavernasRestaurants_c390847dbff0","slug":"papadakis-restaurant-c390","kind":"restaurant","name":"Papadakis Restaurant","lat":37.97973026422826,"lng":23.740290543738375,"url":"https://maps.app.goo.gl/kujR9b76mkGXYeFM6?g_st=ipc","address":"Φωκυλίδου 15, Αθήνα 106 73","categoryIds":["fish-tavernas","luxury-dining"],"categories":["Fish Tavernas","Luxury Dining"],"legacySlugs":["papadakis-restaurant-cdff"]},{"id":"fishTavernasRestaurants_2d289dd504e5","slug":"annie-fine-cooking-2d28","kind":"restaurant","name":"Annie - Fine Cooking","lat":37.96499642405186,"lng":23.73068347975073,"url":"https://maps.app.goo.gl/YqFQJr3r4XRFXyq17?g_st=ipc","address":"Μεναίχμου 4, Αθήνα 117 43","categoryIds":["fish-tavernas"],"categories":["Fish Tavernas"]},{"id":"fishTavernasRestaurants_18abd934868c","slug":"to-palio-podilato-18ab","kind":"restaurant","name":"Το Παλιό Ποδήλατο","lat":37.97490750365618,"lng":23.706970638600303,"url":"https://maps.app.goo.gl/gCMLdURmK8mriaGKA?g_st=ipc","address":"Ανδρονίκου 11, Αθήνα 118 54","categoryIds":["fish-tavernas"],"categories":["Fish Tavernas"]}],"nearby":[{"id":"fishTavernasRestaurants_258b48244975","slug":"linoy-soympasis-kai-sia-258b","kind":"restaurant","name":"ΛΙΝΟΥ ΣΟΥΜΠΑΣΗΣ ΚΑΙ ΣΙΑ","lat":37.97931845245544,"lng":23.725978511536088,"url":"https://maps.app.goo.gl/K7omqvkBiNsvXTkW8?g_st=ipc","address":"Μελανθίου 2, Αθήνα 105 54 &, Καλαμίδα 9, Αθήνα 105 54","categoryIds":["fish-tavernas"],"categories":["Fish Tavernas"],"distanceKm":0.005966912668926704},{"id":"greekRestaurants_0880507319bf","slug":"estiatorio-ayli-0880","kind":"restaurant","name":"Εστιατόριο Αυλή","lat":37.97971984965389,"lng":23.72579553971612,"url":"https://maps.app.goo.gl/91VrWaADuuDQ9qeWA","address":"Αγ. Δημητρίου 12, Αθήνα 105 54","categoryIds":["greek-restaurants"],"categories":["Greek Restaurants"],"distanceKm":0.041464853213366834},{"id":"cheapEatsRestaurants_0371c77b2517","slug":"tsiknaboom-0371","kind":"restaurant","name":"TsiknaBoom","lat":37.97906604032225,"lng":23.726418827071747,"url":"https://maps.app.goo.gl/DxnAjbtDdfK3oFbr9?g_st=ipc","address":"Παλλάδος 2-4, Αθήνα 105 54","categoryIds":["cheap-eats"],"categories":["Gyros & Cheap Eats"],"distanceKm":0.05264396331404491},{"id":"vegetarianRestaurants_de96d9cdb0ed","slug":"nudie-foodie-psiri-only-gluten-free-de96","kind":"restaurant","name":"Nudie Foodie Psiri only gluten free","lat":37.97969129802119,"lng":23.72517165012706,"url":"https://maps.app.goo.gl/jiBKwgUUBwo3VEnp7?g_st=ipc","address":"Eschilou 42, Athina 105 54","categoryIds":["vegetarian"],"categories":["Vegetarian Friendly Restaurants"],"distanceKm":0.07764414597988915},{"id":"greekRestaurants_f27a17153226","slug":"ta-karamanlidika-toy-fani-f27a","kind":"restaurant","name":"Τα Καραμανλίδικα του Φάνη","lat":37.98022746553766,"lng":23.7256348821809,"url":"https://maps.app.goo.gl/3bDZ8oASnXexFDgS7","address":"Ευριπίδου 52, Αθήνα 105 52","categoryIds":["greek-restaurants"],"categories":["Greek Restaurants"],"distanceKm":0.09950347281903822},{"id":"dessertsRestaurants_195d87455c89","slug":"ta-serbetia-stou-psyrri-195d","kind":"restaurant","name":"Ta Serbetia stou Psyrri","lat":37.97876489928662,"lng":23.725063077362762,"url":"https://maps.app.goo.gl/t2M6Ma6B3LXC2PSo6?g_st=ipc","address":"105 54, Eschilou 3, Athina 105 54","categoryIds":["desserts"],"categories":["Dessert Shops"],"distanceKm":0.10330700073629832},{"id":"dessertsRestaurants_b25f1646b2cd","slug":"zoympoyrloy-b25f","kind":"restaurant","name":"Ζουμπουρλού","lat":37.97853908270467,"lng":23.72510275526626,"url":"https://maps.app.goo.gl/Cfhdki2vmrcV7YwL6?g_st=ipc","address":"Αισχύλου 4, Αθήνα 105 54","categoryIds":["desserts"],"categories":["Dessert Shops"],"distanceKm":0.1189375805200969},{"id":"cheapEatsRestaurants_eaf8d8c0d190","slug":"bouloukos-kebab-eaf8","kind":"restaurant","name":"Bouloukos Kebab","lat":37.980172161906935,"lng":23.72690266572384,"url":"https://maps.app.goo.gl/eUePB41Ppi2PT7NL7?g_st=ipc","address":"Αθηνάς 53, Αθήνα 105 52","categoryIds":["cheap-eats"],"categories":["Gyros & Cheap Eats"],"distanceKm":0.12174038793127344},{"id":"cheapEatsRestaurants_24f0cfa0516a","slug":"ringo-kalamaki-pub-24f0","kind":"restaurant","name":"RINGO Kalamaki Pub","lat":37.978249435688795,"lng":23.72590325237898,"url":"https://maps.app.goo.gl/EvDBZN3YG2DfzNcdA?g_st=ipc","address":"Πρωτογένους 8, Αθήνα 105 54","categoryIds":["cheap-eats"],"categories":["Gyros & Cheap Eats"],"distanceKm":0.12464831757523956},{"id":"dessertsRestaurants_d96257796e81","slug":"kokkion-monastiraki-d962","kind":"restaurant","name":"Kokkion Μοναστηράκι","lat":37.97829626511462,"lng":23.72638522814765,"url":"https://maps.app.goo.gl/FfAWG58apt6AFDPU7?g_st=ipc","address":"Πρωτογένους 2, Αθήνα 105 54","categoryIds":["desserts"],"categories":["Dessert Shops"],"distanceKm":0.12508797681983216},{"id":"cheapEatsRestaurants_16ba629709d2","slug":"just-pita-16ba","kind":"restaurant","name":"Just Pita","lat":37.97840949020096,"lng":23.726739666799467,"url":"https://maps.app.goo.gl/hyeDVXAzDsSq1RQz5?g_st=ipc","address":"Αθηνάς 18, Αθήνα 105 51","categoryIds":["cheap-eats"],"categories":["Gyros & Cheap Eats"],"distanceKm":0.12685604586268084},{"id":"dessertsRestaurants_64c591cf617e","slug":"l-arte-del-gelato-64c5","kind":"restaurant","name":"L'Arte del Gelato","lat":37.97831483150659,"lng":23.72508265750619,"url":"https://maps.app.goo.gl/8FCA5DcN18fwe2916?g_st=ipc","address":"Μιαούλη 26, Αθήνα 105 54","categoryIds":["desserts"],"categories":["Dessert Shops"],"distanceKm":0.1401451605117418},{"id":"coffeeBrunchRestaurants_efaa63d4fa10","slug":"dope-efaa","kind":"restaurant","name":"Dope","lat":37.97832305246442,"lng":23.72690477526337,"url":"https://maps.app.goo.gl/JomysUEbYVtYn2KN6?g_st=ipc","address":"Βύσσης 25, Αθήνα 105 51","categoryIds":["coffee-brunch"],"categories":["Coffee & Brunch Spots"],"distanceKm":0.1429323004330879},{"id":"vegetarianRestaurants_d9013916b890","slug":"dosa-house-d901","kind":"restaurant","name":"DOSA HOUSE","lat":37.98064310554285,"lng":23.725600541419325,"url":"https://maps.app.goo.gl/tYKvBnpT4mY8nvB58?g_st=ipc","address":"Θεάτρου 3, Αθήνα 105 52","categoryIds":["vegetarian"],"categories":["Vegetarian Friendly Restaurants"],"distanceKm":0.14503031297454194},{"id":"dessertsRestaurants_d00ebd9aea63","slug":"to-sermpetospito-tis-nansys-d00e","kind":"restaurant","name":"Το Σερμπετόσπιτο της Νάνσυς","lat":37.97833603994479,"lng":23.724854486877806,"url":"https://maps.app.goo.gl/uH3RaY6mJ3jPCHMHA?g_st=ipc","address":"Πλ. Ηρώων 1, Αθήνα 105 54","categoryIds":["desserts"],"categories":["Dessert Shops"],"distanceKm":0.1502043561182246},{"id":"greekRestaurants_63d3f13668e8","slug":"flint-athens-63d3","kind":"restaurant","name":"Flint Athens","lat":37.97865798885805,"lng":23.724488894508067,"url":"https://maps.app.goo.gl/Fj4mZsQhG6Dryz9HA","address":"Αγ. Αναργύρων 6, Αθήνα 105 54","categoryIds":["greek-restaurants"],"categories":["Greek Restaurants"],"distanceKm":0.15112618868371588},{"id":"greekRestaurants_321ca0fca170","slug":"tis-theatroy-to-steki-321c","kind":"restaurant","name":"Της Θεάτρου το στέκι","lat":37.98069925682147,"lng":23.725498847688122,"url":"https://maps.app.goo.gl/7FMPKRwpazujA2C27","address":"Θεάτρου 7, Αθήνα 105 52","categoryIds":["greek-restaurants"],"categories":["Greek Restaurants"],"distanceKm":0.15322822636419572},{"id":"greekRestaurants_9d442e3cec12","slug":"diporto-9d44","kind":"restaurant","name":"Δίπορτο","lat":37.9807615601589,"lng":23.725828141444957,"url":"https://maps.app.goo.gl/5PAR192kZJY8s4Hs8","address":"Sokratous 9 &, Θεάτρου 2, Αθήνα 105 52","categoryIds":["greek-restaurants"],"categories":["Greek Restaurants"],"distanceKm":0.15519655388591289},{"id":"dessertsRestaurants_259da585070b","slug":"loukoumadaki-athens-259d","kind":"restaurant","name":"Loukoumadaki Athens","lat":37.977901135383384,"lng":23.725373600096002,"url":"https://maps.app.goo.gl/qqDCoKK1WRYwRxk99?g_st=ipc","address":"Miaouli 18, Athina 105 54","categoryIds":["desserts"],"categories":["Dessert Shops"],"distanceKm":0.17112845856989387},{"id":"cheapEatsRestaurants_97e6c85445da","slug":"tsiken-the-van-97e6","kind":"restaurant","name":"ΤΣΙΚΕΝ The Van","lat":37.97797456722786,"lng":23.725133314287408,"url":"https://maps.app.goo.gl/QK18bYTh1b11fJt97?g_st=ipc","address":"Μιαούλη 19, Αθήνα 105 54","categoryIds":["cheap-eats"],"categories":["Gyros & Cheap Eats"],"distanceKm":0.17113095916334664},{"id":"cheapEatsRestaurants_72f8dec93abe","slug":"i-volvi-72f8","kind":"restaurant","name":"Η Βόλβη","lat":37.97981742118138,"lng":23.72787228689906,"url":"https://maps.app.goo.gl/x2HbvpDyfiYLua7z6?g_st=ipc","address":"Ευριπίδου 24-26, Αθήνα 105 51","categoryIds":["cheap-eats"],"categories":["Gyros & Cheap Eats"],"distanceKm":0.17502332379923985},{"id":"dessertsRestaurants_5f029576403e","slug":"mrsofty-5f02","kind":"restaurant","name":"MrSofty","lat":37.97794945664196,"lng":23.72507127899626,"url":"https://maps.app.goo.gl/qwbSWbdWTMN4EmVKA?g_st=ipc","address":"Miaouli 19, Athina 105 54","categoryIds":["desserts"],"categories":["Dessert Shops"],"distanceKm":0.1759981810720459},{"id":"burgersRestaurants_d55e3b1fc4f6","slug":"one-burger-d55e","kind":"restaurant","name":"ONE BURGER","lat":37.97831953861062,"lng":23.727493287060057,"url":"https://maps.app.goo.gl/N76y7HGoU6TuZHcW8?g_st=ipc","address":"Αγάθωνος 7, Αθήνα 105 51","categoryIds":["burgers"],"categories":["Burger Spots"],"distanceKm":0.17816603306740922},{"id":"luxuryDiningRestaurants_ad3f43513fe8","slug":"hasapika-central-market-ad3f","kind":"restaurant","name":"Hasapika Central Market","lat":37.98004920672925,"lng":23.72784326093664,"url":"https://maps.app.goo.gl/zfVsdMVE9KLHsZKR7?g_st=ipc","address":"Αριστογείτονος 1, Αθήνα 105 51","categoryIds":["luxury-dining"],"categories":["Luxury Dining"],"distanceKm":0.1817055229904579}],"sameRegion":[],"mentionedGuides":[],"canonicalSlug":"lsandsia-4ce0","isCanonicalEntity":true,"enrichment":{"summary_en":"lsandsia is a curated restaurant in Αθήνα 105 54 in the Fish Tavernas collection. It is connected to 279 nearby Googlementor picks to help travelers build a stronger local route.","summary_el":"lsandsia είναι ένα επιλεγμένο σημείο φαγητού στην περιοχή Αθήνα 105 54 και ανήκει στη συλλογή Fish Tavernas. Συνδέεται με 279 κοντινές προτάσεις του Googlementor για πιο ολοκληρωμένη εμπειρία.","vibe_tags":["curated","seafood-local"],"best_for":["first-time visitors","food lovers"],"visit_moments":["lunch stop","dinner stop"],"practical_note":"Address and direct map link are available for easy turn-by-turn access.","nearby_walkable_count":279,"nearby_count_2km":617,"confidence":0.98},"areaContext":{"slug":"monastiraki","name":"Monastiraki"},"intentContexts":[{"href":"/fish-tavernas/monastiraki","label":"Fish Tavernas in Monastiraki","categorySlug":"fish-tavernas","categoryName":"Fish Tavernas","areaSlug":"monastiraki","areaName":"Monastiraki"}]},"__N_SSG":true}