{"pageProps":{"entity":{"id":"italianRestaurants_7cdf3cff14bf","slug":"matapan-7cdf","kind":"restaurant","name":"Matapan","lat":36.46823478580051,"lng":22.433052583594144,"url":"https://maps.app.goo.gl/TuYwccr3Zm9yxfa36?g_st=ipc","address":"ΕΠΑΡΧΙΑΚΗ ΟΔΟΣ ΓΕΡΟΛΙΜΕΝΑ ΒΑΘΕΙΑΣ, Alika 230 71","categoryIds":["italian"],"categories":["Italian Restaurants"]},"sameCategory":[{"id":"italianRestaurants_62cf2e5c270d","slug":"la-gratella-62cf","kind":"restaurant","name":"La Gratella","lat":37.56708420040735,"lng":22.796775177187325,"url":"https://maps.app.goo.gl/wA9xzqnbmvvq1Bqo8?g_st=ipc","address":"Vasilissis Olgas, Nafplio 211 00","categoryIds":["italian"],"categories":["Italian Restaurants"]},{"id":"italianRestaurants_0d133bb8af27","slug":"itria-cucina-italiana-restaurant-0d13","kind":"restaurant","name":"ITRIA Cucina Italiana Restaurant","lat":37.567386909343334,"lng":22.797290266729004,"url":"https://maps.app.goo.gl/HHmGQxRgnuihmTyY7?g_st=ipc","address":"Boumpoulinas 81, Nafplio 211 00","categoryIds":["italian"],"categories":["Italian Restaurants"]},{"id":"italianRestaurants_74b63c612882","slug":"il-porto-74b6","kind":"restaurant","name":"Il Porto","lat":37.56732416244355,"lng":22.800888651268885,"url":"https://maps.app.goo.gl/vWaWFumGBn6ey64P6?g_st=ipc","address":"Μπουμπουλίνας 43, Ναύπλιο 211 00","categoryIds":["italian"],"categories":["Italian Restaurants"]},{"id":"italianRestaurants_cea069598e2c","slug":"avli-pizzeria-italian-restaurant-cea0","kind":"restaurant","name":"Avli Pizzeria Italian Restaurant","lat":37.70852668969966,"lng":23.364217806517935,"url":"https://maps.app.goo.gl/CQiwfGN8vkcQtv7x8?g_st=ipc","address":"Σκάλα 180 10","categoryIds":["italian"],"categories":["Italian Restaurants"]},{"id":"italianRestaurants_d9cd36fbb3ef","slug":"don-rosario-restaurant-d9cd","kind":"restaurant","name":"Don Rosario Restaurant","lat":35.47882388836681,"lng":24.099356912172677,"url":"https://maps.app.goo.gl/bPiGaxVDa8GANuXW8?g_st=ipc","address":"Πλατάνι 732 00","categoryIds":["italian"],"categories":["Italian Restaurants"]},{"id":"italianRestaurants_26670e11b304","slug":"mercato-2667","kind":"restaurant","name":"Mercato","lat":37.804876583131545,"lng":23.768732488679262,"url":"https://maps.app.goo.gl/WygPaRiVJpzqrZBi8","address":"Apollonos 40, Vouliagmeni 166 71","categoryIds":["italian","luxury-dining"],"categories":["Italian Restaurants","Luxury Dining"],"legacySlugs":["mercato-ae1b"]},{"id":"italianRestaurants_c67f741fc9ba","slug":"pitsaria-achilleion-c67f","kind":"restaurant","name":"ΠΙΤΣΑΡΙΑ ΑΧΙΛΛΕΙΟΝ","lat":37.96332108068363,"lng":23.493487796737526,"url":"https://maps.app.goo.gl/xb88QciDkgCY4ycv8?g_st=ipc","address":"Λεωφ. Ακτή Καραϊσκάκη 24, Σαλαμίνα 189 00","categoryIds":["italian"],"categories":["Italian Restaurants"]},{"id":"italianRestaurants_1195b260712d","slug":"napul-e-italian-comfort-food-wine-1195","kind":"restaurant","name":"Napul'è Italian Comfort Food & Wine","lat":37.8271502092117,"lng":23.80408943661563,"url":"https://maps.app.goo.gl/7yzTG7SodJm8Ubug6?g_st=ipc","address":"Βασ. Κωνσταντίνου 43, Βάρη 166 72","categoryIds":["italian"],"categories":["Italian Restaurants"]},{"id":"italianRestaurants_c1362c021208","slug":"itali-co-c136","kind":"restaurant","name":"ITALI.CO","lat":37.86253909414944,"lng":23.747999477664532,"url":"https://maps.app.goo.gl/pCnDdDLDMjkN2CGv6?g_st=ipc","address":"Ανδρέα Παπανδρέου 3, Γλυφάδα 166 75","categoryIds":["italian"],"categories":["Italian Restaurants"]},{"id":"italianRestaurants_19fa39b4b310","slug":"cicchetti-prosciutteria-spritzeria-19fa","kind":"restaurant","name":"Cicchetti Prosciutteria & Spritzeria","lat":37.859684523196464,"lng":23.75386502955931,"url":"https://maps.app.goo.gl/3jMcfyGkfYbxGbps9","address":"Fivis 11, Glifada 166 74","categoryIds":["italian"],"categories":["Italian Restaurants"]},{"id":"italianRestaurants_dd5b148ca8d7","slug":"peccati-di-gola-dd5b","kind":"restaurant","name":"Peccati Di Gola","lat":37.86427445144013,"lng":23.751331713919253,"url":"https://maps.app.goo.gl/o1MzXXTU18xSPfb69?g_st=ipc","address":"Κύπρου 50, Γλυφάδα 166 75","categoryIds":["italian"],"categories":["Italian Restaurants"]},{"id":"familyFriendly_bba3af84c3c6","slug":"bella-vespa-bba3","kind":"restaurant","name":"Bella Vespa","lat":37.86706675735918,"lng":23.747387332761612,"url":"https://maps.app.goo.gl/dpip4AngfBL8xv2M8?g_st=ipc","address":"Κύπρου 11, Γλυφάδα 166 75","categoryIds":["family-friendly","italian"],"categories":["Kid Friendly Locations","Italian Restaurants"],"legacySlugs":["bella-vespa-976a"]}],"nearby":[{"id":"greekRestaurants_6d7b8e02049c","slug":"aspalathos-6d7b","kind":"restaurant","name":"Ασπάλαθος","lat":36.453072766043654,"lng":22.4675679786435,"url":"https://maps.app.goo.gl/yR5M4bLGpXTTrKg87?g_st=ipc","address":"Βαθεια Μανη Μανη, 230 61","categoryIds":["greek-restaurants"],"categories":["Greek Restaurants"],"distanceKm":3.5171331298864064},{"id":"mustSeeAttractions_b10cf3afde5d","slug":"cape-tainaron-lighthouse-b10c","kind":"restaurant","name":"Cape Tainaron Lighthouse","lat":36.38632728796919,"lng":22.482904269212387,"url":"https://maps.app.goo.gl/qXxKEnky6NL6j8mX7?g_st=ipc","address":"Ανατολική Μάνη Ακρωτήριο Ταιναρο Anatoliki Mani, 230 71","categoryIds":["attractions"],"categories":["Must-See Attractions"],"distanceKm":10.14116482457299},{"id":"mustSeeAttractions_a11f312d6e9f","slug":"caves-of-diros-a11f","kind":"restaurant","name":"Caves of Diros","lat":36.63819892596898,"lng":22.38069545600633,"url":"https://maps.app.goo.gl/Quro2ZP1jQNXZ1M5A?g_st=ipc","address":"Pyrgos Dirou 230 63","categoryIds":["attractions"],"categories":["Must-See Attractions"],"distanceKm":19.469193035516454},{"id":"municipalities_509e8926d849","slug":"areopoli-509e","kind":"municipality","name":"Αρεόπολη","lat":36.6667,"lng":22.3833,"region":"Μάνη","name_en":"Areopoli","region_en":"Mani","distanceKm":22.511182920431224},{"id":"greekRestaurants_35c3e15ee9bd","slug":"drosopigi-chasapotaverna-mani-35c3","kind":"restaurant","name":"Δροσοπηγή Χασαποταβέρνα Μάνη.","lat":36.67483709727042,"lng":22.460812585960976,"url":"https://maps.app.goo.gl/Wggw4Prn73TfQ9b49?g_st=ipc","address":"MFF6+W8, Δροσοπηγή 232 00","categoryIds":["greek-restaurants"],"categories":["Greek Restaurants"],"distanceKm":23.106497188508204},{"id":"luxuryDiningRestaurants_572c742b427a","slug":"teloneio-572c","kind":"restaurant","name":"Teloneio","lat":36.679751486113695,"lng":22.377303718290054,"url":"https://maps.app.goo.gl/yvA5KkBJg5eZfsvV9?g_st=ipc","address":"Limeni 230 62","categoryIds":["luxury-dining"],"categories":["Luxury Dining"],"distanceKm":24.04068589964046},{"id":"fishTavernasRestaurants_665f7217dc6b","slug":"black-pirate-665f","kind":"restaurant","name":"Black Pirate","lat":36.690856383249425,"lng":22.389756995558262,"url":"https://maps.app.goo.gl/heQpgB74pYJ6gzkA7?g_st=ipc","address":"Νέο Οίτυλο 230 62","categoryIds":["fish-tavernas"],"categories":["Fish Tavernas"],"distanceKm":25.054455659495677},{"id":"municipalities_44f0c923cf66","slug":"skoytari-44f0","kind":"municipality","name":"Σκουτάρι","lat":36.716,"lng":22.55,"region":"Λακωνία","name_en":"Skoutari","region_en":"Laconia","distanceKm":29.4622943983143},{"id":"municipalities_69975f7e3686","slug":"mayrovoyni-6997","kind":"municipality","name":"Μαυροβούνι","lat":36.7275,"lng":22.5564,"region":"Λακωνία","name_en":"Mavrovouni","region_en":"Laconia","distanceKm":30.86034643012485}],"sameRegion":[],"mentionedGuides":[],"canonicalSlug":"matapan-7cdf","isCanonicalEntity":true,"enrichment":{"summary_en":"Matapan is a curated restaurant in Alika 230 71 in the Italian Restaurants collection. It is connected to 0 nearby Googlementor picks to help travelers build a stronger local route.","summary_el":"Matapan είναι ένα επιλεγμένο σημείο φαγητού στην περιοχή Alika 230 71 και ανήκει στη συλλογή Italian Restaurants. Συνδέεται με 0 κοντινές προτάσεις του Googlementor για πιο ολοκληρωμένη εμπειρία.","vibe_tags":["curated"],"best_for":["first-time visitors","food lovers"],"visit_moments":["lunch stop","dinner stop"],"practical_note":"Address and direct map link are available for easy turn-by-turn access.","nearby_walkable_count":0,"nearby_count_2km":0,"confidence":0.9},"areaContext":null,"intentContexts":[]},"__N_SSG":true}