{"pageProps":{"entity":{"id":"dessertsRestaurants_2726c61e3f6e","slug":"mikraki-gelato-2726","kind":"restaurant","name":"Μικράκι gelato","lat":36.83144131849213,"lng":25.898487086486654,"url":"https://maps.app.goo.gl/QD97vczb4ZtE7gzR9?g_st=ipc","address":"Χώρα 840 08","categoryIds":["desserts"],"categories":["Dessert Shops"]},"sameCategory":[{"id":"dessertsRestaurants_4247bc679f6e","slug":"kallisto-4247","kind":"restaurant","name":"Kallisto","lat":36.83193327608509,"lng":25.897182643444378,"url":"https://maps.app.goo.gl/zxMDWyaDa8oTgjvt6?g_st=ipc","address":"Χώρα 840 08","categoryIds":["desserts"],"categories":["Dessert Shops"]},{"id":"dessertsRestaurants_3d1262fd2666","slug":"fystiki-gelato-3d12","kind":"restaurant","name":"Fystiki Gelato","lat":36.93198529080786,"lng":25.599118541452043,"url":"https://maps.app.goo.gl/SRnK7VZPNJJSVHfq6?g_st=ipc","address":"Κουφονησίων, Koufonisi 843 00","categoryIds":["desserts"],"categories":["Dessert Shops"]},{"id":"coffeeBrunchRestaurants_409a1c00e009","slug":"fasolas-gastrokafeneio-409a","kind":"restaurant","name":"Fasolas Gastrokafeneio","lat":37.05047829842748,"lng":25.497802752574465,"url":"https://maps.app.goo.gl/s28qFqLPN9on9SZy8?g_st=ipc","address":"Filoti 843 02","categoryIds":["coffee-brunch","desserts"],"categories":["Coffee & Brunch Spots","Dessert Shops"],"legacySlugs":["fasolas-gastrokafeneio-d95b"]},{"id":"coffeeBrunchRestaurants_4d900c72bc80","slug":"caffe-greco-4d90","kind":"restaurant","name":"Caffe Greco","lat":37.06283829210554,"lng":25.482179694372245,"url":"https://maps.app.goo.gl/bvxkDLgLP2gCrEDeA?g_st=ipc","address":"Χαλκείο 843 02","categoryIds":["coffee-brunch","desserts"],"categories":["Coffee & Brunch Spots","Dessert Shops"],"legacySlugs":["caffe-greco-cc34"]},{"id":"coffeeBrunchRestaurants_a3547d8efbea","slug":"kolokytha-a354","kind":"restaurant","name":"Kolokytha","lat":36.54726990012019,"lng":26.353646413648903,"url":"https://maps.app.goo.gl/6FaxgMCjdWj9EPA48?g_st=ipc","address":"Unnamed Rd, Astipalea 859 00","categoryIds":["coffee-brunch","desserts"],"categories":["Coffee & Brunch Spots","Dessert Shops"],"legacySlugs":["kolokytha-3090"]},{"id":"coffeeBrunchRestaurants_64018e74309c","slug":"meltemi-6401","kind":"restaurant","name":"Meltemi","lat":36.545359250189506,"lng":26.352356416685993,"url":"https://maps.app.goo.gl/nFrvN47758pZXWzT8?g_st=ipc","address":"Astypalaia 859 00","categoryIds":["coffee-brunch","desserts"],"categories":["Coffee & Brunch Spots","Dessert Shops"],"legacySlugs":["meltemi-57c8"]},{"id":"dessertsRestaurants_eb323a6e2ce5","slug":"aktaion-eb32","kind":"restaurant","name":"Aktaíon","lat":37.10978039540428,"lng":25.383810454464182,"url":"https://maps.app.goo.gl/2DJ9CavskAENKDWQ6?g_st=ipc","address":"Naxou, Krinides 843 00","categoryIds":["desserts"],"categories":["Dessert Shops"]},{"id":"dessertsRestaurants_fb9eb4b1bad8","slug":"chou-chouro-fb9e","kind":"restaurant","name":"Chou-Chouro","lat":37.10481340685538,"lng":25.376412266991043,"url":"https://maps.app.goo.gl/Phd5ZDeXAdM1ZXne8?g_st=ipc","address":"Castle Area, Naxos 843 00","categoryIds":["desserts"],"categories":["Dessert Shops"]},{"id":"dessertsRestaurants_394832dca619","slug":"waffle-house-3948","kind":"restaurant","name":"Waffle House","lat":37.10467061317303,"lng":25.375709513413007,"url":"https://maps.app.goo.gl/HYZR2GPUwwpWpFCz6?g_st=ipc","address":"Naxos 843 00","categoryIds":["desserts"],"categories":["Dessert Shops"]},{"id":"dessertsRestaurants_c2d46d4f052a","slug":"aktaion-pastry-ice-cream-downtown-c2d4","kind":"restaurant","name":"Aktaion Pastry & Ice Cream | Downtown","lat":37.105490385586045,"lng":25.375549550238706,"url":"https://maps.app.goo.gl/WWUz17HUPNByCsTf9?g_st=ipc","address":"Π. Πρωτοπαπαδάκη, Naxos 843 00","categoryIds":["desserts"],"categories":["Dessert Shops"]},{"id":"dessertsRestaurants_ebef2944eed9","slug":"lolita-s-gelato-ebef","kind":"restaurant","name":"Lolita's Gelato","lat":36.46273695850675,"lng":25.376386479037105,"url":"https://maps.app.goo.gl/c2iaJjfqekF4QV9w5?g_st=ipc","address":"Oia 847 02","categoryIds":["desserts"],"categories":["Dessert Shops"]},{"id":"dessertsRestaurants_8e6cc5f0cd66","slug":"xilofournos-8e6c","kind":"restaurant","name":"Xilofournos","lat":37.08496749131104,"lng":25.244272132832048,"url":"https://maps.app.goo.gl/rAbxWJidxPCZz1CF9?g_st=ipc","address":"Epar.Od. Naoussas-Marpissas, Paros 844 01","categoryIds":["desserts"],"categories":["Dessert Shops"]}],"nearby":[{"id":"coffeeBrunchRestaurants_15f758934efb","slug":"jazzmin-15f7","kind":"restaurant","name":"Jazzmin","lat":36.83137874729602,"lng":25.898307325862916,"url":"https://maps.app.goo.gl/YcQVqpGJyQtWEuk59?g_st=ipc","address":"Χώρα 840 08","categoryIds":["coffee-brunch"],"categories":["Coffee & Brunch Spots"],"distanceKm":0.017446222834259673},{"id":"italianRestaurants_f73393157432","slug":"pizza-petrino-f733","kind":"restaurant","name":"Pizza Petrino","lat":36.83162048389455,"lng":25.898532535817935,"url":"https://maps.app.goo.gl/BxpBdgAak6UKLRYL7?g_st=ipc","address":"Χώρα 840 08","categoryIds":["italian"],"categories":["Italian Restaurants"],"distanceKm":0.020328786446884448},{"id":"greekRestaurants_47770432a20a","slug":"kastanis-estiatorio-4777","kind":"restaurant","name":"Καστάνης Εστιατόριο","lat":36.83158752520646,"lng":25.898124106946245,"url":"https://maps.app.goo.gl/HGPYt5HhJh8iT4G56?g_st=ipc","address":"Χώρα 840 08","categoryIds":["greek-restaurants"],"categories":["Greek Restaurants"],"distanceKm":0.03616550228804032},{"id":"greekRestaurants_988a85889bca","slug":"tranzistoraki-988a","kind":"restaurant","name":"ΤρανζισΤοΡάκι","lat":36.83158272407629,"lng":25.897896255980164,"url":"https://maps.app.goo.gl/sp5wVpBx6d45B63S8?g_st=ipc","address":"Χώρα 840 08","categoryIds":["greek-restaurants"],"categories":["Greek Restaurants"],"distanceKm":0.05488476702436264},{"id":"greekRestaurants_3fefb3b2b9b2","slug":"mpyr-zolaki-3fef","kind":"restaurant","name":"Μπυρ...ζολάκι","lat":36.83162335048387,"lng":25.897767804584305,"url":"https://maps.app.goo.gl/qnA3672RAyo5iyaZ9?g_st=ipc","address":"Amorgos island, Χώρα 840 08","categoryIds":["greek-restaurants"],"categories":["Greek Restaurants"],"distanceKm":0.06714025581685383},{"id":"luxuryDiningRestaurants_da6f148eb7d8","slug":"apospero-da6f","kind":"restaurant","name":"Apospero","lat":36.83183844559143,"lng":25.899499966261363,"url":"https://maps.app.goo.gl/j3TAqCiUnajPnQUUA?g_st=ipc","address":"Χώρα 840 08","categoryIds":["luxury-dining"],"categories":["Luxury Dining"],"distanceKm":0.10038135281683506},{"id":"greekRestaurants_4c848985d221","slug":"magiasi-4c84","kind":"restaurant","name":"Μαγιάσι","lat":36.831832905496256,"lng":25.899580231122016,"url":"https://maps.app.goo.gl/9Hs7jmTaUVVySR3V6?g_st=ipc","address":"Ano plateaki 840 08","categoryIds":["greek-restaurants"],"categories":["Greek Restaurants"],"distanceKm":0.10658971917161711},{"id":"greekRestaurants_d5207c2cea1d","slug":"armparoriza-d520","kind":"restaurant","name":"Aρμπαρόριζα","lat":36.83126528874217,"lng":25.899780664474996,"url":"https://maps.app.goo.gl/t6VhmiWHapwM9cy88?g_st=ipc","address":"ΧΩΡΑ ΑΜΟΡΓΟΣ ΚΥΚΛΑΔΕΣ, ΑΜΟΡΓΟΣ ΧΩΡΑ 840 08","categoryIds":["greek-restaurants"],"categories":["Greek Restaurants"],"distanceKm":0.11678152089899295},{"id":"dessertsRestaurants_4247bc679f6e","slug":"kallisto-4247","kind":"restaurant","name":"Kallisto","lat":36.83193327608509,"lng":25.897182643444378,"url":"https://maps.app.goo.gl/zxMDWyaDa8oTgjvt6?g_st=ipc","address":"Χώρα 840 08","categoryIds":["desserts"],"categories":["Dessert Shops"],"distanceKm":0.12833827766715483},{"id":"greekRestaurants_b0d37034cad9","slug":"liotrivi-estiatorio-kafe-mpar-b0d3","kind":"restaurant","name":"Λιοτρίβι εστιατόριο καφέ μπαρ","lat":36.83150696646691,"lng":25.89638993777969,"url":"https://maps.app.goo.gl/CYARdJ4AMpe1LegF8?g_st=ipc","address":"ΑΜΟΡΓΟΣ ΧΩΡΑ ΧΩΡΑ, ΑΜΟΡΓΟΥ 840 08","categoryIds":["greek-restaurants"],"categories":["Greek Restaurants"],"distanceKm":0.18679031513637556},{"id":"municipalities_b6a30a076a6a","slug":"amorgos-b6a3","kind":"municipality","name":"Αμοργός","lat":36.8333,"lng":25.9,"region":"Κυκλάδες","name_en":"Amorgos","region_en":"Cyclades","distanceKm":0.2466682584718441},{"id":"mustSeeAttractions_3720c0633a0c","slug":"holy-monastery-of-the-virgin-mary-chozoviotissa-3720","kind":"restaurant","name":"Holy Monastery of the Virgin Mary Chozoviotissa","lat":36.834565267585596,"lng":25.909512235575725,"url":"https://maps.app.goo.gl/v6AEM7JEAUPMzrvP7?g_st=ipc","address":"Amorgos 840 08","categoryIds":["attractions"],"categories":["Must-See Attractions"],"distanceKm":1.040897892230019},{"id":"vegetarianRestaurants_b8ffd99027d0","slug":"amorgos-organic-b8ff","kind":"restaurant","name":"Amorgos Organic","lat":36.82494496537346,"lng":25.86937679325385,"url":"https://maps.app.goo.gl/LLqFWY5v6jQQxyzV9?g_st=ipc","address":"Epar.Od. Katapolon-Mavris Mitis, Rachidi 840 08","categoryIds":["vegetarian"],"categories":["Vegetarian Friendly Restaurants"],"distanceKm":2.6897601875371056},{"id":"fishTavernasRestaurants_8f48155428a0","slug":"almyriki-8f48","kind":"restaurant","name":"Almyriki","lat":36.83118579310379,"lng":25.86459980269408,"url":"https://maps.app.goo.gl/eknLukeQuWd7G4fW8?g_st=ipc","address":"Katapola, Xilokeratidi 840 08","categoryIds":["fish-tavernas"],"categories":["Fish Tavernas"],"distanceKm":3.0161308678817758},{"id":"greekRestaurants_b17830ed7512","slug":"fata-morgana-amorgos-est-2022-b178","kind":"restaurant","name":"Fata Morgana - Amorgos (est. 2022)","lat":36.831448706178094,"lng":25.864214040888726,"url":"https://maps.app.goo.gl/z4Un87D7stMZaFHp7?g_st=ipc","address":"Ξυλοκερατίδι 840 08","categoryIds":["greek-restaurants"],"categories":["Greek Restaurants"],"distanceKm":3.0503250305234495},{"id":"fishTavernasRestaurants_5505aae10c35","slug":"capetan-dimos-5505","kind":"restaurant","name":"Capetan Dimos","lat":36.826649786040434,"lng":25.864391545420993,"url":"https://maps.app.goo.gl/J1yUSdS75CdNMzon8?g_st=ipc","address":"Κατάπολα 840 08","categoryIds":["fish-tavernas"],"categories":["Fish Tavernas"],"distanceKm":3.0810388889841054},{"id":"coffeeBrunchRestaurants_e2f6b0012785","slug":"arleta-e2f6","kind":"restaurant","name":"Arleta","lat":36.82638304281154,"lng":25.864058083086626,"url":"https://maps.app.goo.gl/W2NJQiPuDrDGXEQw5?g_st=ipc","address":"Κατάπολα 840 08","categoryIds":["coffee-brunch"],"categories":["Coffee & Brunch Spots"],"distanceKm":3.11549848830517},{"id":"fishTavernasRestaurants_32f44df2e3e6","slug":"mouragio-taverna-32f4","kind":"restaurant","name":"Mouragio Taverna","lat":36.82713304585838,"lng":25.86300862920973,"url":"https://maps.app.goo.gl/qeiMhDDAhTy881ZMA?g_st=ipc","address":"Κατάπολα 840 08","categoryIds":["fish-tavernas"],"categories":["Fish Tavernas"],"distanceKm":3.193828978755416},{"id":"greekRestaurants_4a408ca96f0f","slug":"giorgalinis-4a40","kind":"restaurant","name":"Γιωργαλίνης","lat":36.79866266620689,"lng":25.81985305918722,"url":"https://maps.app.goo.gl/BHKAVy4JM8FKJLZr9?g_st=ipc","address":"Βρούτσης 840 08","categoryIds":["greek-restaurants"],"categories":["Greek Restaurants"],"distanceKm":7.892050531216813},{"id":"greekRestaurants_b4a6065341fd","slug":"ston-pyrgo-b4a6","kind":"restaurant","name":"Στον Πύργο","lat":36.791965407259056,"lng":25.80106728547156,"url":"https://maps.app.goo.gl/cG8Rb5Kgv2XaSHPM7?g_st=ipc","address":"ΑΓΙΑ ΤΡΙΑΔΑ, Αρκεσίνη 840 08","categoryIds":["greek-restaurants"],"categories":["Greek Restaurants"],"distanceKm":9.720238442313242},{"id":"greekRestaurants_8fb4e329e193","slug":"maroyso-8fb4","kind":"restaurant","name":"ΜΑΡΟΥΣΩ","lat":36.787036104503706,"lng":25.802427774103137,"url":"https://maps.app.goo.gl/Fe7icpHd2EaQn3DL9?g_st=ipc","address":"ΚΥΚΛΑΔΕΣ, Αρκεσίνη 840 08","categoryIds":["greek-restaurants"],"categories":["Greek Restaurants"],"distanceKm":9.874915650152067},{"id":"coffeeBrunchRestaurants_7ba1b6bfb809","slug":"embassa-cafe-bar-7ba1","kind":"restaurant","name":"embassa cafe bar","lat":36.901100293710016,"lng":25.976110975169213,"url":"https://maps.app.goo.gl/EQeLPXrV9KJNt6Ut5?g_st=ipc","address":"Aigiali, Ormos Egialis 840 08","categoryIds":["coffee-brunch"],"categories":["Coffee & Brunch Spots"],"distanceKm":10.376957600675807},{"id":"vegetarianRestaurants_fcbe4baf2c7e","slug":"falafel-fcbe","kind":"restaurant","name":"Falafel","lat":36.90090309185306,"lng":25.976584244849658,"url":"https://maps.app.goo.gl/aKeeZyXVaADfNUQU9?g_st=ipc","address":"Ormos Egialis 840 08","categoryIds":["vegetarian"],"categories":["Vegetarian Friendly Restaurants"],"distanceKm":10.38871503000475},{"id":"fishTavernasRestaurants_da1220f4c7c3","slug":"limani-restaurant-da12","kind":"restaurant","name":"Limani Restaurant","lat":36.901162221052765,"lng":25.976288792173918,"url":"https://maps.app.goo.gl/CFKDV9FzeK4koTmt5?g_st=ipc","address":"Αιγιάλη 840 08","categoryIds":["fish-tavernas"],"categories":["Fish Tavernas"],"distanceKm":10.392624835213972}],"sameRegion":[],"mentionedGuides":[],"canonicalSlug":"mikraki-gelato-2726","isCanonicalEntity":true,"enrichment":{"summary_en":"Μικράκι gelato is a curated restaurant in Greece in the Dessert Shops collection. It is connected to 11 nearby Googlementor picks to help travelers build a stronger local route.","summary_el":"Μικράκι gelato είναι ένα επιλεγμένο σημείο φαγητού στην περιοχή Greece και ανήκει στη συλλογή Dessert Shops. Συνδέεται με 11 κοντινές προτάσεις του Googlementor για πιο ολοκληρωμένη εμπειρία.","vibe_tags":["curated","sweet-stop"],"best_for":["first-time visitors","food lovers"],"visit_moments":["afternoon break","after dinner"],"practical_note":"Address and direct map link are available for easy turn-by-turn access.","nearby_walkable_count":11,"nearby_count_2km":12,"confidence":0.98},"areaContext":{"slug":"amorgos","name":"Amorgos"},"intentContexts":[]},"__N_SSG":true}