{"pageProps":{"entity":{"id":"greekRestaurants_d28823b9eec2","slug":"myrtia-peristeri-d288","kind":"restaurant","name":"Μυρτιά - Περιστέρι","lat":38.00643775276086,"lng":23.706964574646523,"url":"https://maps.app.goo.gl/ZmkpQ1J6yj1b1iUX6","address":"Αγίας Παρασκευής 24, Περιστέρι 121 32","categoryIds":["greek-restaurants"],"categories":["Greek Restaurants"]},"sameCategory":[{"id":"greekRestaurants_8f61506d1171","slug":"basegrill-athens-8f61","kind":"restaurant","name":"Basegrill Athens","lat":38.01200938597209,"lng":23.7082215195935,"url":"https://maps.app.goo.gl/4HcYYs1yQVdq1giy8","address":"Λεωφ. Κωνσταντινουπόλεως 64, Περιστέρι 121 33","categoryIds":["greek-restaurants","luxury-dining"],"categories":["Greek Restaurants","Luxury Dining"],"legacySlugs":["basegrill-athens-1a54"]},{"id":"greekRestaurants_9c5c07b28afc","slug":"schinos-mpistro-9c5c","kind":"restaurant","name":"Σχίνος Μπιστρό","lat":38.01228323858559,"lng":23.703471319893453,"url":"https://maps.app.goo.gl/VEoaxecqRaF6Y2in8","address":"Μεγ. Αλεξάνδρου 88, Περιστέρι 121 32","categoryIds":["greek-restaurants"],"categories":["Greek Restaurants"]},{"id":"greekRestaurants_c4daeb8f4d66","slug":"malanos-c4da","kind":"restaurant","name":"Μαλανος","lat":38.0129537569984,"lng":23.7103246194612,"url":"https://maps.app.goo.gl/RHBwmAA2mvG3Eie58","address":"Ιωλκού 2, Περιστέρι 121 33","categoryIds":["greek-restaurants"],"categories":["Greek Restaurants"]},{"id":"greekRestaurants_66d5a57225f6","slug":"taverna-o-karagkiozis-66d5","kind":"restaurant","name":"Ταβέρνα Ο Καραγκιόζης","lat":38.01836729151931,"lng":23.702104419170855,"url":"https://maps.app.goo.gl/zhCvjvwCT9rbixAE6","address":"Τρώων 9, Bournazi 121 33","categoryIds":["greek-restaurants"],"categories":["Greek Restaurants"]},{"id":"greekRestaurants_cf4d36c85e78","slug":"paradosiaki-taverna-o-spanos-cf4d","kind":"restaurant","name":"Παραδοσιακή Ταβέρνα ο Σπανός","lat":38.01128559769368,"lng":23.722291820236695,"url":"https://maps.app.goo.gl/M1LDEQBwqFbK8g7Y6","address":"Αριστείδου Οικονόμου 12, Αθήνα 104 45","categoryIds":["greek-restaurants"],"categories":["Greek Restaurants"]},{"id":"greekRestaurants_6208e477b281","slug":"pappu-athens-6208","kind":"restaurant","name":"Pāppu Athens","lat":38.01046990272616,"lng":23.68965527636987,"url":"https://maps.app.goo.gl/QKrjcz5bwnJE9QXA6","address":"Μεσολογγίου 100, Περιστέρι 121 31","categoryIds":["greek-restaurants"],"categories":["Greek Restaurants"]},{"id":"burgersRestaurants_61f30a1a8896","slug":"arch-beer-house-61f3","kind":"restaurant","name":"Arch Beer House","lat":38.013998175642,"lng":23.688328178434592,"url":"https://maps.app.goo.gl/ESAdNAhkQW7WvLqWA?g_st=ipc","address":"Εθ. Αντιστάσεως 91, Περιστέρι 121 34","categoryIds":["burgers","greek-restaurants"],"categories":["Burger Spots","Greek Restaurants"],"legacySlugs":["arch-beer-house-8940"]},{"id":"greekRestaurants_bad759859413","slug":"ta-skalakia-bad7","kind":"restaurant","name":"Τα Σκαλάκια","lat":37.98954880589726,"lng":23.709123253452237,"url":"https://maps.app.goo.gl/Dec4aP4V9Z2pEehcA","address":"Μαραθωνομάχων 57, Αθήνα 104 41","categoryIds":["greek-restaurants"],"categories":["Greek Restaurants"]},{"id":"greekRestaurants_83a0250938d4","slug":"taverna-ton-filon-83a0","kind":"restaurant","name":"Ταβέρνα των Φίλων","lat":37.99014835512761,"lng":23.713340464618646,"url":"https://maps.app.goo.gl/CyUaWUVM84i2Ym18A","address":"Άργους 66, Αθήνα 104 41","categoryIds":["greek-restaurants"],"categories":["Greek Restaurants"]},{"id":"greekRestaurants_e84451b3cebc","slug":"taverna-psistaria-o-thomas-apo-to-1980-e844","kind":"restaurant","name":"Ταβέρνα - Ψησταριά ο Θωμάς απο το 1980","lat":38.015942140522725,"lng":23.686390666199237,"url":"https://maps.app.goo.gl/ZYNUbquE3yHM5E837","address":"Χαλκοκονδύλη 39, Περιστέρι 121 35","categoryIds":["greek-restaurants"],"categories":["Greek Restaurants"]},{"id":"greekRestaurants_7620f2ece9a6","slug":"mpompyras-7620","kind":"restaurant","name":"Μπόμπυρας","lat":38.00484148971816,"lng":23.732856919000913,"url":"https://maps.app.goo.gl/9Ay3zpP2cfdFbPpw8","address":"Ευπαλίνου 21, Αθήνα 112 53","categoryIds":["greek-restaurants"],"categories":["Greek Restaurants"]},{"id":"greekRestaurants_fc8301cd2394","slug":"geystiki-gonia-fc83","kind":"restaurant","name":"Γευστική Γωνιά","lat":37.9895544491858,"lng":23.722717045952898,"url":"https://maps.app.goo.gl/AkzhbzV5JgMPNbyh8","address":"Ψαρών 45, Αθήνα 104 38","categoryIds":["greek-restaurants"],"categories":["Greek Restaurants"]}],"nearby":[{"id":"luxuryDiningRestaurants_0fe20ce95de7","slug":"travolta-athens-0fe2","kind":"restaurant","name":"Travolta Athens","lat":38.005280171628534,"lng":23.702492953168832,"url":"https://maps.app.goo.gl/SyrzTdSeaJcSZMj28?g_st=ipc","address":"Αγίου Παύλου 33, Περιστέρι 121 32","categoryIds":["luxury-dining"],"categories":["Luxury Dining"],"distanceKm":0.41238736620889604},{"id":"dessertsRestaurants_96d806e54fdc","slug":"zacharoplasteia-konstantinidis-96d8","kind":"restaurant","name":"ΖΑΧΑΡΟΠΛΑΣΤΕΙΑ ΚΩΝΣΤΑΝΤΙΝΙΔΗΣ","lat":38.00389002360962,"lng":23.70225603913556,"url":"https://maps.app.goo.gl/41mNPJi23HwsoihK8?g_st=ipc","address":"Εθνάρχου Μακαρίου 17, Περιστέρι 121 31","categoryIds":["desserts"],"categories":["Dessert Shops"],"distanceKm":0.500449807333632},{"id":"cheapEatsRestaurants_aa9fa501d8da","slug":"billy-s-sandwich-peristeri-billy-s-kantina-aa9f","kind":"restaurant","name":"Billy's sandwich Peristeri (Billy’s Kantina)","lat":38.00300791270127,"lng":23.702770148654015,"url":"https://maps.app.goo.gl/kQSFCYCMduFPwVhw9?g_st=ipc","address":"Π. Μελά 11, Περιστέρι 121 31","categoryIds":["cheap-eats"],"categories":["Gyros & Cheap Eats"],"distanceKm":0.5296322056115951},{"id":"dessertsRestaurants_d015844307c4","slug":"melissa-define-pastry-d015","kind":"restaurant","name":"Melissa Define Pastry","lat":38.005374786794874,"lng":23.70042813616108,"url":"https://maps.app.goo.gl/2dgPEnwHsxFhZdUv8?g_st=ipc","address":"Εθνάρχου Μακαρίου 43, Περιστέρι 121 31","categoryIds":["desserts"],"categories":["Dessert Shops"],"distanceKm":0.584764773768153},{"id":"municipalities_843525938864","slug":"sepolia-8435","kind":"municipality","name":"Σεπόλια","lat":38.0056,"lng":23.7139,"aliases":["Σεπολια"],"region":"Κέντρο Αθήνας","name_en":"Sepolia","region_en":"Athens Center","distanceKm":0.6147503396480728},{"id":"greekRestaurants_8f61506d1171","slug":"basegrill-athens-8f61","kind":"restaurant","name":"Basegrill Athens","lat":38.01200938597209,"lng":23.7082215195935,"url":"https://maps.app.goo.gl/4HcYYs1yQVdq1giy8","address":"Λεωφ. Κωνσταντινουπόλεως 64, Περιστέρι 121 33","categoryIds":["greek-restaurants","luxury-dining"],"categories":["Greek Restaurants","Luxury Dining"],"legacySlugs":["basegrill-athens-1a54"],"distanceKm":0.6292484707810051},{"id":"cheapEatsRestaurants_27095ef62808","slug":"jackaroo-2709","kind":"restaurant","name":"Jackaroo","lat":38.0124039916799,"lng":23.705649430022987,"url":"https://maps.app.goo.gl/ZVfeByxQrS6SFYyH6?g_st=ipc","address":"Παρασκευοπούλου 45, Περιστέρι 121 35","categoryIds":["cheap-eats"],"categories":["Gyros & Cheap Eats"],"distanceKm":0.6733470116491626},{"id":"burgersRestaurants_7bcb47e330c5","slug":"tryfonas-kempaptzidikon-hamburgerie-7bcb","kind":"restaurant","name":"Τρύφωνας Κεμπαπτζίδικoν - Hamburgerie","lat":38.0125506362582,"lng":23.70608974489792,"url":"https://maps.app.goo.gl/cE9CbEn5LYoZ6WKj7?g_st=ipc","address":"Παρασκευοπούλου 51, Περιστέρι 121 34","categoryIds":["burgers","cheap-eats"],"categories":["Burger Spots","Gyros & Cheap Eats"],"legacySlugs":["tryfonas-kempaptzidikon-hamburgerie-390d"],"distanceKm":0.6840292166661247},{"id":"cheapEatsRestaurants_093f463c1994","slug":"krepes-gorillas-093f","kind":"restaurant","name":"Κρέπες Gorillas","lat":38.011039639297316,"lng":23.701212318200714,"url":"https://maps.app.goo.gl/Us2VxvnWiFa4zh7E6?g_st=ipc","address":"Παρασκευοπούλου 14, Περιστέρι 121 32","categoryIds":["cheap-eats"],"categories":["Gyros & Cheap Eats"],"distanceKm":0.718211643436981},{"id":"greekRestaurants_9c5c07b28afc","slug":"schinos-mpistro-9c5c","kind":"restaurant","name":"Σχίνος Μπιστρό","lat":38.01228323858559,"lng":23.703471319893453,"url":"https://maps.app.goo.gl/VEoaxecqRaF6Y2in8","address":"Μεγ. Αλεξάνδρου 88, Περιστέρι 121 32","categoryIds":["greek-restaurants"],"categories":["Greek Restaurants"],"distanceKm":0.7184366956095393},{"id":"greekRestaurants_c4daeb8f4d66","slug":"malanos-c4da","kind":"restaurant","name":"Μαλανος","lat":38.0129537569984,"lng":23.7103246194612,"url":"https://maps.app.goo.gl/RHBwmAA2mvG3Eie58","address":"Ιωλκού 2, Περιστέρι 121 33","categoryIds":["greek-restaurants"],"categories":["Greek Restaurants"],"distanceKm":0.782065192234044},{"id":"cheapEatsRestaurants_e43c2854d472","slug":"armeniko-kempap-to-rodi-the-pomegranate-armenian-kebab-e43c","kind":"restaurant","name":"Αρμένικο Κεμπάπ Το Ρόδι - The pomegranate Armenian kebab","lat":38.00448088015914,"lng":23.715736478884928,"url":"https://maps.app.goo.gl/sFPUNxMQJRmui3Sh7?g_st=ipc","address":"Κρέοντος 163, Αθήνα 104 43","categoryIds":["cheap-eats"],"categories":["Gyros & Cheap Eats"],"distanceKm":0.798770410720305},{"id":"cheapEatsRestaurants_bcddf7ad717f","slug":"wolfie-s-west-side-bcdd","kind":"restaurant","name":"Wolfie’s West Side","lat":38.01077144638466,"lng":23.697740028763043,"url":"https://maps.app.goo.gl/LdnLWyeBqVd2Tcme7?g_st=ipc","address":"Kosta Varnali 6, Peristeri 121 32","categoryIds":["cheap-eats"],"categories":["Gyros & Cheap Eats"],"distanceKm":0.9409447318849313},{"id":"coffeeBrunchRestaurants_311880d8c64b","slug":"the-roosters-3118","kind":"restaurant","name":"The Roosters","lat":38.01136673827295,"lng":23.697881523081808,"url":"https://maps.app.goo.gl/4RrZxNGRywBkjvdY7?g_st=ipc","address":"25ης Μαρτίου 7, Περιστέρι 121 32","categoryIds":["coffee-brunch"],"categories":["Coffee & Brunch Spots"],"distanceKm":0.966263257674282},{"id":"municipalities_6d3b56c27da3","slug":"peristeri-6d3b","kind":"municipality","name":"Περιστέρι","lat":38.015,"lng":23.7035,"aliases":["Peristeria"],"region":"Δυτικά Προάστια","name_en":"Peristeri","region_en":"Western Suburbs","distanceKm":0.9992920795914503},{"id":"coffeeBrunchRestaurants_a657f6b8a354","slug":"lovely-days-a657","kind":"restaurant","name":"Lovely Days","lat":38.00529768504346,"lng":23.695116340010305,"url":"https://maps.app.goo.gl/J9ALB8U7qzvJ4FHB6?g_st=ipc","address":"Σοφοκλή Βενιζέλου 42, Κολοκοτρώνη 35, Περιστέρι 121 31","categoryIds":["coffee-brunch"],"categories":["Coffee & Brunch Spots"],"distanceKm":1.0458041845060246},{"id":"dessertsRestaurants_dee89939fc01","slug":"fatto-a-mano-dee8","kind":"restaurant","name":"Fatto a mano","lat":38.01285925597916,"lng":23.69800274614105,"url":"https://maps.app.goo.gl/pLS84iDcmv72Qzqa6?g_st=ipc","address":"Κώστα Βάρναλη 21, Περιστέρι 121 34","categoryIds":["desserts"],"categories":["Dessert Shops"],"distanceKm":1.0612835910776797},{"id":"cheapEatsRestaurants_e8ef6d026703","slug":"i-vromiara-the-gourmet-street-food-peristeri-e8ef","kind":"restaurant","name":"Η Βρωμιάρα - The Gourmet Street Food Περιστέρι","lat":38.0121286185235,"lng":23.696851045660715,"url":"https://maps.app.goo.gl/zuoR5Z99oiyHXZs26?g_st=ipc","address":"Λεωφ. Παναγή Τσαλδάρη 16, Περιστέρι 121 34","categoryIds":["cheap-eats"],"categories":["Gyros & Cheap Eats"],"distanceKm":1.088824400479153},{"id":"coffeeBrunchRestaurants_1af20f440d3d","slug":"farin-moya-farin-moua-1af2","kind":"restaurant","name":"Φαρίν Μουά (Farin Moua)","lat":38.01222147430599,"lng":23.696769307184784,"url":"https://maps.app.goo.gl/JTr1zxCGMeDfbPnm6?g_st=ipc","address":"Ερυθραίας 2, Περιστέρι 121 34","categoryIds":["coffee-brunch"],"categories":["Coffee & Brunch Spots"],"distanceKm":1.1006604547284227},{"id":"cheapEatsRestaurants_0640e4f8d480","slug":"o-saltsas-0640","kind":"restaurant","name":"Ο Σάλτσας","lat":38.00504433316188,"lng":23.6944140076251,"url":"https://maps.app.goo.gl/FvTc2tgDrzPX1PFX7?g_st=ipc","address":"Σοφοκλή Βενιζέλου 50, Περιστέρι 121 34","categoryIds":["cheap-eats"],"categories":["Gyros & Cheap Eats"],"distanceKm":1.1104918958958687},{"id":"asianRestaurants_0fe2688bf847","slug":"shisan-sushi-bar-0fe2","kind":"restaurant","name":"Shisan Sushi Bar","lat":38.01157900293343,"lng":23.695417186581494,"url":"https://maps.app.goo.gl/W1ubxVBTLcx41Yqd8?g_st=ipc","address":"Αιμιλίου Βεάκη 36, Περιστέρι 121 34","categoryIds":["asian"],"categories":["Asian Restaurants"],"distanceKm":1.1620396064291962},{"id":"cheapEatsRestaurants_dcf501d079db","slug":"psitopoleio-o-meraklis-dcf5","kind":"restaurant","name":"Ψητοπωλείο Ο Μερακλής","lat":38.00168245244077,"lng":23.720330195200393,"url":"https://maps.app.goo.gl/szXw2A8e1LoKnCFc6?g_st=ipc","address":"Αγ. Μελετίου 183, Αθήνα 104 43","categoryIds":["cheap-eats"],"categories":["Gyros & Cheap Eats"],"distanceKm":1.2849099195345033},{"id":"coffeeBrunchRestaurants_d973150da438","slug":"godmama-s-yard-d973","kind":"restaurant","name":"Godmama's Yard","lat":38.01041883422101,"lng":23.693182201934864,"url":"https://maps.app.goo.gl/eq6S1VVqt14LtEJ1A?g_st=ipc","address":"Βασ. Αλεξάνδρου 98, Περιστέρι 121 34","categoryIds":["coffee-brunch"],"categories":["Coffee & Brunch Spots"],"distanceKm":1.2860970091428692},{"id":"coffeeBrunchRestaurants_6a62e770d50a","slug":"mind-the-cup-6a62","kind":"restaurant","name":"Mind The Cup","lat":38.01157944836187,"lng":23.693274104432696,"url":"https://maps.app.goo.gl/ztF6fFTkc58DpW1r6?g_st=ipc","address":"Αιμιλίου Βεάκη 29, Περιστέρι 121 34","categoryIds":["coffee-brunch","vegetarian"],"categories":["Coffee & Brunch Spots","Vegetarian Friendly Restaurants"],"legacySlugs":["mind-the-cup-0167"],"distanceKm":1.3287422078160245}],"sameRegion":[],"mentionedGuides":[],"canonicalSlug":"myrtia-peristeri-d288","isCanonicalEntity":true,"enrichment":{"summary_en":"Μυρτιά - Περιστέρι is a curated restaurant in Περιστέρι 121 32 in the Greek Restaurants collection. It is connected to 12 nearby Googlementor picks to help travelers build a stronger local route.","summary_el":"Μυρτιά - Περιστέρι είναι ένα επιλεγμένο σημείο φαγητού στην περιοχή Περιστέρι 121 32 και ανήκει στη συλλογή Greek Restaurants. Συνδέεται με 12 κοντινές προτάσεις του Googlementor για πιο ολοκληρωμένη εμπειρία.","vibe_tags":["curated"],"best_for":["first-time visitors","food lovers"],"visit_moments":["lunch stop","dinner stop"],"practical_note":"Address and direct map link are available for easy turn-by-turn access.","nearby_walkable_count":12,"nearby_count_2km":48,"confidence":0.98},"areaContext":{"slug":"sepolia","name":"Sepolia"},"intentContexts":[{"href":"/greek-restaurants/sepolia","label":"Greek Restaurants in Sepolia","categorySlug":"greek-restaurants","categoryName":"Greek Restaurants","areaSlug":"sepolia","areaName":"Sepolia"}]},"__N_SSG":true}