{"pageProps":{"entity":{"id":"vegetarianRestaurants_8d2c7b9eb78e","slug":"naanstop-indian-cuisine-8d2c","kind":"restaurant","name":"NaanStop Indian Cuisine","lat":37.98689020299092,"lng":23.76047169895521,"url":"https://maps.app.goo.gl/FunBo9MHcx5NDxcQ7?g_st=ipc","address":"Λεωφ. Αλεξάνδρας 223, Αθήνα 115 23","categoryIds":["vegetarian"],"categories":["Vegetarian Friendly Restaurants"]},"sameCategory":[{"id":"vegetarianRestaurants_d960699f9346","slug":"vegan-carousel-d960","kind":"restaurant","name":"VEGAN CAROUSEL","lat":37.99118694073678,"lng":23.766617711776497,"url":"https://maps.app.goo.gl/17ei25wSbsQBZTsP6?g_st=ipc","address":"Σοφίας Σλήμαν 6, Αθήνα 115 26","categoryIds":["vegetarian"],"categories":["Vegetarian Friendly Restaurants"]},{"id":"vegetarianRestaurants_3ea2a766339f","slug":"mimi-s-cafe-vegan-3ea2","kind":"restaurant","name":"Mimi's Cafe Vegan","lat":37.98928428831877,"lng":23.74327396218684,"url":"https://maps.app.goo.gl/iJpPrYiwEWZ6Zhk59?g_st=ipc","address":"Πλ. Αργεντινής Δημοκρατίας 4, Αθήνα 114 72","categoryIds":["vegetarian"],"categories":["Vegetarian Friendly Restaurants"]},{"id":"vegetarianRestaurants_273e01494cb2","slug":"groceristas-273e","kind":"restaurant","name":"Groceristas","lat":37.97253235052261,"lng":23.747890805995713,"url":"https://maps.app.goo.gl/s2jj4xW4U6Pk7W3N9?g_st=ipc","address":"Σπύρου Μερκούρη 50, Αθήνα 116 34","categoryIds":["vegetarian"],"categories":["Vegetarian Friendly Restaurants"]},{"id":"vegetarianRestaurants_20df7d290d02","slug":"vicky-s-saj-20df","kind":"restaurant","name":"Vicky’s saj","lat":37.984555575680844,"lng":23.737197350556286,"url":"https://maps.app.goo.gl/GQheLZNx169PbGDK9?g_st=ipc","address":"Αραχώβης 29, Αθήνα 106 80","categoryIds":["vegetarian"],"categories":["Vegetarian Friendly Restaurants"]},{"id":"dessertsRestaurants_a146fa72ad20","slug":"ohh-boy-a146","kind":"restaurant","name":"Ohh Boy","lat":37.97243442670494,"lng":23.745570951608226,"url":"https://maps.app.goo.gl/6UUhjHiN4qG6gyXg6?g_st=ipc","address":"Αρχελάου 32, Αθήνα 116 35","categoryIds":["desserts","vegetarian"],"categories":["Dessert Shops","Vegetarian Friendly Restaurants"],"legacySlugs":["ohh-boy-1239"]},{"id":"vegetarianRestaurants_1d02bb631594","slug":"nice-n-easy-1d02","kind":"restaurant","name":"nice n easy","lat":37.98055624645478,"lng":23.738055581611157,"url":"https://maps.app.goo.gl/5WJ6mEF77rV1Cpfv8?g_st=ipc","address":"Ομήρου 60, Αθήνα 106 72","categoryIds":["vegetarian"],"categories":["Vegetarian Friendly Restaurants"]},{"id":"vegetarianRestaurants_4aaf4cac48a9","slug":"pure-juice-bar-kolonaki-4aaf","kind":"restaurant","name":"PURE Juice Bar | Kolonaki","lat":37.981469364192144,"lng":23.7374505875668,"url":"https://maps.app.goo.gl/5fer5pjj8yDkf3VZ7?g_st=ipc","address":"Σίνα 21, Αθήνα 106 80","categoryIds":["vegetarian"],"categories":["Vegetarian Friendly Restaurants"]},{"id":"vegetarianRestaurants_2f95eefcadc8","slug":"the-vegan-vandal-2f95","kind":"restaurant","name":"The Vegan Vandal","lat":37.971917764819835,"lng":23.745569639926703,"url":"https://maps.app.goo.gl/i8rVwiqPkua751nQ7?g_st=ipc","address":"Αμύντα 15, Αθήνα 116 35","categoryIds":["vegetarian"],"categories":["Vegetarian Friendly Restaurants"]},{"id":"vegetarianRestaurants_cf7f490bbd2d","slug":"bamboo-vegan-cf7f","kind":"restaurant","name":"Bamboo Vegan","lat":37.984730799052805,"lng":23.735878610157684,"url":"https://maps.app.goo.gl/BtDhoy7Tfhqa4zzX7?g_st=ipc","address":"Ζωοδόχου Πηγής 36, Αθήνα 106 81","categoryIds":["vegetarian"],"categories":["Vegetarian Friendly Restaurants"]},{"id":"vegetarianRestaurants_7f7c33a1a56c","slug":"rozalia-7f7c","kind":"restaurant","name":"Ροζαλία","lat":37.98607917346581,"lng":23.735180101843408,"url":"https://maps.app.goo.gl/UngDLMKcNPzNvksZ6?g_st=ipc","address":"Βαλτετσίου 59, Αθήνα 106 81","categoryIds":["vegetarian"],"categories":["Vegetarian Friendly Restaurants"]},{"id":"coffeeBrunchRestaurants_d047b317da2a","slug":"to-tsai-d047","kind":"restaurant","name":"To Tsai","lat":37.97897316301174,"lng":23.737126960431553,"url":"https://maps.app.goo.gl/xwzLF5n6xn8fr2tf8?g_st=ipc","address":"Αλ. Σούτσου 19, Αθήνα 106 71","categoryIds":["coffee-brunch","vegetarian"],"categories":["Coffee & Brunch Spots","Vegetarian Friendly Restaurants"],"legacySlugs":["to-tsai-23ba"]},{"id":"vegetarianRestaurants_4f70d2b2123b","slug":"filomila-vegeterian-food-4f70","kind":"restaurant","name":"Filomila Vegeterian Food","lat":37.9853717765479,"lng":23.73508897094766,"url":"https://maps.app.goo.gl/JYkwhsRENEnEtjgHA?g_st=ipc","address":"Ανδρέα Μεταξά 13, Αθήνα 106 81","categoryIds":["vegetarian"],"categories":["Vegetarian Friendly Restaurants"]}],"nearby":[{"id":"asianRestaurants_01d2fd8409bc","slug":"siam-thai-food-01d2","kind":"restaurant","name":"Siam Thai Food","lat":37.98765776292927,"lng":23.75850606152562,"url":"https://maps.app.goo.gl/V19mHCb8LHh8jNgz6?g_st=ipc","address":"Βατοπεδίου 6, Αθήνα 115 23","categoryIds":["asian"],"categories":["Asian Restaurants"],"distanceKm":0.19224849242445233},{"id":"burgersRestaurants_2cfc1007d530","slug":"criminal-taste-smash-burger-2cfc","kind":"restaurant","name":"Criminal Taste - Smash Burger","lat":37.98830387219437,"lng":23.758246415299563,"url":"https://maps.app.goo.gl/bjsnq9fK7qPHgAum7?g_st=ipc","address":"Πανόρμου 10, Αθήνα 115 23","categoryIds":["burgers"],"categories":["Burger Spots"],"distanceKm":0.2504831849848873},{"id":"cheapEatsRestaurants_f3cf5026ad57","slug":"peinirli-ionias-f3cf","kind":"restaurant","name":"Πεϊνιρλί Ιωνίας","lat":37.98758471065417,"lng":23.75770179070527,"url":"https://maps.app.goo.gl/SXittnYdkLPeQRb17?g_st=ipc","address":"Πανόρμου 3, Αθήνα 115 22","categoryIds":["cheap-eats"],"categories":["Gyros & Cheap Eats"],"distanceKm":0.25473723088876854},{"id":"greekRestaurants_b1c00c9474af","slug":"agora-b1c0","kind":"restaurant","name":"AGORA","lat":37.98712790409338,"lng":23.757368207050618,"url":"https://maps.app.goo.gl/UKN5PTfDAJ43RhcT7","address":"31, Χρήστου Βουρνάζου str, Αθήνα 115 21","categoryIds":["greek-restaurants"],"categories":["Greek Restaurants"],"distanceKm":0.27326606534546843},{"id":"asianRestaurants_5a81fb6b9192","slug":"zuzuto-ramen-5a81","kind":"restaurant","name":"Zuzuto Ramen","lat":37.98563972505005,"lng":23.764296512977037,"url":"https://maps.app.goo.gl/ryow8NsFhZuQLDhK7?g_st=ipc","address":"Χαλκηδόνος 66, Αθήνα 115 27","categoryIds":["asian"],"categories":["Asian Restaurants"],"distanceKm":0.3628987609626263},{"id":"coffeeBrunchRestaurants_e05f85a7bf8b","slug":"gaby-e05f","kind":"restaurant","name":"Gaby","lat":37.986676810313035,"lng":23.76468460968007,"url":"https://maps.app.goo.gl/i3aZZJMDZs8yiYD88?g_st=ipc","address":"Λεωφ. Μεσογείων 33-37, Αθήνα 115 26","categoryIds":["coffee-brunch"],"categories":["Coffee & Brunch Spots"],"distanceKm":0.36997522494798074},{"id":"greekRestaurants_f3fc125c2d89","slug":"psistaria-to-agrinio-f3fc","kind":"restaurant","name":"Ψησταριά Το Αγρίνιο","lat":37.98365341957495,"lng":23.761708124944604,"url":"https://maps.app.goo.gl/C245RwiHHTqtJUfs8","address":"Σινώπης 18, Αθήνα 115 27","categoryIds":["greek-restaurants"],"categories":["Greek Restaurants"],"distanceKm":0.37587243481559746},{"id":"cheapEatsRestaurants_4873355e0fc6","slug":"delicious-pitta-queen-4873","kind":"restaurant","name":"Delicious Pitta Queen","lat":37.99092416121966,"lng":23.759496408597567,"url":"https://maps.app.goo.gl/1JBJ1wwqkW21Ww447?g_st=ipc","address":"Πανόρμου 36, Αθήνα 115 23","categoryIds":["cheap-eats"],"categories":["Gyros & Cheap Eats"],"distanceKm":0.45662613701113397},{"id":"municipalities_b643a309d451","slug":"goydi-b643","kind":"municipality","name":"Γουδί","lat":37.9833,"lng":23.765,"aliases":["Goudi","Gudi"],"region":"Κέντρο Αθήνας","name_en":"Goudi","region_en":"Athens Center","distanceKm":0.5629127616552081},{"id":"asianRestaurants_6980a2c0f36c","slug":"rawbata-6980","kind":"restaurant","name":"RawBata","lat":37.991621984562435,"lng":23.76287776299424,"url":"https://maps.app.goo.gl/j57HrF6nf6youYLV8","address":"Lakonias 33, Athina 115 23","categoryIds":["asian"],"categories":["Asian Restaurants"],"distanceKm":0.5668285317804963},{"id":"dessertsRestaurants_33a56f7d2cf2","slug":"andrias-33a5","kind":"restaurant","name":"Ανδριάς","lat":37.98955326408805,"lng":23.76607876362105,"url":"https://maps.app.goo.gl/dtVWFaCoXcBCwpmEA?g_st=ipc","address":"Σεβαστουπόλεως 64, Αθήνα 115 26","categoryIds":["desserts"],"categories":["Dessert Shops"],"distanceKm":0.5737126395923827},{"id":"asianRestaurants_11e9b056b89d","slug":"bulacan-halo-halo-11e9","kind":"restaurant","name":"Bulacan Halo-Halo","lat":37.98164028909841,"lng":23.759642721567413,"url":"https://maps.app.goo.gl/XM8Buphrtabi3YYC9?g_st=ipc","address":"Μιχαλακοπούλου 105, Αθήνα 115 27","categoryIds":["asian"],"categories":["Asian Restaurants"],"distanceKm":0.5882674618232254},{"id":"cheapEatsRestaurants_2d35d62e4881","slug":"kantina-mavili-2d35","kind":"restaurant","name":"Καντίνα Μαβίλη","lat":37.98253879036559,"lng":23.7560791108495,"url":"https://maps.app.goo.gl/tXjW7wXH83v15nHX8?g_st=ipc","address":"Δημ. Σούτσου 3, Αθήνα 115 21","categoryIds":["cheap-eats"],"categories":["Gyros & Cheap Eats"],"distanceKm":0.6183190060547673},{"id":"dessertsRestaurants_82392100ef3d","slug":"galaktopoleio-stamoy-8239","kind":"restaurant","name":"Γαλακτοπωλείο ΣΤΑΜΟΥ","lat":37.99247877904618,"lng":23.761668631710492,"url":"https://maps.app.goo.gl/118TMc1zY2E2HRzEA?g_st=ipc","address":"Πανόρμου 62, Αθήνα 115 23","categoryIds":["desserts"],"categories":["Dessert Shops"],"distanceKm":0.6302119104524581},{"id":"cheapEatsRestaurants_d31bf93dd3fb","slug":"prunas-d31b","kind":"restaurant","name":"Prunas","lat":37.98295319401702,"lng":23.765808326891843,"url":"https://maps.app.goo.gl/TvHy3uq6zYjv7y1f9?g_st=ipc","address":"Δημ. Γουλιάμου 58, Αθήνα 115 27","categoryIds":["cheap-eats"],"categories":["Gyros & Cheap Eats"],"distanceKm":0.6406220397019066},{"id":"greekRestaurants_b44e1eb1d480","slug":"oinomageireio-to-trifylli-b44e","kind":"restaurant","name":"Οινομαγειρείο «Το Τριφύλλι»","lat":37.98741582684548,"lng":23.752997875166535,"url":"https://maps.app.goo.gl/ZaG4vxaqPUZoyUEH7","address":"Παναθηναϊκού 7, Αθήνα 115 21","categoryIds":["greek-restaurants"],"categories":["Greek Restaurants"],"distanceKm":0.6575945656811559},{"id":"municipalities_986a9c2ee700","slug":"zografoy-986a","kind":"municipality","name":"Ζωγράφου","lat":37.9833,"lng":23.7667,"aliases":["Zografou","Zographou"],"region":"Κέντρο Αθήνας","name_en":"Zografou","region_en":"Athens Center","distanceKm":0.6762580735563218},{"id":"coffeeBrunchRestaurants_015dc365632d","slug":"bless-hopes-drinks-015d","kind":"restaurant","name":"Bless Hopes & Drinks","lat":37.98177476738277,"lng":23.764992470497013,"url":"https://maps.app.goo.gl/bMheYFALtaZQt2eg9?g_st=ipc","address":"Παπαδιαμαντοπούλου 118, Ζωγράφου 157 73","categoryIds":["coffee-brunch"],"categories":["Coffee & Brunch Spots"],"distanceKm":0.6931995145350643},{"id":"cheapEatsRestaurants_000769981d10","slug":"piatsa-tylichto-0007","kind":"restaurant","name":"Πιάτσα Τυλιχτό","lat":37.992812158549924,"lng":23.762955305614238,"url":"https://maps.app.goo.gl/99Gr2Rnp3uGrkmWWA?g_st=ipc","address":"Λαρίσης 33, Αθήνα 115 23","categoryIds":["cheap-eats"],"categories":["Gyros & Cheap Eats"],"distanceKm":0.6935292059709408},{"id":"vegetarianRestaurants_d960699f9346","slug":"vegan-carousel-d960","kind":"restaurant","name":"VEGAN CAROUSEL","lat":37.99118694073678,"lng":23.766617711776497,"url":"https://maps.app.goo.gl/17ei25wSbsQBZTsP6?g_st=ipc","address":"Σοφίας Σλήμαν 6, Αθήνα 115 26","categoryIds":["vegetarian"],"categories":["Vegetarian Friendly Restaurants"],"distanceKm":0.7199802271210608},{"id":"coffeeBrunchRestaurants_778f1a8f2b27","slug":"noemi-athens-778f","kind":"restaurant","name":"Noemi Athens","lat":37.98261642912539,"lng":23.76682899259837,"url":"https://maps.app.goo.gl/CUvMnKb1Hruhtibb8?g_st=ipc","address":"Παπαδιαμαντοπούλου 138, Αθήνα 157 73","categoryIds":["coffee-brunch"],"categories":["Coffee & Brunch Spots"],"distanceKm":0.7322996621861728},{"id":"rooftopLoungesRestaurants_f7a32b8c6926","slug":"deos-f7a3","kind":"restaurant","name":"Deos","lat":37.99283916898427,"lng":23.76419184118261,"url":"https://maps.app.goo.gl/XiQsBWs7XeVDvyW1A?g_st=ipc","address":"Λουίζης Ριανκούρ 64, Αθήνα 115 23","categoryIds":["rooftop-lounges"],"categories":["Rooftop Lounges"],"distanceKm":0.7374691544860362},{"id":"dessertsRestaurants_b83e09929158","slug":"zacharoplasteia-konstantinidis-b83e","kind":"restaurant","name":"ΖΑΧΑΡΟΠΛΑΣΤΕΙΑ ΚΩΝΣΤΑΝΤΙΝΙΔΗΣ","lat":37.989007700389564,"lng":23.768816133618305,"url":"https://maps.app.goo.gl/kiKCSDG9JX1cLwVf9?g_st=ipc","address":"Λεωφ. Μεσογείων 86, Αθήνα 115 27","categoryIds":["desserts"],"categories":["Dessert Shops"],"distanceKm":0.7682536322962649},{"id":"asianRestaurants_315dc41692bd","slug":"sakura-sushi-and-steak-house-315d","kind":"restaurant","name":"Sakura Sushi and Steak House","lat":37.992808848594535,"lng":23.76520165923385,"url":"https://maps.app.goo.gl/qjninjaDQmMf2fNU7","address":"Doukissis Plakentias 73, Athina 115 23","categoryIds":["asian"],"categories":["Asian Restaurants"],"distanceKm":0.7777818865887904}],"sameRegion":[],"mentionedGuides":[],"canonicalSlug":"naanstop-indian-cuisine-8d2c","isCanonicalEntity":true,"enrichment":{"summary_en":"NaanStop Indian Cuisine is a curated restaurant in Αθήνα 115 23 in the Vegetarian Friendly Restaurants collection. It is connected to 26 nearby Googlementor picks to help travelers build a stronger local route.","summary_el":"NaanStop Indian Cuisine είναι ένα επιλεγμένο σημείο φαγητού στην περιοχή Αθήνα 115 23 και ανήκει στη συλλογή Vegetarian Friendly Restaurants. Συνδέεται με 26 κοντινές προτάσεις του Googlementor για πιο ολοκληρωμένη εμπειρία.","vibe_tags":["curated"],"best_for":["first-time visitors","food lovers"],"visit_moments":["lunch stop","dinner stop"],"practical_note":"Address and direct map link are available for easy turn-by-turn access.","nearby_walkable_count":26,"nearby_count_2km":123,"confidence":0.98},"areaContext":{"slug":"goydi","name":"Goudi"},"intentContexts":[{"href":"/vegetarian/goydi","label":"Vegetarian Friendly Restaurants in Goudi","categorySlug":"vegetarian","categoryName":"Vegetarian Friendly Restaurants","areaSlug":"goydi","areaName":"Goudi"}]},"__N_SSG":true}