{"pageProps":{"entity":{"id":"coffeeBrunchRestaurants_e72432c365d7","slug":"nisos-cafe-bar-e724","kind":"restaurant","name":"Nisos Café Bar","lat":37.71981320719648,"lng":23.912954314854076,"url":"https://maps.app.goo.gl/c8xgWYxc6QFikVut9?g_st=ipc","address":"Λεωφ. Αθηνών Σουνίου 48 5, Ανάβυσσος 190 13","categoryIds":["coffee-brunch"],"categories":["Coffee & Brunch Spots"]},"sameCategory":[{"id":"coffeeBrunchRestaurants_80a974b8dc70","slug":"estiatorio-limnis-80a9","kind":"restaurant","name":"Εστιατόριο Λίμνης","lat":37.80691600865377,"lng":23.785479129703763,"url":"https://maps.app.goo.gl/mDVVDSh15YWjZRdF9?g_st=ipc","address":"Λίμνη, Βουλιαγμένη 166 71","categoryIds":["coffee-brunch"],"categories":["Coffee & Brunch Spots"]},{"id":"coffeeBrunchRestaurants_8b66a0a4f338","slug":"moorings-8b66","kind":"restaurant","name":"Moorings","lat":37.80205351483022,"lng":23.772631066760855,"url":"https://maps.app.goo.gl/YdREkVBev1UQTkqh6?g_st=ipc","address":"Μαρινα Βουλιαγμενης, Βουλιαγμένη 166 71","categoryIds":["coffee-brunch","luxury-dining"],"categories":["Coffee & Brunch Spots","Luxury Dining"],"legacySlugs":["moorings-e85b"]},{"id":"coffeeBrunchRestaurants_0b20fa30dfc5","slug":"sofi-s-eatery-0b20","kind":"restaurant","name":"Sofi’s Eatery","lat":37.81302845785067,"lng":23.782463728500748,"url":"https://maps.app.goo.gl/Pa3TPAmcLCv6SJsw5?g_st=ipc","address":"Αγίου Παντελεήμονος 7, Βουλιαγμένη 166 71","categoryIds":["coffee-brunch"],"categories":["Coffee & Brunch Spots"]},{"id":"coffeeBrunchRestaurants_1e8b13cd507d","slug":"riviera-coast-1e8b","kind":"restaurant","name":"Riviera Coast","lat":37.8360364556755,"lng":23.766880988503196,"url":"https://maps.app.goo.gl/d8HG2cz27hm9ZC3r9?g_st=ipc","address":"Λεωφ. Κωνσταντίνου Καραμανλή 18, Βούλα 166 73","categoryIds":["coffee-brunch"],"categories":["Coffee & Brunch Spots"]},{"id":"coffeeBrunchRestaurants_264a40023d71","slug":"oven-264a","kind":"restaurant","name":"όβεν","lat":37.83821741108239,"lng":23.7685609654253,"url":"https://maps.app.goo.gl/gmek3DFpsqqbYYR49?g_st=ipc","address":"Λεωφ. Βασιλέως Παύλου 104, Βούλα 166 73","categoryIds":["coffee-brunch"],"categories":["Coffee & Brunch Spots"]},{"id":"coffeeBrunchRestaurants_8123cddfff42","slug":"rey-pablo-8123","kind":"restaurant","name":"Rey Pablo","lat":37.83850094604755,"lng":23.768770335582047,"url":"https://maps.app.goo.gl/x4TKdGZ4P6i8FcrE6?g_st=ipc","address":"91, Λεωφ. Βασιλέως Παύλου 89, Βούλα 166 73","categoryIds":["coffee-brunch"],"categories":["Coffee & Brunch Spots"]},{"id":"coffeeBrunchRestaurants_12111c54ea5b","slug":"bloom-projectgr-1211","kind":"restaurant","name":"bloom_projectgr","lat":37.84969738967142,"lng":23.751254153373072,"url":"https://maps.app.goo.gl/aVjkRWWznkDXoF5n6?g_st=ipc","address":"4, Λεωφ. Αλκυονίδων Ave, Βούλα 166 73","categoryIds":["coffee-brunch"],"categories":["Coffee & Brunch Spots"]},{"id":"coffeeBrunchRestaurants_798042ad21e8","slug":"opus-inner-pleasure-7980","kind":"restaurant","name":"OPUS Inner Pleasure","lat":37.85815683883427,"lng":23.754579101528986,"url":"https://maps.app.goo.gl/s6FvEiAwBwBVBs2t9?g_st=ipc","address":"Πανδώρας 9, Γλυφάδα 166 74","categoryIds":["coffee-brunch"],"categories":["Coffee & Brunch Spots"]},{"id":"coffeeBrunchRestaurants_9c82093341f1","slug":"kazba-bar-kouzina-9c82","kind":"restaurant","name":"Kazba Bar Kouzina","lat":37.89105125077896,"lng":24.008282807805728,"url":"https://maps.app.goo.gl/RrMxEDqS2TizyDi36?g_st=ipc","address":"Λεωφ. Γ. Γρέγου 27, Πόρτο Ράφτη 190 03","categoryIds":["coffee-brunch"],"categories":["Coffee & Brunch Spots"]},{"id":"coffeeBrunchRestaurants_296c68e50c96","slug":"blends-mix-match-296c","kind":"restaurant","name":"Blends Mix & Match","lat":37.86035282429643,"lng":23.756257632105665,"url":"https://maps.app.goo.gl/VgzGwQBJonZ2HWs87?g_st=ic","address":"Pl. Nimfon, Glifada 166 74","categoryIds":["coffee-brunch"],"categories":["Coffee & Brunch Spots"]},{"id":"coffeeBrunchRestaurants_1534d718f542","slug":"su-casa-1534","kind":"restaurant","name":"Su Casa","lat":37.8602791456983,"lng":23.75556920044941,"url":"https://maps.app.goo.gl/LzYwvbcwMZCWEetj9?g_st=ipc","address":"Pl. Nimfon, Glifada 166 74","categoryIds":["coffee-brunch"],"categories":["Coffee & Brunch Spots"]},{"id":"coffeeBrunchRestaurants_645a2c954fa3","slug":"wynwood-eat-sip-gather-the-miami-style-645a","kind":"restaurant","name":"Wynwood - Eat Sip & Gather the Miami Style","lat":37.85990914525332,"lng":23.75494068810683,"url":"https://maps.app.goo.gl/YQMJ5PpN4Cvem9qf6?g_st=ipc","address":"Φοίβης 15, Γλυφάδα 166 74","categoryIds":["coffee-brunch"],"categories":["Coffee & Brunch Spots"]}],"nearby":[{"id":"familyFriendly_18bddf615bf3","slug":"anima-club-18bd","kind":"restaurant","name":"Anima Club","lat":37.74050273423326,"lng":23.921750567749367,"url":"https://maps.app.goo.gl/iMm9xyAzQoQ2dUJU9?g_st=ipc","address":"Υακίνθου Str, Ανάβυσσος 190 13","categoryIds":["family-friendly"],"categories":["Kid Friendly Locations"],"distanceKm":2.427148531094434},{"id":"municipalities_0d14e9726ecb","slug":"anavyssos-0d14","kind":"municipality","name":"Ανάβυσσος","lat":37.7339,"lng":23.9355,"region":"Νότια Αττική","name_en":"Anavyssos","region_en":"South Attica","distanceKm":2.5269044352607386},{"id":"fishTavernasRestaurants_bee964d3fc5b","slug":"akrogiali-bee9","kind":"restaurant","name":"ΑΚΡΟΓΙΑΛΙ","lat":37.71656419364308,"lng":23.94570181232825,"url":"https://maps.app.goo.gl/zRnJu32Cpbu5tH579?g_st=ipc","address":"Λεωφ. Αθηνών Σουνίου 5, Παλαιά Φώκαια 190 13","categoryIds":["fish-tavernas"],"categories":["Fish Tavernas"],"distanceKm":2.90298696967406},{"id":"fishTavernasRestaurants_c23b79f3de18","slug":"taverna-antigoni-c23b","kind":"restaurant","name":"Ταβερνα Αντιγόνη","lat":37.69076965870636,"lng":23.94467815593701,"url":"https://maps.app.goo.gl/HmragYkeYQJ2VW7G6?g_st=ipc","address":"Μακροδημητραίων, Θυμάρι 190 13","categoryIds":["fish-tavernas"],"categories":["Fish Tavernas"],"distanceKm":4.268321698213374},{"id":"fishTavernasRestaurants_01155b02f60d","slug":"kyra-popi-taverna-0115","kind":"restaurant","name":"Κυρά Πόπη Ταβέρνα","lat":37.78165801312647,"lng":23.89057104630703,"url":"https://maps.app.goo.gl/inr16Vqi6f4XARj86?g_st=ipc","address":"40.5, Λεωφ. Αθηνών Σουνίου, Καλύβια Θορικού 190 10","categoryIds":["fish-tavernas"],"categories":["Fish Tavernas"],"distanceKm":7.152868599601359},{"id":"cheapEatsRestaurants_2fe91c5ec4e8","slug":"pita-lagonisi-2fe9","kind":"restaurant","name":"Πίτα Λαγονήσι","lat":37.787769077925994,"lng":23.886240321695578,"url":"https://maps.app.goo.gl/gnVwTeJ7a9GqoCGQ9?g_st=ipc","address":"Λεωφ. Καλυβίων 4, Σαρωνικός 190 10","categoryIds":["cheap-eats"],"categories":["Gyros & Cheap Eats"],"distanceKm":7.912918405862756},{"id":"fishTavernasRestaurants_531d3190b4cc","slug":"ta-kalamia-531d","kind":"restaurant","name":"Τα Καλάμια","lat":37.79114152759292,"lng":23.879331978178946,"url":"https://maps.app.goo.gl/UabcyR39Vi7C4sYK7?g_st=ipc","address":"Αθηνων, Καλύβια Θορικού 190 10","categoryIds":["fish-tavernas"],"categories":["Fish Tavernas"],"distanceKm":8.464247828814715},{"id":"fishTavernasRestaurants_57dd1c9928eb","slug":"theodoros-eleni-57dd","kind":"restaurant","name":"Θεόδωρος & Ελένη","lat":37.66821016175742,"lng":23.995505349183023,"url":"https://maps.app.goo.gl/5HLB654RHJNN8sJg6?g_st=ipc","address":"Λεωφ. Λεγραινών, Λαυρεωτική 195 00","categoryIds":["fish-tavernas"],"categories":["Fish Tavernas"],"distanceKm":9.25645787358138},{"id":"municipalities_96cb11c2edc9","slug":"lagonisi-96cb","kind":"municipality","name":"Λαγονήσι","lat":37.8053,"lng":23.8864,"region":"Νότια Αττική","name_en":"Lagonisi","region_en":"South Attica","distanceKm":9.78811185744751},{"id":"fishTavernasRestaurants_250ac79e5fa5","slug":"marida-soynio-250a","kind":"restaurant","name":"Μαρίδα Σούνιο","lat":37.663243704417745,"lng":24.000465853725956,"url":"https://maps.app.goo.gl/8emqMV9UqAiZvW9q9?g_st=ipc","address":"64,5 χλμ. παραλιακη Αθηνων-Σουνίου, Λεγραινα, Σούνιο 195 00","categoryIds":["fish-tavernas"],"categories":["Fish Tavernas"],"distanceKm":9.942807091229522},{"id":"wineriesVineyards_fb04a0d726bd","slug":"oinopoieio-prifti-fb04","kind":"restaurant","name":"Οινοποιείο Πρίφτη","lat":37.742934639668164,"lng":24.024928046003534,"url":"https://maps.app.goo.gl/s9SpDZV9kTGdK3aE6?g_st=ipc","address":"Μαρκάτι 190 01","categoryIds":["wineries-vineyards"],"categories":["Wineries & Vineyards"],"distanceKm":10.177373615077784},{"id":"fishTavernasRestaurants_3d3979b06e71","slug":"taverna-stamatis-3d39","kind":"restaurant","name":"Ταβέρνα Σταμάτης","lat":37.662782663333054,"lng":24.004791713992123,"url":"https://maps.app.goo.gl/gJf1KcE3sZPjDyz8A?g_st=ipc","address":"Λεωφόρος Αθηνών Σουνίου,Εσπερίδες, Σούνιο 195 00","categoryIds":["fish-tavernas"],"categories":["Fish Tavernas"],"distanceKm":10.272007055164984},{"id":"monasteriesChurches_74cb37d8010a","slug":"ieros-naos-agioy-dimitrioy-saronikoy-11os-ai-74cb","kind":"restaurant","name":"Ιερός Ναός Αγίου Δημητρίου Σαρωνικού (11ος αι.)","lat":37.807214865085356,"lng":23.869268370594398,"url":"https://maps.app.goo.gl/Yg4DX1pMZC5BvTyv9?g_st=ipc","address":"Αγίου Δημητρίου, Αγ. Μαρίνα 194 00","categoryIds":["monasteries-churches"],"categories":["Monasteries & Spiritual Sites"],"distanceKm":10.449817662939079},{"id":"cheapEatsRestaurants_d994fad95b5a","slug":"aroma-elladas-d994","kind":"restaurant","name":"Άρωμα Ελλάδας","lat":37.80578649121729,"lng":23.9833913286695,"url":"https://maps.app.goo.gl/cDRv243YonNg2qnB6?g_st=ipc","address":"Ευεργέτη Κωνσταντίνου Πρίφτη 57, Κερατέα 190 01","categoryIds":["cheap-eats"],"categories":["Gyros & Cheap Eats"],"distanceKm":11.389819279900532},{"id":"greekRestaurants_69fc9f288c42","slug":"lazo-69fc","kind":"restaurant","name":"Λάζο","lat":37.808550661496035,"lng":23.978467603150243,"url":"https://maps.app.goo.gl/fKnjDEunWNjANCQ27","address":"Αθηνών Σουνίου 53, Κερατέα 190 01","categoryIds":["greek-restaurants"],"categories":["Greek Restaurants"],"distanceKm":11.424766243676864},{"id":"greekRestaurants_fbdca7941b9f","slug":"stafylomeli-fbdc","kind":"restaurant","name":"Σταφυλομέλι","lat":37.80427446071782,"lng":23.98986829628017,"url":"https://maps.app.goo.gl/aDeFKvVmZyVF7ZpSA","address":"Επαρ.Οδ. Κερατέας-Ανάβυσσου 77, Κερατέα 190 01","categoryIds":["greek-restaurants"],"categories":["Greek Restaurants"],"distanceKm":11.572273302062333},{"id":"dessertsRestaurants_630fa546c8bd","slug":"zacharoplasteio-th-e-k-a-630f","kind":"restaurant","name":"Ζαχαροπλαστείο Θ.Ε.Κ.Α.","lat":37.809996734741844,"lng":23.981187744739113,"url":"https://maps.app.goo.gl/k7AZJfKYi8WUV3oM9?g_st=ipc","address":"Επαρ.Οδ. Κερατέας-Κακής Θάλασσας, Κερατέα 190 01","categoryIds":["desserts"],"categories":["Dessert Shops"],"distanceKm":11.684811542669221},{"id":"fishTavernasRestaurants_0d4e91934017","slug":"psarotaverna-o-ilias-0d4e","kind":"restaurant","name":"Ψαροταβέρνα Ο Ηλίας","lat":37.65514957480802,"lng":24.024008483511512,"url":"https://maps.app.goo.gl/HjnPeLQuxSvNKiyCA?g_st=ipc","address":"Σούνιο 195 00","categoryIds":["fish-tavernas"],"categories":["Fish Tavernas"],"distanceKm":12.132428009532312},{"id":"fishTavernasRestaurants_4f8b38351522","slug":"akrogiali-4f8b","kind":"restaurant","name":"Ακρογιάλι","lat":37.65493906656911,"lng":24.024336259308715,"url":"https://maps.app.goo.gl/79yGx1u8SDf1eccW7?g_st=ipc","address":"Lavrion 195 00","categoryIds":["fish-tavernas"],"categories":["Fish Tavernas"],"distanceKm":12.169543307093498},{"id":"fishTavernasRestaurants_06b05ccb28e3","slug":"o-foros-psarotaverna-06b0","kind":"restaurant","name":"Ο Φόρος Ψαροταβέρνα","lat":37.730230476020374,"lng":24.052869189449837,"url":"https://maps.app.goo.gl/3QEEjs3jdS92q1p9A?g_st=ipc","address":"Θορικό 195 00","categoryIds":["fish-tavernas"],"categories":["Fish Tavernas"],"distanceKm":12.359957938046236},{"id":"fishTavernasRestaurants_ce6329f6bd44","slug":"vallis-restaurant-syrtaki-ce63","kind":"restaurant","name":"Vallis Restaurant Syrtaki","lat":37.66509395086791,"lng":24.035863264626645,"url":"https://maps.app.goo.gl/YDzUffe7ge8q4jKf9?g_st=ipc","address":"195 00, Λεωφ. Σουνίου 114, Κάτω Σούνιο 195 00","categoryIds":["fish-tavernas"],"categories":["Fish Tavernas"],"distanceKm":12.408766303980206},{"id":"cheapEatsRestaurants_598437c8481b","slug":"gyradiko-o-christos-5984","kind":"restaurant","name":"Γυραδικο \"Ο Χρήστος\"","lat":37.7173396733135,"lng":24.054314949086613,"url":"https://maps.app.goo.gl/Kg9SVim1DWH8Lytb6?g_st=ipc","address":"Λεωφ. Σουνίου 6, Λαύριο 195 00","categoryIds":["cheap-eats","greek-restaurants"],"categories":["Gyros & Cheap Eats","Greek Restaurants"],"legacySlugs":["gyradiko-o-christos-d71e"],"distanceKm":12.436838004073637},{"id":"dessertsRestaurants_af542a277d7b","slug":"solo-gelato-layrio-af54","kind":"restaurant","name":"Solo Gelato Λαύριο","lat":37.715574795821375,"lng":24.054591619024354,"url":"https://maps.app.goo.gl/N2FmFnyANGsotRZs7?g_st=ipc","address":"Πλ. Ηρ. Πολυτεχνείου 28, Λαύριο 195 00","categoryIds":["desserts"],"categories":["Dessert Shops"],"distanceKm":12.467191131558714},{"id":"mustSeeAttractions_4af28e33d14a","slug":"naos-poseidona-4af2","kind":"restaurant","name":"Ναός Ποσειδώνα","lat":37.65020662017392,"lng":24.024585105239044,"url":"https://maps.app.goo.gl/TiGdJ3goZZvH3vQTA?g_st=ipc","address":"Σούνιο 195 00","categoryIds":["attractions"],"categories":["Must-See Attractions"],"distanceKm":12.506101625765945}],"sameRegion":[],"mentionedGuides":[],"canonicalSlug":"nisos-cafe-bar-e724","isCanonicalEntity":true,"enrichment":{"summary_en":"Nisos Café Bar is a curated restaurant in Ανάβυσσος 190 13 in the Coffee & Brunch Spots collection. It is connected to 0 nearby Googlementor picks to help travelers build a stronger local route.","summary_el":"Nisos Café Bar είναι ένα επιλεγμένο σημείο φαγητού στην περιοχή Ανάβυσσος 190 13 και ανήκει στη συλλογή Coffee & Brunch Spots. Συνδέεται με 0 κοντινές προτάσεις του Googlementor για πιο ολοκληρωμένη εμπειρία.","vibe_tags":["curated","daytime-favorite"],"best_for":["first-time visitors","food lovers"],"visit_moments":["early morning","late brunch"],"practical_note":"Address and direct map link are available for easy turn-by-turn access.","nearby_walkable_count":0,"nearby_count_2km":0,"confidence":0.9},"areaContext":null,"intentContexts":[]},"__N_SSG":true}