{"pageProps":{"entity":{"id":"vegetarianRestaurants_663d79e21a0f","slug":"noa-poke-koukaki-663d","kind":"restaurant","name":"Noa Poke Koukaki","lat":37.962721066064105,"lng":23.72328239582356,"url":"https://maps.app.goo.gl/2BHN8JbCEv2oz4LT8?g_st=ipc","address":"Φαλήρου 84, Αθήνα 117 41","categoryIds":["vegetarian"],"categories":["Vegetarian Friendly Restaurants"]},"sameCategory":[{"id":"vegetarianRestaurants_06ce84bd30cd","slug":"mother-vegan-bistro-06ce","kind":"restaurant","name":"Mother Vegan Bistro","lat":37.962693218314804,"lng":23.721538252984118,"url":"https://maps.app.goo.gl/TZgz9fcY4M4aZZQD6?g_st=ipc","address":"Δημητρακοπούλου, Αγίου Νικολάου 95, Αθήνα 117 41","categoryIds":["vegetarian"],"categories":["Vegetarian Friendly Restaurants"]},{"id":"coffeeBrunchRestaurants_10b5704edcd7","slug":"karminio-all-day-eatery-10b5","kind":"restaurant","name":"KARMINIO - All Day Eatery","lat":37.963365261808825,"lng":23.721069408577183,"url":"https://maps.app.goo.gl/B47HWPSnhF6mtY1M8?g_st=ipc","address":"Βεΐκου 86, Αθήνα 117 41","categoryIds":["coffee-brunch","vegetarian"],"categories":["Coffee & Brunch Spots","Vegetarian Friendly Restaurants"],"legacySlugs":["karminio-all-day-eatery-44c1"]},{"id":"vegetarianRestaurants_4db58e18de0e","slug":"peas-vegan-4db5","kind":"restaurant","name":"Peas Vegan","lat":37.965309081383936,"lng":23.72648212033699,"url":"https://maps.app.goo.gl/8AeCWeh7LczgaD87A?g_st=ipc","address":"Φαλήρου 40, Αθήνα 117 42","categoryIds":["vegetarian"],"categories":["Vegetarian Friendly Restaurants"]},{"id":"coffeeBrunchRestaurants_85c9b3242244","slug":"this-is-loco-85c9","kind":"restaurant","name":"This is Loco","lat":37.96542578565319,"lng":23.726906270555997,"url":"https://maps.app.goo.gl/DKCmfLqp6KdRCVPg6?g_st=ipc","address":"Φαλήρου 47, Αθήνα 117 42","categoryIds":["coffee-brunch","vegetarian"],"categories":["Coffee & Brunch Spots","Vegetarian Friendly Restaurants"],"legacySlugs":["this-is-loco-0b77"]},{"id":"cheapEatsRestaurants_ccda7a47a1b9","slug":"falafel-bar-to-revithi-ccda","kind":"restaurant","name":"falafel bar ΤΟ ΡΕΒΙΘΙ","lat":37.96631483519238,"lng":23.7261110398094,"url":"https://maps.app.goo.gl/4FqJYg2raYZvXHja7?g_st=ipc","address":"Παρθενώνος 1, Αθήνα 117 42","categoryIds":["cheap-eats","vegetarian"],"categories":["Gyros & Cheap Eats","Vegetarian Friendly Restaurants"],"legacySlugs":["falafel-bar-to-revithi-dec0"]},{"id":"vegetarianRestaurants_aff422e1c3ba","slug":"mama-tierra-acropolis-vegan-street-food-aff4","kind":"restaurant","name":"Mama Tierra Acropolis - Vegan street food","lat":37.967546083723775,"lng":23.729864462543613,"url":"https://maps.app.goo.gl/3M9tmest5ooaQwtE8?g_st=ipc","address":"Χατζηχρήστου 29, Αθήνα 117 42","categoryIds":["vegetarian"],"categories":["Vegetarian Friendly Restaurants"]},{"id":"dessertsRestaurants_7f61f06e1814","slug":"ice-queen-gelato-7f61","kind":"restaurant","name":"Ice Queen Gelato","lat":37.96875198593791,"lng":23.729719578537868,"url":"https://maps.app.goo.gl/HyCCcJSVYZCw8dMV7?g_st=ipc","address":"Μακρυγιάννη 9, Αθήνα 117 42","categoryIds":["desserts","vegetarian"],"categories":["Dessert Shops","Vegetarian Friendly Restaurants"],"legacySlugs":["ice-queen-gelato-e688"]},{"id":"vegetarianRestaurants_981aa1875a12","slug":"indian-haveli-981a","kind":"restaurant","name":"Indian Haveli","lat":37.96857000104929,"lng":23.731444541000045,"url":"https://maps.app.goo.gl/2tEYTJw1y4aL2Rgo7?g_st=ipc","address":"Λεωφ. Ανδρέα Συγγρού 12, Αθήνα 117 42","categoryIds":["vegetarian"],"categories":["Vegetarian Friendly Restaurants"]},{"id":"vegetarianRestaurants_0ae45380f9c5","slug":"veganaki-0ae4","kind":"restaurant","name":"Veganaki","lat":37.96756765452738,"lng":23.732928786701812,"url":"https://maps.app.goo.gl/t4BDCPnwuYDPfBZS9?g_st=ipc","address":"Αθανασίου Διάκου 38 (38, Αθήνα 117 43","categoryIds":["vegetarian"],"categories":["Vegetarian Friendly Restaurants"]},{"id":"coffeeBrunchRestaurants_88ec9d6dfbbc","slug":"joshua-tree-cafe-88ec","kind":"restaurant","name":"Joshua Tree Cafe","lat":37.96618895456632,"lng":23.73475215870415,"url":"https://maps.app.goo.gl/hxko2CRaz8QbMJPc8?g_st=ipc","address":"Αναπαύσεως 13, Αθήνα 116 36","categoryIds":["coffee-brunch","vegetarian"],"categories":["Coffee & Brunch Spots","Vegetarian Friendly Restaurants"],"legacySlugs":["joshua-tree-cafe-e75c"]},{"id":"burgersRestaurants_82d2f41d9265","slug":"big-nick-82d2","kind":"restaurant","name":"Big Nick","lat":37.956445331565305,"lng":23.73566615673783,"url":"https://maps.app.goo.gl/j5eRwkA5Uf2bwVHs7?g_st=ipc","address":"Λεωφόρος Βουλιαγμένης 145, Αθήνα 116 31","categoryIds":["burgers","vegetarian"],"categories":["Burger Spots","Vegetarian Friendly Restaurants"],"legacySlugs":["big-nick-ce09"]},{"id":"vegetarianRestaurants_6bddca4a5310","slug":"the-room-mets-6bdd","kind":"restaurant","name":"THE ROOM METS","lat":37.96677955241959,"lng":23.737885963446566,"url":"https://maps.app.goo.gl/stBGTxofrCxpCP4q7?g_st=ipc","address":"Μαρκ. Μουσούρου 22, Αθήνα 116 36","categoryIds":["vegetarian"],"categories":["Vegetarian Friendly Restaurants"]}],"nearby":[{"id":"asianRestaurants_a89412856273","slug":"koyasan-in-koukaki-a894","kind":"restaurant","name":"Koyasan in koukaki","lat":37.96291366771106,"lng":23.723242897494586,"url":"https://maps.app.goo.gl/4sTjgzzfABYKexbx6?g_st=ipc","address":"17 & Ο, Ζαν Μωρεάς, Γεωρ. Ανδρούτσου, Αθήνα 117 41","categoryIds":["asian"],"categories":["Asian Restaurants"],"distanceKm":0.02169445475852355},{"id":"coffeeBrunchRestaurants_6154e62b6cd6","slug":"mpel-rey-6154","kind":"restaurant","name":"Μπελ Ρεϋ","lat":37.96239606904346,"lng":23.722769926662476,"url":"https://maps.app.goo.gl/zGZShvHird8bq92Q9?g_st=ipc","address":"Φαλήρου 88, Αθήνα 117 41","categoryIds":["coffee-brunch"],"categories":["Coffee & Brunch Spots"],"distanceKm":0.057657459542352546},{"id":"coffeeBrunchRestaurants_946f8ff0112c","slug":"hippy-hippo-946f","kind":"restaurant","name":"Hippy Hippo","lat":37.96338312245576,"lng":23.724161260955565,"url":"https://maps.app.goo.gl/dGXFqUaPgJg6izKF7?g_st=ipc","address":"Αναστασίου Ζίννη 37, Αθήνα 117 41","categoryIds":["coffee-brunch"],"categories":["Coffee & Brunch Spots"],"distanceKm":0.10656364835725776},{"id":"cheapEatsRestaurants_f167ae0efa67","slug":"kalyvas-oikogeneiako-psitopoleio-f167","kind":"restaurant","name":"Καλύβας οικογενειακό ψητοπωλείο","lat":37.962881286635515,"lng":23.721970322127277,"url":"https://maps.app.goo.gl/tfkKpGgKP9PAqPWX9?g_st=ipc","address":"Dimitrakopoulou 91-93, G Olymbiou 10, Athina 117 41","categoryIds":["cheap-eats"],"categories":["Gyros & Cheap Eats"],"distanceKm":0.11639737245735095},{"id":"burgersRestaurants_ad6cf86d44bd","slug":"sam-burgers-ad6c","kind":"restaurant","name":"Sam burgers","lat":37.96388468249238,"lng":23.72312062221316,"url":"https://maps.app.goo.gl/pYEUc4KHraPYUmvN8?g_st=ipc","address":"Δημητρακοπούλου 82, Αθήνα 117 41","categoryIds":["burgers"],"categories":["Burger Spots"],"distanceKm":0.13016316994829819},{"id":"mexicanRestaurants_b734434ef46c","slug":"el-burro-tacos-y-tequila-b734","kind":"restaurant","name":"El burro tacos y tequila","lat":37.962922862445566,"lng":23.7215865155236,"url":"https://maps.app.goo.gl/5kJKHTBcWjkVftX99?g_st=ipc","address":"Δημητρακοπούλου 102, Αθήνα 117 41","categoryIds":["mexican"],"categories":["Mexican Restaurants"],"distanceKm":0.1503568458780515},{"id":"dessertsRestaurants_565a86e193ac","slug":"loukoumania-koukaki-565a","kind":"restaurant","name":"Loukoumania Koukaki","lat":37.96292938267619,"lng":23.721586647006472,"url":"https://maps.app.goo.gl/ZLLgE9gFjGjPVqBp7?g_st=ipc","address":"Δημητρακοπούλου 102, Αθήνα 117 41","categoryIds":["desserts"],"categories":["Dessert Shops"],"distanceKm":0.15045535683060002},{"id":"vegetarianRestaurants_06ce84bd30cd","slug":"mother-vegan-bistro-06ce","kind":"restaurant","name":"Mother Vegan Bistro","lat":37.962693218314804,"lng":23.721538252984118,"url":"https://maps.app.goo.gl/TZgz9fcY4M4aZZQD6?g_st=ipc","address":"Δημητρακοπούλου, Αγίου Νικολάου 95, Αθήνα 117 41","categoryIds":["vegetarian"],"categories":["Vegetarian Friendly Restaurants"],"distanceKm":0.15293571082324253},{"id":"italianRestaurants_5abecb9e2aaa","slug":"voylkanizater-5abe","kind":"restaurant","name":"Βουλκανιζατέρ","lat":37.96367095489114,"lng":23.724556596700353,"url":"https://maps.app.goo.gl/HebUjJkB8SUt6Xp36?g_st=ipc","address":"Οδυσσέα Ανδρούτσου 17, Αθήνα 117 41","categoryIds":["italian"],"categories":["Italian Restaurants"],"distanceKm":0.15373418325071578},{"id":"dessertsRestaurants_f792b1129076","slug":"flour-of-youth-f792","kind":"restaurant","name":"Flour Of Youth","lat":37.96404409092071,"lng":23.722471600259,"url":"https://maps.app.goo.gl/FibffjzNDReT3bDx7?g_st=ipc","address":"Βεΐκου 91, Αθήνα 117 41","categoryIds":["desserts"],"categories":["Dessert Shops"],"distanceKm":0.16338525349981733},{"id":"cheapEatsRestaurants_104db32dd905","slug":"jackaroo-104d","kind":"restaurant","name":"Jackaroo","lat":37.96222285381352,"lng":23.7252636942005,"url":"https://maps.app.goo.gl/obvLVFRy5Vbt8DPS6?g_st=ipc","address":"Καλλιρρόης 73, Αθήνα 117 45","categoryIds":["cheap-eats"],"categories":["Gyros & Cheap Eats"],"distanceKm":0.18231624439023167},{"id":"coffeeBrunchRestaurants_93d5a5bf934a","slug":"bite-box-93d5","kind":"restaurant","name":"Bite Box","lat":37.963687328724134,"lng":23.72159915102945,"url":"https://maps.app.goo.gl/szSB6mZP4tWEA46h7?g_st=ipc","address":"Βεΐκου 84, Αθήνα 117 41","categoryIds":["coffee-brunch"],"categories":["Coffee & Brunch Spots"],"distanceKm":0.18253606618125373},{"id":"coffeeBrunchRestaurants_10b5704edcd7","slug":"karminio-all-day-eatery-10b5","kind":"restaurant","name":"KARMINIO - All Day Eatery","lat":37.963365261808825,"lng":23.721069408577183,"url":"https://maps.app.goo.gl/B47HWPSnhF6mtY1M8?g_st=ipc","address":"Βεΐκου 86, Αθήνα 117 41","categoryIds":["coffee-brunch","vegetarian"],"categories":["Coffee & Brunch Spots","Vegetarian Friendly Restaurants"],"legacySlugs":["karminio-all-day-eatery-44c1"],"distanceKm":0.20680739426175057},{"id":"luxuryDiningRestaurants_449388b6e901","slug":"gallina-athens-4493","kind":"restaurant","name":"Gallina Athens","lat":37.964508186769734,"lng":23.726121733406966,"url":"https://maps.app.goo.gl/zkqCQmDUHjdt7RX4A?g_st=ipc","address":"Μαρκ. Μπότσαρη 49, Αθήνα 117 42","categoryIds":["luxury-dining"],"categories":["Luxury Dining"],"distanceKm":0.31850803532811445},{"id":"greekRestaurants_e9888507556f","slug":"fita-e988","kind":"restaurant","name":"Φιτα","lat":37.959800125380376,"lng":23.723270363621033,"url":"https://maps.app.goo.gl/dz2YxasHy4LnBQ668","address":"Ντουρμ 1, Αθήνα 117 45","categoryIds":["greek-restaurants"],"categories":["Greek Restaurants"],"distanceKm":0.32479549800835317},{"id":"coffeeBrunchRestaurants_43a4eab28734","slug":"omsom-koukaki-43a4","kind":"restaurant","name":"Omsom koukaki","lat":37.96237188971574,"lng":23.719324269228586,"url":"https://maps.app.goo.gl/JSsTgH7xa3anCw4c9?g_st=ipc","address":"Βεΐκου 110, Αθήνα 117 41","categoryIds":["coffee-brunch"],"categories":["Coffee & Brunch Spots"],"distanceKm":0.3491646303928415},{"id":"municipalities_616efd2a0d9b","slug":"koykaki-616e","kind":"municipality","name":"Κουκάκι","lat":37.9647,"lng":23.7264,"aliases":["Kukaki"],"region":"Κέντρο Αθήνας","name_en":"Koukaki","region_en":"Athens Center","distanceKm":0.3508821800279006},{"id":"cheapEatsRestaurants_5e8824ccc538","slug":"kalamaki-bar-5e88","kind":"restaurant","name":"Kalamaki Bar","lat":37.9654765831714,"lng":23.725752010856876,"url":"https://maps.app.goo.gl/vMhM3YojNKaURqwX8?g_st=ipc","address":"Δημητρακοπούλου και, Δράκου 15, Αθήνα 117 42","categoryIds":["cheap-eats"],"categories":["Gyros & Cheap Eats"],"distanceKm":0.3751707903260273},{"id":"rooftopLoungesRestaurants_eff063b05a76","slug":"premiere-restaurant-eff0","kind":"restaurant","name":"Premiere Restaurant","lat":37.95933669311001,"lng":23.721893436588108,"url":"https://maps.app.goo.gl/xdoJybpRxJKYAgbKA?g_st=ipc","address":"Λεωφ. Ανδρέα Συγγρού 89-93, Αθήνα 117 45","categoryIds":["rooftop-lounges"],"categories":["Rooftop Lounges"],"distanceKm":0.39553546799029426},{"id":"cheapEatsRestaurants_d094097525b6","slug":"senor-picante-d094","kind":"restaurant","name":"Señor Picante","lat":37.965308606012925,"lng":23.726477821309263,"url":"https://maps.app.goo.gl/bZNApSKDTgmvuiXB7?g_st=ipc","address":"Φαλήρου 40, Αθήνα 117 42","categoryIds":["cheap-eats","mexican"],"categories":["Gyros & Cheap Eats","Mexican Restaurants"],"legacySlugs":["senor-picante-fbd3"],"distanceKm":0.4015670150232151},{"id":"vegetarianRestaurants_4db58e18de0e","slug":"peas-vegan-4db5","kind":"restaurant","name":"Peas Vegan","lat":37.965309081383936,"lng":23.72648212033699,"url":"https://maps.app.goo.gl/8AeCWeh7LczgaD87A?g_st=ipc","address":"Φαλήρου 40, Αθήνα 117 42","categoryIds":["vegetarian"],"categories":["Vegetarian Friendly Restaurants"],"distanceKm":0.4018678615486288},{"id":"greekRestaurants_2cc5d772f006","slug":"onos-taverna-2cc5","kind":"restaurant","name":"Onos Taverna","lat":37.96571079116367,"lng":23.725945276440267,"url":"https://maps.app.goo.gl/ur5XrAoMuE8FsR5c6","address":"Δράκου 14, Αθήνα 117 42","categoryIds":["greek-restaurants"],"categories":["Greek Restaurants"],"distanceKm":0.4062184464690634},{"id":"coffeeBrunchRestaurants_c191ebb5fd6a","slug":"teras-athens-c191","kind":"restaurant","name":"Teras Athens","lat":37.96132522695651,"lng":23.727704519576132,"url":"https://maps.app.goo.gl/Q7ocWz9NPgB5Zoaa6?g_st=ipc","address":"Θεοδώρητου Βρεσθένης 45, Αθήνα 117 43","categoryIds":["coffee-brunch"],"categories":["Coffee & Brunch Spots"],"distanceKm":0.417594963279865},{"id":"coffeeBrunchRestaurants_a5c0f29b5820","slug":"tempo-social-club-a5c0","kind":"restaurant","name":"Tempo Social Club","lat":37.96527397578301,"lng":23.726786075207272,"url":"https://maps.app.goo.gl/uU1H3HFYf7VVqpjy9?g_st=ipc","address":"Φαλήρου 49, Αθήνα 117 42","categoryIds":["coffee-brunch"],"categories":["Coffee & Brunch Spots"],"distanceKm":0.4182408322674967}],"sameRegion":[],"mentionedGuides":[],"canonicalSlug":"noa-poke-koukaki-663d","isCanonicalEntity":true,"enrichment":{"summary_en":"Noa Poke Koukaki is a curated restaurant in Αθήνα 117 41 in the Vegetarian Friendly Restaurants collection. It is connected to 77 nearby Googlementor picks to help travelers build a stronger local route.","summary_el":"Noa Poke Koukaki είναι ένα επιλεγμένο σημείο φαγητού στην περιοχή Αθήνα 117 41 και ανήκει στη συλλογή Vegetarian Friendly Restaurants. Συνδέεται με 77 κοντινές προτάσεις του Googlementor για πιο ολοκληρωμένη εμπειρία.","vibe_tags":["curated"],"best_for":["first-time visitors","food lovers"],"visit_moments":["lunch stop","dinner stop"],"practical_note":"Address and direct map link are available for easy turn-by-turn access.","nearby_walkable_count":77,"nearby_count_2km":487,"confidence":0.98},"areaContext":{"slug":"koykaki","name":"Koukaki"},"intentContexts":[{"href":"/vegetarian/koykaki","label":"Vegetarian Friendly Restaurants in Koukaki","categorySlug":"vegetarian","categoryName":"Vegetarian Friendly Restaurants","areaSlug":"koykaki","areaName":"Koukaki"}]},"__N_SSG":true}