{"pageProps":{"entity":{"id":"cheapEatsRestaurants_26cfead773fa","slug":"o-peinaleos-o-peinaleos-26cf","kind":"restaurant","name":"Ο ΠΕΙΝΑΛΕΟΣ -O Peinaleos","lat":37.984683017890625,"lng":23.71166951732043,"url":"https://maps.app.goo.gl/6gyRh1g3eUYCXoVV9?g_st=ipc","address":"Προφήτου Δανιήλ 35, Αθήνα 104 47","categoryIds":["cheap-eats"],"categories":["Gyros & Cheap Eats"]},"sameCategory":[{"id":"cheapEatsRestaurants_8f156c4c3126","slug":"o-meraklis-cheiropoiitos-gyros-8f15","kind":"restaurant","name":"«Ο Μερακλής» Χειροποίητος Γύρος","lat":37.987612206644826,"lng":23.712852337967995,"url":"https://maps.app.goo.gl/SzCvMEeUoY15EeqY8?g_st=ipc","address":"Πλάτωνος 50-52, Αθήνα 104 41","categoryIds":["cheap-eats"],"categories":["Gyros & Cheap Eats"]},{"id":"cheapEatsRestaurants_f6e9355765da","slug":"armando-pizzeria-cafeteria-f6e9","kind":"restaurant","name":"Armando Pizzeria Cafeteria","lat":37.98213236236815,"lng":23.71647213293712,"url":"https://maps.app.goo.gl/X5ofrEqzBi24eigT6?g_st=ipc","address":"Σαλαμίνος 43, Αθήνα 104 35","categoryIds":["cheap-eats","italian"],"categories":["Gyros & Cheap Eats","Italian Restaurants"],"legacySlugs":["armando-pizzeria-cafeteria-53d4"]},{"id":"cheapEatsRestaurants_a74d191853cb","slug":"wolfie-s-iera-odos-a74d","kind":"restaurant","name":"Wolfie’s Iera Odos","lat":37.98005072086818,"lng":23.713098576163578,"url":"https://maps.app.goo.gl/WroCvakHc4brPbjt7?g_st=ipc","address":"Ιερά Οδός 37, Αθήνα 118 54","categoryIds":["cheap-eats"],"categories":["Gyros & Cheap Eats"]},{"id":"cheapEatsRestaurants_9273dc402e3b","slug":"piccola-9273","kind":"restaurant","name":"Piccola","lat":37.980127892484575,"lng":23.715865229557284,"url":"https://maps.app.goo.gl/MuZFA3dXT4LnZFtL7?g_st=ipc","address":"Keramikou 111, Athina 104 35","categoryIds":["cheap-eats"],"categories":["Gyros & Cheap Eats"]},{"id":"cheapEatsRestaurants_ee7a3b30b5dc","slug":"galiantra-ee7a","kind":"restaurant","name":"Γαλιάντρα","lat":37.982766279881204,"lng":23.72018754800204,"url":"https://maps.app.goo.gl/WkvoPR33PQyg4HdDA?g_st=ipc","address":"Γιατράκου 4, Αθήνα 104 36","categoryIds":["cheap-eats"],"categories":["Gyros & Cheap Eats"]},{"id":"asianRestaurants_11df834afa0a","slug":"axi-11df","kind":"restaurant","name":"AXI - 阿锡早点","lat":37.98134764148285,"lng":23.721168322095103,"url":"https://maps.app.goo.gl/BQFSgk7VHKmzvjWN9?g_st=ipc","address":"Athens, Greece, Akadimou, 104 36","categoryIds":["asian","cheap-eats"],"categories":["Asian Restaurants","Gyros & Cheap Eats"],"legacySlugs":["axi-8113"]},{"id":"cheapEatsRestaurants_ed7bd1fc7e39","slug":"mirlo-kebabs-ed7b","kind":"restaurant","name":"mirlo kebabs","lat":37.976362795934286,"lng":23.71060804281136,"url":"https://maps.app.goo.gl/rT5pzNjpc9bM7HzT9?g_st=ipc","address":"Ελασιδών 5A, Αθήνα 118 54","categoryIds":["cheap-eats"],"categories":["Gyros & Cheap Eats"]},{"id":"cheapEatsRestaurants_3735299a67ee","slug":"kantina-christos-3735","kind":"restaurant","name":"Καντίνα Χρήστος","lat":37.99124414586088,"lng":23.720512677134217,"url":"https://maps.app.goo.gl/viHqpygtkwkePK7KA?g_st=ipc","address":"Θεοδ. Δηλιγιάννη, Αθήνα 104 39","categoryIds":["cheap-eats"],"categories":["Gyros & Cheap Eats"]},{"id":"cheapEatsRestaurants_6df03a7d154b","slug":"to-soyvlaki-tis-sarri-6df0","kind":"restaurant","name":"το σουβλάκι της σαρρή","lat":37.978860476586924,"lng":23.722082836375154,"url":"https://maps.app.goo.gl/4dueoYmWEmQ4i8jF8?g_st=ipc","address":"Σαρρή 36, Αθήνα 105 53","categoryIds":["cheap-eats"],"categories":["Gyros & Cheap Eats"]},{"id":"cheapEatsRestaurants_9ef22bd13da7","slug":"gyristroyla-9ef2","kind":"restaurant","name":"Γυριστρούλα","lat":37.97711548768267,"lng":23.72128560665997,"url":"https://maps.app.goo.gl/rUqbZBRjNZ4twFu59?g_st=ipc","address":"Square (across from \"Thissio\" ISAP station, Αγίων Ασωμάτων 9, Αθήνα 105 54","categoryIds":["cheap-eats"],"categories":["Gyros & Cheap Eats"]},{"id":"cheapEatsRestaurants_0c227902a32d","slug":"elvis-kalamakia-0c22","kind":"restaurant","name":"Έλβις Καλαμάκια","lat":37.977219822169786,"lng":23.722815670884195,"url":"https://maps.app.goo.gl/FJ47hNfgCop393VD9?g_st=ipc","address":"Ερμού 112, Αθήνα 105 63","categoryIds":["cheap-eats"],"categories":["Gyros & Cheap Eats"]},{"id":"cheapEatsRestaurants_63f6617fb3ad","slug":"falafel-al-sharq-63f6","kind":"restaurant","name":"Falafel Al Sharq","lat":37.98752255014304,"lng":23.726184432262915,"url":"https://maps.app.goo.gl/2RdBMYynhYxYXVUJ7?g_st=ipc","address":"Λιοσίων 1, Αθήνα 104 38","categoryIds":["cheap-eats","vegetarian"],"categories":["Gyros & Cheap Eats","Vegetarian Friendly Restaurants"],"legacySlugs":["falafel-al-sharq-46b7"]}],"nearby":[{"id":"greekRestaurants_9611782bc12d","slug":"o-thessalos-9611","kind":"restaurant","name":"Ο Θεσσαλός","lat":37.98471994306453,"lng":23.712346428545427,"url":"https://maps.app.goo.gl/nM83keU2k42E2kxJ6","address":"Μελενίκου 2, Αθήνα 104 47","categoryIds":["greek-restaurants"],"categories":["Greek Restaurants"],"distanceKm":0.059467141088342626},{"id":"greekRestaurants_7e068071958f","slug":"rafiki-7e06","kind":"restaurant","name":"Ραφίκι","lat":37.98338715429696,"lng":23.71184940799049,"url":"https://maps.app.goo.gl/awtPeTxoWYGakCkX9","address":"Πέλλης 22, Αθήνα 104 47","categoryIds":["greek-restaurants"],"categories":["Greek Restaurants"],"distanceKm":0.14495340543123447},{"id":"coffeeBrunchRestaurants_694f840c415f","slug":"mour-athens-694f","kind":"restaurant","name":"Mour Athens","lat":37.9833034256398,"lng":23.711600559592124,"url":"https://maps.app.goo.gl/t12h1kgPVWW5kBNk8?g_st=ipc","address":"Κορυτσάς 15, Αθήνα 104 47","categoryIds":["coffee-brunch"],"categories":["Coffee & Brunch Spots"],"distanceKm":0.15352266147629748},{"id":"greekRestaurants_c6cbcafef8ce","slug":"to-palaio-kafeneio-c6cb","kind":"restaurant","name":"Το παλαιό καφενείο","lat":37.984456056477114,"lng":23.70991900524202,"url":"https://maps.app.goo.gl/giNLK8YBTxmzzF9PA","address":"Κορυτσάς 48, Αθήνα 104 47","categoryIds":["greek-restaurants"],"categories":["Greek Restaurants"],"distanceKm":0.15547890671422537},{"id":"vegetarianRestaurants_c67e718a73e4","slug":"calibra-votanikos-c67e","kind":"restaurant","name":"CALIBRA - Votanikos","lat":37.98303566126477,"lng":23.711367796488275,"url":"https://maps.app.goo.gl/aPvyrqA5tYdbUuhP8?g_st=ipc","address":"CALIBRA - Votanikos","categoryIds":["vegetarian"],"categories":["Vegetarian Friendly Restaurants"],"distanceKm":0.18507653837463492},{"id":"cheapEatsRestaurants_8f156c4c3126","slug":"o-meraklis-cheiropoiitos-gyros-8f15","kind":"restaurant","name":"«Ο Μερακλής» Χειροποίητος Γύρος","lat":37.987612206644826,"lng":23.712852337967995,"url":"https://maps.app.goo.gl/SzCvMEeUoY15EeqY8?g_st=ipc","address":"Πλάτωνος 50-52, Αθήνα 104 41","categoryIds":["cheap-eats"],"categories":["Gyros & Cheap Eats"],"distanceKm":0.3418089265817585},{"id":"coffeeBrunchRestaurants_23781ddd1e06","slug":"10am-apotheke-2378","kind":"restaurant","name":"10AM apotheke","lat":37.98117919525422,"lng":23.71209439007436,"url":"https://maps.app.goo.gl/a8MxDmC9cjFhDaGA8?g_st=ic","address":"Konstantinoupoleos Ave. 82, Athina 104 35","categoryIds":["coffee-brunch"],"categories":["Coffee & Brunch Spots"],"distanceKm":0.39138275164934555},{"id":"italianRestaurants_301b52803ea0","slug":"amante-athens-301b","kind":"restaurant","name":"Amante Athens","lat":37.983114932894274,"lng":23.7159682164575,"url":"https://maps.app.goo.gl/9Zg1mEJh6x2SjrNx6?g_st=ipc","address":"Παραμυθίας 13, Αθήνα 104 35","categoryIds":["italian"],"categories":["Italian Restaurants"],"distanceKm":0.41513923816258735},{"id":"greekRestaurants_fe1298439f3b","slug":"pyroliki-fe12","kind":"restaurant","name":"Πυρολίκι","lat":37.98138914645396,"lng":23.713920948942256,"url":"https://maps.app.goo.gl/VoibgN4wKpaNpoSG7","address":"Μεγ. Αλεξάνδρου 117, Αθήνα 104 35","categoryIds":["greek-restaurants"],"categories":["Greek Restaurants"],"distanceKm":0.4160334312958839},{"id":"greekRestaurants_91881b4e9587","slug":"seramiko-9188","kind":"restaurant","name":"Σεράμικο","lat":37.98162530293091,"lng":23.71443381634983,"url":"https://maps.app.goo.gl/o8XfcUJ1JPyFTfao8","address":"Μεγ. Αλεξάνδρου 109-111, Αθήνα 104 35","categoryIds":["greek-restaurants"],"categories":["Greek Restaurants"],"distanceKm":0.4174888996814912},{"id":"italianRestaurants_eda14ce07bd0","slug":"proveleggios-eda1","kind":"restaurant","name":"Proveleggioς","lat":37.98314343701362,"lng":23.716034626731084,"url":"https://maps.app.goo.gl/MitPmZaCFjCBtxr4A?g_st=ipc","address":"Παραμυθίας 11, Αθήνα 104 35","categoryIds":["italian"],"categories":["Italian Restaurants"],"distanceKm":0.4191237782732671},{"id":"luxuryDiningRestaurants_79d4330d9768","slug":"osteria-mamma-79d4","kind":"restaurant","name":"Osteria Mamma","lat":37.98294206858995,"lng":23.71602963121187,"url":"https://maps.app.goo.gl/KpcsdbWmQM1rsB9dA?g_st=ipc","address":"Σαλαμίνος 64, Αθήνα 104 35","categoryIds":["luxury-dining"],"categories":["Luxury Dining"],"distanceKm":0.4283668402494145},{"id":"cheapEatsRestaurants_f6e9355765da","slug":"armando-pizzeria-cafeteria-f6e9","kind":"restaurant","name":"Armando Pizzeria Cafeteria","lat":37.98213236236815,"lng":23.71647213293712,"url":"https://maps.app.goo.gl/X5ofrEqzBi24eigT6?g_st=ipc","address":"Σαλαμίνος 43, Αθήνα 104 35","categoryIds":["cheap-eats","italian"],"categories":["Gyros & Cheap Eats","Italian Restaurants"],"legacySlugs":["armando-pizzeria-cafeteria-53d4"],"distanceKm":0.5075516867959643},{"id":"vegetarianRestaurants_5038de25697a","slug":"los-v-vegan-vegetarian-restaurant-5038","kind":"restaurant","name":"Los V - Vegan & Vegetarian Restaurant","lat":37.98154957793841,"lng":23.71604712211994,"url":"https://maps.app.goo.gl/ZWkqdkixRwwqeKq8A?g_st=ipc","address":"Πλαταιών 37, Αθήνα 104 35","categoryIds":["vegetarian"],"categories":["Vegetarian Friendly Restaurants"],"distanceKm":0.5182645421442327},{"id":"cheapEatsRestaurants_a74d191853cb","slug":"wolfie-s-iera-odos-a74d","kind":"restaurant","name":"Wolfie’s Iera Odos","lat":37.98005072086818,"lng":23.713098576163578,"url":"https://maps.app.goo.gl/WroCvakHc4brPbjt7?g_st=ipc","address":"Ιερά Οδός 37, Αθήνα 118 54","categoryIds":["cheap-eats"],"categories":["Gyros & Cheap Eats"],"distanceKm":0.5300968721653355},{"id":"greekRestaurants_1b0710fd0635","slug":"loyis-kafeneio-1b07","kind":"restaurant","name":"Λούης καφενείο","lat":37.98085946462118,"lng":23.71532632472864,"url":"https://maps.app.goo.gl/HykcqWbVLkwR9HqJ7","address":"Λεωνίδου 87, Αθήνα 104 35","categoryIds":["greek-restaurants"],"categories":["Greek Restaurants"],"distanceKm":0.5324263428340867},{"id":"burgersRestaurants_96fe4c6a69f2","slug":"stivs-a-e-kerameikos-champoyrgker-pitses-96fe","kind":"restaurant","name":"ΣΤΗΒΣ Α.Ε. Κεραμεικός - ΧΑΜΠΟΥΡΓΚΕΡ & ΠΙΤΣΕΣ","lat":37.981862507718745,"lng":23.71676727771988,"url":"https://maps.app.goo.gl/dfoGjBoXnHtHAokj9?g_st=ipc","address":"Σαλαμίνος 42, Αθήνα 104 35","categoryIds":["burgers","italian"],"categories":["Burger Spots","Italian Restaurants"],"legacySlugs":["stivs-a-e-kerameikos-champoyrgker-pitses-7e62"],"distanceKm":0.5458714077319045},{"id":"luxuryDiningRestaurants_67ad308e6455","slug":"aleria-restaurant-67ad","kind":"restaurant","name":"Aleria Restaurant","lat":37.983083255227115,"lng":23.717769708530103,"url":"https://maps.app.goo.gl/4upFvmVgdSbUxB7F8?g_st=ipc","address":"Μεγ. Αλεξάνδρου 57, Αθήνα 104 35","categoryIds":["luxury-dining"],"categories":["Luxury Dining"],"distanceKm":0.5634500710442348},{"id":"mexicanRestaurants_624c5c1ab8d8","slug":"mentirosa-tacos-cocktails-624c","kind":"restaurant","name":"Mentirosa - Tacos & Cocktails","lat":37.982550988441936,"lng":23.717503924756294,"url":"https://maps.app.goo.gl/1xXknD2jtrEpodcR7?g_st=ipc","address":"Θερμοπυλών 41, Αθήνα 104 35","categoryIds":["mexican"],"categories":["Mexican Restaurants"],"distanceKm":0.5636244378074331},{"id":"luxuryDiningRestaurants_c1adda39b182","slug":"sta-kala-kathoymena-c1ad","kind":"restaurant","name":"Στα Καλά Καθούμενα","lat":37.97981343858823,"lng":23.713855292153,"url":"https://maps.app.goo.gl/kdwd63rguvb581o36?g_st=ipc","address":"Ιερά Οδός 25-27-29, Ιερά Οδός 29, Αθήνα 118 54","categoryIds":["luxury-dining"],"categories":["Luxury Dining"],"distanceKm":0.5743618805261854},{"id":"greekRestaurants_bad759859413","slug":"ta-skalakia-bad7","kind":"restaurant","name":"Τα Σκαλάκια","lat":37.98954880589726,"lng":23.709123253452237,"url":"https://maps.app.goo.gl/Dec4aP4V9Z2pEehcA","address":"Μαραθωνομάχων 57, Αθήνα 104 41","categoryIds":["greek-restaurants"],"categories":["Greek Restaurants"],"distanceKm":0.5852623541673146},{"id":"coffeeBrunchRestaurants_4c997e8e7df4","slug":"the-place-secret-yard-4c99","kind":"restaurant","name":"The Place Secret Yard","lat":37.979297007842895,"lng":23.7118945584477,"url":"https://maps.app.goo.gl/H2MApFAjiqUyTf7B8?g_st=ipc","address":"Τριπτολέμου 26, Αθήνα 118 54","categoryIds":["coffee-brunch","vegetarian"],"categories":["Coffee & Brunch Spots","Vegetarian Friendly Restaurants"],"legacySlugs":["the-place-secret-yard-0734"],"distanceKm":0.5992216840433191},{"id":"coffeeBrunchRestaurants_62e18f8f4450","slug":"latraac-skate-cafe-62e1","kind":"restaurant","name":"Latraac Skate Cafe","lat":37.98176220702239,"lng":23.717574996831285,"url":"https://maps.app.goo.gl/J7RDc1cHJeB4hUZC7?g_st=ipc","address":"Λεωνίδου 63-65, Αθήνα 104 35","categoryIds":["coffee-brunch"],"categories":["Coffee & Brunch Spots"],"distanceKm":0.6110347236941954},{"id":"vegetarianRestaurants_92b90dbde5a4","slug":"veganistan-92b9","kind":"restaurant","name":"Veganistan","lat":37.980551028763045,"lng":23.716428370276027,"url":"https://maps.app.goo.gl/hviT1v1LXcBDpknS6?g_st=ipc","address":"Κεραμεικού 101, Αθήνα 104 35","categoryIds":["vegetarian"],"categories":["Vegetarian Friendly Restaurants"],"distanceKm":0.6205305095825101}],"sameRegion":[],"mentionedGuides":[],"canonicalSlug":"o-peinaleos-o-peinaleos-26cf","isCanonicalEntity":true,"enrichment":{"summary_en":"Ο ΠΕΙΝΑΛΕΟΣ -O Peinaleos is a curated restaurant in Αθήνα 104 47 in the Gyros & Cheap Eats collection. It is connected to 39 nearby Googlementor picks to help travelers build a stronger local route.","summary_el":"Ο ΠΕΙΝΑΛΕΟΣ -O Peinaleos είναι ένα επιλεγμένο σημείο φαγητού στην περιοχή Αθήνα 104 47 και ανήκει στη συλλογή Gyros & Cheap Eats. Συνδέεται με 39 κοντινές προτάσεις του Googlementor για πιο ολοκληρωμένη εμπειρία.","vibe_tags":["curated","budget-friendly"],"best_for":["first-time visitors","food lovers","budget travelers"],"visit_moments":["lunch stop","dinner stop"],"practical_note":"Address and direct map link are available for easy turn-by-turn access.","nearby_walkable_count":39,"nearby_count_2km":327,"confidence":0.98},"areaContext":{"slug":"gkazi","name":"Gazi"},"intentContexts":[{"href":"/cheap-eats/gkazi","label":"Gyros & Cheap Eats in Gazi","categorySlug":"cheap-eats","categoryName":"Gyros & Cheap Eats","areaSlug":"gkazi","areaName":"Gazi"}]},"__N_SSG":true}