{"pageProps":{"entity":{"id":"familyFriendly_784064c3c628","slug":"parko-aixonis-7840","kind":"restaurant","name":"Πάρκο Αιξωνής","lat":37.85436759031945,"lng":23.767620410773823,"url":"https://maps.app.goo.gl/D43jUtfBGCJtvXoNA?g_st=ipc","address":"Δημ. Γούναρη, Γλυφάδα 166 74","categoryIds":["family-friendly"],"categories":["Kid Friendly Locations"]},"sameCategory":[{"id":"familyFriendly_11e87a91baef","slug":"plateia-chariton-11e8","kind":"restaurant","name":"Πλατεία Χαρίτων","lat":37.86415490115138,"lng":23.75493366426452,"url":"https://maps.app.goo.gl/eBpgr4RX9Y42hXEw6?g_st=ipc","address":"Σεμέλης 1, Γλυφάδα 166 74","categoryIds":["family-friendly"],"categories":["Kid Friendly Locations"]},{"id":"familyFriendly_b360cd975d06","slug":"voula-park-b360","kind":"restaurant","name":"Voula Park","lat":37.839630282199295,"lng":23.762193155062445,"url":"https://maps.app.goo.gl/V4oZWgECkqhJFkK46?g_st=ipc","address":"Nireos, Voula, Athens 166 73","categoryIds":["family-friendly"],"categories":["Kid Friendly Locations"]},{"id":"familyFriendly_bba3af84c3c6","slug":"bella-vespa-bba3","kind":"restaurant","name":"Bella Vespa","lat":37.86706675735918,"lng":23.747387332761612,"url":"https://maps.app.goo.gl/dpip4AngfBL8xv2M8?g_st=ipc","address":"Κύπρου 11, Γλυφάδα 166 75","categoryIds":["family-friendly","italian"],"categories":["Kid Friendly Locations","Italian Restaurants"],"legacySlugs":["bella-vespa-976a"]},{"id":"familyFriendly_55f46ad3d361","slug":"sea-turtle-rescue-centre-55f4","kind":"restaurant","name":"Sea Turtle Rescue Centre","lat":37.863977076270096,"lng":23.741869224495424,"url":"https://maps.app.goo.gl/rnhMSdAUACk8DJcQ6?g_st=ic","address":"3rd Glyfada Marina, Αθήνα 166 75","categoryIds":["family-friendly"],"categories":["Kid Friendly Locations"]},{"id":"familyFriendly_37e90b2f8c07","slug":"happy-play-park-37e9","kind":"restaurant","name":"Happy Play Park","lat":37.83676394128604,"lng":23.807828606428487,"url":"https://maps.app.goo.gl/RA9ywQvUBdabkNk1A?g_st=ic","address":"Varis Koropiou Ave 27, Vari 166 72","categoryIds":["family-friendly"],"categories":["Kid Friendly Locations"]},{"id":"familyFriendly_824dcd75a264","slug":"the-ellinikon-experience-park-824d","kind":"restaurant","name":"The Ellinikon Experience Park","lat":37.889532923626724,"lng":23.741777435195917,"url":"https://maps.app.goo.gl/sqeFJaUrDmxw1UqF7?g_st=ipc","address":"Ελληνικό 167 77","categoryIds":["family-friendly"],"categories":["Kid Friendly Locations"]},{"id":"familyFriendly_605cb6ee53f8","slug":"paidiki-chara-plateias-karaiskaki-605c","kind":"restaurant","name":"Παιδική Χαρά Πλατείας Καραισκάκη","lat":37.90061761752489,"lng":23.771490329070613,"url":"https://maps.app.goo.gl/9R2iG5DSfkWfCzH2A?g_st=ipc","address":"Λευκωσίας 25, Γλυφάδα 165 62","categoryIds":["family-friendly"],"categories":["Kid Friendly Locations"]},{"id":"familyFriendly_9f066a9c3f09","slug":"dei-chocolate-ice-cream-experience-9f06","kind":"restaurant","name":"ΔΕΗ Chocolate & Ice Cream Experience","lat":37.89648025729673,"lng":23.737725296668952,"url":"https://maps.app.goo.gl/u7nRPPFnbvtVeLEQ7?g_st=ipc","address":"The Ellinikon Expérience Park, Ελληνικό 167 77","categoryIds":["family-friendly"],"categories":["Kid Friendly Locations"]},{"id":"familyFriendly_ae632d4e248a","slug":"protypo-oikogeneiako-parko-ae63","kind":"restaurant","name":"Πρότυπο Οικογενειακό Πάρκο","lat":37.904103805227116,"lng":23.74422997348302,"url":"https://maps.app.goo.gl/kUkHYYpwWmY27cqm9?g_st=ipc","address":"Δραγατσανίου, Ελληνικό 167 77","categoryIds":["family-friendly"],"categories":["Kid Friendly Locations"]},{"id":"familyFriendly_b7e14b13fc56","slug":"paramythoypoli-ellinikoy-argyroypolis-b7e1","kind":"restaurant","name":"Παραμυθούπολη Ελληνικού Αργυρούπολης","lat":37.90960009979719,"lng":23.737312819815322,"url":"https://maps.app.goo.gl/MGgTCv28KmDG4VgK8?g_st=ipc","address":"Αλ. Παπαναστασίου, Αργυρούπολη 164 52","categoryIds":["family-friendly"],"categories":["Kid Friendly Locations"]},{"id":"familyFriendly_09f0644c9732","slug":"lofos-politismoy-09f0","kind":"restaurant","name":"Λόφος πολιτισμού","lat":37.91111626951665,"lng":23.722999637224824,"url":"https://maps.app.goo.gl/MWLNyH93oknhhPcz9?g_st=ipc","address":"Άλιμος 174 55","categoryIds":["family-friendly"],"categories":["Kid Friendly Locations"]},{"id":"familyFriendly_feb6b1cb5cd1","slug":"little-land-kids-play-feb6","kind":"restaurant","name":"Little Land - Kids Play","lat":37.930642671894525,"lng":23.710426716839976,"url":"https://maps.app.goo.gl/fZKSbKJMUaonK7vh9?g_st=ipc","address":"Λεωφ. Ελ. Βενιζέλου 235, Παλαιό Φάληρο 175 63","categoryIds":["family-friendly"],"categories":["Kid Friendly Locations"]}],"nearby":[{"id":"cheapEatsRestaurants_9085d6dbdfe8","slug":"street-food-park-9085","kind":"restaurant","name":"Street Food Park","lat":37.85905594962557,"lng":23.764660793565383,"url":"https://maps.app.goo.gl/8bfdGPL68FsznR1SA?g_st=ipc","address":"Παρ. Λεωφ. Βουλιαγμένης 153, Γλυφάδα 166 74","categoryIds":["cheap-eats"],"categories":["Gyros & Cheap Eats"],"distanceKm":0.5824869480517548},{"id":"mexicanRestaurants_bc074466ce69","slug":"amigos-bc07","kind":"restaurant","name":"Amigos","lat":37.85929715781572,"lng":23.756229404432254,"url":"https://maps.app.goo.gl/CeHzLQv4LTsb7j5RA?g_st=ipc","address":"Κύπρου 65, Γλυφάδα 166 74","categoryIds":["mexican"],"categories":["Mexican Restaurants"],"distanceKm":1.140427634746393},{"id":"burgersRestaurants_aaf9b8df7638","slug":"the-burger-joint-aaf9","kind":"restaurant","name":"the burger joint","lat":37.85975416543059,"lng":23.75632935360373,"url":"https://maps.app.goo.gl/4ebsLmRmHgQAtXCy5?g_st=ipc","address":"Πλ. Νυμφών 1, Γλυφάδα 166 74","categoryIds":["burgers"],"categories":["Burger Spots"],"distanceKm":1.1581828594207204},{"id":"coffeeBrunchRestaurants_296c68e50c96","slug":"blends-mix-match-296c","kind":"restaurant","name":"Blends Mix & Match","lat":37.86035282429643,"lng":23.756257632105665,"url":"https://maps.app.goo.gl/VgzGwQBJonZ2HWs87?g_st=ic","address":"Pl. Nimfon, Glifada 166 74","categoryIds":["coffee-brunch"],"categories":["Coffee & Brunch Spots"],"distanceKm":1.1991983989966812},{"id":"coffeeBrunchRestaurants_798042ad21e8","slug":"opus-inner-pleasure-7980","kind":"restaurant","name":"OPUS Inner Pleasure","lat":37.85815683883427,"lng":23.754579101528986,"url":"https://maps.app.goo.gl/s6FvEiAwBwBVBs2t9?g_st=ipc","address":"Πανδώρας 9, Γλυφάδα 166 74","categoryIds":["coffee-brunch"],"categories":["Coffee & Brunch Spots"],"distanceKm":1.2200193390413914},{"id":"fishTavernasRestaurants_a989c7b64d77","slug":"mparmpoynaki-glyfada-a989","kind":"restaurant","name":"Μπαρμπουνάκι Γλυφάδα","lat":37.85833613514832,"lng":23.75466359649667,"url":"https://maps.app.goo.gl/KZucjQ49PpF8K1GL7?g_st=ipc","address":"Λεωφ. Δημάρχου Αγγέλου Μεταξά 48, Γλυφάδα 166 74","categoryIds":["fish-tavernas"],"categories":["Fish Tavernas"],"distanceKm":1.2201271345688622},{"id":"asianRestaurants_6985f147fd97","slug":"ekiben-kitchen-glyfada-6985","kind":"restaurant","name":"Ekiben Kitchen Glyfada","lat":37.861176848381916,"lng":23.75639518380584,"url":"https://maps.app.goo.gl/bR7jaQSkxn33eLgq7","address":"Laodikis 41, Glifada 166 74","categoryIds":["asian","burgers"],"categories":["Asian Restaurants","Burger Spots"],"legacySlugs":["ekiben-kitchen-glyfada-7ec8"],"distanceKm":1.242769020823338},{"id":"coffeeBrunchRestaurants_1534d718f542","slug":"su-casa-1534","kind":"restaurant","name":"Su Casa","lat":37.8602791456983,"lng":23.75556920044941,"url":"https://maps.app.goo.gl/LzYwvbcwMZCWEetj9?g_st=ipc","address":"Pl. Nimfon, Glifada 166 74","categoryIds":["coffee-brunch"],"categories":["Coffee & Brunch Spots"],"distanceKm":1.2455835757261489},{"id":"coffeeBrunchRestaurants_375d22b1c4b8","slug":"oven-manufactory-375d","kind":"restaurant","name":"Oven Manufactory","lat":37.861722119771066,"lng":23.756544787345767,"url":"https://maps.app.goo.gl/Hnd2mHRaJKRkA5F46?g_st=ipc","address":"Αρτέμιδος 9, Γλυφάδα 166 74","categoryIds":["coffee-brunch"],"categories":["Coffee & Brunch Spots"],"distanceKm":1.2705291332636572},{"id":"coffeeBrunchRestaurants_645a2c954fa3","slug":"wynwood-eat-sip-gather-the-miami-style-645a","kind":"restaurant","name":"Wynwood - Eat Sip & Gather the Miami Style","lat":37.85990914525332,"lng":23.75494068810683,"url":"https://maps.app.goo.gl/YQMJ5PpN4Cvem9qf6?g_st=ipc","address":"Φοίβης 15, Γλυφάδα 166 74","categoryIds":["coffee-brunch"],"categories":["Coffee & Brunch Spots"],"distanceKm":1.2723575477414752},{"id":"mexicanRestaurants_41b2ba4d071f","slug":"el-catrin-41b2","kind":"restaurant","name":"El Catrin","lat":37.85991051831941,"lng":23.75494123731321,"url":"https://maps.app.goo.gl/tAYLNiXMfX7MbEnT9?g_st=ipc","address":"Φοίβης 15, Γλυφάδα 166 74","categoryIds":["mexican"],"categories":["Mexican Restaurants"],"distanceKm":1.2723893040943028},{"id":"greekRestaurants_fd7a28a0649b","slug":"pasiphae-fd7a","kind":"restaurant","name":"PASIPHAE","lat":37.85781169380274,"lng":23.753685400099858,"url":"https://maps.app.goo.gl/w2UaAYT95xemDfAx9?g_st=ipc","address":"Lazaraki 63, Glifada 166 74","categoryIds":["greek-restaurants"],"categories":["Greek Restaurants"],"distanceKm":1.2819564790547298},{"id":"coffeeBrunchRestaurants_3b6eb83fd8ab","slug":"angelina-le-petit-paris-depuis-2012-3b6e","kind":"restaurant","name":"Angelina Le Petit Paris- Depuis 2012","lat":37.859847959328306,"lng":23.754133995266965,"url":"https://maps.app.goo.gl/HLP4ksmAZgKQH5e59?g_st=ipc","address":"Λεωφ. Δημάρχου Αγγέλου Μεταξά 38, Γλυφάδα 166 74","categoryIds":["coffee-brunch"],"categories":["Coffee & Brunch Spots"],"distanceKm":1.3316343007957174},{"id":"italianRestaurants_19fa39b4b310","slug":"cicchetti-prosciutteria-spritzeria-19fa","kind":"restaurant","name":"Cicchetti Prosciutteria & Spritzeria","lat":37.859684523196464,"lng":23.75386502955931,"url":"https://maps.app.goo.gl/3jMcfyGkfYbxGbps9","address":"Fivis 11, Glifada 166 74","categoryIds":["italian"],"categories":["Italian Restaurants"],"distanceKm":1.344585088223633},{"id":"burgersRestaurants_dcffa319373f","slug":"just-burgers-dcff","kind":"restaurant","name":"Just Burgers","lat":37.86233017342334,"lng":23.756048198703365,"url":"https://maps.app.goo.gl/JHVusoRbYHy3Y7vt5?g_st=ipc","address":"Βασ. Γεωργίου Β 10, Γλυφάδα 166 74","categoryIds":["burgers"],"categories":["Burger Spots"],"distanceKm":1.3476184569627858},{"id":"dessertsRestaurants_2849c272c636","slug":"bufala-gelato-glyfada-2849","kind":"restaurant","name":"Bufala Gelato (Γλυφάδα)","lat":37.86176317702974,"lng":23.755337811216418,"url":"https://maps.app.goo.gl/51dbhckNQVJ8yNh37?g_st=ipc","address":"Αρτέμιδος 1, Γλυφάδα 166 74","categoryIds":["desserts"],"categories":["Dessert Shops"],"distanceKm":1.3561070973977238},{"id":"dessertsRestaurants_cd41f487bdde","slug":"l-arte-del-gelato-cd41","kind":"restaurant","name":"L'arte del Gelato","lat":37.86184048032113,"lng":23.755183232681343,"url":"https://maps.app.goo.gl/JTFmtLwXRBHhcLCs8?g_st=ipc","address":"Αρτέμιδος 1, Γλυφάδα 166 74","categoryIds":["desserts"],"categories":["Dessert Shops"],"distanceKm":1.3721107279287832},{"id":"greekRestaurants_b6c15b677224","slug":"to-drami-b6c1","kind":"restaurant","name":"To Drami","lat":37.86297028796149,"lng":23.75634712220573,"url":"https://maps.app.goo.gl/HFhEeo24Fzrwgfb98?g_st=ipc","address":"Laodikis 22, Glifada 166 74","categoryIds":["greek-restaurants"],"categories":["Greek Restaurants"],"distanceKm":1.3764228702085568},{"id":"burgersRestaurants_d078b3ea9f88","slug":"burgerilla-voulas-d078","kind":"restaurant","name":"BURGERILLA.VOULAS","lat":37.84784984477906,"lng":23.754080911973716,"url":"https://maps.app.goo.gl/eGL3Mk2KpVNgRAzn6?g_st=ipc","address":"Λεωφ. Βασιλέως Παύλου 0, Βούλα 166 73","categoryIds":["burgers"],"categories":["Burger Spots"],"distanceKm":1.3922753519846924},{"id":"dessertsRestaurants_ba7be89e8ea8","slug":"iceroll-ba7b","kind":"restaurant","name":"IceRoll","lat":37.86208515594954,"lng":23.755076469134906,"url":"https://maps.app.goo.gl/w1pmpophQeL2Fp7M9?g_st=ipc","address":"Γιαννιτσοπούλου 2, Γλυφάδα 166 74","categoryIds":["desserts"],"categories":["Dessert Shops"],"distanceKm":1.3961357417742621},{"id":"luxuryDiningRestaurants_9dba478c9326","slug":"faidon-s-athens-9dba","kind":"restaurant","name":"FAIDON'S Athens","lat":37.841556503840984,"lng":23.766513107501794,"url":"https://maps.app.goo.gl/keaSEXUAsA2Tk34x9?g_st=ipc","address":"Αγίου Ιωάννου 28, Βούλα 166 73","categoryIds":["luxury-dining"],"categories":["Luxury Dining"],"distanceKm":1.427841858693233},{"id":"coffeeBrunchRestaurants_03882dd46eb2","slug":"paul-glyfada-0388","kind":"restaurant","name":"PAUL Γλυφάδα","lat":37.86192343683842,"lng":23.754387329250314,"url":"https://maps.app.goo.gl/yKiejsAj4L7LG4cJ7?g_st=ipc","address":"Κύπρου 70, Γλυφάδα 166 74","categoryIds":["coffee-brunch"],"categories":["Coffee & Brunch Spots"],"distanceKm":1.4337267997985663},{"id":"mexicanRestaurants_4df313ff7b2b","slug":"ancho-mexican-grill-4df3","kind":"restaurant","name":"Ancho Mexican Grill","lat":37.862745862193556,"lng":23.754877099753806,"url":"https://maps.app.goo.gl/LepDURte7YPh6NZL8?g_st=ipc","address":"Γιαννιτσοπούλου 3, Γλυφάδα 166 74","categoryIds":["mexican"],"categories":["Mexican Restaurants"],"distanceKm":1.455860758459245},{"id":"burgersRestaurants_01217d39d9c7","slug":"queen-burger-0121","kind":"restaurant","name":"Queen Burger","lat":37.8629143636926,"lng":23.754961929770175,"url":"https://maps.app.goo.gl/cTKmuer8pw34Mj4m6","address":"Giannitsopoulou 3, Glifada 166 74","categoryIds":["burgers"],"categories":["Burger Spots"],"distanceKm":1.4622521602599896}],"sameRegion":[],"mentionedGuides":[],"canonicalSlug":"parko-aixonis-7840","isCanonicalEntity":true,"enrichment":{"summary_en":"Πάρκο Αιξωνής is a curated restaurant in Γλυφάδα 166 74 in the Kid Friendly Locations collection. It is connected to 1 nearby Googlementor picks to help travelers build a stronger local route.","summary_el":"Πάρκο Αιξωνής είναι ένα επιλεγμένο σημείο φαγητού στην περιοχή Γλυφάδα 166 74 και ανήκει στη συλλογή Kid Friendly Locations. Συνδέεται με 1 κοντινές προτάσεις του Googlementor για πιο ολοκληρωμένη εμπειρία.","vibe_tags":["curated","family-ready"],"best_for":["first-time visitors","food lovers","families"],"visit_moments":["lunch stop","dinner stop"],"practical_note":"Address and direct map link are available for easy turn-by-turn access.","nearby_walkable_count":1,"nearby_count_2km":53,"confidence":0.9},"areaContext":{"slug":"voyla","name":"Voula"},"intentContexts":[{"href":"/family-friendly/voyla","label":"Kid Friendly Locations in Voula","categorySlug":"family-friendly","categoryName":"Kid Friendly Locations","areaSlug":"voyla","areaName":"Voula"}]},"__N_SSG":true}