{"pageProps":{"entity":{"id":"vegetarianRestaurants_325f7a0c0fd0","slug":"pernera-vegan-restaurant-fairtrade-coffee-shop-market-325f","kind":"restaurant","name":"Pernera Vegan Restaurant & Fairtrade Coffee Shop & Market","lat":37.32400648961271,"lng":26.54252733878879,"url":"https://maps.app.goo.gl/N2k56TsPjEKAnPtL9?g_st=ipc","address":"Σκάλα 855 00","categoryIds":["vegetarian"],"categories":["Vegetarian Friendly Restaurants"]},"sameCategory":[{"id":"vegetarianRestaurants_fcbe4baf2c7e","slug":"falafel-fcbe","kind":"restaurant","name":"Falafel","lat":36.90090309185306,"lng":25.976584244849658,"url":"https://maps.app.goo.gl/aKeeZyXVaADfNUQU9?g_st=ipc","address":"Ormos Egialis 840 08","categoryIds":["vegetarian"],"categories":["Vegetarian Friendly Restaurants"]},{"id":"vegetarianRestaurants_b8ffd99027d0","slug":"amorgos-organic-b8ff","kind":"restaurant","name":"Amorgos Organic","lat":36.82494496537346,"lng":25.86937679325385,"url":"https://maps.app.goo.gl/LLqFWY5v6jQQxyzV9?g_st=ipc","address":"Epar.Od. Katapolon-Mavris Mitis, Rachidi 840 08","categoryIds":["vegetarian"],"categories":["Vegetarian Friendly Restaurants"]},{"id":"vegetarianRestaurants_e61f564cf6f0","slug":"melitini-e61f","kind":"restaurant","name":"Melitini","lat":36.46251191786666,"lng":25.380930558895514,"url":"https://maps.app.goo.gl/diHJtayCn8kgFPxW7?g_st=ipc","address":"Oia 847 02","categoryIds":["vegetarian"],"categories":["Vegetarian Friendly Restaurants"]},{"id":"vegetarianRestaurants_01ab7c5f61ba","slug":"seminario-01ab","kind":"restaurant","name":"SEMINARIO","lat":37.4442691864213,"lng":24.94407924993465,"url":"https://maps.app.goo.gl/67qtbde9XNL2VBgVA?g_st=ipc","address":"Kiparissou 7, Ermoupoli 841 00","categoryIds":["vegetarian"],"categories":["Vegetarian Friendly Restaurants"]},{"id":"vegetarianRestaurants_5e82930d8565","slug":"coconuts-nuts-specialties-5e82","kind":"restaurant","name":"COCONUTS Nuts & Specialties","lat":37.83974545115199,"lng":23.767343337140883,"url":"https://maps.app.goo.gl/C155rgfingteegQn8?g_st=ipc","address":"Λεωφ. Βασιλέως Παύλου 67, Βούλα 166 73","categoryIds":["vegetarian"],"categories":["Vegetarian Friendly Restaurants"]},{"id":"coffeeBrunchRestaurants_8ebbeeadfb00","slug":"jerry-s-8ebb","kind":"restaurant","name":"JERRY’S","lat":37.99081436071943,"lng":23.798622930452883,"url":"https://maps.app.goo.gl/s7TjtfQj1q9s9Tnk8?g_st=ipc","address":"Εθ. Αμύνης 27, Παπάγου 156 69","categoryIds":["coffee-brunch","vegetarian"],"categories":["Coffee & Brunch Spots","Vegetarian Friendly Restaurants"],"legacySlugs":["jerry-s-4010"]},{"id":"vegetarianRestaurants_4651fd50cc98","slug":"gi-4651","kind":"restaurant","name":"Γη","lat":37.867754101352695,"lng":23.757082449020576,"url":"https://maps.app.goo.gl/J8MbyuN6xbnsUxi89?g_st=ipc","address":"Γρ. Λαμπράκη 69, Γλυφάδα 166 75","categoryIds":["vegetarian"],"categories":["Vegetarian Friendly Restaurants"]},{"id":"coffeeBrunchRestaurants_c2dcfed13dc1","slug":"to-vazaki-juice-bar-c2dc","kind":"restaurant","name":"Το Βαζάκι Juice Bar","lat":38.021003514175945,"lng":23.80272580711501,"url":"https://maps.app.goo.gl/nDbFuEsz56BPrtWV8?g_st=ipc","address":"Αριστοτέλους 33, Χαλάνδρι 152 34","categoryIds":["coffee-brunch","vegetarian"],"categories":["Coffee & Brunch Spots","Vegetarian Friendly Restaurants"],"legacySlugs":["to-vazaki-juice-bar-fee3"]},{"id":"vegetarianRestaurants_a667646c43d0","slug":"pink-elephant-a667","kind":"restaurant","name":"Pink Elephant","lat":38.02048886312005,"lng":23.79851470032454,"url":"https://maps.app.goo.gl/JBEM9qi3Gh27zDWa9?g_st=ipc","address":"Sokratous 4Α, Chalandri 152 32","categoryIds":["vegetarian"],"categories":["Vegetarian Friendly Restaurants"]},{"id":"vegetarianRestaurants_146693dade4c","slug":"naya-lebanese-kitchen-1466","kind":"restaurant","name":"Naya Lebanese Kitchen","lat":38.02310312613848,"lng":23.798978117354526,"url":"https://maps.app.goo.gl/Wa7FtgvMdTD2Q6oT7?g_st=ipc","address":"Kolokotroni 10, Chalandri 152 33","categoryIds":["vegetarian"],"categories":["Vegetarian Friendly Restaurants"]},{"id":"vegetarianRestaurants_1656162d68e6","slug":"the-sweet-lab-1656","kind":"restaurant","name":"Τhe Sweet Lab","lat":38.002062661373884,"lng":23.785233324910163,"url":"https://maps.app.goo.gl/Zb8o7YTUmMMx7EVx8?g_st=ipc","address":"Λεωφ. Δημοκρατίας 81, Kapodistriou 1, Athina 154 51","categoryIds":["vegetarian"],"categories":["Vegetarian Friendly Restaurants"]},{"id":"vegetarianRestaurants_ce13a880a3a7","slug":"the-vegan-fairies-ce13","kind":"restaurant","name":"The Vegan Fairies","lat":38.09075591737279,"lng":23.81765935301376,"url":"https://maps.app.goo.gl/Py2rEQ8tcKsxB97Y9?g_st=ipc","address":"Νικ. Πλαστήρα 29, Νέα Ερυθραία 146 71","categoryIds":["vegetarian"],"categories":["Vegetarian Friendly Restaurants"]}],"nearby":[{"id":"mustSeeAttractions_5cb6c86470e2","slug":"holy-cave-of-the-apocalypse-5cb6","kind":"restaurant","name":"Holy Cave of the Apocalypse","lat":37.3145181446206,"lng":26.544738455388703,"url":"https://maps.app.goo.gl/WRBFuHyUphGycx6B6?g_st=ipc","address":"Patmos Municipality 855 00","categoryIds":["attractions"],"categories":["Must-See Attractions"],"distanceKm":1.0730211381713681},{"id":"mustSeeAttractions_dd3b16c50b83","slug":"holy-monastery-of-saint-john-the-theologian-dd3b","kind":"restaurant","name":"Holy Monastery of Saint John the Theologian","lat":37.30929209644781,"lng":26.547790252510435,"url":"https://maps.app.goo.gl/KRvkAKujnAt5Cebt6?g_st=ipc","address":"Patmos 855 00","categoryIds":["attractions"],"categories":["Must-See Attractions"],"distanceKm":1.7010732650554936},{"id":"municipalities_8f7e81543417","slug":"patmos-8f7e","kind":"municipality","name":"Πάτμος","lat":37.308,"lng":26.547,"aliases":["Πατμος"],"region":"Δωδεκάνησα","name_en":"Patmos","region_en":"Dodecanese","distanceKm":1.8232606602064532},{"id":"fishTavernasRestaurants_4004def7cd13","slug":"fish-tavern-lampi-4004","kind":"restaurant","name":"FISH TAVERN LAMPI","lat":37.36640737144112,"lng":26.576359128489035,"url":"https://maps.app.goo.gl/PxsWuCmfXd3XNHAx7?g_st=ipc","address":"Patmos 855 00","categoryIds":["fish-tavernas"],"categories":["Fish Tavernas"],"distanceKm":5.583308933672214},{"id":"municipalities_a1a685a55092","slug":"arkoi-a1a6","kind":"municipality","name":"Αρκοί","lat":37.372,"lng":26.736,"region":"Δωδεκάνησα","name_en":"Arki","region_en":"Dodecanese","distanceKm":17.915522533370822},{"id":"municipalities_a49800fc1df5","slug":"leipsoi-a498","kind":"municipality","name":"Λειψοί","lat":37.2833,"lng":26.7667,"region":"Δωδεκάνησα","name_en":"Lipsi","region_en":"Dodecanese","distanceKm":20.337776429483924}],"sameRegion":[],"mentionedGuides":[],"canonicalSlug":"pernera-vegan-restaurant-fairtrade-coffee-shop-market-325f","isCanonicalEntity":true,"enrichment":{"summary_en":"Pernera Vegan Restaurant & Fairtrade Coffee Shop & Market is a curated restaurant in Greece in the Vegetarian Friendly Restaurants collection. It is connected to 0 nearby Googlementor picks to help travelers build a stronger local route.","summary_el":"Pernera Vegan Restaurant & Fairtrade Coffee Shop & Market είναι ένα επιλεγμένο σημείο φαγητού στην περιοχή Greece και ανήκει στη συλλογή Vegetarian Friendly Restaurants. Συνδέεται με 0 κοντινές προτάσεις του Googlementor για πιο ολοκληρωμένη εμπειρία.","vibe_tags":["curated"],"best_for":["first-time visitors","food lovers"],"visit_moments":["lunch stop","dinner stop"],"practical_note":"Address and direct map link are available for easy turn-by-turn access.","nearby_walkable_count":0,"nearby_count_2km":3,"confidence":0.9},"areaContext":null,"intentContexts":[]},"__N_SSG":true}