{"pageProps":{"entity":{"id":"coffeeBrunchRestaurants_5b87d322c2b5","slug":"pink-dot-cafe-5b87","kind":"restaurant","name":"Pink Dot Cafe","lat":40.548406580479465,"lng":22.98186227348721,"url":"https://maps.app.goo.gl/CG2fgJcxKmWaKuAV6?g_st=ipc","address":"Leof. Georgikis Scholis 84, Pilea 570 01","categoryIds":["coffee-brunch","desserts"],"categories":["Coffee & Brunch Spots","Dessert Shops"],"legacySlugs":["pink-dot-cafe-f1a3"]},"sameCategory":[{"id":"coffeeBrunchRestaurants_7d9521648c08","slug":"gellissimo-biscoto-brunch-coffee-thessaloniki-7d95","kind":"restaurant","name":"Gellissimo Biscoto | Brunch • Coffee | Thessaloniki","lat":40.63140115464137,"lng":22.942410197737622,"url":"https://maps.app.goo.gl/wcnUMwvELMBCafND6?g_st=ipc","address":"Proxenou Koromila 8, Thessaloniki 546 23","categoryIds":["coffee-brunch","desserts"],"categories":["Coffee & Brunch Spots","Dessert Shops"],"legacySlugs":["gellissimo-biscoto-brunch-coffee-thessaloniki-d34c"]},{"id":"coffeeBrunchRestaurants_9257bf81b3ff","slug":"fairytale-to-paramythopoleio-tis-n-filadelfeias-9257","kind":"restaurant","name":"Fairytale – Το Παραμυθοπωλείο της Ν. Φιλαδέλφειας","lat":38.03555224332492,"lng":23.73629276954315,"url":"https://maps.app.goo.gl/GoWf19SFoVJNYBHP9?g_st=ipc","address":"Νικ. Τρυρια 48, Νέα Φιλαδέλφεια Αττικής 143 41","categoryIds":["coffee-brunch","desserts"],"categories":["Coffee & Brunch Spots","Dessert Shops"],"legacySlugs":["fairytale-to-paramythopoleio-tis-n-filadelfeias-db46"]},{"id":"coffeeBrunchRestaurants_d00352ea6d8c","slug":"du-pain-boulangerie-patisserie-cafe-chaidari-d003","kind":"restaurant","name":"Du Pain - Boulangerie | Patisserie | Cafe - Χαϊδάρι","lat":38.01212694777047,"lng":23.65373933583571,"url":"https://maps.app.goo.gl/F7BPdSmhWeNtbKZVA?g_st=ipc","address":"Λεωφ. Αθηνών 308, Χαϊδάρι 124 62","categoryIds":["coffee-brunch","desserts"],"categories":["Coffee & Brunch Spots","Dessert Shops"],"legacySlugs":["du-pain-boulangerie-patisserie-cafe-chaidari-9c33"]},{"id":"coffeeBrunchRestaurants_c6ccd807225a","slug":"bread-b-c-bread-before-christ-c6cc","kind":"restaurant","name":"BREAD B.C. Bread Before Christ","lat":38.02007274297337,"lng":23.803168344895795,"url":"https://maps.app.goo.gl/TyGqvKXydEaJvedUA?g_st=ipc","address":"Αγίας Παρασκευής 59, Χαλάνδρι 152 34","categoryIds":["coffee-brunch","desserts"],"categories":["Coffee & Brunch Spots","Dessert Shops"],"legacySlugs":["bread-b-c-bread-before-christ-012b"]},{"id":"coffeeBrunchRestaurants_44bd3c6a7140","slug":"theoria-tou-house-44bd","kind":"restaurant","name":"Theoria Tou House","lat":37.99483558716702,"lng":23.67242611231958,"url":"https://maps.app.goo.gl/xJYXm4QXBt9wx7wx5?g_st=ipc","address":"Πλ. Δαβάκη 1, Αιγάλεω 122 44","categoryIds":["coffee-brunch","desserts"],"categories":["Coffee & Brunch Spots","Dessert Shops"],"legacySlugs":["theoria-tou-house-74b7"]},{"id":"coffeeBrunchRestaurants_8eea389a06d0","slug":"santo-belto-8eea","kind":"restaurant","name":"Santo Belto","lat":38.00295539657206,"lng":23.737407823969118,"url":"https://maps.app.goo.gl/ZWa6fMfeNKbHNQGB7?g_st=ipc","address":"Αγίας Ζώνης 21, Αθήνα 113 61","categoryIds":["coffee-brunch","desserts"],"categories":["Coffee & Brunch Spots","Dessert Shops"],"legacySlugs":["santo-belto-1567"]},{"id":"coffeeBrunchRestaurants_d3ad015b2f14","slug":"candycat-d3ad","kind":"restaurant","name":"CandyCat","lat":37.9775897353217,"lng":23.712604313955598,"url":"https://maps.app.goo.gl/bi9guRdYDSpWYmxn9?g_st=ipc","address":"Περσεφόνης 23, Αθήνα 118 54","categoryIds":["coffee-brunch","desserts"],"categories":["Coffee & Brunch Spots","Dessert Shops"],"legacySlugs":["candycat-50a1"]},{"id":"coffeeBrunchRestaurants_fb26a559a60b","slug":"fairytale-athens-cafe-suites-fb26","kind":"restaurant","name":"Fairytale Athens Café & Suites","lat":37.97805432206773,"lng":23.72175598680767,"url":"https://maps.app.goo.gl/4J2S3rbDjHuSFWW98?g_st=ipc","address":"Λεωκορίου 16, Αθήνα 105 54","categoryIds":["coffee-brunch","desserts"],"categories":["Coffee & Brunch Spots","Dessert Shops"],"legacySlugs":["fairytale-athens-cafe-suites-e14a"]},{"id":"coffeeBrunchRestaurants_b9df566768c1","slug":"kora-b9df","kind":"restaurant","name":"KORA","lat":37.98011321585773,"lng":23.739705197719534,"url":"https://maps.app.goo.gl/bGLYXaCD894A2zsQ8?g_st=ipc","address":"Παναγιώτου Αναγνωστοπούλου 44, Αθήνα 106 73","categoryIds":["coffee-brunch","desserts"],"categories":["Coffee & Brunch Spots","Dessert Shops"],"legacySlugs":["kora-96fe"]},{"id":"coffeeBrunchRestaurants_f2909cf2cf63","slug":"fresko-yogurt-bar-f290","kind":"restaurant","name":"Fresko Yogurt Bar","lat":37.97293031928317,"lng":23.72030106020887,"url":"https://maps.app.goo.gl/i3qPMdgczqaXz45r8?g_st=ipc","address":"Ιουλίου Σμιθ 2, Αθήνα 118 51","categoryIds":["coffee-brunch","desserts"],"categories":["Coffee & Brunch Spots","Dessert Shops"],"legacySlugs":["fresko-yogurt-bar-7bd0"]},{"id":"coffeeBrunchRestaurants_95dcd35af657","slug":"artopoieio-zacharoplasteio-arto-zymia-95dc","kind":"restaurant","name":"Αρτοποιείο Ζαχαροπλαστείο \"Αρτο..ζυμιά\"","lat":37.96420038301339,"lng":23.731208987347678,"url":"https://maps.app.goo.gl/FBqvEkq9TKnNFmzu9?g_st=ipc","address":"Αγλαονίκης 22, Αθήνα 117 43","categoryIds":["coffee-brunch","desserts"],"categories":["Coffee & Brunch Spots","Dessert Shops"],"legacySlugs":["artopoieio-zacharoplasteio-arto-zymia-afb8"]},{"id":"coffeeBrunchRestaurants_aba1a76a9734","slug":"batistas-bakery-aba1","kind":"restaurant","name":"Batistas Bakery","lat":37.120044252975426,"lng":25.241091509858137,"url":"https://maps.app.goo.gl/VX68GiVxifYLzhWu6?g_st=ipc","address":"Naousa 844 01","categoryIds":["coffee-brunch","desserts"],"categories":["Coffee & Brunch Spots","Dessert Shops"],"legacySlugs":["batistas-bakery-29b6"]}],"nearby":[{"id":"familyFriendly_15181c21c13f","slug":"magic-park-1518","kind":"restaurant","name":"Magic Park","lat":40.554442078448254,"lng":22.989769059470625,"url":"https://maps.app.goo.gl/b73PDCUhFyJQjo748?g_st=ipc","address":"Agias Anastasias 15, Thessaloniki 555 35","categoryIds":["family-friendly"],"categories":["Kid Friendly Locations"],"distanceKm":0.9469236662840174},{"id":"coffeeBrunchRestaurants_cae5ad9a4492","slug":"join-juice-bars-cae5","kind":"restaurant","name":"JOIN juice bars","lat":40.555069982077164,"lng":22.99254169325442,"url":"https://maps.app.goo.gl/VvKcZzDAukezDVie8?g_st=ipc","address":"11ο χλμ εθνικής οδού, A/D Thessalonikis Neon Moudanion, Thessaloniki 570 01","categoryIds":["coffee-brunch","vegetarian"],"categories":["Coffee & Brunch Spots","Vegetarian Friendly Restaurants"],"legacySlugs":["join-juice-bars-7a1d"],"distanceKm":1.1675195428994452},{"id":"greekRestaurants_e2775941e27f","slug":"lemargko-lemargo-e277","kind":"restaurant","name":"ΛΕΜΑΡΓΚΟ - LEMARGO","lat":40.55568833913434,"lng":22.99200579097481,"url":"https://maps.app.goo.gl/WVMwFqWKDdGPyWjd6?g_st=ipc","address":"11οχλμ. οδού, Thessaloniki, ΘΕΣΣΑΛΟΝΙΚΗΣ-ΜΟΥΔΑΝΙΩΝ, Θέρμη 570 01","categoryIds":["greek-restaurants"],"categories":["Greek Restaurants"],"distanceKm":1.1790070948313796},{"id":"burgersRestaurants_bb792caf2487","slug":"pax-burgers-bb79","kind":"restaurant","name":"Pax Burgers","lat":40.55495597120905,"lng":22.992844598481618,"url":"https://maps.app.goo.gl/TuduB4i2geBy2cb58?g_st=ipc","address":"ΘΕΣΣΑΛΟΝΙΚΗΣ-ΜΟΥΔΑΝΙΩΝ, Thermi 570 01","categoryIds":["burgers"],"categories":["Burger Spots"],"distanceKm":1.179540121875701},{"id":"cheapEatsRestaurants_5fc75ada9dd1","slug":"hot-pot-pasteria-5fc7","kind":"restaurant","name":"Hot Pot Pasteria","lat":40.555245602641975,"lng":22.992913714606928,"url":"https://maps.app.goo.gl/ZucBkKNWduhhUbyv9?g_st=ipc","address":"Mediterranean Cosmos, Thessaloniki","categoryIds":["cheap-eats"],"categories":["Gyros & Cheap Eats"],"distanceKm":1.2042122028263265},{"id":"coffeeBrunchRestaurants_3849ba172973","slug":"ergon-agora-east-3849","kind":"restaurant","name":"ERGON Agora (East)","lat":40.55876847950934,"lng":22.976949760424034,"url":"https://maps.app.goo.gl/um7bZpan68i3iqsx7?g_st=ipc","address":"Leof. Georgikis Scholis 50, Pilea Chortiatis 555 35","categoryIds":["coffee-brunch","family-friendly"],"categories":["Coffee & Brunch Spots","Kid Friendly Locations"],"legacySlugs":["ergon-agora-east-02cb"],"distanceKm":1.224662815024107},{"id":"familyFriendly_be918ccf9323","slug":"adventure-paintball-be91","kind":"restaurant","name":"Adventure Paintball","lat":40.54700993224624,"lng":22.99671406411148,"url":"https://maps.app.goo.gl/7H5QaUvgacWdSVGR6?g_st=ic","address":"A/D Thessalonikis Neon Moudanion, Thermi 570 01","categoryIds":["family-friendly"],"categories":["Kid Friendly Locations"],"distanceKm":1.2644474720470456},{"id":"familyFriendly_27bf58d1aae3","slug":"mediterranean-cosmos-27bf","kind":"restaurant","name":"Mediterranean Cosmos","lat":40.555729354394046,"lng":22.993377329551482,"url":"https://maps.app.goo.gl/hyNCGfBFcBtGJn7q9?g_st=ipc","address":"11ο χλμ εθνικής οδού, A/D Thessalonikis Neon Moudanion, Thessaloniki 570 01","categoryIds":["family-friendly"],"categories":["Kid Friendly Locations"],"distanceKm":1.2686633418159639},{"id":"dessertsRestaurants_f4e918b1bdf0","slug":"cinnabon-f4e9","kind":"restaurant","name":"Cinnabon","lat":40.55623010232396,"lng":22.993413011236047,"url":"https://maps.app.goo.gl/NCWBKtbPRQENGDWW7?g_st=ipc","address":"11ο Χμ, A/D Thessalonikis Neon Moudanion, 570 01","categoryIds":["desserts"],"categories":["Dessert Shops"],"distanceKm":1.3073451241535103},{"id":"dessertsRestaurants_8fbacc0c06a7","slug":"terkenlis-8fba","kind":"restaurant","name":"Terkenlis","lat":40.55633315795377,"lng":22.993299667914595,"url":"https://maps.app.goo.gl/jz8nuACpM2Fnauw9A?g_st=ipc","address":"11ο χλμ, ΘΕΣΣΑΛΟΝΙΚΗΣ-ΜΟΥΔΑΝΙΩΝ, 555 35","categoryIds":["desserts"],"categories":["Dessert Shops"],"distanceKm":1.307906763418838},{"id":"luxuryDiningRestaurants_bbb8974858e3","slug":"duck-bbb8","kind":"restaurant","name":"Duck","lat":40.56052899575869,"lng":22.986792720078764,"url":"https://maps.app.goo.gl/5gpSyYcYprQvjjq88?g_st=ipc","address":"Chalkis 3, Pilea Chortiatis 570 01","categoryIds":["luxury-dining"],"categories":["Luxury Dining"],"distanceKm":1.410844900939398},{"id":"familyFriendly_b51fd1ec3681","slug":"noesis-science-center-technology-museum-b51f","kind":"restaurant","name":"NOESIS Science Center & Technology Museum","lat":40.562055011158115,"lng":22.995596178260882,"url":"https://maps.app.goo.gl/r83VD4fLTaPtYU7R6?g_st=ipc","address":"Θεσσαλονίκης 6 χλμ, Thermi 570 01","categoryIds":["family-friendly"],"categories":["Kid Friendly Locations"],"distanceKm":1.9103646404400305},{"id":"familyFriendly_5db5a10042ec","slug":"les-raquettes-tennis-club-5db5","kind":"restaurant","name":"Les Raquettes Tennis Club","lat":40.55611851243244,"lng":23.00759531084474,"url":"https://maps.app.goo.gl/Uz7ZprsZow6RFsYs7?g_st=ipc","address":"Σοφοκλέους, Thermi 570 01","categoryIds":["family-friendly"],"categories":["Kid Friendly Locations"],"distanceKm":2.3371217156903117},{"id":"italianRestaurants_2c8b66244f29","slug":"tonino-esperienza-italiana-2c8b","kind":"restaurant","name":"Tonino Esperienza Italiana","lat":40.56132998598623,"lng":23.004796368106923,"url":"https://maps.app.goo.gl/bZQiMSEwbhVFBxUd8?g_st=ipc","address":"Χαρ. Θέρμης, Thermi 570 01","categoryIds":["italian"],"categories":["Italian Restaurants"],"distanceKm":2.412297803780135},{"id":"greekRestaurants_d6840627570a","slug":"lykos-chasapotaverna-d684","kind":"restaurant","name":"Lykos - Χασαποταβέρνα","lat":40.56114058445929,"lng":23.005199497641122,"url":"https://maps.app.goo.gl/H2wjVi3P1kdSmFTX8?g_st=ipc","address":"Χαρ. Θέρμης, Thessaloniki 570 01","categoryIds":["greek-restaurants"],"categories":["Greek Restaurants"],"distanceKm":2.427394899099725},{"id":"burgersRestaurants_d5586ce24d0b","slug":"osten-d558","kind":"restaurant","name":"OSTEN","lat":40.55792173583846,"lng":23.01007604885629,"url":"https://maps.app.goo.gl/JrNCtkPthNJns9L16?g_st=ipc","address":"4χλμ, Χαρ. Θέρμης, Thessaloniki 570 01","categoryIds":["burgers","desserts"],"categories":["Burger Spots","Dessert Shops"],"legacySlugs":["osten-07fc"],"distanceKm":2.607940315935732},{"id":"dessertsRestaurants_2befb2db83ce","slug":"terkenlis-2bef","kind":"restaurant","name":"Terkenlis","lat":40.525256969361955,"lng":22.97500623617725,"url":"https://maps.app.goo.gl/NfxGujkvPGiZ6Nah7?g_st=ipc","address":"Macedonia, airport, Thessaloniki","categoryIds":["desserts"],"categories":["Dessert Shops"],"distanceKm":2.638517350508047},{"id":"burgersRestaurants_21be773739d0","slug":"brothers-in-law-smash-n-pasta-thermi-21be","kind":"restaurant","name":"Brothers in Law Smash 'n' Pasta Thermi","lat":40.5561230976469,"lng":23.012690012150046,"url":"https://maps.app.goo.gl/tDetHtpfpgzNvuNC7?g_st=ipc","address":"5 χλμ, Χαρ. Θέρμης 1ο χλμ, Thermi 570 01","categoryIds":["burgers","italian"],"categories":["Burger Spots","Italian Restaurants"],"legacySlugs":["brothers-in-law-smash-n-pasta-thermi-6cb6"],"distanceKm":2.7422497685535574},{"id":"fishTavernasRestaurants_12f95d4f93d0","slug":"maiami-seafood-restaurant-12f9","kind":"restaurant","name":"Maiami Seafood Restaurant","lat":40.5660781564898,"lng":22.958426191574933,"url":"https://maps.app.goo.gl/iH1kytUDBvfY1Xmu5?g_st=ipc","address":"Thetidos 18, Kalamaria 551 32","categoryIds":["fish-tavernas","luxury-dining"],"categories":["Fish Tavernas","Luxury Dining"],"legacySlugs":["maiami-seafood-restaurant-20a0"],"distanceKm":2.7894822560768127},{"id":"fishTavernasRestaurants_0b1c52c256c7","slug":"thermaikos-psarotaverna-kalamaria-thessaloniki-0b1c","kind":"restaurant","name":"Θερμαϊκός Ψαροταβέρνα | Καλαμαρία, Θεσσαλονίκη","lat":40.56643535238568,"lng":22.958306698225478,"url":"https://maps.app.goo.gl/fGHKAJK8MvBqvND6A?g_st=ipc","address":"Thetidos, Kalamaria 551 32","categoryIds":["fish-tavernas"],"categories":["Fish Tavernas"],"distanceKm":2.8247010411022653},{"id":"familyFriendly_5fc832b90305","slug":"partyland-pylaia-playground-restaurant-events-5fc8","kind":"restaurant","name":"PARTYLAND ΠΥΛΑΙΑ | PLAYGROUND | RESTAURANT | EVENTS","lat":40.57242727995374,"lng":22.992912588988382,"url":"https://maps.app.goo.gl/hq2iSCHB7jfquAbeA?g_st=ic","address":"St.Kazantzidi 49, Pilea 555 36","categoryIds":["family-friendly"],"categories":["Kid Friendly Locations"],"distanceKm":2.8294086132254423},{"id":"fishTavernasRestaurants_d3195d3c5fff","slug":"arodo-d319","kind":"restaurant","name":"Aródo","lat":40.566822399097624,"lng":22.957889078590952,"url":"https://maps.app.goo.gl/1PTePSM62TKyXYyd9?g_st=ipc","address":"Thetidos 25, Θεσσαλονίκη 551 32","categoryIds":["fish-tavernas"],"categories":["Fish Tavernas"],"distanceKm":2.8801011324446337},{"id":"fishTavernasRestaurants_8519dfc7e5a0","slug":"prigkipas-8519","kind":"restaurant","name":"Prigkipas","lat":40.56870307397198,"lng":22.96042239278236,"url":"https://maps.app.goo.gl/CftYQWb7WS78EL267?g_st=ipc","address":"Chanion 8, Kalamaria 551 32","categoryIds":["fish-tavernas"],"categories":["Fish Tavernas"],"distanceKm":2.893786421078503},{"id":"burgersRestaurants_8f11f76e2e42","slug":"maverick-handmade-street-food-8f11","kind":"restaurant","name":"MAVERICK Handmade Street Food","lat":40.5733294711661,"lng":22.971759802516267,"url":"https://maps.app.goo.gl/Bc8D8iLK2oBQoFcm8?g_st=ipc","address":"Eth. Antistaseos 179, Kalamaria 551 34","categoryIds":["burgers","cheap-eats"],"categories":["Burger Spots","Gyros & Cheap Eats"],"legacySlugs":["maverick-handmade-street-food-77c2"],"distanceKm":2.8997286998665186}],"sameRegion":[],"mentionedGuides":[],"canonicalSlug":"pink-dot-cafe-5b87","isCanonicalEntity":true,"enrichment":{"summary_en":"Pink Dot Cafe is a curated restaurant in Pilea 570 01 in the Coffee & Brunch Spots collection. It is connected to 0 nearby Googlementor picks to help travelers build a stronger local route.","summary_el":"Pink Dot Cafe είναι ένα επιλεγμένο σημείο φαγητού στην περιοχή Pilea 570 01 και ανήκει στη συλλογή Coffee & Brunch Spots. Συνδέεται με 0 κοντινές προτάσεις του Googlementor για πιο ολοκληρωμένη εμπειρία.","vibe_tags":["curated","sweet-stop","daytime-favorite"],"best_for":["first-time visitors","food lovers"],"visit_moments":["early morning","late brunch"],"practical_note":"Address and direct map link are available for easy turn-by-turn access.","nearby_walkable_count":0,"nearby_count_2km":12,"confidence":0.9},"areaContext":{"slug":"thermi","name":"Thermi"},"intentContexts":[{"href":"/desserts/thermi","label":"Dessert Shops in Thermi","categorySlug":"desserts","categoryName":"Dessert Shops","areaSlug":"thermi","areaName":"Thermi"}]},"__N_SSG":true}