{"pageProps":{"entity":{"id":"fishTavernasRestaurants_1990237d6026","slug":"poseidon-restaurant-1990","kind":"restaurant","name":"Poseidon Restaurant","lat":37.50071286982713,"lng":23.45417804690704,"url":"https://maps.app.goo.gl/1Th6rJgnvtfqZg6q7?g_st=ipc","address":"Πλατεία Βιρβίλη, Πόρος 180 20","categoryIds":["fish-tavernas"],"categories":["Fish Tavernas"]},"sameCategory":[{"id":"fishTavernasRestaurants_23eb511b3910","slug":"sunset-restaurant-23eb","kind":"restaurant","name":"Sunset Restaurant","lat":37.35168822648852,"lng":23.46274301702218,"url":"https://maps.app.goo.gl/24WnQ3Q4oomRkZm38?g_st=ipc","address":"Eparxiaki odos Hydra, 180 40","categoryIds":["fish-tavernas"],"categories":["Fish Tavernas"]},{"id":"fishTavernasRestaurants_a1376fc53fb5","slug":"omilos-restaurant-bar-a137","kind":"restaurant","name":"Omilos Restaurant Bar","lat":37.35145736724594,"lng":23.46444594181709,"url":"https://maps.app.goo.gl/WChcxQZZeaRjrCgLA?g_st=ipc","address":"Epar.Od. Mandrakiou-Molou, Idra 180 40","categoryIds":["fish-tavernas"],"categories":["Fish Tavernas"]},{"id":"fishTavernasRestaurants_d190706d0f4c","slug":"techne-restaurant-social-d190","kind":"restaurant","name":"Téchnē Restaurant & Social","lat":37.3499478063,"lng":23.461255663187938,"url":"https://maps.app.goo.gl/LkcL3YyhTtP2AGh39?g_st=ipc","address":"Epar.Od. Mandrakiou-Molou, Idra 180 40","categoryIds":["fish-tavernas"],"categories":["Fish Tavernas"]},{"id":"fishTavernasRestaurants_83ba819e5d0a","slug":"psaropoula-83ba","kind":"restaurant","name":"Psaropoula","lat":37.349711329596715,"lng":23.46495669234671,"url":"https://maps.app.goo.gl/iEjEefYGNPNwNDDy6?g_st=ipc","address":"Miaouli 454, Idra 180 40","categoryIds":["fish-tavernas"],"categories":["Fish Tavernas"]},{"id":"fishTavernasRestaurants_844a9d473418","slug":"nontas-fish-restaurant-aegina-844a","kind":"restaurant","name":"Nontas Fish Restaurant Aegina","lat":37.69108297293718,"lng":23.45380750830205,"url":"https://maps.app.goo.gl/LQtQYgZXaYX7b86f7?g_st=ipc","address":"Perdika, Perdika, Aegina 180 10","categoryIds":["fish-tavernas"],"categories":["Fish Tavernas"]},{"id":"fishTavernasRestaurants_f6c6315bc0fe","slug":"psarotaverna-o-miltos-f6c6","kind":"restaurant","name":"Ψαροταβέρνα ο Μίλτος","lat":37.69125643205692,"lng":23.452985316664172,"url":"https://maps.app.goo.gl/fAYcLjvxJmM1brLc9?g_st=ipc","address":"Πέρδικα, Αίγινα 180 10","categoryIds":["fish-tavernas"],"categories":["Fish Tavernas"]},{"id":"fishTavernasRestaurants_a1bff67a9f8a","slug":"estiatorio-giovita-a1bf","kind":"restaurant","name":"Εστιατόριο Γιοβίτα","lat":37.69141494985634,"lng":23.45251808446286,"url":"https://maps.app.goo.gl/Xcjr5cpx6UGWAkLQ7?g_st=ipc","address":"Περδικα, Αίγινα 180 10","categoryIds":["fish-tavernas"],"categories":["Fish Tavernas"]},{"id":"fishTavernasRestaurants_036f2df06d0a","slug":"psarotaverna-aiginitissa-036f","kind":"restaurant","name":"Ψαροταβέρνα Αιγινήτισσα","lat":37.700098544992514,"lng":23.468697694131777,"url":"https://maps.app.goo.gl/Wvbm3uFeQe4HDRTB9?g_st=ipc","address":"Αιγινίτισσας, Αίγινα 180 10","categoryIds":["fish-tavernas"],"categories":["Fish Tavernas"]},{"id":"fishTavernasRestaurants_ef34e6a5f34e","slug":"ammos-restaurant-ef34","kind":"restaurant","name":"AMMOS Restaurant","lat":37.719362798936,"lng":23.459117899142395,"url":"https://maps.app.goo.gl/zm3QJEgpXF2deJBSA?g_st=ipc","address":"Μαραθώνας, ΑΙΓΙΝΑ, Αίγινα 180 10","categoryIds":["fish-tavernas"],"categories":["Fish Tavernas"]},{"id":"fishTavernasRestaurants_a171f1b83cdb","slug":"oyzeri-o-skotadis-a171","kind":"restaurant","name":"Ουζερί ο Σκοτάδης","lat":37.745028514829414,"lng":23.42967138367635,"url":"https://maps.app.goo.gl/cumYAkYMefX2wAAH9?g_st=ipc","address":"Λεωφ. Δημοκρατίας 46, Αίγινα 180 10","categoryIds":["fish-tavernas"],"categories":["Fish Tavernas"]},{"id":"fishTavernasRestaurants_a752a7fe8192","slug":"matsuhisa-athens-a752","kind":"restaurant","name":"Matsuhisa Athens","lat":37.806991167366505,"lng":23.7721702530857,"url":"https://maps.app.goo.gl/kX1Hohg5k4FcqjgeA?g_st=ipc","address":"40, Απόλλωνος street, Βουλιαγμένη 166 71","categoryIds":["fish-tavernas","luxury-dining"],"categories":["Fish Tavernas","Luxury Dining"],"legacySlugs":["matsuhisa-athens-c10d"]},{"id":"fishTavernasRestaurants_f4426065c5a4","slug":"sardelaki-me-thea-f442","kind":"restaurant","name":"Σαρδελάκι με θέα","lat":37.80897457022261,"lng":23.782330412997638,"url":"https://maps.app.goo.gl/6zBxpoBupuA67wwt8?g_st=ipc","address":"Λεωφ. Ποσειδώνος 18, Βουλιαγμένη 166 71","categoryIds":["fish-tavernas"],"categories":["Fish Tavernas"]}],"nearby":[{"id":"greekRestaurants_5cc6a0ad45a2","slug":"dimitris-family-butcher-taverna-5cc6","kind":"restaurant","name":"DIMITRIS FAMILY BUTCHER TAVERNA","lat":37.49998863137907,"lng":23.454951269041434,"url":"https://maps.app.goo.gl/rVV7dw6UQwPvjHip9?g_st=ipc","address":"25 ΜΑΡΤΙΟΥ 12, Πόρος 180 20","categoryIds":["greek-restaurants"],"categories":["Greek Restaurants"],"distanceKm":0.10553707368459628},{"id":"municipalities_fabe4f2e7a38","slug":"poros-fabe","kind":"municipality","name":"Πόρος","lat":37.4996,"lng":23.4534,"aliases":["Πορος"],"region":"Νησιά Αργοσαρωνικού","name_en":"Poros","region_en":"Saronic Islands","distanceKm":0.14150597990064262},{"id":"rooftopLoungesRestaurants_b9086fd9d613","slug":"oceanis-rooftop-garden-cocktails-b908","kind":"restaurant","name":"Oceanis Rooftop Garden Cocktails","lat":37.501996070488,"lng":23.45562913585347,"url":"https://maps.app.goo.gl/jsTmkoKprsWbmQrL7?g_st=ipc","address":"Πόρος 180 20","categoryIds":["rooftop-lounges"],"categories":["Rooftop Lounges"],"distanceKm":0.19169043538247846},{"id":"fishTavernasRestaurants_23eb511b3910","slug":"sunset-restaurant-23eb","kind":"restaurant","name":"Sunset Restaurant","lat":37.35168822648852,"lng":23.46274301702218,"url":"https://maps.app.goo.gl/24WnQ3Q4oomRkZm38?g_st=ipc","address":"Eparxiaki odos Hydra, 180 40","categoryIds":["fish-tavernas"],"categories":["Fish Tavernas"],"distanceKm":16.588035215695655},{"id":"coffeeBrunchRestaurants_24def4a9906d","slug":"ydroneta-24de","kind":"restaurant","name":"Υδρονέτα","lat":37.35156953668086,"lng":23.462454743451826,"url":"https://maps.app.goo.gl/JdZyRYb4EEJyr1MGA?g_st=ipc","address":"Επαρ.Οδ. Μανδρακίου-Μωλόυ, Ύδρα 180 40","categoryIds":["coffee-brunch"],"categories":["Coffee & Brunch Spots"],"distanceKm":16.600078995445163},{"id":"fishTavernasRestaurants_a1376fc53fb5","slug":"omilos-restaurant-bar-a137","kind":"restaurant","name":"Omilos Restaurant Bar","lat":37.35145736724594,"lng":23.46444594181709,"url":"https://maps.app.goo.gl/WChcxQZZeaRjrCgLA?g_st=ipc","address":"Epar.Od. Mandrakiou-Molou, Idra 180 40","categoryIds":["fish-tavernas"],"categories":["Fish Tavernas"],"distanceKm":16.621203512953315},{"id":"fishTavernasRestaurants_d190706d0f4c","slug":"techne-restaurant-social-d190","kind":"restaurant","name":"Téchnē Restaurant & Social","lat":37.3499478063,"lng":23.461255663187938,"url":"https://maps.app.goo.gl/LkcL3YyhTtP2AGh39?g_st=ipc","address":"Epar.Od. Mandrakiou-Molou, Idra 180 40","categoryIds":["fish-tavernas"],"categories":["Fish Tavernas"],"distanceKm":16.775956198735443},{"id":"municipalities_5b2ddd41014c","slug":"ydra-5b2d","kind":"municipality","name":"Ύδρα","lat":37.35,"lng":23.4667,"aliases":["Υδρα"],"region":"Νησιά Αργοσαρωνικού","name_en":"Hydra","region_en":"Saronic Islands","distanceKm":16.79494635723935},{"id":"greekRestaurants_2a52e887a9bb","slug":"i-oraia-ydra-2a52","kind":"restaurant","name":"Η Ωραία Ύδρα","lat":37.34994288805934,"lng":23.466175945881538,"url":"https://maps.app.goo.gl/rkvAbXZyRA6uxizH8?g_st=ipc","address":"Ύδρας, Ύδρα 180 40","categoryIds":["greek-restaurants"],"categories":["Greek Restaurants"],"distanceKm":16.798301015267214},{"id":"greekRestaurants_957bfb0c0005","slug":"psaropoyla-g-mayrommatis-i-mayrommatis-g-eystathioy-oe-o-e-957b","kind":"restaurant","name":"ΨΑΡΟΠΟΥΛΑ Γ.ΜΑΥΡΟΜΜΑΤΗΣ-Η.ΜΑΥΡΟΜΜΑΤΗΣ-Γ.ΕΥΣΤΑΘΙΟΥ ΟΕ Ο.Ε","lat":37.34973982167689,"lng":23.46495374540123,"url":"https://maps.app.goo.gl/Xci6cmF7LRrnCad59?g_st=ipc","address":"Μιαούλη 454, Ύδρα 180 40","categoryIds":["greek-restaurants"],"categories":["Greek Restaurants"],"distanceKm":16.81438332096169},{"id":"fishTavernasRestaurants_83ba819e5d0a","slug":"psaropoula-83ba","kind":"restaurant","name":"Psaropoula","lat":37.349711329596715,"lng":23.46495669234671,"url":"https://maps.app.goo.gl/iEjEefYGNPNwNDDy6?g_st=ipc","address":"Miaouli 454, Idra 180 40","categoryIds":["fish-tavernas"],"categories":["Fish Tavernas"],"distanceKm":16.817561155695508},{"id":"coffeeBrunchRestaurants_6a007e672d77","slug":"the-pirate-bar-6a00","kind":"restaurant","name":"The Pirate Bar","lat":37.34970734644238,"lng":23.46509825080948,"url":"https://maps.app.goo.gl/kHR9XPEtdhdttpmr9?g_st=ipc","address":"Βότση, Ύδρα 180 40","categoryIds":["coffee-brunch"],"categories":["Coffee & Brunch Spots"],"distanceKm":16.818715436258923},{"id":"greekRestaurants_37c38a309ff6","slug":"castello-hydra-37c3","kind":"restaurant","name":"Castello Hydra","lat":37.34652415693392,"lng":23.455436035571626,"url":"https://maps.app.goo.gl/ZWwvNsRtXjXrDC2j9?g_st=ipc","address":"Kamini Hydra Island Hydra Island, 180 40","categoryIds":["greek-restaurants"],"categories":["Greek Restaurants"],"distanceKm":17.145362510722855},{"id":"fishTavernasRestaurants_844a9d473418","slug":"nontas-fish-restaurant-aegina-844a","kind":"restaurant","name":"Nontas Fish Restaurant Aegina","lat":37.69108297293718,"lng":23.45380750830205,"url":"https://maps.app.goo.gl/LQtQYgZXaYX7b86f7?g_st=ipc","address":"Perdika, Perdika, Aegina 180 10","categoryIds":["fish-tavernas"],"categories":["Fish Tavernas"],"distanceKm":21.168214823792862},{"id":"fishTavernasRestaurants_f6c6315bc0fe","slug":"psarotaverna-o-miltos-f6c6","kind":"restaurant","name":"Ψαροταβέρνα ο Μίλτος","lat":37.69125643205692,"lng":23.452985316664172,"url":"https://maps.app.goo.gl/fAYcLjvxJmM1brLc9?g_st=ipc","address":"Πέρδικα, Αίγινα 180 10","categoryIds":["fish-tavernas"],"categories":["Fish Tavernas"],"distanceKm":21.18773801381141},{"id":"fishTavernasRestaurants_a1bff67a9f8a","slug":"estiatorio-giovita-a1bf","kind":"restaurant","name":"Εστιατόριο Γιοβίτα","lat":37.69141494985634,"lng":23.45251808446286,"url":"https://maps.app.goo.gl/Xcjr5cpx6UGWAkLQ7?g_st=ipc","address":"Περδικα, Αίγινα 180 10","categoryIds":["fish-tavernas"],"categories":["Fish Tavernas"],"distanceKm":21.205608116919326},{"id":"coffeeBrunchRestaurants_52f2d70fc21e","slug":"to-mikro-cafe-52f2","kind":"restaurant","name":"Το Μικρό Cafe","lat":37.69190688153916,"lng":23.451237398771788,"url":"https://maps.app.goo.gl/KwgXY17CGsEWtAUX7?g_st=ipc","address":"Unnamed Road, Πέρδικα 180 10","categoryIds":["coffee-brunch"],"categories":["Coffee & Brunch Spots"],"distanceKm":21.26138266543099},{"id":"greekRestaurants_194196a775f8","slug":"taverna-mpatzavalis-1941","kind":"restaurant","name":"Ταβέρνα Μπατζάβαλης","lat":37.538801302509206,"lng":23.20804103233561,"url":"https://maps.app.goo.gl/PctHkeeHVJEeQDux6?g_st=ipc","address":"Καρατζάς 180 20","categoryIds":["greek-restaurants"],"categories":["Greek Restaurants"],"distanceKm":22.116978387444917},{"id":"fishTavernasRestaurants_036f2df06d0a","slug":"psarotaverna-aiginitissa-036f","kind":"restaurant","name":"Ψαροταβέρνα Αιγινήτισσα","lat":37.700098544992514,"lng":23.468697694131777,"url":"https://maps.app.goo.gl/Wvbm3uFeQe4HDRTB9?g_st=ipc","address":"Αιγινίτισσας, Αίγινα 180 10","categoryIds":["fish-tavernas"],"categories":["Fish Tavernas"],"distanceKm":22.20754561310584},{"id":"municipalities_50a65bde2637","slug":"ermioni-50a6","kind":"municipality","name":"Ερμιόνη","lat":37.3881,"lng":23.2431,"aliases":["Ερμιονη","Hermione"],"region":"Αργολίδα","name_en":"Ermioni","region_en":"Argolis","distanceKm":22.450925771390438},{"id":"greekRestaurants_4c0797e5b05b","slug":"to-steki-toy-kynigoy-4c07","kind":"restaurant","name":"Το Στέκι του Κυνηγού","lat":37.70692578125452,"lng":23.504550200008005,"url":"https://maps.app.goo.gl/eRHkBsaWKHX368U76?g_st=ipc","address":"Ανίτσαιο 180 10","categoryIds":["greek-restaurants"],"categories":["Greek Restaurants"],"distanceKm":23.35526325858118},{"id":"fishTavernasRestaurants_ef34e6a5f34e","slug":"ammos-restaurant-ef34","kind":"restaurant","name":"AMMOS Restaurant","lat":37.719362798936,"lng":23.459117899142395,"url":"https://maps.app.goo.gl/zm3QJEgpXF2deJBSA?g_st=ipc","address":"Μαραθώνας, ΑΙΓΙΝΑ, Αίγινα 180 10","categoryIds":["fish-tavernas"],"categories":["Fish Tavernas"],"distanceKm":24.316656398774988},{"id":"italianRestaurants_cea069598e2c","slug":"avli-pizzeria-italian-restaurant-cea0","kind":"restaurant","name":"Avli Pizzeria Italian Restaurant","lat":37.70852668969966,"lng":23.364217806517935,"url":"https://maps.app.goo.gl/CQiwfGN8vkcQtv7x8?g_st=ipc","address":"Σκάλα 180 10","categoryIds":["italian"],"categories":["Italian Restaurants"],"distanceKm":24.42899669286281},{"id":"greekRestaurants_fe33131c983d","slug":"toxotis-fe33","kind":"restaurant","name":"ΤΟΞΟΤΗΣ","lat":37.70895258892911,"lng":23.363446090303647,"url":"https://maps.app.goo.gl/y4Wvco9rEc1QfYUM6?g_st=ipc","address":"Σκάλα 180 10","categoryIds":["greek-restaurants"],"categories":["Greek Restaurants"],"distanceKm":24.495888649476367}],"sameRegion":[],"mentionedGuides":[],"canonicalSlug":"poseidon-restaurant-1990","isCanonicalEntity":true,"enrichment":{"summary_en":"Poseidon Restaurant is a curated restaurant in Πόρος 180 20 in the Fish Tavernas collection. It is connected to 3 nearby Googlementor picks to help travelers build a stronger local route.","summary_el":"Poseidon Restaurant είναι ένα επιλεγμένο σημείο φαγητού στην περιοχή Πόρος 180 20 και ανήκει στη συλλογή Fish Tavernas. Συνδέεται με 3 κοντινές προτάσεις του Googlementor για πιο ολοκληρωμένη εμπειρία.","vibe_tags":["curated","seafood-local"],"best_for":["first-time visitors","food lovers"],"visit_moments":["lunch stop","dinner stop"],"practical_note":"Address and direct map link are available for easy turn-by-turn access.","nearby_walkable_count":3,"nearby_count_2km":3,"confidence":0.9},"areaContext":null,"intentContexts":[]},"__N_SSG":true}