{"pageProps":{"entity":{"id":"burgersRestaurants_90d16bd5f050","slug":"pratina-burger-project-90d1","kind":"restaurant","name":"PRATINA Burger Project","lat":40.63713764523389,"lng":22.937597600102066,"url":"https://maps.app.goo.gl/rE8kgxhDvdzbh9hw7","address":"Veroias 5, Thessaloniki 546 25","categoryIds":["burgers","cheap-eats"],"categories":["Burger Spots","Gyros & Cheap Eats"],"legacySlugs":["pratina-burger-project-47ac"]},"sameCategory":[{"id":"burgersRestaurants_7709ed422386","slug":"raw-street-burger-thessaloniki-7709","kind":"restaurant","name":"Raw Street Burger - Thessaloniki","lat":40.6360216575253,"lng":22.93735358036402,"url":"https://maps.app.goo.gl/8jf35cPRudvWnsoP7?g_st=ipc","address":"Politechniou 53, Thessaloniki 546 25","categoryIds":["burgers","cheap-eats"],"categories":["Burger Spots","Gyros & Cheap Eats"],"legacySlugs":["raw-street-burger-thessaloniki-a3ea"]},{"id":"burgersRestaurants_d27855febf5e","slug":"cantina-manara-d278","kind":"restaurant","name":"Cantina Manara","lat":40.6371113197463,"lng":22.93922534676657,"url":"https://maps.app.goo.gl/51NLWv682h6DK989A?g_st=ipc","address":"Στοά, Ermou 1, Thessaloniki 546 25","categoryIds":["burgers","cheap-eats"],"categories":["Burger Spots","Gyros & Cheap Eats"],"legacySlugs":["cantina-manara-3308"]},{"id":"burgersRestaurants_c3d0c3efec16","slug":"ohmami-street-food-thessaloniki-c3d0","kind":"restaurant","name":"Ohmami - Street Food / Thessaloniki","lat":40.63556199320903,"lng":22.947562092920837,"url":"https://maps.app.goo.gl/NzN9wf8WYr2rjWbd7","address":"Patriarchoi Dionisii E 1, Thessaloniki 546 31","categoryIds":["burgers","cheap-eats"],"categories":["Burger Spots","Gyros & Cheap Eats"],"legacySlugs":["ohmami-street-food-thessaloniki-b6d7"]},{"id":"burgersRestaurants_0c007445e9cc","slug":"balboa-thessaloniki-0c00","kind":"restaurant","name":"Balboa Thessaloniki","lat":40.631911246314864,"lng":22.947511059222414,"url":"https://maps.app.goo.gl/Lys3ApFbCS6C7HCt8","address":"P. Mela 42, Thessaloniki 546 22","categoryIds":["burgers","cheap-eats"],"categories":["Burger Spots","Gyros & Cheap Eats"],"legacySlugs":["balboa-thessaloniki-bd4c"]},{"id":"burgersRestaurants_e6cca423021b","slug":"rookie-skg-e6cc","kind":"restaurant","name":"Rookie.skg","lat":40.66725084444489,"lng":22.911546340289146,"url":"https://maps.app.goo.gl/UbXbrxK1VEFkvDdp7?g_st=ipc","address":"P. Mela 28, Evosmos 562 24","categoryIds":["burgers","cheap-eats"],"categories":["Burger Spots","Gyros & Cheap Eats"],"legacySlugs":["rookie-skg-91f7"]},{"id":"burgersRestaurants_d1dcd32d4d8e","slug":"stivos-burger-steak-d1dc","kind":"restaurant","name":"STIVOS BURGER & STEAK","lat":40.669593987579994,"lng":22.91138406394072,"url":"https://maps.app.goo.gl/7TUUVwTEcxqLX9347?g_st=ipc","address":"Ευαγγελισμού της Θεοτόκου 43, Evosmos 562 24","categoryIds":["burgers","cheap-eats"],"categories":["Burger Spots","Gyros & Cheap Eats"],"legacySlugs":["stivos-burger-steak-c884"]},{"id":"burgersRestaurants_8a735b95eb4f","slug":"paul-s-burger-8a73","kind":"restaurant","name":"Paul’s Burger","lat":40.59788362738132,"lng":22.95216160608432,"url":"https://maps.app.goo.gl/9L8fryr5EiA3D5rR9?g_st=ipc","address":"Geor. Papandreou 38, Thessaloniki 546 46","categoryIds":["burgers","cheap-eats"],"categories":["Burger Spots","Gyros & Cheap Eats"],"legacySlugs":["paul-s-burger-a56a"]},{"id":"burgersRestaurants_c2797cbf1cc8","slug":"jacaranda-c279","kind":"restaurant","name":"Jacaranda","lat":40.583007556132294,"lng":22.982557958626895,"url":"https://maps.app.goo.gl/1GxBYUFXBeTUU8iq6?g_st=ipc","address":"Στέλιου Καζαντζίδη 24, Pilea 555 35","categoryIds":["burgers","cheap-eats"],"categories":["Burger Spots","Gyros & Cheap Eats"],"legacySlugs":["jacaranda-05fa"]},{"id":"burgersRestaurants_8f11f76e2e42","slug":"maverick-handmade-street-food-8f11","kind":"restaurant","name":"MAVERICK Handmade Street Food","lat":40.5733294711661,"lng":22.971759802516267,"url":"https://maps.app.goo.gl/Bc8D8iLK2oBQoFcm8?g_st=ipc","address":"Eth. Antistaseos 179, Kalamaria 551 34","categoryIds":["burgers","cheap-eats"],"categories":["Burger Spots","Gyros & Cheap Eats"],"legacySlugs":["maverick-handmade-street-food-77c2"]},{"id":"burgersRestaurants_54aa085a6ef8","slug":"sinners-smash-burgers-54aa","kind":"restaurant","name":"Sinners Smash Burgers","lat":40.57608642412674,"lng":22.98935981589618,"url":"https://maps.app.goo.gl/Y2NDJtMWMoJrutpZ6?g_st=ipc","address":"Στέλιου Καζαντζίδη 31, Pilea 555 35","categoryIds":["burgers","cheap-eats"],"categories":["Burger Spots","Gyros & Cheap Eats"],"legacySlugs":["sinners-smash-burgers-e79f"]},{"id":"burgersRestaurants_4060fc5be247","slug":"maestro-cantina-4060","kind":"restaurant","name":"Maestro Cantina","lat":40.539870288194706,"lng":23.0207573353921,"url":"https://maps.app.goo.gl/WJTaYcJdPxACzwkXA?g_st=ipc","address":"EO Thessalonikis Poligirou 32, Thermi 570 01","categoryIds":["burgers","cheap-eats"],"categories":["Burger Spots","Gyros & Cheap Eats"],"legacySlugs":["maestro-cantina-5ff9"]},{"id":"burgersRestaurants_2c0faaef9d53","slug":"holy-smoke-bbq-streetfood-2c0f","kind":"restaurant","name":"Holy Smoke BBQ Streetfood","lat":40.846110747356505,"lng":25.87110606697465,"url":"https://maps.app.goo.gl/QRyzxeSuPPkZ7om56?g_st=ipc","address":"Eth. Antistaseos 136, Alexandroupoli 681 00","categoryIds":["burgers","cheap-eats"],"categories":["Burger Spots","Gyros & Cheap Eats"],"legacySlugs":["holy-smoke-bbq-streetfood-b910"]}],"nearby":[{"id":"asianRestaurants_8419e93bcb2d","slug":"ikigai-the-dumpling-experience-8419","kind":"restaurant","name":"Ikigai - The Dumpling Experience","lat":40.637093410026516,"lng":22.93763984161015,"url":"https://maps.app.goo.gl/zEYfCsMm5fXf8Dd78?g_st=ipc","address":"Veroias 5, Thessaloniki 546 25","categoryIds":["asian"],"categories":["Asian Restaurants"],"distanceKm":0.006074412490994766},{"id":"coffeeBrunchRestaurants_1c6ae917ccf8","slug":"romantzo-1c6a","kind":"restaurant","name":"Romantzo","lat":40.637344096207045,"lng":22.93721658740342,"url":"https://maps.app.goo.gl/xTf6UJFe7tcY4vHU7?g_st=ipc","address":"Veroias 2, Thessaloniki 546 25","categoryIds":["coffee-brunch"],"categories":["Coffee & Brunch Spots"],"distanceKm":0.03950450989786629},{"id":"coffeeBrunchRestaurants_c5fcdd8f5d50","slug":"slow-kaffe-and-wine-c5fc","kind":"restaurant","name":"Slow Kaffe and Wine","lat":40.63667930749031,"lng":22.937326259309707,"url":"https://maps.app.goo.gl/sudFiDSGGdZvwXaq8?g_st=ipc","address":"Ernestou Emprar 10, Thessaloniki 546 25","categoryIds":["coffee-brunch"],"categories":["Coffee & Brunch Spots"],"distanceKm":0.05587159242973977},{"id":"burgersRestaurants_b5205e897d93","slug":"tarantino-sandwiches-fries-b520","kind":"restaurant","name":"Tarantino Sandwiches & Fries","lat":40.63667870510283,"lng":22.93716261995098,"url":"https://maps.app.goo.gl/NKZaYUsTivGGc1mU7?g_st=ipc","address":"Ernestou Emprar 5, Thessaloniki 546 25","categoryIds":["burgers"],"categories":["Burger Spots"],"distanceKm":0.06286030286639374},{"id":"italianRestaurants_7cee9388f440","slug":"pizza-hood-7cee","kind":"restaurant","name":"Pizza Hood","lat":40.63650781158609,"lng":22.937112758246737,"url":"https://maps.app.goo.gl/PSUf6oyYdwKAkgEFA","address":"Ernestou Emprar 2, Thessaloniki 546 25","categoryIds":["italian"],"categories":["Italian Restaurants"],"distanceKm":0.08110816183450283},{"id":"coffeeBrunchRestaurants_fd2a487a0b78","slug":"ypsilon-fd2a","kind":"restaurant","name":"Υpsilon","lat":40.636365825174295,"lng":22.93811663555069,"url":"https://maps.app.goo.gl/7LvTZEdhDkTAMmp78?g_st=ipc","address":"Edessis 5, Thessaloniki 546 25","categoryIds":["coffee-brunch"],"categories":["Coffee & Brunch Spots"],"distanceKm":0.0963516289048666},{"id":"cheapEatsRestaurants_763f0b4ef33d","slug":"pizza-poselli-763f","kind":"restaurant","name":"Pízza Poselli","lat":40.63738632422352,"lng":22.938994583377827,"url":"https://maps.app.goo.gl/msSh5RZw3k81mKHWA?g_st=ipc","address":"Vilara 2, Thessaloniki 546 25","categoryIds":["cheap-eats","italian"],"categories":["Gyros & Cheap Eats","Italian Restaurants"],"legacySlugs":["pizza-poselli-5cd4"],"distanceKm":0.12107737221755795},{"id":"burgersRestaurants_7709ed422386","slug":"raw-street-burger-thessaloniki-7709","kind":"restaurant","name":"Raw Street Burger - Thessaloniki","lat":40.6360216575253,"lng":22.93735358036402,"url":"https://maps.app.goo.gl/8jf35cPRudvWnsoP7?g_st=ipc","address":"Politechniou 53, Thessaloniki 546 25","categoryIds":["burgers","cheap-eats"],"categories":["Burger Spots","Gyros & Cheap Eats"],"legacySlugs":["raw-street-burger-thessaloniki-a3ea"],"distanceKm":0.12578887085766802},{"id":"cheapEatsRestaurants_a9f190908032","slug":"i-vromiara-the-gourmet-street-food-thessaloniki-a9f1","kind":"restaurant","name":"Η Βρωμιάρα - The Gourmet Street Food | Θεσσαλονικη","lat":40.63730784042486,"lng":22.939114096509012,"url":"https://maps.app.goo.gl/Z7BYjUBJYcnFTaEm9?g_st=ipc","address":"Siggrou 7, Thessaloniki 546 25","categoryIds":["cheap-eats"],"categories":["Gyros & Cheap Eats"],"distanceKm":0.12935396736574406},{"id":"burgersRestaurants_d27855febf5e","slug":"cantina-manara-d278","kind":"restaurant","name":"Cantina Manara","lat":40.6371113197463,"lng":22.93922534676657,"url":"https://maps.app.goo.gl/51NLWv682h6DK989A?g_st=ipc","address":"Στοά, Ermou 1, Thessaloniki 546 25","categoryIds":["burgers","cheap-eats"],"categories":["Burger Spots","Gyros & Cheap Eats"],"legacySlugs":["cantina-manara-3308"],"distanceKm":0.13738079954936738},{"id":"burgersRestaurants_57ae2704265c","slug":"austin-smokehouse-bbq-57ae","kind":"restaurant","name":"Austin smokehouse bbq","lat":40.63591485801073,"lng":22.93805727931312,"url":"https://maps.app.goo.gl/wDKEYQZL9F4crVQk9?g_st=ipc","address":"Katouni 25, Thessaloniki 546 25","categoryIds":["burgers"],"categories":["Burger Spots"],"distanceKm":0.14139217729919243},{"id":"cheapEatsRestaurants_309d89ee38a5","slug":"laikon-309d","kind":"restaurant","name":"Laikon","lat":40.63567516803373,"lng":22.93753817677912,"url":"https://maps.app.goo.gl/jXzXhjGZbZTLHvnd9?g_st=ipc","address":"Politechniou 24, Thessaloniki 546 25","categoryIds":["cheap-eats"],"categories":["Gyros & Cheap Eats"],"distanceKm":0.1626973303419385},{"id":"greekRestaurants_a6c1730c289f","slug":"akadimia-art-restaurant-a6c1","kind":"restaurant","name":"Ακαδημία art restaurant","lat":40.635868351005776,"lng":22.938600197259788,"url":"https://maps.app.goo.gl/tXw3izdEArtABRbT7?g_st=ipc","address":"Αγ. Μηνά 3, Θεσσαλονίκη 546 25","categoryIds":["greek-restaurants"],"categories":["Greek Restaurants"],"distanceKm":0.16455219439345753},{"id":"fishTavernasRestaurants_8db62faa099d","slug":"soyrtoyko-mezedopoleio-8db6","kind":"restaurant","name":"Σουρτουκω μεζεδοπωλειο","lat":40.63587084309679,"lng":22.93649033295163,"url":"https://maps.app.goo.gl/2gKngBbQebvZETCi6?g_st=ipc","address":"Likourgou 3, Thessaloniki 546 25","categoryIds":["fish-tavernas"],"categories":["Fish Tavernas"],"distanceKm":0.16903162574612368},{"id":"cheapEatsRestaurants_12570c882da7","slug":"kalofagas-psitopoleio-1257","kind":"restaurant","name":"Καλοφαγάς Ψητοπωλείο","lat":40.635544989771915,"lng":22.937363400408646,"url":"https://maps.app.goo.gl/N2y5cFSV48wgtN7g7?g_st=ipc","address":"Politechniou 24, Thessaloniki 546 25","categoryIds":["cheap-eats"],"categories":["Gyros & Cheap Eats"],"distanceKm":0.17819441945400294},{"id":"coffeeBrunchRestaurants_fb908cdb56f2","slug":"beetroot-fb90","kind":"restaurant","name":"Beetroot","lat":40.637551412889685,"lng":22.939748987657307,"url":"https://maps.app.goo.gl/v2Xnqi1U2R9tS4bz7?g_st=ipc","address":"Siggrou 8, Thessaloniki 546 25","categoryIds":["coffee-brunch"],"categories":["Coffee & Brunch Spots"],"distanceKm":0.18727356257821207},{"id":"municipalities_0655c442ea28","slug":"ladadika-0655","kind":"municipality","name":"Λαδάδικα","lat":40.6375,"lng":22.9398,"region":"Θεσσαλονίκη","name_en":"Ladadika","region_en":"Thessaloniki","distanceKm":0.19015616857698794},{"id":"burgersRestaurants_ebadcc0c31a2","slug":"po-boys-skg-ebad","kind":"restaurant","name":"PO‘ BOYS skg","lat":40.63567624458847,"lng":22.93883473827237,"url":"https://maps.app.goo.gl/g2t2qtDt95d9ETNRA?g_st=ipc","address":"Ag. Mina 7, Thessaloniki 546 25","categoryIds":["burgers"],"categories":["Burger Spots"],"distanceKm":0.19314207786318027},{"id":"asianRestaurants_694015c62c4a","slug":"asian-house-6940","kind":"restaurant","name":"Asian House","lat":40.63703399499959,"lng":22.939883592923085,"url":"https://maps.app.goo.gl/uTVSPYHZ31yXdaY57?g_st=ipc","address":"Καποδιστρίου 7 &, Paikou, Thessaloniki 546 25","categoryIds":["asian"],"categories":["Asian Restaurants"],"distanceKm":0.19323668704305713},{"id":"rooftopLoungesRestaurants_7e076fa27638","slug":"margarita-at-the-top-of-sense-7e07","kind":"restaurant","name":"Margarita At the Top of Sense","lat":40.63545426028475,"lng":22.93700542047033,"url":"https://maps.app.goo.gl/WnmhcnyR1pUzpjBc9?g_st=ipc","address":"Pl. Morichovou 11, Thessaloniki 546 25","categoryIds":["rooftop-lounges"],"categories":["Rooftop Lounges"],"distanceKm":0.19373870796966072},{"id":"greekRestaurants_9bcc793811d6","slug":"wonderwall-fun-dining-9bcc","kind":"restaurant","name":"WonderWall Fun Dining","lat":40.63522269434939,"lng":22.937190668731127,"url":"https://maps.app.goo.gl/gWA1A2nYg5nMyK6r8?g_st=ipc","address":"Αἰγύπτου 11, Θεσσαλονίκη 546 25","categoryIds":["greek-restaurants"],"categories":["Greek Restaurants"],"distanceKm":0.215683673553567},{"id":"coffeeBrunchRestaurants_ad2114e7ac37","slug":"bannie-ad21","kind":"restaurant","name":"Bannie","lat":40.63708508226566,"lng":22.94022952790158,"url":"https://maps.app.goo.gl/Gn3B2PxeEE5tHcph8?g_st=ipc","address":"Ionos Dragoumi 35, Thessaloniki 546 25","categoryIds":["coffee-brunch"],"categories":["Coffee & Brunch Spots"],"distanceKm":0.22215956781061957},{"id":"cheapEatsRestaurants_41498834b457","slug":"crats-fried-chicken-egnatia-4149","kind":"restaurant","name":"Crats Fried Chicken Egnatia","lat":40.63898844732417,"lng":22.938638631354078,"url":"https://maps.app.goo.gl/ck9L5Pz4C9MGKVbV7?g_st=ipc","address":"Egnatia 27, Thessaloniki 546 30","categoryIds":["cheap-eats"],"categories":["Gyros & Cheap Eats"],"distanceKm":0.22376245390503002},{"id":"mustSeeAttractions_7ae286bbaeee","slug":"museum-of-illusions-thessaloniki-7ae2","kind":"restaurant","name":"Museum of Illusions Thessaloniki","lat":40.635429116411395,"lng":22.93597563245193,"url":"https://maps.app.goo.gl/C3krXMYjPGracAP87?g_st=ipc","address":"Doxis 5, Thessaloniki 546 25","categoryIds":["attractions"],"categories":["Must-See Attractions"],"distanceKm":0.23414519574577705}],"sameRegion":[],"mentionedGuides":[],"canonicalSlug":"pratina-burger-project-90d1","isCanonicalEntity":true,"enrichment":{"summary_en":"PRATINA Burger Project is a curated restaurant in Thessaloniki 546 25 in the Burger Spots collection. It is connected to 112 nearby Googlementor picks to help travelers build a stronger local route.","summary_el":"PRATINA Burger Project είναι ένα επιλεγμένο σημείο φαγητού στην περιοχή Thessaloniki 546 25 και ανήκει στη συλλογή Burger Spots. Συνδέεται με 112 κοντινές προτάσεις του Googlementor για πιο ολοκληρωμένη εμπειρία.","vibe_tags":["curated","budget-friendly"],"best_for":["first-time visitors","food lovers","budget travelers"],"visit_moments":["lunch stop","dinner stop"],"practical_note":"Address and direct map link are available for easy turn-by-turn access.","nearby_walkable_count":112,"nearby_count_2km":262,"confidence":0.98},"areaContext":{"slug":"ladadika","name":"Ladadika"},"intentContexts":[{"href":"/burgers/ladadika","label":"Burger Spots in Ladadika","categorySlug":"burgers","categoryName":"Burger Spots","areaSlug":"ladadika","areaName":"Ladadika"},{"href":"/cheap-eats/ladadika","label":"Gyros & Cheap Eats in Ladadika","categorySlug":"cheap-eats","categoryName":"Gyros & Cheap Eats","areaSlug":"ladadika","areaName":"Ladadika"}]},"__N_SSG":true}