{"pageProps":{"entity":{"id":"greekRestaurants_9563a3f3deb0","slug":"presveia-restaurant-9563","kind":"restaurant","name":"ΠΡΕΣΒΕΙΑ Restaurant","lat":39.67117709848311,"lng":20.857314565299106,"url":"https://maps.app.goo.gl/kkBJ4gJX3sVvx1L98?g_st=ipc","address":"Λεωφ. Καραμανλή 17, Ιωάννινα 452 21","categoryIds":["greek-restaurants"],"categories":["Greek Restaurants"]},"sameCategory":[{"id":"greekRestaurants_df023e747e5f","slug":"kanela-kai-garyfallo-mushroom-restaurant-df02","kind":"restaurant","name":"ΚΑΝΕΛΑ ΚΑΙ ΓΑΡΥΦΑΛΛΟ, Mushroom Restaurant","lat":39.873717064633475,"lng":20.75043313227449,"url":"https://maps.app.goo.gl/RMbRCUycwB1E3Sf99?g_st=ipc","address":"Κεντρική Οδός Βίτσας, Βίτσα Ζαγορίου 440 07","categoryIds":["greek-restaurants"],"categories":["Greek Restaurants"]},{"id":"greekRestaurants_0765f66fde9c","slug":"to-koytoyki-toy-nikola-0765","kind":"restaurant","name":"Το Κουτούκι του Νικόλα","lat":39.771642404674424,"lng":21.182737734785334,"url":"https://maps.app.goo.gl/rmdJZN2MRYsrSWWi7?g_st=ipc","address":"Τοσίτσα 6, Μέτσοβο 442 00","categoryIds":["greek-restaurants"],"categories":["Greek Restaurants"]},{"id":"greekRestaurants_ce05e10df439","slug":"paradosiaki-taverna-niavis-ce05","kind":"restaurant","name":"Παραδοσιακή Ταβέρνα «Νιαβής»","lat":39.53051553053187,"lng":21.44604031294683,"url":"https://maps.app.goo.gl/VNjfxWHa2gV5L7d77?g_st=ipc","address":"Νεραϊδοχωρίου, Τρίκαλα 421 00","categoryIds":["greek-restaurants"],"categories":["Greek Restaurants"]},{"id":"greekRestaurants_3811b6034323","slug":"paradosiaki-taverna-i-tsioyrgiaka-enoikiazomena-domatia-3811","kind":"restaurant","name":"Παραδοσιακή Ταβέρνα \"η Τσιούργιακα\" - Ενοικιαζόμενα Δωμάτια","lat":40.079571651875234,"lng":21.18215440733225,"url":"https://maps.app.goo.gl/TpqmBy42hQoUhFFw8?g_st=ipc","address":"Αετία 511 00","categoryIds":["greek-restaurants"],"categories":["Greek Restaurants"]},{"id":"greekRestaurants_b186598b2d40","slug":"taverna-panagioti-b186","kind":"restaurant","name":"Ταβέρνα Παναγιώτη","lat":39.541635723436364,"lng":21.466393475033236,"url":"https://maps.app.goo.gl/RrdMMxZMehGgm2NN8?g_st=ipc","address":"Περτούλι 420 32","categoryIds":["greek-restaurants"],"categories":["Greek Restaurants"]},{"id":"greekRestaurants_3b8e67bf08cc","slug":"estiatorio-panellinio-3b8e","kind":"restaurant","name":"Εστιατόριο Πανελλήνιο","lat":39.7071570806949,"lng":21.62351645286361,"url":"https://maps.app.goo.gl/hqPauRQr76VYpZir6?g_st=ipc","address":"Πλατεία Δημαρχείου, Καλαμπάκα 422 00","categoryIds":["greek-restaurants"],"categories":["Greek Restaurants"]},{"id":"greekRestaurants_05c7d7fb8213","slug":"fortoynis-tsipoyradiko-05c7","kind":"restaurant","name":"Φορτούνης, Τσιπουράδικο.","lat":39.707884842626186,"lng":21.625293841539552,"url":"https://maps.app.goo.gl/sULQJWCWbd9v5WuA9?g_st=ipc","address":"z, Βλαχάβα 23, Καλαμπάκα 422 00","categoryIds":["greek-restaurants"],"categories":["Greek Restaurants"]},{"id":"greekRestaurants_e1de0bee0ebd","slug":"keramario-paradosiaki-taverna-kai-xenones-e1de","kind":"restaurant","name":"Κεραμαριό Παραδοσιακή Ταβέρνα και Ξενώνες","lat":39.40976571213919,"lng":21.605813579538015,"url":"https://maps.app.goo.gl/HUAcASzHASVLXdf47?g_st=ipc","address":"Συνοικισμός Κεραμαριό, Δρακότρυπα, Μουζάκι 430 60","categoryIds":["greek-restaurants"],"categories":["Greek Restaurants"]},{"id":"greekRestaurants_6061ec9bd174","slug":"mezedokamomata-6061","kind":"restaurant","name":"Μεζεδοκαμώματα","lat":39.557518520300846,"lng":21.766766768830163,"url":"https://maps.app.goo.gl/dQpJGQzyaRUqPvee7?g_st=ipc","address":"Υψηλάντου 16, Τρίκαλα 421 00","categoryIds":["greek-restaurants"],"categories":["Greek Restaurants"]},{"id":"greekRestaurants_846c365b6b10","slug":"taverna-katogi-846c","kind":"restaurant","name":"ΤΑΒΕΡΝΑ ΚΑΤΩΓΙ","lat":39.557459431229404,"lng":21.767052390581174,"url":"https://maps.app.goo.gl/1Ms5yTQVGkoNajR96?g_st=ipc","address":"Καραϊσκάκη 58, Τρίκαλα 421 00","categoryIds":["greek-restaurants"],"categories":["Greek Restaurants"]},{"id":"greekRestaurants_f649a658c1a6","slug":"palia-istoria-f649","kind":"restaurant","name":"Παλιά Ιστορία","lat":39.5572767649798,"lng":21.767626743862994,"url":"https://maps.app.goo.gl/eEZjduvaMobWwx338?g_st=ipc","address":"Υψηλάντου, Τρίκαλα 421 00","categoryIds":["greek-restaurants"],"categories":["Greek Restaurants"]},{"id":"greekRestaurants_9f5022be5281","slug":"to-tavernaki-tis-marinas-9f50","kind":"restaurant","name":"Το Ταβερνάκι της Μαρίνας","lat":39.62492333562477,"lng":19.9188396620582,"url":"https://maps.app.goo.gl/zBELB5QbZJL4Jsk99?g_st=ipc","address":"Βελισσαρίου 35, Κέρκυρα 491 00","categoryIds":["greek-restaurants"],"categories":["Greek Restaurants"]}],"nearby":[{"id":"cheapEatsRestaurants_ff94ef2f8897","slug":"i-vromiara-the-gourmet-street-food-ff94","kind":"restaurant","name":"Η Βρωμιάρα - The Gourmet Street Food","lat":39.6691471152778,"lng":20.85696993484649,"url":"https://maps.app.goo.gl/qCiHQcXfuVPpbvs5A?g_st=ipc","address":"Averof 60, Ioannina 452 21","categoryIds":["cheap-eats"],"categories":["Gyros & Cheap Eats"],"distanceKm":0.22764297389594235},{"id":"municipalities_01ab94a963a7","slug":"ioannina-01ab","kind":"municipality","name":"Ιωάννινα","lat":39.6675,"lng":20.85,"aliases":["Ioannina","Janina","Ιωάννινα","Γιάννινα","Ιωαννινα","Γιαννενα","Γιάννενα"],"region":"Ήπειρος","name_en":"Ioannina","region_en":"Epirus","distanceKm":0.7477525095004609},{"id":"familyFriendly_fca4b1834b63","slug":"play-hall-fca4","kind":"restaurant","name":"PLAY HALL","lat":39.65033321631473,"lng":20.865657018209728,"url":"https://maps.app.goo.gl/SFFV3HjpyPgVaZLc9?g_st=ipc","address":"Leof. Geor. Gennimata, Ioannina 452 21","categoryIds":["family-friendly"],"categories":["Kid Friendly Locations"],"distanceKm":2.4252572492497544},{"id":"mustSeeAttractions_55879b7962ff","slug":"perama-cave-5587","kind":"restaurant","name":"Perama Cave","lat":39.694982816550095,"lng":20.846498129141942,"url":"https://maps.app.goo.gl/tihw1UrAiri8GoD29?g_st=ipc","address":"19, Spilaiou, Σπηλαίου 19, Πέραμα, Perama 455 00","categoryIds":["attractions"],"categories":["Must-See Attractions"],"distanceKm":2.804239346854355},{"id":"municipalities_78251352f402","slug":"dodoni-7825","kind":"municipality","name":"Δωδώνη","lat":39.6167,"lng":20.7833,"region":"Ήπειρος","name_en":"Dodoni","region_en":"Epirus","distanceKm":8.76675642574155},{"id":"mustSeeAttractions_49ba95768f7d","slug":"archaeological-site-of-dodoni-49ba","kind":"restaurant","name":"Archaeological Site of Dodoni","lat":39.54577918295188,"lng":20.784950664414183,"url":"https://maps.app.goo.gl/5eDCvX8HkvWgXBL19?g_st=ipc","address":"Dodoni 455 00","categoryIds":["attractions"],"categories":["Must-See Attractions"],"distanceKm":15.259555523841673},{"id":"coffeeBrunchRestaurants_cd5c3a883c61","slug":"to-mantani-anthochori-cd5c","kind":"restaurant","name":"Το Μαντάνι Ανθοχώρι","lat":39.736473800129,"lng":21.128099892927416,"url":"https://maps.app.goo.gl/hhweii9Uj8Q5zzg69?g_st=ipc","address":"Ανθοχώρι 442 00","categoryIds":["coffee-brunch"],"categories":["Coffee & Brunch Spots"],"distanceKm":24.276486982245732},{"id":"greekRestaurants_df023e747e5f","slug":"kanela-kai-garyfallo-mushroom-restaurant-df02","kind":"restaurant","name":"ΚΑΝΕΛΑ ΚΑΙ ΓΑΡΥΦΑΛΛΟ, Mushroom Restaurant","lat":39.873717064633475,"lng":20.75043313227449,"url":"https://maps.app.goo.gl/RMbRCUycwB1E3Sf99?g_st=ipc","address":"Κεντρική Οδός Βίτσας, Βίτσα Ζαγορίου 440 07","categoryIds":["greek-restaurants"],"categories":["Greek Restaurants"],"distanceKm":24.303337532949445},{"id":"municipalities_5b04c25765e9","slug":"zagori-5b04","kind":"municipality","name":"Ζαγόρι","lat":39.9,"lng":20.8,"region":"Ήπειρος","name_en":"Zagori","region_en":"Epirus","distanceKm":25.910971835345006},{"id":"municipalities_6d3e0429ac44","slug":"zagorochoria-6d3e","kind":"municipality","name":"Ζαγοροχώρια","lat":39.9167,"lng":20.7333,"region":"Ήπειρος","name_en":"Zagorochoria","region_en":"Epirus","distanceKm":29.284828931068542},{"id":"familyFriendly_f1559b4827bb","slug":"sarakatsaniki-stani-f155","kind":"restaurant","name":"Σαρακατσάνικη Στάνη","lat":39.93486554028431,"lng":20.916784074474684,"url":"https://maps.app.goo.gl/hz7v5UJ8xo3K6aLE7?g_st=ic","address":"Γυφτόκαμπος Σκαμνέλι, Skamnelli 440 10","categoryIds":["family-friendly"],"categories":["Kid Friendly Locations"],"distanceKm":29.757666412466424},{"id":"mustSeeAttractions_c9dd48bbc2ef","slug":"pindos-national-park-c9dd","kind":"restaurant","name":"Pindos National Park","lat":39.94128033875326,"lng":20.950852335589502,"url":"https://maps.app.goo.gl/MwFRaHm4xMSpQ3w87?g_st=ipc","address":"WXR2+G8 Tymphaea","categoryIds":["attractions"],"categories":["Must-See Attractions"],"distanceKm":31.078765479471294}],"sameRegion":[],"mentionedGuides":[],"canonicalSlug":"presveia-restaurant-9563","isCanonicalEntity":true,"enrichment":{"summary_en":"ΠΡΕΣΒΕΙΑ Restaurant is a curated restaurant in Ιωάννινα 452 21 in the Greek Restaurants collection. It is connected to 2 nearby Googlementor picks to help travelers build a stronger local route.","summary_el":"ΠΡΕΣΒΕΙΑ Restaurant είναι ένα επιλεγμένο σημείο φαγητού στην περιοχή Ιωάννινα 452 21 και ανήκει στη συλλογή Greek Restaurants. Συνδέεται με 2 κοντινές προτάσεις του Googlementor για πιο ολοκληρωμένη εμπειρία.","vibe_tags":["curated"],"best_for":["first-time visitors","food lovers"],"visit_moments":["lunch stop","dinner stop"],"practical_note":"Address and direct map link are available for easy turn-by-turn access.","nearby_walkable_count":2,"nearby_count_2km":2,"confidence":0.9},"areaContext":null,"intentContexts":[]},"__N_SSG":true}