{"pageProps":{"entity":{"id":"luxuryDiningRestaurants_297c60e6e419","slug":"prosilio-restaurant-297c","kind":"restaurant","name":"Prosilio Restaurant","lat":37.788001222025756,"lng":20.899925444650034,"url":"https://maps.app.goo.gl/ubyLMAurXvicrjVq5?g_st=ipc","address":"Ag. Panton 15, Zakinthos 291 00","categoryIds":["luxury-dining"],"categories":["Luxury Dining"]},"sameCategory":[{"id":"luxuryDiningRestaurants_889a9d30e511","slug":"melia-fine-dining-889a","kind":"restaurant","name":"Melia fine dining","lat":37.828072825552965,"lng":20.841384143587636,"url":"https://maps.app.goo.gl/vE8rWsiQpSVYvijD9?g_st=ipc","address":"Τραγάκι 291 00","categoryIds":["luxury-dining"],"categories":["Luxury Dining"]},{"id":"luxuryDiningRestaurants_3b19e14c6ebf","slug":"onuki-restaurant-3b19","kind":"restaurant","name":"Onuki Restaurant","lat":36.99629499662255,"lng":21.648335751415473,"url":"https://maps.app.goo.gl/AgtoebQMipRCvd587?g_st=ipc","address":"Costa Navarino Navarino Dunes, Pilos 240 01","categoryIds":["luxury-dining"],"categories":["Luxury Dining"]},{"id":"luxuryDiningRestaurants_d0c9da73f0ff","slug":"amente-restaurant-cocktail-bar-d0c9","kind":"restaurant","name":"Amente Restaurant & Cocktail bar","lat":38.772581566319595,"lng":20.61911835255244,"url":"https://maps.app.goo.gl/gfJazr3nBs7Z4eio6?g_st=ipc","address":"Varagas, Drimonas 311 00","categoryIds":["luxury-dining"],"categories":["Luxury Dining"]},{"id":"luxuryDiningRestaurants_887b9130f7ba","slug":"anama-restaurant-887b","kind":"restaurant","name":"Anama Restaurant","lat":36.94955133528612,"lng":21.70334046442158,"url":"https://maps.app.goo.gl/FmHg6YqwP5dXkFBw9?g_st=ipc","address":"Anama Restaurant, Gialova 240 01","categoryIds":["luxury-dining"],"categories":["Luxury Dining"]},{"id":"luxuryDiningRestaurants_8b20ccb20498","slug":"mastelo-restaurant-bar-8b20","kind":"restaurant","name":"Mastelo Restaurant & Bar","lat":38.83239517619771,"lng":20.705692089105533,"url":"https://maps.app.goo.gl/3X5uukpGejXWctER8?g_st=ipc","address":"Mitropoleos 11, Lefkada 311 00","categoryIds":["luxury-dining"],"categories":["Luxury Dining"]},{"id":"luxuryDiningRestaurants_7ec403367977","slug":"restaurant-thymari-7ec4","kind":"restaurant","name":"Restaurant Thymari","lat":38.835357324233975,"lng":20.708797217981044,"url":"https://maps.app.goo.gl/8TWdBgQzLn6EaTaWA?g_st=ipc","address":"Πηνελόπης 19, Lefkada 311 00","categoryIds":["luxury-dining"],"categories":["Luxury Dining"]},{"id":"luxuryDiningRestaurants_23db0e41115a","slug":"valaora-resto-nafplio-23db","kind":"restaurant","name":"Valaora Resto Nafplio","lat":37.56519719151896,"lng":22.793079460983854,"url":"https://maps.app.goo.gl/9jUDwjniZiSHynrk9?g_st=ipc","address":"Mpanieres, Boumpoulinas, Nafplio 211 00","categoryIds":["luxury-dining"],"categories":["Luxury Dining"]},{"id":"luxuryDiningRestaurants_e6807e074ed0","slug":"wild-duck-e680","kind":"restaurant","name":"Wild Duck","lat":37.56734308437463,"lng":22.797850601824372,"url":"https://maps.app.goo.gl/3WVLVVZ3Za8oDxQz6?g_st=ipc","address":"Boumpoulinas 67, Nafplio 211 00","categoryIds":["luxury-dining"],"categories":["Luxury Dining"]},{"id":"luxuryDiningRestaurants_572c742b427a","slug":"teloneio-572c","kind":"restaurant","name":"Teloneio","lat":36.679751486113695,"lng":22.377303718290054,"url":"https://maps.app.goo.gl/yvA5KkBJg5eZfsvV9?g_st=ipc","address":"Limeni 230 62","categoryIds":["luxury-dining"],"categories":["Luxury Dining"]},{"id":"fishTavernasRestaurants_280f68f1857d","slug":"kavos-280f","kind":"restaurant","name":"Κάβος","lat":37.9019948722367,"lng":23.01292994879006,"url":"https://maps.app.goo.gl/PptKq3WRsYvpTsqu5?g_st=ipc","address":"Ίσθμια 201 00","categoryIds":["fish-tavernas","luxury-dining"],"categories":["Fish Tavernas","Luxury Dining"],"legacySlugs":["kavos-1d0d"]},{"id":"luxuryDiningRestaurants_4ac0f5cb2cce","slug":"makris-restaurant-4ac0","kind":"restaurant","name":"Makris Restaurant","lat":39.490901721836174,"lng":19.92628299466604,"url":"https://maps.app.goo.gl/GPZUEnWWjrQuRVWr7?g_st=ipc","address":"Miramare Beach, Moraitika 491 00","categoryIds":["luxury-dining"],"categories":["Luxury Dining"]},{"id":"luxuryDiningRestaurants_a41bdee807ed","slug":"ora-day-a41b","kind":"restaurant","name":"Ora Day","lat":39.62198349556085,"lng":19.925172942691578,"url":"https://maps.app.goo.gl/XLhEQFknHoz231GF7?g_st=ipc","address":"Agoniston Politechniou, Kerkira 491 00","categoryIds":["luxury-dining"],"categories":["Luxury Dining"]}],"nearby":[{"id":"municipalities_baf5b688aa1e","slug":"zakynthos-baf5","kind":"municipality","name":"Ζάκυνθος","lat":37.787,"lng":20.899,"aliases":["Zakynthos","Zante","Ζακύνθη","Ζακύνθια","Ζακυνθος","Ζακυνθο"],"region":"Ιόνιο","name_en":"Zakynthos","region_en":"Ionian Islands","distanceKm":0.13787029122953184},{"id":"coffeeBrunchRestaurants_ebff8d600624","slug":"jenkins-lounge-eatery-ebff","kind":"restaurant","name":"Jenkins Lounge Eatery","lat":37.786543893628924,"lng":20.898568985854595,"url":"https://maps.app.goo.gl/1TG8uMAi1MTZQgiY8?g_st=ipc","address":"Psaron 3, Zakinthos 291 00","categoryIds":["coffee-brunch"],"categories":["Coffee & Brunch Spots"],"distanceKm":0.20116709362339785},{"id":"coffeeBrunchRestaurants_4e218b55f113","slug":"madisons-kitchen-bar-4e21","kind":"restaurant","name":"Madisons Kitchen Bar","lat":37.78371523709895,"lng":20.898097278049377,"url":"https://maps.app.goo.gl/Anc3Yu4uRzD8XagR9?g_st=ipc","address":"Lomvardou 36, Zakinthos 291 00","categoryIds":["coffee-brunch"],"categories":["Coffee & Brunch Spots"],"distanceKm":0.5029299590509321},{"id":"greekRestaurants_86504f0faf2d","slug":"taverna-kanalos-8650","kind":"restaurant","name":"Ταβέρνα Κανάλος","lat":37.74512607213738,"lng":20.917628670414246,"url":"https://maps.app.goo.gl/ebFS85SgPTyHbVcT9?g_st=ipc","address":"Ζάκυνθος 291 00","categoryIds":["greek-restaurants"],"categories":["Greek Restaurants"],"distanceKm":5.01503653563351},{"id":"greekRestaurants_b11ec83ff251","slug":"windmill-restaurant-vasilikos-b11e","kind":"restaurant","name":"Windmill Restaurant Vasilikos","lat":37.740610146426334,"lng":20.948246366300793,"url":"https://maps.app.goo.gl/V9M7P1MyavrnAWWj7?g_st=ipc","address":"Ζάκυνθος 291 00","categoryIds":["greek-restaurants"],"categories":["Greek Restaurants"],"distanceKm":6.7683947553077335},{"id":"luxuryDiningRestaurants_889a9d30e511","slug":"melia-fine-dining-889a","kind":"restaurant","name":"Melia fine dining","lat":37.828072825552965,"lng":20.841384143587636,"url":"https://maps.app.goo.gl/vE8rWsiQpSVYvijD9?g_st=ipc","address":"Τραγάκι 291 00","categoryIds":["luxury-dining"],"categories":["Luxury Dining"],"distanceKm":6.8046843330075415},{"id":"wineriesVineyards_fdc81e37eccd","slug":"ktima-grampsa-grampsas-winery-restaurant-fdc8","kind":"restaurant","name":"Κτήμα Γράμψα ( Grampsas Winery & Restaurant)","lat":37.75447353990938,"lng":20.823574548385672,"url":"https://maps.app.goo.gl/m1RiUmNLtuMu1JHV9?g_st=ipc","address":"Lagopodo 290 92","categoryIds":["wineries-vineyards"],"categories":["Wineries & Vineyards"],"distanceKm":7.676906552421153},{"id":"greekRestaurants_e73aaa95127b","slug":"paradosiaki-taverna-to-piroynaki-e73a","kind":"restaurant","name":"Παραδοσιακή Ταβέρνα Το Πηρουνάκι","lat":37.775396020007214,"lng":20.812027974617365,"url":"https://maps.app.goo.gl/fGjWbBB2hRjDmHD9A?g_st=ipc","address":"Ζάκυνθος, Λαγκαδάκια 290 92","categoryIds":["greek-restaurants"],"categories":["Greek Restaurants"],"distanceKm":7.850824962684782},{"id":"greekRestaurants_2f52a7e9d852","slug":"to-perivoli-toy-oyranoy-2f52","kind":"restaurant","name":"Το Περιβόλι του Ουρανού","lat":37.75066406986317,"lng":20.81144889930085,"url":"https://maps.app.goo.gl/Bxqpj1UNd4GdkRJ99?g_st=ipc","address":"Λαγώποδο 290 92","categoryIds":["greek-restaurants"],"categories":["Greek Restaurants"],"distanceKm":8.815698952388901},{"id":"greekRestaurants_0508aab0e4db","slug":"ampelostrates-0508","kind":"restaurant","name":"Αμπελοστράτες","lat":37.74910381219431,"lng":20.775003142233945,"url":"https://maps.app.goo.gl/dcPreoTjacUfw2gE7?g_st=ipc","address":"Κοιλιωμένος 290 92","categoryIds":["greek-restaurants"],"categories":["Greek Restaurants"],"distanceKm":11.80163624443701},{"id":"fishTavernasRestaurants_1a19623dc76c","slug":"keri-lighthouse-restaurant-1a19","kind":"restaurant","name":"Keri Lighthouse Restaurant","lat":37.6544155286365,"lng":20.810506312482314,"url":"https://maps.app.goo.gl/5DwsHksg1ZHKzA62A?g_st=ipc","address":"Φάρος κεριού, Keri 290 92","categoryIds":["fish-tavernas"],"categories":["Fish Tavernas"],"distanceKm":16.807694392950896},{"id":"greekRestaurants_039c6865507c","slug":"taverna-to-poyrnari-039c","kind":"restaurant","name":"Ταβέρνα Το Πουρνάρι","lat":37.845018124044586,"lng":20.69557997574229,"url":"https://maps.app.goo.gl/KraNs6fJrs6US1EV7?g_st=ipc","address":"Ορθονιές 290 91","categoryIds":["greek-restaurants"],"categories":["Greek Restaurants"],"distanceKm":19.036776537945922},{"id":"familyFriendly_cde43bca33b7","slug":"grecotel-la-riviera-at-riviera-olympia-aqua-park-cde4","kind":"restaurant","name":"Grecotel La Riviera at Riviera Olympia & Aqua Park","lat":37.85820173121935,"lng":21.11005718262559,"url":"https://maps.app.goo.gl/QGXbvqJ5SBN9ww289?g_st=ipc","address":"Λουτρά Κυλλήνης 270 50","categoryIds":["family-friendly"],"categories":["Kid Friendly Locations"],"distanceKm":20.039476832907148},{"id":"mustSeeAttractions_20af350a9d06","slug":"blue-caves-zakynthos-20af","kind":"restaurant","name":"Blue Caves Zakynthos","lat":37.93034342843555,"lng":20.705251154680667,"url":"https://maps.app.goo.gl/aFhekQczUnCUCkXt7?g_st=ipc","address":"Porthmos Zakinthou","categoryIds":["attractions"],"categories":["Must-See Attractions"],"distanceKm":23.293894841159208},{"id":"mustSeeAttractions_08514e911c7d","slug":"navagio-0851","kind":"restaurant","name":"Navagio","lat":37.85945060305929,"lng":20.624902110473712,"url":"https://maps.app.goo.gl/7zGrDtLoU6SSdcuS9?g_st=ipc","address":"Elatia 290 91","categoryIds":["attractions"],"categories":["Must-See Attractions"],"distanceKm":25.429071899413643},{"id":"municipalities_b778a42c77bf","slug":"kyllini-b778","kind":"municipality","name":"Κυλλήνη","lat":37.9333,"lng":21.15,"region":"Ηλεία","name_en":"Kyllini","region_en":"Ilia","distanceKm":27.25803699489343},{"id":"fishTavernasRestaurants_7b6b6c02756b","slug":"blue-sea-restaurant-7b6b","kind":"restaurant","name":"Blue Sea Restaurant","lat":38.06482061618168,"lng":20.749944356791246,"url":"https://maps.app.goo.gl/w2imtD4bnSK6jDox6?g_st=ipc","address":"Κάτω Κατελειός 280 86","categoryIds":["fish-tavernas"],"categories":["Fish Tavernas"],"distanceKm":33.47410924123619}],"sameRegion":[],"mentionedGuides":[],"canonicalSlug":"prosilio-restaurant-297c","isCanonicalEntity":true,"enrichment":{"summary_en":"Prosilio Restaurant is a curated restaurant in Zakinthos 291 00 in the Luxury Dining collection. It is connected to 3 nearby Googlementor picks to help travelers build a stronger local route.","summary_el":"Prosilio Restaurant είναι ένα επιλεγμένο σημείο φαγητού στην περιοχή Zakinthos 291 00 και ανήκει στη συλλογή Luxury Dining. Συνδέεται με 3 κοντινές προτάσεις του Googlementor για πιο ολοκληρωμένη εμπειρία.","vibe_tags":["curated","premium-dining"],"best_for":["first-time visitors","food lovers","special occasions"],"visit_moments":["lunch stop","dinner stop"],"practical_note":"Address and direct map link are available for easy turn-by-turn access.","nearby_walkable_count":3,"nearby_count_2km":3,"confidence":0.9},"areaContext":null,"intentContexts":[]},"__N_SSG":true}