{"pageProps":{"entity":{"id":"fishTavernasRestaurants_71251c14afd0","slug":"psarotaverna-to-sesi-7125","kind":"restaurant","name":"Ψαροταβέρνα Το Σέσι","lat":38.24842775538029,"lng":23.99464421753432,"url":"https://maps.app.goo.gl/84sjRRsuicEhYQth9?g_st=ipc","address":"Λεωφ. Ποσειδώνος 53, Σέσι 190 07","categoryIds":["fish-tavernas"],"categories":["Fish Tavernas"]},"sameCategory":[{"id":"fishTavernasRestaurants_4a2d79882f36","slug":"panormitis-4a2d","kind":"restaurant","name":"Πανορμίτης","lat":38.121572702191,"lng":23.99671729866393,"url":"https://maps.app.goo.gl/aXSXemiooEkkE8AKA?g_st=ipc","address":"Λεωφ. Ποσειδώνος 55, Αγ. Παντελεήμων 190 07","categoryIds":["fish-tavernas"],"categories":["Fish Tavernas"]},{"id":"fishTavernasRestaurants_0618ada54b19","slug":"o-psaras-restaurant-0618","kind":"restaurant","name":"Ο Ψαράς Restaurant","lat":38.11793561687655,"lng":23.99065580006594,"url":"https://maps.app.goo.gl/fSjcPNAg9aRVEF926?g_st=ipc","address":"Παραλία Μαραθώνα, Λεωφ. Ποσειδώνος 3, Αγ. Παντελεήμων 190 07","categoryIds":["fish-tavernas"],"categories":["Fish Tavernas"]},{"id":"fishTavernasRestaurants_cfc96ee9ddf3","slug":"isidora-cfc9","kind":"restaurant","name":"Ισιδώρα","lat":38.11335499841936,"lng":23.98507325460099,"url":"https://maps.app.goo.gl/USycaJUwTZTzMdADA?g_st=ipc","address":"Περικλέους ΠΑΡΑΛΙΑ, Μαραθώνας 190 07","categoryIds":["fish-tavernas"],"categories":["Fish Tavernas"]},{"id":"fishTavernasRestaurants_c8d79ddce787","slug":"ayra-c8d7","kind":"restaurant","name":"Αύρα","lat":38.09393032588583,"lng":23.981355142971612,"url":"https://maps.app.goo.gl/Qd74p6vmhVLEfQxg7?g_st=ipc","address":"Τέρμα, Λεωφ. Ποσειδώνος, Νέα Μάκρη 190 05","categoryIds":["fish-tavernas"],"categories":["Fish Tavernas"]},{"id":"fishTavernasRestaurants_eaec6bd11d2a","slug":"tsipoyradiko-anoixi-para-tetarto-eaec","kind":"restaurant","name":"Τσιπουράδικο \"Άνοιξη παρά Τέταρτο\"","lat":38.13115537085702,"lng":23.860540472523713,"url":"https://maps.app.goo.gl/sSz3YRigMVCbLBcq6?g_st=ipc","address":"Αθηνών Χαλκίδος 17, Άνοιξη 145 69","categoryIds":["fish-tavernas"],"categories":["Fish Tavernas"]},{"id":"fishTavernasRestaurants_120bf543e9c4","slug":"to-plokami-120b","kind":"restaurant","name":"Το πλοκάμι","lat":38.09102735114395,"lng":23.981804303325717,"url":"https://maps.app.goo.gl/QuJBtKF3QD3n78sW8?g_st=ipc","address":"Λεωφ. Ποσειδώνος, Νέα Μάκρη 190 05","categoryIds":["fish-tavernas"],"categories":["Fish Tavernas"]},{"id":"fishTavernasRestaurants_0b56e36ee289","slug":"trata-i-0b56","kind":"restaurant","name":"ΤΡΑΤΑ (Η)","lat":38.09030258735327,"lng":23.982252068927664,"url":"https://maps.app.goo.gl/4cT7yir2FyLEmVPB8?g_st=ipc","address":"Λεωφ. Ποσειδώνος 30, Νέα Μάκρη 190 05","categoryIds":["fish-tavernas"],"categories":["Fish Tavernas"]},{"id":"fishTavernasRestaurants_21394a13a305","slug":"gorgona-di-stefano-amarythos-oyzeri-psarotaverna-2139","kind":"restaurant","name":"Gorgona Di Stefano Amarythos Oυζερι Psarotaverna","lat":38.391896520308414,"lng":23.883711972578777,"url":"https://maps.app.goo.gl/Q3hYqnNSaAEfk5UH8?g_st=ipc","address":"Κων/νου Καραμανλή 2, Αμάρυνθος 340 06","categoryIds":["fish-tavernas"],"categories":["Fish Tavernas"]},{"id":"fishTavernasRestaurants_89f946397ea9","slug":"to-limanaki-tis-amarynthoy-89f9","kind":"restaurant","name":"Το Λιμανάκι Της Αμαρύνθου","lat":38.391630088057546,"lng":23.87976016192821,"url":"https://maps.app.goo.gl/123Yma2QRjswTuuD9?g_st=ipc","address":"Μιαούλη, Αμάρυνθος 340 06","categoryIds":["fish-tavernas"],"categories":["Fish Tavernas"]},{"id":"fishTavernasRestaurants_d1fdd80a5c4e","slug":"akrogiali-d1fd","kind":"restaurant","name":"Ακρογιάλι","lat":38.07176023911009,"lng":23.99585573289976,"url":"https://maps.app.goo.gl/xsBV1faj5k58gwi47?g_st=ipc","address":"Μιαούλη 8, Νέα Μάκρη 190 05","categoryIds":["fish-tavernas"],"categories":["Fish Tavernas"]},{"id":"fishTavernasRestaurants_383167100733","slug":"akrogiali-nea-styra-georgios-sakkas-3831","kind":"restaurant","name":"Ακρογιάλι,Νέα Στύρα, Γεώργιος Σάκκας","lat":38.18207049369658,"lng":24.205304816688248,"url":"https://maps.app.goo.gl/y16s54T91w6wpMWN8?g_st=ipc","address":"Επαρ.Οδ. Στυρών - Τσακαίων, Νέα Στύρα 340 15","categoryIds":["fish-tavernas"],"categories":["Fish Tavernas"]},{"id":"fishTavernasRestaurants_dbeeca252c4d","slug":"sarde-litsa-nea-styra-sardelitsa-nea-styra-restaurant-dbee","kind":"restaurant","name":"Σαρδε...λίτσα Νέα Στύρα / Sardelitsa Nea Styra Restaurant","lat":38.17743257826927,"lng":24.207403041603783,"url":"https://maps.app.goo.gl/Xe4ATvjns7X2yC947?g_st=ipc","address":"Λιμεναρχείο, Γκίκα Παναγιώτου, Νέα Στύρα 340 15","categoryIds":["fish-tavernas"],"categories":["Fish Tavernas"]}],"nearby":[{"id":"greekRestaurants_3e4d92e59717","slug":"taverna-ramnoys-3e4d","kind":"restaurant","name":"Ταβέρνα Ραμνούς","lat":38.21411980707791,"lng":24.03058229285915,"url":"https://maps.app.goo.gl/M3qEfsy6NhrFMcCH9","address":"Αρχαιολογικος Χωρος Ραμνους, Λεωφόρος Ραμνουντος Τερμα, Μαραθωνας 190 07","categoryIds":["greek-restaurants"],"categories":["Greek Restaurants"],"distanceKm":4.9403230419978374},{"id":"greekRestaurants_c595c62efc6b","slug":"mparmpa-vasilis-c595","kind":"restaurant","name":"Μπάρμπα Βασίλης","lat":38.23380794795737,"lng":23.89319631949878,"url":"https://maps.app.goo.gl/C74xDes5etzk12FL7","address":"Σπύρου Πολύχρονη, Μικροχώρι 190 14","categoryIds":["greek-restaurants"],"categories":["Greek Restaurants"],"distanceKm":9.007749520279406},{"id":"coffeeBrunchRestaurants_7dfa5bb5c12c","slug":"argithea-7dfa","kind":"restaurant","name":"Αργιθέα","lat":38.15948282094037,"lng":23.95837767969574,"url":"https://maps.app.goo.gl/w98y2hBDroKUDcwZ7?g_st=ipc","address":"Λεωφ. Μαραθώνος 11, Μαραθώνας 190 07","categoryIds":["coffee-brunch"],"categories":["Coffee & Brunch Spots"],"distanceKm":10.385499139643104},{"id":"greekRestaurants_82199ba27aab","slug":"matambre-8219","kind":"restaurant","name":"Matambre","lat":38.17453592653479,"lng":23.91849447631357,"url":"https://maps.app.goo.gl/nZX2pdLZsc3fNQMa8","address":"Λεωφ. Λίμνης Μαραθώνος 245, Μαραθώνας 190 07","categoryIds":["greek-restaurants"],"categories":["Greek Restaurants"],"distanceKm":10.572311542383623},{"id":"wineriesVineyards_3edb4c37dc1f","slug":"estates-costa-lazaridi-oenotria-land-3edb","kind":"restaurant","name":"Estates Costa Lazaridi - Oenotria Land","lat":38.23173089487007,"lng":23.870908077071547,"url":"https://maps.app.goo.gl/aoRwmKxMU5cHCnRX6?g_st=ipc","address":"2nd km Kapandriti Kalamos road, Kapandriti, 19014, 190 14","categoryIds":["wineries-vineyards"],"categories":["Wineries & Vineyards"],"distanceKm":10.964843435059903},{"id":"greekRestaurants_f163a01d5b8e","slug":"taverna-vasilakos-f163","kind":"restaurant","name":"Ταβέρνα Βασιλάκος","lat":38.216929169351175,"lng":23.868895678768617,"url":"https://maps.app.goo.gl/5w23D5PVYwasH98X9","address":"Λεωφ. Ειρήνης 4, Πολυδένδρι 190 14","categoryIds":["greek-restaurants"],"categories":["Greek Restaurants"],"distanceKm":11.528321069083745},{"id":"greekRestaurants_d3d5875fd455","slug":"to-tzaki-d3d5","kind":"restaurant","name":"Το τζάκι","lat":38.21655428611633,"lng":23.86821611372373,"url":"https://maps.app.goo.gl/7wN2L21tT2o7KxCV7","address":"Λεωφ. Ειρήνης 4, Πολυδένδρι 190 14","categoryIds":["greek-restaurants"],"categories":["Greek Restaurants"],"distanceKm":11.597583265843248},{"id":"municipalities_3b0d7e6ae7e7","slug":"marathonas-3b0d","kind":"municipality","name":"Μαραθώνας","lat":38.15,"lng":23.95,"region":"Ανατολικά Προάστια","name_en":"Marathon","region_en":"Eastern Suburbs","distanceKm":11.619169336455453},{"id":"greekRestaurants_a2675225a16c","slug":"taverna-galini-a267","kind":"restaurant","name":"Ταβέρνα Γαλήνη","lat":38.21564800607866,"lng":23.86762931136811,"url":"https://maps.app.goo.gl/Fk7koGAZ462ABfY76","address":"Λεωφ. Ειρήνης 8, Πολυδένδρι 190 14","categoryIds":["greek-restaurants"],"categories":["Greek Restaurants"],"distanceKm":11.67752284634991},{"id":"wineriesVineyards_07784b315d36","slug":"oinopoieio-zegginis-0778","kind":"restaurant","name":"Οινοποιείο Ζεγγίνης","lat":38.14341389755598,"lng":23.983053677151467,"url":"https://maps.app.goo.gl/ZRuTWvGbiLUcFQZw7?g_st=ipc","address":"Λεωφόρος Κάτω Σουλίου 62, Μαραθώνας 190 07","categoryIds":["wineries-vineyards"],"categories":["Wineries & Vineyards"],"distanceKm":11.720854862017912},{"id":"fishTavernasRestaurants_4a2d79882f36","slug":"panormitis-4a2d","kind":"restaurant","name":"Πανορμίτης","lat":38.121572702191,"lng":23.99671729866393,"url":"https://maps.app.goo.gl/aXSXemiooEkkE8AKA?g_st=ipc","address":"Λεωφ. Ποσειδώνος 55, Αγ. Παντελεήμων 190 07","categoryIds":["fish-tavernas"],"categories":["Fish Tavernas"],"distanceKm":14.10680199682747},{"id":"fishTavernasRestaurants_0618ada54b19","slug":"o-psaras-restaurant-0618","kind":"restaurant","name":"Ο Ψαράς Restaurant","lat":38.11793561687655,"lng":23.99065580006594,"url":"https://maps.app.goo.gl/fSjcPNAg9aRVEF926?g_st=ipc","address":"Παραλία Μαραθώνα, Λεωφ. Ποσειδώνος 3, Αγ. Παντελεήμων 190 07","categoryIds":["fish-tavernas"],"categories":["Fish Tavernas"],"distanceKm":14.51425070310414},{"id":"greekRestaurants_24713ff3cd1e","slug":"taverna-o-makis-afidnes-2471","kind":"restaurant","name":"Ταβέρνα ο Μάκης, Αφίδνες","lat":38.192798626562244,"lng":23.84324387519098,"url":"https://maps.app.goo.gl/wEzHjcfenn2nmLN3A","address":"Λεωφ. Καλλίμαχου 2, Σταθμός Αφιδνών 190 14","categoryIds":["greek-restaurants"],"categories":["Greek Restaurants"],"distanceKm":14.60111781693125},{"id":"greekRestaurants_a9fd28504adb","slug":"agroktima-regkoykoy-taverna-stamata-a9fd","kind":"restaurant","name":"Αγρόκτημα Ρεγκούκου Ταβέρνα Σταμάτα","lat":38.142623703496184,"lng":23.888598580375778,"url":"https://maps.app.goo.gl/X9aRczkLosh9Awyu8","address":"Έκτορος, Σταμάτα 145 75","categoryIds":["greek-restaurants"],"categories":["Greek Restaurants"],"distanceKm":14.97641255080476},{"id":"fishTavernasRestaurants_cfc96ee9ddf3","slug":"isidora-cfc9","kind":"restaurant","name":"Ισιδώρα","lat":38.11335499841936,"lng":23.98507325460099,"url":"https://maps.app.goo.gl/USycaJUwTZTzMdADA?g_st=ipc","address":"Περικλέους ΠΑΡΑΛΙΑ, Μαραθώνας 190 07","categoryIds":["fish-tavernas"],"categories":["Fish Tavernas"],"distanceKm":15.04268494289985},{"id":"familyFriendly_49cb6fcc743a","slug":"lakkagkini-sta-kioyrka-49cb","kind":"restaurant","name":"Λακκαγκίνη Στα Κιούρκα","lat":38.205377296617634,"lng":23.828785798413897,"url":"https://maps.app.goo.gl/e2bkfTBofA6k2DW66?g_st=ipc","address":"Αγίας Τριάδος, Αφίδνες 190 14","categoryIds":["family-friendly"],"categories":["Kid Friendly Locations"],"distanceKm":15.258258015249876},{"id":"greekRestaurants_eb34b601c233","slug":"amygdaleza-eb34","kind":"restaurant","name":"Αμυγδαλέζα","lat":38.138791020092526,"lng":23.886474004082586,"url":"https://maps.app.goo.gl/xbczXzqr95568Y2p7","address":"Μεγ. Αλεξάνδρου 86, Σταμάτα 145 75","categoryIds":["greek-restaurants"],"categories":["Greek Restaurants"],"distanceKm":15.42668713950952},{"id":"familyFriendly_1a17238d519a","slug":"adventure-park-1a17","kind":"restaurant","name":"Adventure Park","lat":38.23252814955923,"lng":23.80993374825537,"url":"https://maps.app.goo.gl/uqiE3UGiFvDWS7Da8?g_st=ipc","address":"Επαρ.Οδ. Μαλακάσας-Μαρκόπουλου, Μαλακάσα 190 11","categoryIds":["family-friendly"],"categories":["Kid Friendly Locations"],"distanceKm":16.228221098561587},{"id":"familyFriendly_840d2fe28674","slug":"ktima-kokotoy-840d","kind":"restaurant","name":"ΚΤΗΜΑ ΚΟΚΟΤΟΥ","lat":38.12312970101472,"lng":23.891798090837362,"url":"https://maps.app.goo.gl/9xRLBKhZXYMexEQX8?g_st=ipc","address":"Κτήμα Γ. Κοκοτού 1, Σταμάτα 145 75","categoryIds":["family-friendly","wineries-vineyards"],"categories":["Kid Friendly Locations","Wineries & Vineyards"],"legacySlugs":["ktima-kokotoy-a927"],"distanceKm":16.58050075110933},{"id":"italianRestaurants_6f0d9cef63fd","slug":"goloso-ristorante-pizzeria-6f0d","kind":"restaurant","name":"GOLOSO ristorante pizzeria","lat":38.139099968736645,"lng":23.85960963696723,"url":"https://maps.app.goo.gl/kpW87YGKNcL27Bhi9","address":"Grigoriou Lampraki 6, Ag. Stefanos 145 65","categoryIds":["italian"],"categories":["Italian Restaurants"],"distanceKm":16.942356669313295},{"id":"greekRestaurants_626964779e0f","slug":"pipinios-6269","kind":"restaurant","name":"Pipinios","lat":38.12550464522669,"lng":23.87986733346546,"url":"https://maps.app.goo.gl/iPGdNokEkHQwjcP5A","address":"Πέππα 1, Σταμάτα 145 75","categoryIds":["greek-restaurants"],"categories":["Greek Restaurants"],"distanceKm":16.954477185091346},{"id":"familyFriendly_a642c6dd69d1","slug":"limni-mpeletsi-a642","kind":"restaurant","name":"Λίμνη Μπελέτσι","lat":38.21272884882845,"lng":23.804742885101245,"url":"https://maps.app.goo.gl/FTF7uvik6S36p7TQ9?g_st=ipc","address":"Ιπποκράτειος Πολιτεία 190 14","categoryIds":["family-friendly"],"categories":["Kid Friendly Locations"],"distanceKm":17.055597918630482},{"id":"municipalities_da89497c2656","slug":"agios-stefanos-da89","kind":"municipality","name":"Άγιος Στέφανος","lat":38.1369,"lng":23.8586,"region":"Βόρεια Προάστια","name_en":"Agios Stefanos","region_en":"North Suburbs","distanceKm":17.17979760310377},{"id":"fishTavernasRestaurants_c8d79ddce787","slug":"ayra-c8d7","kind":"restaurant","name":"Αύρα","lat":38.09393032588583,"lng":23.981355142971612,"url":"https://maps.app.goo.gl/Qd74p6vmhVLEfQxg7?g_st=ipc","address":"Τέρμα, Λεωφ. Ποσειδώνος, Νέα Μάκρη 190 05","categoryIds":["fish-tavernas"],"categories":["Fish Tavernas"],"distanceKm":17.218563869866944}],"sameRegion":[],"mentionedGuides":[],"canonicalSlug":"psarotaverna-to-sesi-7125","isCanonicalEntity":true,"enrichment":{"summary_en":"Ψαροταβέρνα Το Σέσι is a curated restaurant in Σέσι 190 07 in the Fish Tavernas collection. It is connected to 0 nearby Googlementor picks to help travelers build a stronger local route.","summary_el":"Ψαροταβέρνα Το Σέσι είναι ένα επιλεγμένο σημείο φαγητού στην περιοχή Σέσι 190 07 και ανήκει στη συλλογή Fish Tavernas. Συνδέεται με 0 κοντινές προτάσεις του Googlementor για πιο ολοκληρωμένη εμπειρία.","vibe_tags":["curated","seafood-local"],"best_for":["first-time visitors","food lovers"],"visit_moments":["lunch stop","dinner stop"],"practical_note":"Address and direct map link are available for easy turn-by-turn access.","nearby_walkable_count":0,"nearby_count_2km":0,"confidence":0.9},"areaContext":null,"intentContexts":[]},"__N_SSG":true}