{"pageProps":{"entity":{"id":"greekRestaurants_d2cc3fcfc069","slug":"ramona-taverna-kallithea-d2cc","kind":"restaurant","name":"Ραμόνα Ταβέρνα Καλλιθέα","lat":37.9556758154796,"lng":23.70860659191753,"url":"https://maps.app.goo.gl/RDXvdLT2Zy9wH87X9","address":"Μίνωος 11-13, Καλλιθέα 176 72","categoryIds":["greek-restaurants"],"categories":["Greek Restaurants"]},"sameCategory":[{"id":"greekRestaurants_6497d4b8be55","slug":"o-mitos-kritiko-rakadiko-mezedopoleio-6497","kind":"restaurant","name":"Ο Μίτος (Κρητικό Ρακάδικο-Μεζεδοπωλείο)","lat":37.95902391394004,"lng":23.710171017106486,"url":"https://maps.app.goo.gl/fWEdbaEvd9cA8Enr9","address":"Αριστείδου 62, Καλλιθέα 176 71","categoryIds":["greek-restaurants"],"categories":["Greek Restaurants"]},{"id":"greekRestaurants_0a00e5cfcbb9","slug":"motosako-0a00","kind":"restaurant","name":"ΜΟΤΟΣΑΚΟ","lat":37.961601438829575,"lng":23.703084593129155,"url":"https://maps.app.goo.gl/EvRoWXo4KNzPYiSL9","address":"Π. Τσαλδάρη 157, Καλλιθέα 176 76","categoryIds":["greek-restaurants"],"categories":["Greek Restaurants"]},{"id":"greekRestaurants_c751a3d5b17d","slug":"koyvelos-c751","kind":"restaurant","name":"Κουβελος","lat":37.96561446275287,"lng":23.714982571965468,"url":"https://maps.app.goo.gl/FmVVezpy5Uwrec5e9","address":"Γενναίου Κολοκοτρώνη 66, Αθήνα 117 41","categoryIds":["greek-restaurants"],"categories":["Greek Restaurants"]},{"id":"greekRestaurants_c2d712c3a636","slug":"louiza-athens-c2d7","kind":"restaurant","name":"Louiza Athens","lat":37.958439423665176,"lng":23.722755568163475,"url":"https://maps.app.goo.gl/QPXwcnn7KEEcjqBb9","address":"Σφιγγός 13, Αθήνα 117 45","categoryIds":["greek-restaurants"],"categories":["Greek Restaurants"]},{"id":"greekRestaurants_9776b2d601ec","slug":"ladokolla-9776","kind":"restaurant","name":"Λαδόκολλα","lat":37.9520147160471,"lng":23.6947618008044,"url":"https://maps.app.goo.gl/R6yszu5SCxsZfVoCA","address":"Λεωφ. Ελ. Βενιζέλου 243, Καλλιθέα 176 73","categoryIds":["greek-restaurants"],"categories":["Greek Restaurants"]},{"id":"greekRestaurants_3bad5c31fe5b","slug":"kappari-3bad","kind":"restaurant","name":"Κάππαρη","lat":37.967385035347,"lng":23.71216312954278,"url":"https://maps.app.goo.gl/3JxpXTF4ssEgfTEA9?g_st=ipc","address":"Dorieon 36, Athina 118 51","categoryIds":["greek-restaurants"],"categories":["Greek Restaurants"]},{"id":"greekRestaurants_e9888507556f","slug":"fita-e988","kind":"restaurant","name":"Φιτα","lat":37.959800125380376,"lng":23.723270363621033,"url":"https://maps.app.goo.gl/dz2YxasHy4LnBQ668","address":"Ντουρμ 1, Αθήνα 117 45","categoryIds":["greek-restaurants"],"categories":["Greek Restaurants"]},{"id":"greekRestaurants_9f70b553963a","slug":"mezeklikia-9f70","kind":"restaurant","name":"Μεζεκλίκια","lat":37.956254016920724,"lng":23.6929814615304,"url":"https://maps.app.goo.gl/SnbVYFRKtMTWopt79","address":"Π. Τσαλδάρη 277, Καλλιθέα 176 75","categoryIds":["greek-restaurants"],"categories":["Greek Restaurants"]},{"id":"greekRestaurants_e0b933397cc1","slug":"santorinios-e0b9","kind":"restaurant","name":"Σαντορινιός","lat":37.968255056831595,"lng":23.70991359071036,"url":"https://maps.app.goo.gl/HqX9azMMvY9pEhnN6","address":"118 52, Δωριέων 8, Αθήνα 118 52","categoryIds":["greek-restaurants"],"categories":["Greek Restaurants"]},{"id":"greekRestaurants_e3992a60261a","slug":"kritikos-e399","kind":"restaurant","name":"Κρητικός","lat":37.94303304147985,"lng":23.704084169584778,"url":"https://maps.app.goo.gl/QgBcqGt9addfXPwL6","address":"Ραιδεστού 36, Νέα Σμύρνη 171 22","categoryIds":["greek-restaurants"],"categories":["Greek Restaurants"]},{"id":"greekRestaurants_f4bfdaeebedd","slug":"karderina-f4bf","kind":"restaurant","name":"Καρδερίνα","lat":37.96886028012467,"lng":23.713545491142042,"url":"https://maps.app.goo.gl/JZ7NHd5aYDr2jXELA","address":"Καλλισθένους 67, Αθήνα 118 52","categoryIds":["greek-restaurants"],"categories":["Greek Restaurants"]},{"id":"greekRestaurants_f1eb108e1b22","slug":"taverna-t-aschimopapo-f1eb","kind":"restaurant","name":"Ταβέρνα Τ' Ασχημόπαπο","lat":37.96881098076761,"lng":23.714190146946947,"url":"https://maps.app.goo.gl/dNg85MBr8ViicbBL6","address":"Ιώνων 61, Αθήνα 118 51","categoryIds":["greek-restaurants"],"categories":["Greek Restaurants"]}],"nearby":[{"id":"dessertsRestaurants_0bd680afbb5e","slug":"zacharoplasteio-profiterol-dimopoylos-kallithea-0bd6","kind":"restaurant","name":"Ζαχαροπλαστείο Προφιτερόλ Δημόπουλος Καλλιθέα","lat":37.95693778495156,"lng":23.709710879410338,"url":"https://maps.app.goo.gl/t1RvynY9vJegnu6i6?g_st=ipc","address":"Αγ. Πάντων 46, Καλλιθέα 176 71","categoryIds":["desserts"],"categories":["Dessert Shops"],"distanceKm":0.1704839969926964},{"id":"cheapEatsRestaurants_94dff4f67b62","slug":"to-soyvlaki-tis-charokopoy-94df","kind":"restaurant","name":"Το Σουβλάκι Της Χαροκόπου","lat":37.95770921844376,"lng":23.710571236714188,"url":"https://maps.app.goo.gl/Rh99dawd3iLza1Vz7?g_st=ipc","address":"Χαροκόπου 46, Καλλιθέα 176 71","categoryIds":["cheap-eats"],"categories":["Gyros & Cheap Eats"],"distanceKm":0.2842408789944023},{"id":"mexicanRestaurants_ec31cb806a86","slug":"dos-banditos-ec31","kind":"restaurant","name":"Dos Banditos","lat":37.957023186399105,"lng":23.71172894880883,"url":"https://maps.app.goo.gl/A9S8uhRtFHyQhuDh6?g_st=ipc","address":"Δημοσθένους 31, Καλλιθέα 176 71","categoryIds":["mexican"],"categories":["Mexican Restaurants"],"distanceKm":0.31206835627706064},{"id":"cheapEatsRestaurants_4c857b269660","slug":"soyvlakia-kalamakia-panostimo-4c85","kind":"restaurant","name":"Σουβλακια καλαμάκια πανοστιμο","lat":37.95437724216138,"lng":23.71201791711626,"url":"https://maps.app.goo.gl/wSd2i93DKt8GM9aEA?g_st=ipc","address":"Δοϊράνης 35, Καλλιθέα 176 72","categoryIds":["cheap-eats"],"categories":["Gyros & Cheap Eats"],"distanceKm":0.33212424772696597},{"id":"greekRestaurants_6497d4b8be55","slug":"o-mitos-kritiko-rakadiko-mezedopoleio-6497","kind":"restaurant","name":"Ο Μίτος (Κρητικό Ρακάδικο-Μεζεδοπωλείο)","lat":37.95902391394004,"lng":23.710171017106486,"url":"https://maps.app.goo.gl/fWEdbaEvd9cA8Enr9","address":"Αριστείδου 62, Καλλιθέα 176 71","categoryIds":["greek-restaurants"],"categories":["Greek Restaurants"],"distanceKm":0.3967538253944157},{"id":"coffeeBrunchRestaurants_897460bbed61","slug":"sovolos-zacharoplasteio-foyrnos-8974","kind":"restaurant","name":"Sovolos - Ζαχαροπλαστείο - Φούρνος","lat":37.95381653096959,"lng":23.704528203629867,"url":"https://maps.app.goo.gl/wLU7EVqzFWR8dPoq6?g_st=ipc","address":"Συνταγματάρχου Δαβάκη 52, Καλλιθέα 176 72","categoryIds":["coffee-brunch"],"categories":["Coffee & Brunch Spots"],"distanceKm":0.4130451191249403},{"id":"coffeeBrunchRestaurants_bcfaf36dacbe","slug":"tyropites-o-mitsos-bcfa","kind":"restaurant","name":"Τυρόπιτες ο Μήτσος","lat":37.95255129753746,"lng":23.705922909041465,"url":"https://maps.app.goo.gl/SR156bdeLaJYk1WY6?g_st=ipc","address":"Συνταγματάρχου Δαβάκη 32A, Καλλιθέα 176 72","categoryIds":["coffee-brunch"],"categories":["Coffee & Brunch Spots"],"distanceKm":0.41961117417643834},{"id":"coffeeBrunchRestaurants_2d5ab042fd9b","slug":"acera-the-brunch-project-2d5a","kind":"restaurant","name":"Acera The Brunch Project","lat":37.95687155697196,"lng":23.702731169430688,"url":"https://maps.app.goo.gl/evNfcdJQ34R2FXQR8?g_st=ipc","address":"Μαντζαγριωτάκη 105, Καλλιθέα 176 76","categoryIds":["coffee-brunch"],"categories":["Coffee & Brunch Spots"],"distanceKm":0.532010417755486},{"id":"coffeeBrunchRestaurants_45cff5aaefe1","slug":"peggy-sue-45cf","kind":"restaurant","name":"Peggy Sue","lat":37.9539520452851,"lng":23.715104827553436,"url":"https://maps.app.goo.gl/jJoRB32pj6dGvy9h9?g_st=ipc","address":"Σπαθαρη 2, Νέα Σμύρνη 171 21","categoryIds":["coffee-brunch"],"categories":["Coffee & Brunch Spots"],"distanceKm":0.6011219685233106},{"id":"dessertsRestaurants_6903e2ef4276","slug":"la-maison-fine-pastry-6903","kind":"restaurant","name":"La Maison - Fine Pastry","lat":37.951479018771344,"lng":23.703684961330683,"url":"https://maps.app.goo.gl/Hwbaz4KzQVAzGaRA8?g_st=ipc","address":"Δημοσθένους 149, Καλλιθέα 176 73","categoryIds":["desserts"],"categories":["Dessert Shops"],"distanceKm":0.6355968097777341},{"id":"italianRestaurants_20d0a7e98724","slug":"dei-fratelli-ristorante-italiano-20d0","kind":"restaurant","name":"Dei Fratelli - Ristorante Italiano","lat":37.954535351071335,"lng":23.71576098163187,"url":"https://maps.app.goo.gl/hbqzvikXoNEXvdgj7?g_st=ipc","address":"ΚΡΑΤΗΤΟΣ 10 &, Σπαθαρη, Νέα Σμύρνη 171 21","categoryIds":["italian"],"categories":["Italian Restaurants"],"distanceKm":0.6399616689329362},{"id":"cheapEatsRestaurants_a367fef323c7","slug":"oi-rosides-soyvlaki-piroski-a367","kind":"restaurant","name":"Οι ρωσίδες Σουβλάκι-Πιροσκί","lat":37.95374548604023,"lng":23.701395628014694,"url":"https://maps.app.goo.gl/Ebo7K4NsszKopesC7?g_st=ipc","address":"Αναγνωσταρά 16, Καλλιθέα 176 73","categoryIds":["cheap-eats"],"categories":["Gyros & Cheap Eats"],"distanceKm":0.6676769003862351},{"id":"cheapEatsRestaurants_7f509ca8a241","slug":"doner-tzortz-7f50","kind":"restaurant","name":"DONER.TZORTZ","lat":37.95300238294556,"lng":23.716665931248773,"url":"https://maps.app.goo.gl/otFTTi2nsTTPYaYKA?g_st=ipc","address":"Βιζυηνού 2, Νέα Σμύρνη 171 21","categoryIds":["cheap-eats"],"categories":["Gyros & Cheap Eats"],"distanceKm":0.766605781474294},{"id":"greekRestaurants_0a00e5cfcbb9","slug":"motosako-0a00","kind":"restaurant","name":"ΜΟΤΟΣΑΚΟ","lat":37.961601438829575,"lng":23.703084593129155,"url":"https://maps.app.goo.gl/EvRoWXo4KNzPYiSL9","address":"Π. Τσαλδάρη 157, Καλλιθέα 176 76","categoryIds":["greek-restaurants"],"categories":["Greek Restaurants"],"distanceKm":0.817634374635973},{"id":"coffeeBrunchRestaurants_85d40f2fead5","slug":"koyl-athens-koul-athens-85d4","kind":"restaurant","name":"Κούλ Άθενς (Koul Athens)","lat":37.962653742021914,"lng":23.705449559299996,"url":"https://maps.app.goo.gl/nrAGHFNRzBKSDpfL9?g_st=ipc","address":"P. Tsaldari 129, Kallithea 176 76","categoryIds":["coffee-brunch"],"categories":["Coffee & Brunch Spots"],"distanceKm":0.8237989119964714},{"id":"coffeeBrunchRestaurants_3ad613746740","slug":"lalos-3ad6","kind":"restaurant","name":"Lalos","lat":37.95653694094431,"lng":23.71832970107999,"url":"https://maps.app.goo.gl/EWRQ18pu1HkgSHMM9?g_st=ipc","address":"Ευρυδάμαντος 19, Αθήνα 117 45","categoryIds":["coffee-brunch"],"categories":["Coffee & Brunch Spots"],"distanceKm":0.8578364824480107},{"id":"cheapEatsRestaurants_d3888472f0b3","slug":"crepa-holic-kallithea-d388","kind":"restaurant","name":"Crepa Holic Kallithea","lat":37.95367992559356,"lng":23.699030666898533,"url":"https://maps.app.goo.gl/bLUgt75SSMUYsoXCA?g_st=ipc","address":"Λεωφ. Ελ. Βενιζέλου 185, Καλλιθέα 176 73","categoryIds":["cheap-eats"],"categories":["Gyros & Cheap Eats"],"distanceKm":0.8684247685986768},{"id":"coffeeBrunchRestaurants_0f49d35a64cc","slug":"naif-0f49","kind":"restaurant","name":"Naif","lat":37.95731969922388,"lng":23.71935175462416,"url":"https://maps.app.goo.gl/5eapXgYffcfJThv49?g_st=ipc","address":"Ευρυδάμαντος 15, Αθήνα 117 45","categoryIds":["coffee-brunch"],"categories":["Coffee & Brunch Spots"],"distanceKm":0.9596491264483415},{"id":"asianRestaurants_674b8df64d5a","slug":"ceci-hong-kong-hot-pot-restaurant-674b","kind":"restaurant","name":"Ceci Hong Kong Hot Pot Restaurant","lat":37.96299269251651,"lng":23.714788342397448,"url":"https://maps.app.goo.gl/qSsZbhQeQPjLVDck8?g_st=ipc","address":"Λεωφ. Ελ. Βενιζέλου 14, Αθήνα 176 76","categoryIds":["asian"],"categories":["Asian Restaurants"],"distanceKm":0.977582562441133},{"id":"dessertsRestaurants_8de488078304","slug":"crepa-crepa-8de4","kind":"restaurant","name":"Crepa crepa","lat":37.94728978565515,"lng":23.712096506964457,"url":"https://maps.app.goo.gl/vmeSVgQbRFAe8fe19?g_st=ipc","address":"Ειρήνης 2, Νέα Σμύρνη 171 21","categoryIds":["desserts"],"categories":["Dessert Shops"],"distanceKm":0.9814078295815839},{"id":"coffeeBrunchRestaurants_e8ba4bec6d9a","slug":"zatopek-book-cafe-e8ba","kind":"restaurant","name":"Zatopek book cafe","lat":37.95902409225205,"lng":23.698098106664805,"url":"https://maps.app.goo.gl/2WQxsGPEDfG7d62UA?g_st=ipc","address":"Π. Τσαλδάρη 209, Καλλιθέα 176 76","categoryIds":["coffee-brunch"],"categories":["Coffee & Brunch Spots"],"distanceKm":0.9937015985177287},{"id":"cheapEatsRestaurants_fb98feb8ab24","slug":"soyvlakia-o-leyteris-fb98","kind":"restaurant","name":"Σουβλάκια ο Λευτέρης","lat":37.947152588163014,"lng":23.712051232496496,"url":"https://maps.app.goo.gl/MTQDk9is4pkL1vPt9?g_st=ipc","address":"Ειρήνης 2, Νέα Σμύρνη 171 21","categoryIds":["cheap-eats"],"categories":["Gyros & Cheap Eats"],"distanceKm":0.9947019031830368},{"id":"coffeeBrunchRestaurants_bcef1a0d2ebe","slug":"aroma-plateias-bcef","kind":"restaurant","name":"Άρωμα πλατείας","lat":37.947245777072794,"lng":23.713361220767048,"url":"https://maps.app.goo.gl/6mPMQRmSeP8pK4Cu6?g_st=ipc","address":"25ης Μαρτίου 19, Νέα Σμύρνη 171 21","categoryIds":["coffee-brunch"],"categories":["Coffee & Brunch Spots"],"distanceKm":1.025901272633032},{"id":"cheapEatsRestaurants_4de598be41da","slug":"johnie-hot-dog-syggroy-4de5","kind":"restaurant","name":"Johnie Hot Dog Συγγρού","lat":37.959239923680194,"lng":23.71954717101243,"url":"https://maps.app.goo.gl/WUCUWAGV3GyPBumi7?g_st=ipc","address":"Λεωφ. Ανδρέα Συγγρού 136, Καλλιθέα 176 71","categoryIds":["cheap-eats"],"categories":["Gyros & Cheap Eats"],"distanceKm":1.0378472193939807}],"sameRegion":[],"mentionedGuides":[],"canonicalSlug":"ramona-taverna-kallithea-d2cc","isCanonicalEntity":true,"enrichment":{"summary_en":"Ραμόνα Ταβέρνα Καλλιθέα is a curated restaurant in Καλλιθέα 176 72 in the Greek Restaurants collection. It is connected to 13 nearby Googlementor picks to help travelers build a stronger local route.","summary_el":"Ραμόνα Ταβέρνα Καλλιθέα είναι ένα επιλεγμένο σημείο φαγητού στην περιοχή Καλλιθέα 176 72 και ανήκει στη συλλογή Greek Restaurants. Συνδέεται με 13 κοντινές προτάσεις του Googlementor για πιο ολοκληρωμένη εμπειρία.","vibe_tags":["curated"],"best_for":["first-time visitors","food lovers"],"visit_moments":["lunch stop","dinner stop"],"practical_note":"Address and direct map link are available for easy turn-by-turn access.","nearby_walkable_count":13,"nearby_count_2km":122,"confidence":0.98},"areaContext":{"slug":"kallithea","name":"Kallithea"},"intentContexts":[{"href":"/greek-restaurants/kallithea","label":"Greek Restaurants in Kallithea","categorySlug":"greek-restaurants","categoryName":"Greek Restaurants","areaSlug":"kallithea","areaName":"Kallithea"}]},"__N_SSG":true}