{"pageProps":{"entity":{"id":"vegetarianRestaurants_01ab7c5f61ba","slug":"seminario-01ab","kind":"restaurant","name":"SEMINARIO","lat":37.4442691864213,"lng":24.94407924993465,"url":"https://maps.app.goo.gl/67qtbde9XNL2VBgVA?g_st=ipc","address":"Kiparissou 7, Ermoupoli 841 00","categoryIds":["vegetarian"],"categories":["Vegetarian Friendly Restaurants"]},"sameCategory":[{"id":"vegetarianRestaurants_b8ffd99027d0","slug":"amorgos-organic-b8ff","kind":"restaurant","name":"Amorgos Organic","lat":36.82494496537346,"lng":25.86937679325385,"url":"https://maps.app.goo.gl/LLqFWY5v6jQQxyzV9?g_st=ipc","address":"Epar.Od. Katapolon-Mavris Mitis, Rachidi 840 08","categoryIds":["vegetarian"],"categories":["Vegetarian Friendly Restaurants"]},{"id":"vegetarianRestaurants_fcbe4baf2c7e","slug":"falafel-fcbe","kind":"restaurant","name":"Falafel","lat":36.90090309185306,"lng":25.976584244849658,"url":"https://maps.app.goo.gl/aKeeZyXVaADfNUQU9?g_st=ipc","address":"Ormos Egialis 840 08","categoryIds":["vegetarian"],"categories":["Vegetarian Friendly Restaurants"]},{"id":"vegetarianRestaurants_5e82930d8565","slug":"coconuts-nuts-specialties-5e82","kind":"restaurant","name":"COCONUTS Nuts & Specialties","lat":37.83974545115199,"lng":23.767343337140883,"url":"https://maps.app.goo.gl/C155rgfingteegQn8?g_st=ipc","address":"Λεωφ. Βασιλέως Παύλου 67, Βούλα 166 73","categoryIds":["vegetarian"],"categories":["Vegetarian Friendly Restaurants"]},{"id":"vegetarianRestaurants_4651fd50cc98","slug":"gi-4651","kind":"restaurant","name":"Γη","lat":37.867754101352695,"lng":23.757082449020576,"url":"https://maps.app.goo.gl/J8MbyuN6xbnsUxi89?g_st=ipc","address":"Γρ. Λαμπράκη 69, Γλυφάδα 166 75","categoryIds":["vegetarian"],"categories":["Vegetarian Friendly Restaurants"]},{"id":"vegetarianRestaurants_e61f564cf6f0","slug":"melitini-e61f","kind":"restaurant","name":"Melitini","lat":36.46251191786666,"lng":25.380930558895514,"url":"https://maps.app.goo.gl/diHJtayCn8kgFPxW7?g_st=ipc","address":"Oia 847 02","categoryIds":["vegetarian"],"categories":["Vegetarian Friendly Restaurants"]},{"id":"coffeeBrunchRestaurants_8ebbeeadfb00","slug":"jerry-s-8ebb","kind":"restaurant","name":"JERRY’S","lat":37.99081436071943,"lng":23.798622930452883,"url":"https://maps.app.goo.gl/s7TjtfQj1q9s9Tnk8?g_st=ipc","address":"Εθ. Αμύνης 27, Παπάγου 156 69","categoryIds":["coffee-brunch","vegetarian"],"categories":["Coffee & Brunch Spots","Vegetarian Friendly Restaurants"],"legacySlugs":["jerry-s-4010"]},{"id":"coffeeBrunchRestaurants_c2dcfed13dc1","slug":"to-vazaki-juice-bar-c2dc","kind":"restaurant","name":"Το Βαζάκι Juice Bar","lat":38.021003514175945,"lng":23.80272580711501,"url":"https://maps.app.goo.gl/nDbFuEsz56BPrtWV8?g_st=ipc","address":"Αριστοτέλους 33, Χαλάνδρι 152 34","categoryIds":["coffee-brunch","vegetarian"],"categories":["Coffee & Brunch Spots","Vegetarian Friendly Restaurants"],"legacySlugs":["to-vazaki-juice-bar-fee3"]},{"id":"vegetarianRestaurants_1656162d68e6","slug":"the-sweet-lab-1656","kind":"restaurant","name":"Τhe Sweet Lab","lat":38.002062661373884,"lng":23.785233324910163,"url":"https://maps.app.goo.gl/Zb8o7YTUmMMx7EVx8?g_st=ipc","address":"Λεωφ. Δημοκρατίας 81, Kapodistriou 1, Athina 154 51","categoryIds":["vegetarian"],"categories":["Vegetarian Friendly Restaurants"]},{"id":"vegetarianRestaurants_a667646c43d0","slug":"pink-elephant-a667","kind":"restaurant","name":"Pink Elephant","lat":38.02048886312005,"lng":23.79851470032454,"url":"https://maps.app.goo.gl/JBEM9qi3Gh27zDWa9?g_st=ipc","address":"Sokratous 4Α, Chalandri 152 32","categoryIds":["vegetarian"],"categories":["Vegetarian Friendly Restaurants"]},{"id":"vegetarianRestaurants_146693dade4c","slug":"naya-lebanese-kitchen-1466","kind":"restaurant","name":"Naya Lebanese Kitchen","lat":38.02310312613848,"lng":23.798978117354526,"url":"https://maps.app.goo.gl/Wa7FtgvMdTD2Q6oT7?g_st=ipc","address":"Kolokotroni 10, Chalandri 152 33","categoryIds":["vegetarian"],"categories":["Vegetarian Friendly Restaurants"]},{"id":"vegetarianRestaurants_d960699f9346","slug":"vegan-carousel-d960","kind":"restaurant","name":"VEGAN CAROUSEL","lat":37.99118694073678,"lng":23.766617711776497,"url":"https://maps.app.goo.gl/17ei25wSbsQBZTsP6?g_st=ipc","address":"Σοφίας Σλήμαν 6, Αθήνα 115 26","categoryIds":["vegetarian"],"categories":["Vegetarian Friendly Restaurants"]},{"id":"vegetarianRestaurants_26aa685f16e1","slug":"fresh-patisserie-26aa","kind":"restaurant","name":"Fresh Patisserie","lat":37.96747222997714,"lng":23.749300179574934,"url":"https://maps.app.goo.gl/M6kixY8DuERoUL8U8?g_st=ipc","address":"Ευτυχίδου 48, Αθήνα 116 34","categoryIds":["vegetarian"],"categories":["Vegetarian Friendly Restaurants"]}],"nearby":[{"id":"greekRestaurants_1696c19253da","slug":"seminario-restaurant-1696","kind":"restaurant","name":"SEMINARIO RESTAURANT","lat":37.44429164128135,"lng":24.944085469492308,"url":"https://maps.app.goo.gl/nJKupgtgjMPeqH9s9?g_st=ipc","address":"Κυπαρίσσου 7, Ερμούπολη 841 00","categoryIds":["greek-restaurants"],"categories":["Greek Restaurants"],"distanceKm":0.0025565269818322066},{"id":"greekRestaurants_146807342037","slug":"ithaki-toy-ai-1468","kind":"restaurant","name":"Ιθάκη του Αή","lat":37.44420854822272,"lng":24.943948745039016,"url":"https://maps.app.goo.gl/KDXT6jt1hACmxQyQ9?g_st=ipc","address":"Κλώνος &, Κυπαρίσσου 1Α, Ερμούπολη 841 00","categoryIds":["greek-restaurants"],"categories":["Greek Restaurants"],"distanceKm":0.013349321788882599},{"id":"dessertsRestaurants_047955347234","slug":"django-gelato-syros-0479","kind":"restaurant","name":"Django Gelato Syros","lat":37.44450627617555,"lng":24.944030796272305,"url":"https://maps.app.goo.gl/n5hxCbxJp7iEtRnS8?g_st=ipc","address":"Εμμανουήλ Ροΐδη 10, Ερμούπολη 841 00","categoryIds":["desserts"],"categories":["Dessert Shops"],"distanceKm":0.02670795963344134},{"id":"coffeeBrunchRestaurants_4d25f45b5203","slug":"armadillo-coffee-brewery-4d25","kind":"restaurant","name":"Armadillo coffee brewery","lat":37.44456566950848,"lng":24.94393269848808,"url":"https://maps.app.goo.gl/1CcqyVuzhyYwut3Y7?g_st=ipc","address":"Emmanouil Roidi 9, Ermoupoli 841 00","categoryIds":["coffee-brunch"],"categories":["Coffee & Brunch Spots"],"distanceKm":0.03541525678894387},{"id":"dessertsRestaurants_a081a0be0db3","slug":"so-in-d-cjdh-a081","kind":"restaurant","name":"So in d cjdh","lat":37.4444390329241,"lng":24.943371459609835,"url":"https://maps.app.goo.gl/kDu69AUHWaiUN8MD9?g_st=ipc","address":"Γεωρ. Γεννηματά, Ερμούπολη 841 00","categoryIds":["desserts"],"categories":["Dessert Shops"],"distanceKm":0.06527730966154872},{"id":"coffeeBrunchRestaurants_5149b6e62713","slug":"nuru-casual-dine-bar-5149","kind":"restaurant","name":"NURU Casual Dine Bar","lat":37.44349077641299,"lng":24.94447380869693,"url":"https://maps.app.goo.gl/MAU2ryGQrQMcWyvh7?g_st=ipc","address":"Coast Petrou Ralli, Ermoupoli 841 00","categoryIds":["coffee-brunch"],"categories":["Coffee & Brunch Spots"],"distanceKm":0.09330133881643597},{"id":"municipalities_10c41fed1584","slug":"syros-10c4","kind":"municipality","name":"Σύρος","lat":37.4442,"lng":24.9428,"aliases":["Syros","Siros","Σύρα","Συρος","Συρο"],"region":"Κυκλάδες","name_en":"Syros","region_en":"Cyclades","distanceKm":0.11319737471881279},{"id":"luxuryDiningRestaurants_fce7b5166669","slug":"elexis-restaurant-fce7","kind":"restaurant","name":"Elexis restaurant","lat":37.44565058814321,"lng":24.944776847765887,"url":"https://maps.app.goo.gl/rqnMSjkRjYm2rfCw6?g_st=ipc","address":"Apollonos 11, Ermoupoli 841 00","categoryIds":["luxury-dining"],"categories":["Luxury Dining"],"distanceKm":0.16549076816707983},{"id":"coffeeBrunchRestaurants_9e14262d126e","slug":"artisti-prozymi-9e14","kind":"restaurant","name":"Artisti Προζύμι","lat":37.44450469447684,"lng":24.94200878171083,"url":"https://maps.app.goo.gl/zBtgvSEn5xc7LXJYA?g_st=ipc","address":"Ermoupoli 841 00","categoryIds":["coffee-brunch"],"categories":["Coffee & Brunch Spots"],"distanceKm":0.1846525340751319},{"id":"coffeeBrunchRestaurants_ec0f2731baff","slug":"epta-syros-island-ec0f","kind":"restaurant","name":"Epta - Syros Island","lat":37.443982055478656,"lng":24.941782056394448,"url":"https://maps.app.goo.gl/67zZLni25BkifsZy6?g_st=ipc","address":"Peloponnisou 7, Ermoupoli 841 00","categoryIds":["coffee-brunch"],"categories":["Coffee & Brunch Spots"],"distanceKm":0.2053005737784087},{"id":"dessertsRestaurants_4f049383a360","slug":"athymaritis-4f04","kind":"restaurant","name":"Αθυμαρίτης","lat":37.44304285674758,"lng":24.942058155197838,"url":"https://maps.app.goo.gl/QqZKei5CzCtJaWFv7?g_st=ipc","address":"ΚΕΑΣ, Επτανήσου 2, ΚΑΙ 841 00","categoryIds":["desserts"],"categories":["Dessert Shops"],"distanceKm":0.2245694516300337},{"id":"greekRestaurants_ca82ecc0469e","slug":"to-tsipoyradiko-tis-myrsinis-ca82","kind":"restaurant","name":"Το Τσιπουράδικο της Μυρσίνης","lat":37.4418414585908,"lng":24.9417843089367,"url":"https://maps.app.goo.gl/iYVQf35areJL729h8?g_st=ipc","address":"Ακτή Παπάγου 6, Ερμούπολη 841 00","categoryIds":["greek-restaurants"],"categories":["Greek Restaurants"],"distanceKm":0.33752491326073925},{"id":"italianRestaurants_c3995e275001","slug":"amvix-c399","kind":"restaurant","name":"Amvix","lat":37.44099934175907,"lng":24.940807847227685,"url":"https://maps.app.goo.gl/pvyKHGGD2fbgASCE8?g_st=ipc","address":"Akti Papagoi 26, Ermoupoli 841 00","categoryIds":["italian"],"categories":["Italian Restaurants"],"distanceKm":0.4643399444698891},{"id":"greekRestaurants_bd91fcd5ea24","slug":"laoytari-bd91","kind":"restaurant","name":"Λαουτάρι","lat":37.440095347477,"lng":24.93954086077632,"url":"https://maps.app.goo.gl/hg1f12ccy5BRDtoR9?g_st=ipc","address":"Θερμοπυλών 18, Ερμούπολη 841 00","categoryIds":["greek-restaurants"],"categories":["Greek Restaurants"],"distanceKm":0.6131362807243614},{"id":"luxuryDiningRestaurants_9c6d307705cb","slug":"hygge-ano-syros-9c6d","kind":"restaurant","name":"Hygge Ano Syros","lat":37.45063025961707,"lng":24.93672789045308,"url":"https://maps.app.goo.gl/bq8XEdkjQTKveFWo7?g_st=ipc","address":"Ano Syros 841 00","categoryIds":["luxury-dining"],"categories":["Luxury Dining"],"distanceKm":0.9599283118364689},{"id":"greekRestaurants_b8183ad911da","slug":"o-mitsos-b818","kind":"restaurant","name":"Ο Μήτσος","lat":37.44635077351931,"lng":24.926756993265617,"url":"https://maps.app.goo.gl/rymG3hKT6zM9Hv1X8?g_st=ipc","address":"Αληθινή 841 00","categoryIds":["greek-restaurants"],"categories":["Greek Restaurants"],"distanceKm":1.5466513698305262},{"id":"greekRestaurants_b66f81151a01","slug":"empati-b66f","kind":"restaurant","name":"Εμπατή","lat":37.4495588259796,"lng":24.927676203171245,"url":"https://maps.app.goo.gl/6AwpTQ9uTLgEUaBJ8?g_st=ipc","address":"Αληθινή 841 00","categoryIds":["greek-restaurants"],"categories":["Greek Restaurants"],"distanceKm":1.5629510506376216},{"id":"familyFriendly_83c448f68640","slug":"gipedo-podosfairoy-pagoy-83c4","kind":"restaurant","name":"Γήπεδο Ποδοσφαίρου Πάγου","lat":37.42646477570567,"lng":24.907668410293343,"url":"https://maps.app.goo.gl/BaTm12sUUp1d1c9g8?g_st=ipc","address":"Πάγος 841 00","categoryIds":["family-friendly"],"categories":["Kid Friendly Locations"],"distanceKm":3.7755227258365376},{"id":"fishTavernasRestaurants_980522cd3e49","slug":"allou-yialou-9805","kind":"restaurant","name":"Allou Yialou","lat":37.446952094396515,"lng":24.900261999085988,"url":"https://maps.app.goo.gl/fZarxkpuFnFbzYFR6?g_st=ipc","address":"Κίνι 841 00","categoryIds":["fish-tavernas"],"categories":["Fish Tavernas"],"distanceKm":3.879721050338304},{"id":"wineriesVineyards_a4d0adc4e189","slug":"oinopoieio-chatzakis-a4d0","kind":"restaurant","name":"Οινοποιείο Χατζάκης","lat":37.487911506949764,"lng":24.920189638380265,"url":"https://maps.app.goo.gl/PnEvnYgAhh5oLj4j6?g_st=ipc","address":"Αη Μιχάλης 841 00","categoryIds":["wineries-vineyards"],"categories":["Wineries & Vineyards"],"distanceKm":5.291045384656533},{"id":"greekRestaurants_7b08b4e7ecfa","slug":"plakostroto-7b08","kind":"restaurant","name":"Πλακόστρωτο","lat":37.48884885717979,"lng":24.92039552541297,"url":"https://maps.app.goo.gl/XfD9nNTB3trh5Euw6?g_st=ipc","address":"Κυκλάδων, Αη Μιχάλης 841 00","categoryIds":["greek-restaurants"],"categories":["Greek Restaurants"],"distanceKm":5.379709851954608},{"id":"fishTavernasRestaurants_bceb21ce5afb","slug":"bolas-restaurant-syros-bceb","kind":"restaurant","name":"Bolas Restaurant Syros","lat":37.390186602163425,"lng":24.945820061380417,"url":"https://maps.app.goo.gl/CV5VQnagTSebUic97?g_st=ipc","address":"Βάρη 841 00","categoryIds":["fish-tavernas"],"categories":["Fish Tavernas"],"distanceKm":6.015673818000463},{"id":"coffeeBrunchRestaurants_6cf196494304","slug":"yamma-all-day-bar-restaurant-6cf1","kind":"restaurant","name":"Yamma All Day Bar - Restaurant","lat":37.42130665540869,"lng":24.87954060251137,"url":"https://maps.app.goo.gl/ndoCdemDkTB3EdpU7?g_st=ipc","address":"Συρου, Galissas 841 00","categoryIds":["coffee-brunch"],"categories":["Coffee & Brunch Spots"],"distanceKm":6.244400192155157},{"id":"greekRestaurants_96450f00f0b5","slug":"iliovasilema-9645","kind":"restaurant","name":"Ηλιοβασίλεμα","lat":37.42092278718389,"lng":24.87878430217567,"url":"https://maps.app.goo.gl/NKaN6gyqZ6cUdDoo9?g_st=ipc","address":"Παραλια, Γαλησσάς 841 00","categoryIds":["greek-restaurants"],"categories":["Greek Restaurants"],"distanceKm":6.322818552317184}],"sameRegion":[],"mentionedGuides":[],"canonicalSlug":"seminario-01ab","isCanonicalEntity":true,"enrichment":{"summary_en":"SEMINARIO is a curated restaurant in Ermoupoli 841 00 in the Vegetarian Friendly Restaurants collection. It is connected to 14 nearby Googlementor picks to help travelers build a stronger local route.","summary_el":"SEMINARIO είναι ένα επιλεγμένο σημείο φαγητού στην περιοχή Ermoupoli 841 00 και ανήκει στη συλλογή Vegetarian Friendly Restaurants. Συνδέεται με 14 κοντινές προτάσεις του Googlementor για πιο ολοκληρωμένη εμπειρία.","vibe_tags":["curated"],"best_for":["first-time visitors","food lovers"],"visit_moments":["lunch stop","dinner stop"],"practical_note":"Address and direct map link are available for easy turn-by-turn access.","nearby_walkable_count":14,"nearby_count_2km":17,"confidence":0.98},"areaContext":{"slug":"syros","name":"Syros"},"intentContexts":[]},"__N_SSG":true}