{"pageProps":{"entity":{"id":"italianRestaurants_cb2ae306e209","slug":"signora-trattoria-cb2a","kind":"restaurant","name":"Signora Trattoria","lat":40.63157039493222,"lng":22.94755320492566,"url":"https://maps.app.goo.gl/QzosxSTGJyN4yoBfA?g_st=ipc","address":"P. Mela 38, Paleon Patron Germanou 19, Thessaloniki 546 22","categoryIds":["italian"],"categories":["Italian Restaurants"]},"sameCategory":[{"id":"italianRestaurants_d3fb4b2d1274","slug":"osteria-dai-fioi-d3fb","kind":"restaurant","name":"Osteria dai Fioi","lat":40.633770916934814,"lng":22.950440152016508,"url":"https://maps.app.goo.gl/ptx8MrTs166UDsu79?g_st=ipc","address":"Leonida Iasonidou 9, Thessaloniki 546 35","categoryIds":["italian"],"categories":["Italian Restaurants"]},{"id":"italianRestaurants_7c05bdca6535","slug":"apallou-7c05","kind":"restaurant","name":"Apallou","lat":40.6319800622151,"lng":22.942842887749638,"url":"https://maps.app.goo.gl/gJ5jrWEXwAbU6ynW8?g_st=ipc","address":"Μητροπόλεως &, Karolou Ntil 10, Thessaloniki 546 23","categoryIds":["italian"],"categories":["Italian Restaurants"]},{"id":"italianRestaurants_cb35e3b45188","slug":"margherita-cb35","kind":"restaurant","name":"MARGHERITA","lat":40.631390383048206,"lng":22.94264327325537,"url":"https://maps.app.goo.gl/TiNtp5tDGN6Eji5d9?g_st=ipc","address":"Proxenou Koromila 11, Thessaloniki 546 23","categoryIds":["italian"],"categories":["Italian Restaurants"]},{"id":"cheapEatsRestaurants_284a6ef1dfeb","slug":"the-last-slice-284a","kind":"restaurant","name":"The Last Slice","lat":40.63188753569458,"lng":22.94190837965703,"url":"https://maps.app.goo.gl/iyZQfPWo4E2pskqX8?g_st=ipc","address":"Proxenou Koromila 1, Thessaloniki 546 23","categoryIds":["cheap-eats","italian"],"categories":["Gyros & Cheap Eats","Italian Restaurants"],"legacySlugs":["the-last-slice-2302"]},{"id":"italianRestaurants_d4a8673af302","slug":"rosticceria-di-salonicco-d4a8","kind":"restaurant","name":"Rosticceria di Salonicco","lat":40.633588139092396,"lng":22.954063296681706,"url":"https://maps.app.goo.gl/WqcXyq1eyTArWEmP6?g_st=ipc","address":"Armenopoulou 27, Thessaloniki 546 35","categoryIds":["italian"],"categories":["Italian Restaurants"]},{"id":"italianRestaurants_60ef8fd1f6df","slug":"high-school-pizza-bar-60ef","kind":"restaurant","name":"High School Pizza Bar","lat":40.63257762535487,"lng":22.939550561883348,"url":"https://maps.app.goo.gl/CkxsQoyZaG8gTuWG9?g_st=ipc","address":"Leof. Nikis 9Α, Thessaloniki 546 24","categoryIds":["italian"],"categories":["Italian Restaurants"]},{"id":"italianRestaurants_e8e93eefa319","slug":"cena-e8e9","kind":"restaurant","name":"Cena","lat":40.63453379937182,"lng":22.938924721124444,"url":"https://maps.app.goo.gl/M6cnfrHcMrMNBhMNA?g_st=ipc","address":"Rogkoti 4, Thessaloniki 546 24","categoryIds":["italian"],"categories":["Italian Restaurants"]},{"id":"cheapEatsRestaurants_e80e8a708de9","slug":"salento-wood-fired-street-food-e80e","kind":"restaurant","name":"Salento Wood Fired Street Food","lat":40.639269734572295,"lng":22.943990430297482,"url":"https://maps.app.goo.gl/6mWAWHUbEwXuAb589?g_st=ipc","address":"El. Venizelou 76, Thessaloniki 546 31","categoryIds":["cheap-eats","italian"],"categories":["Gyros & Cheap Eats","Italian Restaurants"],"legacySlugs":["salento-wood-fired-street-food-39b7"]},{"id":"cheapEatsRestaurants_763f0b4ef33d","slug":"pizza-poselli-763f","kind":"restaurant","name":"Pízza Poselli","lat":40.63738632422352,"lng":22.938994583377827,"url":"https://maps.app.goo.gl/msSh5RZw3k81mKHWA?g_st=ipc","address":"Vilara 2, Thessaloniki 546 25","categoryIds":["cheap-eats","italian"],"categories":["Gyros & Cheap Eats","Italian Restaurants"],"legacySlugs":["pizza-poselli-5cd4"]},{"id":"italianRestaurants_7cee9388f440","slug":"pizza-hood-7cee","kind":"restaurant","name":"Pizza Hood","lat":40.63650781158609,"lng":22.937112758246737,"url":"https://maps.app.goo.gl/PSUf6oyYdwKAkgEFA","address":"Ernestou Emprar 2, Thessaloniki 546 25","categoryIds":["italian"],"categories":["Italian Restaurants"]},{"id":"italianRestaurants_7e579a43d1ce","slug":"dos-margaritas-7e57","kind":"restaurant","name":"Dos Margaritas","lat":40.621386723569444,"lng":22.952891023289123,"url":"https://maps.app.goo.gl/XC8KbzgVXxEiYUru8?g_st=ipc","address":"Emiliou Riadi 5, Thessaloniki 546 40","categoryIds":["italian"],"categories":["Italian Restaurants"]},{"id":"italianRestaurants_0a96069b98fe","slug":"navona-restaurant-bar-0a96","kind":"restaurant","name":"Navona Restaurant Bar","lat":40.617883104732,"lng":22.952114230685524,"url":"https://maps.app.goo.gl/oPmtz2JTaw4nxWtp6","address":"Leof. Meg. Alexandrou 2, Thessaloniki 546 40","categoryIds":["italian"],"categories":["Italian Restaurants"]}],"nearby":[{"id":"coffeeBrunchRestaurants_e317c423742b","slug":"spoon-e317","kind":"restaurant","name":"Spoon","lat":40.631612141451626,"lng":22.94743751548318,"url":"https://maps.app.goo.gl/22Pm73g59e2LeoJQ7?g_st=ipc","address":"P. Mela 38, Thessaloniki 546 22","categoryIds":["coffee-brunch"],"categories":["Coffee & Brunch Spots"],"distanceKm":0.010810118293564177},{"id":"coffeeBrunchRestaurants_ad573219eedf","slug":"ergon-agora-ad57","kind":"restaurant","name":"ERGON Agora","lat":40.63187081672803,"lng":22.94735121723834,"url":"https://maps.app.goo.gl/ozYptsUfXEMA3PdNA?g_st=ipc","address":"P. Mela 42, Thessaloniki 546 22","categoryIds":["coffee-brunch"],"categories":["Coffee & Brunch Spots"],"distanceKm":0.03750275056284563},{"id":"dessertsRestaurants_af6c4ad80b58","slug":"senol-af6c","kind":"restaurant","name":"Senol","lat":40.631655999978115,"lng":22.9479848979778,"url":"https://maps.app.goo.gl/TQFwjdg19bCqCfpz8?g_st=ipc","address":"Paleon Patron Germanou 23, Thessaloniki 546 22","categoryIds":["desserts"],"categories":["Dessert Shops"],"distanceKm":0.037652444804010414},{"id":"burgersRestaurants_0c007445e9cc","slug":"balboa-thessaloniki-0c00","kind":"restaurant","name":"Balboa Thessaloniki","lat":40.631911246314864,"lng":22.947511059222414,"url":"https://maps.app.goo.gl/Lys3ApFbCS6C7HCt8","address":"P. Mela 42, Thessaloniki 546 22","categoryIds":["burgers","cheap-eats"],"categories":["Burger Spots","Gyros & Cheap Eats"],"legacySlugs":["balboa-thessaloniki-bd4c"],"distanceKm":0.03806744859193714},{"id":"dessertsRestaurants_07f7d8449744","slug":"tzeneral-zacharoplasteio-07f7","kind":"restaurant","name":"Tzeneral Ζαχαροπλαστείο","lat":40.631986554661324,"lng":22.94743879678818,"url":"https://maps.app.goo.gl/tBpAuNdF8KmF9aXe6?g_st=ipc","address":"P. Mela 44, Thessaloniki 546 22","categoryIds":["desserts"],"categories":["Dessert Shops"],"distanceKm":0.04727126235157945},{"id":"greekRestaurants_dd92d680950f","slug":"local-thessaloniki-dd92","kind":"restaurant","name":"LOCAL Thessaloniki","lat":40.631447319193505,"lng":22.946995352889463,"url":"https://maps.app.goo.gl/iMk8Tx82t81vQe5y5?g_st=ipc","address":"Παλαιών Πατρών Γερμανού 17, Θεσσαλονίκη 546 22","categoryIds":["greek-restaurants"],"categories":["Greek Restaurants"],"distanceKm":0.04902453771974969},{"id":"coffeeBrunchRestaurants_f6927d333ac7","slug":"local-thessaloniki-f692","kind":"restaurant","name":"LOCAL Thessaloniki","lat":40.63143794324686,"lng":22.94699527001704,"url":"https://maps.app.goo.gl/RCLyEycZ8dqaLJjT6?g_st=ipc","address":"Paleon Patron Germanou 17, Thessaloniki 546 22","categoryIds":["coffee-brunch"],"categories":["Coffee & Brunch Spots"],"distanceKm":0.04933240977873038},{"id":"vegetarianRestaurants_ae93f5705c93","slug":"mushroom-skg-ae93","kind":"restaurant","name":"mushroom skg","lat":40.63168703304935,"lng":22.946978697189547,"url":"https://maps.app.goo.gl/F7WJFJ3rEhib4fX86?g_st=ipc","address":"Zefxidos 10, Thessaloniki 546 22","categoryIds":["vegetarian"],"categories":["Vegetarian Friendly Restaurants"],"distanceKm":0.05018589770850432},{"id":"coffeeBrunchRestaurants_24b6a5a5bc93","slug":"brunchsin-24b6","kind":"restaurant","name":"Brunchsin","lat":40.63142362221095,"lng":22.94824040063862,"url":"https://maps.app.goo.gl/oQiMBEdPePBk3uAQ9?g_st=ipc","address":"Paleon Patron Germanou 26, Thessaloniki 546 22","categoryIds":["coffee-brunch"],"categories":["Coffee & Brunch Spots"],"distanceKm":0.06024338524847024},{"id":"dessertsRestaurants_ba34dec40f28","slug":"magoa-patisserie-chocolaterie-ba34","kind":"restaurant","name":"Magoa Patisserie-Chocolaterie","lat":40.63172247185242,"lng":22.9482457723652,"url":"https://maps.app.goo.gl/M7r6TuYWcBQ1KPRT8?g_st=ipc","address":"Paleon Patron Germanou 29, Thessaloniki 546 22","categoryIds":["desserts"],"categories":["Dessert Shops"],"distanceKm":0.06084102226961863},{"id":"cheapEatsRestaurants_abf9ebdbbc06","slug":"taco-mazama-californian-style-mexican-street-food-abf9","kind":"restaurant","name":"Taco Mazama (Californian Style Mexican Street Food)","lat":40.63149354851285,"lng":22.94839774432504,"url":"https://maps.app.goo.gl/zE2aLejbpEyQpDvq8?g_st=ipc","address":"Paleon Patron Germanou 28, Thessaloniki 546 22","categoryIds":["cheap-eats","mexican"],"categories":["Gyros & Cheap Eats","Mexican Restaurants"],"legacySlugs":["taco-mazama-californian-style-mexican-street-food-77e6"],"distanceKm":0.0717788152667732},{"id":"cheapEatsRestaurants_89af7e3d3903","slug":"dakee-spot-89af","kind":"restaurant","name":"Dakee spot","lat":40.6322179094533,"lng":22.947351485022043,"url":"https://maps.app.goo.gl/rccueDiq6UHSWjB86?g_st=ipc","address":"P. Mela 48, Thessaloniki 546 22","categoryIds":["cheap-eats"],"categories":["Gyros & Cheap Eats"],"distanceKm":0.0739852217682669},{"id":"dessertsRestaurants_9d2a4d7ae9ae","slug":"hatzifotiou-9d2a","kind":"restaurant","name":"Hatzifotiou","lat":40.632118329149435,"lng":22.94703754885986,"url":"https://maps.app.goo.gl/65SPRQQN5mowAwhw8?g_st=ipc","address":"P. Mela 37, Thessaloniki 546 22","categoryIds":["desserts"],"categories":["Dessert Shops"],"distanceKm":0.07487110338090414},{"id":"coffeeBrunchRestaurants_cbf12f48a77e","slug":"mandarini-skg-cbf1","kind":"restaurant","name":"Mandarini_skg","lat":40.63174083169372,"lng":22.946676387172698,"url":"https://maps.app.goo.gl/CEdKb7KcdrPJwXZdA?g_st=ipc","address":"Zefxidos 6, Thessaloniki 546 22","categoryIds":["coffee-brunch"],"categories":["Coffee & Brunch Spots"],"distanceKm":0.07638064005452319},{"id":"cheapEatsRestaurants_6c50423bab44","slug":"hot-pot-pasteria-city-center-6c50","kind":"restaurant","name":"Hot Pot Pasteria City Center","lat":40.63116120039778,"lng":22.946781922089382,"url":"https://maps.app.goo.gl/VGaiUJdvDDnid5Kk9?g_st=ipc","address":"Paleon Patron Germanou 12, Thessaloniki 546 22","categoryIds":["cheap-eats"],"categories":["Gyros & Cheap Eats"],"distanceKm":0.07941379558051677},{"id":"asianRestaurants_41c1b197a672","slug":"wen-zhou-specialties-41c1","kind":"restaurant","name":"Wen Zhou Specialties","lat":40.63090950249029,"lng":22.94800772208168,"url":"https://maps.app.goo.gl/6cq2gTB2UTEdBKux5?g_st=ipc","address":"Grigoriou Palama 16, Thessaloniki 546 22","categoryIds":["asian"],"categories":["Asian Restaurants"],"distanceKm":0.08289526028582453},{"id":"asianRestaurants_5ace71fa56ea","slug":"ramen-tales-5ace","kind":"restaurant","name":"Ramen Tales","lat":40.63194421660545,"lng":22.948458874656616,"url":"https://maps.app.goo.gl/3FZQEKYHJjXKCNKcA?g_st=ipc","address":"Al. Svolou 16, Thessaloniki 546 22","categoryIds":["asian"],"categories":["Asian Restaurants"],"distanceKm":0.08699924934981494},{"id":"burgersRestaurants_9cd59af7183c","slug":"mpiftekadiko-kyr-giorgis-9cd5","kind":"restaurant","name":"Μπιφτεκάδικο Κυρ Γιώργης","lat":40.63182341170209,"lng":22.946558572416308,"url":"https://maps.app.goo.gl/us6tkdjDeYvzDx2u6?g_st=ipc","address":"Zefxidos 4, Thessaloniki 546 22","categoryIds":["burgers"],"categories":["Burger Spots"],"distanceKm":0.08852383607229328},{"id":"burgersRestaurants_6f8117fa6f13","slug":"brothers-in-law-6f81","kind":"restaurant","name":"Brothers in Law","lat":40.630770113023615,"lng":22.947666977943033,"url":"https://maps.app.goo.gl/oEwzze7SyKh5AJ3t9?g_st=ipc","address":"P. Mela 30, Thessaloniki 546 22","categoryIds":["burgers"],"categories":["Burger Spots"],"distanceKm":0.08950372931599214},{"id":"coffeeBrunchRestaurants_a1cebd140b7f","slug":"fluffy-brunch-a1ce","kind":"restaurant","name":"Fluffy Brunch","lat":40.630856001242115,"lng":22.948097521947723,"url":"https://maps.app.goo.gl/kPU1qrdrjXANCqMt7?g_st=ipc","address":"Pl. Navarinou 10, Thessaloniki 546 22","categoryIds":["coffee-brunch"],"categories":["Coffee & Brunch Spots"],"distanceKm":0.09176126685381769},{"id":"coffeeBrunchRestaurants_1b425a72f2b5","slug":"join-juice-bars-1b42","kind":"restaurant","name":"JOIN Juice bars","lat":40.63111893989398,"lng":22.94663938125253,"url":"https://maps.app.goo.gl/N6nKzENHvyunx5Mi6?g_st=ipc","address":"Paleon Patron Germanou 10, Thessaloniki 546 22","categoryIds":["coffee-brunch","vegetarian"],"categories":["Coffee & Brunch Spots","Vegetarian Friendly Restaurants"],"legacySlugs":["join-juice-bars-6dea"],"distanceKm":0.09201500959859049},{"id":"dessertsRestaurants_d0ca7ccef948","slug":"choureal-choux-profiterole-d0ca","kind":"restaurant","name":"Choureál | Choux & Profiterole","lat":40.63128497514692,"lng":22.94642870495605,"url":"https://maps.app.goo.gl/a3ZWXrDCAGuMcPwA6?g_st=ipc","address":"Paleon Patron Germanou 9, Thessaloniki 546 22","categoryIds":["desserts"],"categories":["Dessert Shops"],"distanceKm":0.10006025848701951},{"id":"burgersRestaurants_1d96aca1c01c","slug":"bulldogs-the-beast-1d96","kind":"restaurant","name":"Bulldogs & the Beast","lat":40.632462059908974,"lng":22.947729021811423,"url":"https://maps.app.goo.gl/wEhesXG82XpaGLNY6?g_st=ipc","address":"Al. Svolou 1, Thessaloniki 546 23","categoryIds":["burgers"],"categories":["Burger Spots"],"distanceKm":0.1002525506855202},{"id":"coffeeBrunchRestaurants_8c2176607636","slug":"donkey-garden-8c21","kind":"restaurant","name":"Donkey Garden","lat":40.63233978923016,"lng":22.94821185116991,"url":"https://maps.app.goo.gl/Kev7Tos1LbMdirKcA?g_st=ipc","address":"Skra 3, Thessaloniki 546 22","categoryIds":["coffee-brunch"],"categories":["Coffee & Brunch Spots"],"distanceKm":0.10202215831334259}],"sameRegion":[],"mentionedGuides":[],"canonicalSlug":"signora-trattoria-cb2a","isCanonicalEntity":true,"enrichment":{"summary_en":"Signora Trattoria is a curated restaurant in Thessaloniki 546 22 in the Italian Restaurants collection. It is connected to 172 nearby Googlementor picks to help travelers build a stronger local route.","summary_el":"Signora Trattoria είναι ένα επιλεγμένο σημείο φαγητού στην περιοχή Thessaloniki 546 22 και ανήκει στη συλλογή Italian Restaurants. Συνδέεται με 172 κοντινές προτάσεις του Googlementor για πιο ολοκληρωμένη εμπειρία.","vibe_tags":["curated"],"best_for":["first-time visitors","food lovers"],"visit_moments":["lunch stop","dinner stop"],"practical_note":"Address and direct map link are available for easy turn-by-turn access.","nearby_walkable_count":172,"nearby_count_2km":266,"confidence":0.98},"areaContext":{"slug":"ladadika","name":"Ladadika"},"intentContexts":[{"href":"/italian/ladadika","label":"Italian Restaurants in Ladadika","categorySlug":"italian","categoryName":"Italian Restaurants","areaSlug":"ladadika","areaName":"Ladadika"}]},"__N_SSG":true}