{"pageProps":{"entity":{"id":"greekRestaurants_35d8717196c2","slug":"taverna-oyzeri-plateia-35d8","kind":"restaurant","name":"Ταβέρνα Ουζερί Πλατεία","lat":40.689496085376405,"lng":22.856919434456977,"url":"https://maps.app.goo.gl/DEtWfVmzXSzTpbjD9?g_st=ipc","address":"Ρήγα Φεραίου 1, Δέλτα 570 08","categoryIds":["greek-restaurants"],"categories":["Greek Restaurants"]},"sameCategory":[{"id":"greekRestaurants_b101b37c957d","slug":"ladokolla-apo-to-kordelio-sto-charmankioi-b101","kind":"restaurant","name":"Λαδόκολλα - Από το Κορδελιό στο Χαρμάνκιοϊ","lat":40.66651626452892,"lng":22.8973438821838,"url":"https://maps.app.goo.gl/CWnRci4QKtgu8y7y6?g_st=ipc","address":"Μεγ. Αλεξάνδρου 31, Ελευθέριο Κορδελιό 563 34","categoryIds":["greek-restaurants"],"categories":["Greek Restaurants"]},{"id":"greekRestaurants_1519d05a3bce","slug":"mantemi-casual-dining-1519","kind":"restaurant","name":"ΜΑΝΤΕΜΙ | Casual Dining","lat":40.67409229961713,"lng":22.905893700060766,"url":"https://maps.app.goo.gl/A7GLofJnsBowRAkj8?g_st=ipc","address":"Meandrou 79, Evosmos 562 24","categoryIds":["greek-restaurants"],"categories":["Greek Restaurants"]},{"id":"greekRestaurants_726e02b8b685","slug":"anama-726e","kind":"restaurant","name":"Anama","lat":40.67309178488354,"lng":22.90614317972579,"url":"https://maps.app.goo.gl/Bt17EdhYtg5pRDnb8?g_st=ipc","address":"Κολοκοτρώνη 10, Εύοσμος 562 24","categoryIds":["greek-restaurants"],"categories":["Greek Restaurants"]},{"id":"greekRestaurants_489dcbab3d02","slug":"troyfa-mezedopoleio-489d","kind":"restaurant","name":"Τρούφα Μεζεδοπωλείο","lat":40.673704664191845,"lng":22.915531200227242,"url":"https://maps.app.goo.gl/NQbg2QuYmJZjW8Ha6?g_st=ipc","address":"Olimpiados 101, Evosmos 562 24","categoryIds":["greek-restaurants"],"categories":["Greek Restaurants"]},{"id":"greekRestaurants_7f8b3d2ad28e","slug":"backxes-7f8b","kind":"restaurant","name":"Backξες","lat":40.66851175512014,"lng":22.912875049998018,"url":"https://maps.app.goo.gl/4QcvwjevNtMp66VDA?g_st=ipc","address":"Καρατασου, Τσάμη - Καρατάσου 7, Θεσσαλονίκη 562 24","categoryIds":["greek-restaurants"],"categories":["Greek Restaurants"]},{"id":"greekRestaurants_91be864c5607","slug":"to-traino-91be","kind":"restaurant","name":"Το Τραίνο","lat":40.67703057575148,"lng":22.918208800232915,"url":"https://maps.app.goo.gl/vzgBa3uY1wT8n7z49?g_st=ipc","address":"Eth. Antistaseos 102, Evosmos 562 24","categoryIds":["greek-restaurants"],"categories":["Greek Restaurants"]},{"id":"greekRestaurants_335a73f8c28f","slug":"to-dilavo-335a","kind":"restaurant","name":"Το Δίλαβο","lat":40.67696648177201,"lng":22.91974503350985,"url":"https://maps.app.goo.gl/WbYog3HDi7k69z6Y6?g_st=ipc","address":"Αντώνη Τρίτση 98, Εύοσμος 562 24","categoryIds":["greek-restaurants"],"categories":["Greek Restaurants"]},{"id":"greekRestaurants_b650f3fa3a9f","slug":"xrysikos-restaurant-b650","kind":"restaurant","name":"Xrysikos Restaurant","lat":40.724131299619074,"lng":22.908510129508898,"url":"https://maps.app.goo.gl/aewn1jT9fs3LU3he8?g_st=ipc","address":"Agias Paraskevis 9, Paleokastro 570 13","categoryIds":["greek-restaurants"],"categories":["Greek Restaurants"]},{"id":"greekRestaurants_25aab707dbe6","slug":"taverna-charisis-25aa","kind":"restaurant","name":"Ταβέρνα Χαρίσης","lat":40.74300735227225,"lng":22.865911910966187,"url":"https://maps.app.goo.gl/Kjqd8y15rnvwbGch8?g_st=ipc","address":"Έναντι Γυμνασίου Νεοχωρούδας, Νεοχωρούδα 545 00","categoryIds":["greek-restaurants"],"categories":["Greek Restaurants"]},{"id":"greekRestaurants_a8a1bbc57cf3","slug":"mezedopoleio-sto-dentro-a8a1","kind":"restaurant","name":"Μεζεδοπωλείο στο δέντρο","lat":40.673779680558496,"lng":22.92834851143696,"url":"https://maps.app.goo.gl/94LTg5t1pACd8qHWA?g_st=ipc","address":"Στρ. Μακρυγιάννη 39, Σταυρούπολη 564 31","categoryIds":["greek-restaurants"],"categories":["Greek Restaurants"]},{"id":"greekRestaurants_a2bd75aa1df9","slug":"faidimos-a2bd","kind":"restaurant","name":"Φαίδιμος","lat":40.72205390492354,"lng":22.92535107333131,"url":"https://maps.app.goo.gl/zYo3CVk2Wm5dkqA19?g_st=ipc","address":"Κονταξοπούλου, & Θεσσαλονίκης 98, Ωραιόκαστρο 570 13","categoryIds":["greek-restaurants"],"categories":["Greek Restaurants"]},{"id":"greekRestaurants_35929975107f","slug":"tandur-meze-bar-3592","kind":"restaurant","name":"Tandur meze-bar","lat":40.65350641836204,"lng":22.93893939189117,"url":"https://maps.app.goo.gl/i8gDRLqa1MtexdZ17?g_st=ipc","address":"Αγίου Γεωργίου 42, Νεάπολη 567 27","categoryIds":["greek-restaurants"],"categories":["Greek Restaurants"]}],"nearby":[{"id":"municipalities_5a61c4b30038","slug":"kordelio-eyosmos-5a61","kind":"municipality","name":"Κορδελιό - Ευόσμος","lat":40.6708,"lng":22.8819,"region":"Δυτική Θεσσαλονίκη","name_en":"Kordelio - Evosmos","region_en":"West Thessaloniki","distanceKm":2.9596005330353106},{"id":"municipalities_fd387f77da75","slug":"eleytherio-kordelio-fd38","kind":"municipality","name":"Ελευθέριο - Κορδελιό","lat":40.6717,"lng":22.8936,"region":"Δυτική Θεσσαλονίκη","name_en":"Eleftherio - Kordelio","region_en":"West Thessaloniki","distanceKm":3.67192559209524},{"id":"italianRestaurants_78702cadc159","slug":"pizzicato-osteria-7870","kind":"restaurant","name":"Pizzicato Osteria","lat":40.669954093386394,"lng":22.89587107388144,"url":"https://maps.app.goo.gl/FjcCcP1uvC3Gxrju5?g_st=ipc","address":"Eth. Antistaseos 79, Eleftherio Kordelio 563 34","categoryIds":["italian"],"categories":["Italian Restaurants"],"distanceKm":3.9383653151137223},{"id":"greekRestaurants_b101b37c957d","slug":"ladokolla-apo-to-kordelio-sto-charmankioi-b101","kind":"restaurant","name":"Λαδόκολλα - Από το Κορδελιό στο Χαρμάνκιοϊ","lat":40.66651626452892,"lng":22.8973438821838,"url":"https://maps.app.goo.gl/CWnRci4QKtgu8y7y6?g_st=ipc","address":"Μεγ. Αλεξάνδρου 31, Ελευθέριο Κορδελιό 563 34","categoryIds":["greek-restaurants"],"categories":["Greek Restaurants"],"distanceKm":4.260290843646095},{"id":"cheapEatsRestaurants_260862299166","slug":"dia-cheiros-aretoy-2608","kind":"restaurant","name":"Δια Χειρός Αρέτου","lat":40.66705307967295,"lng":22.898083719400002,"url":"https://maps.app.goo.gl/Ce9N11e1dVKsZ2t17?g_st=ipc","address":"Kon/nou Karamanli 37, Eleftherio Kordelio 563 34","categoryIds":["cheap-eats"],"categories":["Gyros & Cheap Eats"],"distanceKm":4.275248389799805},{"id":"greekRestaurants_1519d05a3bce","slug":"mantemi-casual-dining-1519","kind":"restaurant","name":"ΜΑΝΤΕΜΙ | Casual Dining","lat":40.67409229961713,"lng":22.905893700060766,"url":"https://maps.app.goo.gl/A7GLofJnsBowRAkj8?g_st=ipc","address":"Meandrou 79, Evosmos 562 24","categoryIds":["greek-restaurants"],"categories":["Greek Restaurants"],"distanceKm":4.470807822349067},{"id":"greekRestaurants_726e02b8b685","slug":"anama-726e","kind":"restaurant","name":"Anama","lat":40.67309178488354,"lng":22.90614317972579,"url":"https://maps.app.goo.gl/Bt17EdhYtg5pRDnb8?g_st=ipc","address":"Κολοκοτρώνη 10, Εύοσμος 562 24","categoryIds":["greek-restaurants"],"categories":["Greek Restaurants"],"distanceKm":4.5338796152799885},{"id":"wineriesVineyards_2ab2ad540f09","slug":"kechris-winery-2ab2","kind":"restaurant","name":"KECHRIS Winery","lat":40.64762484465721,"lng":22.85152020450362,"url":"https://maps.app.goo.gl/sv2SwXYfdv3Hc5ob9?g_st=ipc","address":"Olimpou, Delta 570 09","categoryIds":["wineries-vineyards"],"categories":["Wineries & Vineyards"],"distanceKm":4.678085745332453},{"id":"coffeeBrunchRestaurants_6fcd59193f91","slug":"zeo-artopoiia-zeo-bakers-6fcd","kind":"restaurant","name":"ΖΕΩ ΑΡΤΟΠΟΙΙΑ-ZEO BAKERS","lat":40.69174182669169,"lng":22.913440204115485,"url":"https://maps.app.goo.gl/8h5SFGtMUr8hFemr9?g_st=ipc","address":"Ilioupoleos 2, Oreokastro 570 13","categoryIds":["coffee-brunch"],"categories":["Coffee & Brunch Spots"],"distanceKm":4.771949106380277},{"id":"cheapEatsRestaurants_f921d077e63d","slug":"psitopoleio-nikos-f921","kind":"restaurant","name":"Ψητοπωλείο \"ΝΙΚΟΣ\"","lat":40.66963563529277,"lng":22.908013940571315,"url":"https://maps.app.goo.gl/LAQoYu8du3ZFbwSR7?g_st=ipc","address":"Meg. Alexandrou 56, Evosmos 562 24","categoryIds":["cheap-eats"],"categories":["Gyros & Cheap Eats"],"distanceKm":4.841609358449217},{"id":"fishTavernasRestaurants_15430c4d106f","slug":"to-nydri-estiatorio-thalassinon-1543","kind":"restaurant","name":"Το Νυδρί - Εστιατόριο θαλασσινών","lat":40.67126625480558,"lng":22.91091682845982,"url":"https://maps.app.goo.gl/Gtf6Gmdcb6wNtEXw5?g_st=ipc","address":"Achilleos 34, Θεσσαλονίκη 562 24","categoryIds":["fish-tavernas"],"categories":["Fish Tavernas"],"distanceKm":4.984180950733668},{"id":"italianRestaurants_5c52a29bf906","slug":"raffaele-pizza-pasta-5c52","kind":"restaurant","name":"Raffaele Pizza & Pasta","lat":40.66835766189394,"lng":22.909237229764354,"url":"https://maps.app.goo.gl/aQ6nFJz5CrVrnaNv6","address":"P. Mela 8, Evosmos 562 24","categoryIds":["italian"],"categories":["Italian Restaurants"],"distanceKm":4.998894652668811},{"id":"familyFriendly_d1a47ca0dedf","slug":"freedom-interactive-playzone-d1a4","kind":"restaurant","name":"Freedom Interactive Playzone","lat":40.70867369830318,"lng":22.911054983573504,"url":"https://maps.app.goo.gl/GummsjTvyttusdP46?g_st=ipc","address":"Μακεδονικού Αγώνα, Zappa &, Oreokastro 570 13","categoryIds":["family-friendly"],"categories":["Kid Friendly Locations"],"distanceKm":5.037356372567207},{"id":"burgersRestaurants_d1dcd32d4d8e","slug":"stivos-burger-steak-d1dc","kind":"restaurant","name":"STIVOS BURGER & STEAK","lat":40.669593987579994,"lng":22.91138406394072,"url":"https://maps.app.goo.gl/7TUUVwTEcxqLX9347?g_st=ipc","address":"Ευαγγελισμού της Θεοτόκου 43, Evosmos 562 24","categoryIds":["burgers","cheap-eats"],"categories":["Burger Spots","Gyros & Cheap Eats"],"legacySlugs":["stivos-burger-steak-c884"],"distanceKm":5.098173874628221},{"id":"coffeeBrunchRestaurants_5f036d7db680","slug":"model-urban-style-bar-5f03","kind":"restaurant","name":"Model Urban Style Bar","lat":40.66742278574293,"lng":22.91124275092617,"url":"https://maps.app.goo.gl/kRz7a3AxwDHMinRU6?g_st=ipc","address":"P. Mela 26, Evosmos 562 24","categoryIds":["coffee-brunch"],"categories":["Coffee & Brunch Spots"],"distanceKm":5.197075059684606},{"id":"burgersRestaurants_e6cca423021b","slug":"rookie-skg-e6cc","kind":"restaurant","name":"Rookie.skg","lat":40.66725084444489,"lng":22.911546340289146,"url":"https://maps.app.goo.gl/UbXbrxK1VEFkvDdp7?g_st=ipc","address":"P. Mela 28, Evosmos 562 24","categoryIds":["burgers","cheap-eats"],"categories":["Burger Spots","Gyros & Cheap Eats"],"legacySlugs":["rookie-skg-91f7"],"distanceKm":5.228677968021667},{"id":"burgersRestaurants_8809fdd68e04","slug":"jokerman-8809","kind":"restaurant","name":"JOKERMAN","lat":40.668414646990946,"lng":22.912364509174097,"url":"https://maps.app.goo.gl/Mz4wckU7VyfPoiNe7?g_st=ipc","address":"Meg. Alexandrou 87, Evosmos 562 24","categoryIds":["burgers"],"categories":["Burger Spots"],"distanceKm":5.230263462295521},{"id":"greekRestaurants_489dcbab3d02","slug":"troyfa-mezedopoleio-489d","kind":"restaurant","name":"Τρούφα Μεζεδοπωλείο","lat":40.673704664191845,"lng":22.915531200227242,"url":"https://maps.app.goo.gl/NQbg2QuYmJZjW8Ha6?g_st=ipc","address":"Olimpiados 101, Evosmos 562 24","categoryIds":["greek-restaurants"],"categories":["Greek Restaurants"],"distanceKm":5.245032353499813},{"id":"greekRestaurants_7f8b3d2ad28e","slug":"backxes-7f8b","kind":"restaurant","name":"Backξες","lat":40.66851175512014,"lng":22.912875049998018,"url":"https://maps.app.goo.gl/4QcvwjevNtMp66VDA?g_st=ipc","address":"Καρατασου, Τσάμη - Καρατάσου 7, Θεσσαλονίκη 562 24","categoryIds":["greek-restaurants"],"categories":["Greek Restaurants"],"distanceKm":5.2639867853089735},{"id":"cheapEatsRestaurants_9aa1dc025a0d","slug":"psitopoleia-eyosmos-ano-kato-9aa1","kind":"restaurant","name":"ΨΗΤΟΠΩΛΕΙΑ ΕΥΟΣΜΟΣ- ΑΝΩ ΚΑΤΩ","lat":40.66706897454817,"lng":22.912010033587894,"url":"https://maps.app.goo.gl/Keom9mTvrZ5H3Nat7?g_st=ipc","address":"Tzavella 2, Evosmos 562 24","categoryIds":["cheap-eats"],"categories":["Gyros & Cheap Eats"],"distanceKm":5.272700632459324},{"id":"cheapEatsRestaurants_da038af38ca1","slug":"devido-da03","kind":"restaurant","name":"Devido","lat":40.66696798830783,"lng":22.91206522121093,"url":"https://maps.app.goo.gl/ghxqsvRTJj4mWN988?g_st=ipc","address":"Karaoli ke Dimitriou 89, Evosmos 562 24","categoryIds":["cheap-eats"],"categories":["Gyros & Cheap Eats"],"distanceKm":5.28212073496548},{"id":"cheapEatsRestaurants_547f03a545e5","slug":"crats-fried-chicken-eyosmoy-547f","kind":"restaurant","name":"Crats Fried Chicken Ευόσμου","lat":40.66578126903803,"lng":22.911725635585793,"url":"https://maps.app.goo.gl/BYpMVurWN1yMNmFh8?g_st=ipc","address":"Aristotélous 67, Evosmos 562 24","categoryIds":["cheap-eats"],"categories":["Gyros & Cheap Eats"],"distanceKm":5.3211069967334925},{"id":"greekRestaurants_91be864c5607","slug":"to-traino-91be","kind":"restaurant","name":"Το Τραίνο","lat":40.67703057575148,"lng":22.918208800232915,"url":"https://maps.app.goo.gl/vzgBa3uY1wT8n7z49?g_st=ipc","address":"Eth. Antistaseos 102, Evosmos 562 24","categoryIds":["greek-restaurants"],"categories":["Greek Restaurants"],"distanceKm":5.350686870226312},{"id":"burgersRestaurants_535690910e30","slug":"broz-skg-burger-house-5356","kind":"restaurant","name":"Broz.Skg burger house","lat":40.664244931546285,"lng":22.911627282487927,"url":"https://maps.app.goo.gl/ka8qRW51kJox7mce6?g_st=ipc","address":"Aristotélous 39, Evosmos 562 24","categoryIds":["burgers"],"categories":["Burger Spots"],"distanceKm":5.400760935112119}],"sameRegion":[],"mentionedGuides":[],"canonicalSlug":"taverna-oyzeri-plateia-35d8","isCanonicalEntity":true,"enrichment":{"summary_en":"Ταβέρνα Ουζερί Πλατεία is a curated restaurant in Δέλτα 570 08 in the Greek Restaurants collection. It is connected to 0 nearby Googlementor picks to help travelers build a stronger local route.","summary_el":"Ταβέρνα Ουζερί Πλατεία είναι ένα επιλεγμένο σημείο φαγητού στην περιοχή Δέλτα 570 08 και ανήκει στη συλλογή Greek Restaurants. Συνδέεται με 0 κοντινές προτάσεις του Googlementor για πιο ολοκληρωμένη εμπειρία.","vibe_tags":["curated"],"best_for":["first-time visitors","food lovers"],"visit_moments":["lunch stop","dinner stop"],"practical_note":"Address and direct map link are available for easy turn-by-turn access.","nearby_walkable_count":0,"nearby_count_2km":0,"confidence":0.9},"areaContext":{"slug":"kordelio-eyosmos","name":"Kordelio - Evosmos"},"intentContexts":[{"href":"/greek-restaurants/kordelio-eyosmos","label":"Greek Restaurants in Kordelio - Evosmos","categorySlug":"greek-restaurants","categoryName":"Greek Restaurants","areaSlug":"kordelio-eyosmos","areaName":"Kordelio - Evosmos"}]},"__N_SSG":true}