{"pageProps":{"entity":{"id":"luxuryDiningRestaurants_2a500f95083c","slug":"the-zillers-rooftop-gastronomy-2a50","kind":"restaurant","name":"The Zillers Rooftop Gastronomy","lat":37.97561073825588,"lng":23.729618727455946,"url":"https://maps.app.goo.gl/3rX2B6EznK5THCsX9?g_st=ipc","address":"Μητροπόλεως 54, Αθήνα 105 63","categoryIds":["luxury-dining","rooftop-lounges"],"categories":["Luxury Dining","Rooftop Lounges"],"legacySlugs":["the-zillers-rooftop-gastronomy-deda"]},"sameCategory":[{"id":"luxuryDiningRestaurants_83e86c45f94e","slug":"dolli-s-83e8","kind":"restaurant","name":"DOLLI•S","lat":37.97581257538226,"lng":23.728126338151636,"url":"https://maps.app.goo.gl/otc3c7Va7CjPm1DW6?g_st=ipc","address":"Μητροπόλεως 49, Αθήνα 105 56","categoryIds":["luxury-dining","rooftop-lounges"],"categories":["Luxury Dining","Rooftop Lounges"],"legacySlugs":["dolli-s-6749"]},{"id":"luxuryDiningRestaurants_45e8a4dd5c78","slug":"metropolis-roof-garden-45e8","kind":"restaurant","name":"Metropolis Roof Garden","lat":37.97522262578899,"lng":23.732019777211896,"url":"https://maps.app.goo.gl/zUugGUWG4UDszZX58?g_st=ipc","address":"Μητροπόλεως 15, Αθήνα 105 57","categoryIds":["luxury-dining","rooftop-lounges"],"categories":["Luxury Dining","Rooftop Lounges"],"legacySlugs":["metropolis-roof-garden-f3d7"]},{"id":"luxuryDiningRestaurants_1ec414f34680","slug":"okra-1ec4","kind":"restaurant","name":"Okra","lat":37.976265060511366,"lng":23.727023267502062,"url":"https://maps.app.goo.gl/WKQy9EmSUhqhWCug7?g_st=ipc","address":"Μητροπόλεως 82, Αθήνα 105 55","categoryIds":["luxury-dining","rooftop-lounges"],"categories":["Luxury Dining","Rooftop Lounges"],"legacySlugs":["okra-912c"]},{"id":"luxuryDiningRestaurants_d7864d62c4d5","slug":"electra-roof-garden-d786","kind":"restaurant","name":"Electra Roof Garden","lat":37.97379853875271,"lng":23.731619747681133,"url":"https://maps.app.goo.gl/DRSR8qGkR5GU1Bts9?g_st=ipc","address":"Ναυάρχου Νικοδήμου 18-20, Αθήνα 105 57","categoryIds":["luxury-dining","rooftop-lounges"],"categories":["Luxury Dining","Rooftop Lounges"],"legacySlugs":["electra-roof-garden-e530"]},{"id":"luxuryDiningRestaurants_ea67b94ccce5","slug":"art-lounge-rooftop-ea67","kind":"restaurant","name":"Art Lounge Rooftop","lat":37.97343240978713,"lng":23.73349750420062,"url":"https://maps.app.goo.gl/ou4XFAAMpTQ3uTaeA?g_st=ipc","address":"Ναυάρχου Νικοδήμου 1, Αθήνα 105 57","categoryIds":["luxury-dining","rooftop-lounges"],"categories":["Luxury Dining","Rooftop Lounges"],"legacySlugs":["art-lounge-rooftop-f22b"]},{"id":"luxuryDiningRestaurants_625d4bb407a4","slug":"tudor-hall-625d","kind":"restaurant","name":"Tudor Hall","lat":37.97626476939356,"lng":23.73492119381686,"url":"https://maps.app.goo.gl/cS5CQSpmozciczpaA?g_st=ipc","address":"Γεωρ. Α' 3, Αθήνα 105 64","categoryIds":["luxury-dining","rooftop-lounges"],"categories":["Luxury Dining","Rooftop Lounges"],"legacySlugs":["tudor-hall-611d"]},{"id":"luxuryDiningRestaurants_1c82eb719373","slug":"mappemonde-restaurant-bar-lounge-1c82","kind":"restaurant","name":"MAPPEMONDE RESTAURANT BAR-LOUNGE","lat":37.97696364697298,"lng":23.73616989138591,"url":"https://maps.app.goo.gl/WYq3Lbdn3q9HxutG9?g_st=ipc","address":"4 Eleftheriou Venizelou Avenue and, Κριεζώτου 2, Αθήνα 106 71","categoryIds":["luxury-dining","rooftop-lounges"],"categories":["Luxury Dining","Rooftop Lounges"],"legacySlugs":["mappemonde-restaurant-bar-lounge-a1dc"]},{"id":"luxuryDiningRestaurants_6d0eec69a8bb","slug":"sense-modern-greek-cuisine-6d0e","kind":"restaurant","name":"SENSE Modern Greek Cuisine","lat":37.96950501164825,"lng":23.730857786980206,"url":"https://maps.app.goo.gl/BrJr73pSejAaUrbq6?g_st=ipc","address":"Διονυσίου Αρεοπαγίτου 5, Αθήνα 117 42","categoryIds":["luxury-dining","rooftop-lounges"],"categories":["Luxury Dining","Rooftop Lounges"],"legacySlugs":["sense-modern-greek-cuisine-ffb0"]},{"id":"asianRestaurants_e45a00190680","slug":"nyx-japanese-rooftop-gastrobar-e45a","kind":"restaurant","name":"NYX Japanese Rooftop Gastrobar","lat":37.979692107976724,"lng":23.736124325689694,"url":"https://maps.app.goo.gl/Tg5ncVYwYwG98YZBA?g_st=ipc","address":"Ομήρου 19, Αθήνα 106 19","categoryIds":["asian","luxury-dining","rooftop-lounges"],"categories":["Asian Restaurants","Luxury Dining","Rooftop Lounges"],"legacySlugs":["nyx-japanese-rooftop-gastrobar-3e6e","nyx-japanese-rooftop-gastrobar-f14e"]},{"id":"luxuryDiningRestaurants_8f9976dae124","slug":"point-a-acropolis-point-8f99","kind":"restaurant","name":"POINT A (Acropolis Point)","lat":37.968415622994755,"lng":23.72706617377212,"url":"https://maps.app.goo.gl/NiwbpnxKE4g22Tzw6?g_st=ipc","address":"Ροβέρτου Γκάλι 4a, Αθήνα 117 42","categoryIds":["luxury-dining","rooftop-lounges"],"categories":["Luxury Dining","Rooftop Lounges"],"legacySlugs":["point-a-acropolis-point-fcea"]},{"id":"luxuryDiningRestaurants_d4cce740d47c","slug":"rooftop-terrace-on-top-of-st-george-hotel-d4cc","kind":"restaurant","name":"Rooftop Terrace on top of St. George Hotel","lat":37.97925289319014,"lng":23.74214536289671,"url":"https://maps.app.goo.gl/NWNaSroxE1Lncry6A?g_st=ipc","address":"Αθήνα 106 75","categoryIds":["luxury-dining","rooftop-lounges"],"categories":["Luxury Dining","Rooftop Lounges"],"legacySlugs":["rooftop-terrace-on-top-of-st-george-hotel-9716"]},{"id":"luxuryDiningRestaurants_44502c11c3d7","slug":"orizontes-lycabettus-4450","kind":"restaurant","name":"Orizontes Lycabettus","lat":37.98180885773441,"lng":23.743545726263044,"url":"https://maps.app.goo.gl/aRWFTJLNa9obfB379?g_st=ipc","address":"Αριστίππου 1, Αθήνα 106 76","categoryIds":["luxury-dining","rooftop-lounges"],"categories":["Luxury Dining","Rooftop Lounges"],"legacySlugs":["orizontes-lycabettus-8840"]}],"nearby":[{"id":"monasteriesChurches_37c0d5b10bef","slug":"ieros-mitropolitikos-naos-eyaggelismoy-tis-theotokoy-37c0","kind":"restaurant","name":"Ιερός Μητροπολιτικός Ναός Ευαγγελισμού της Θεοτόκου","lat":37.975376487881356,"lng":23.72984816695813,"url":"https://maps.app.goo.gl/MUAqskRD72AoRTQJA?g_st=ipc","address":"E056 105, Αθήνα 118 54","categoryIds":["monasteries-churches"],"categories":["Monasteries & Spiritual Sites"],"distanceKm":0.03290768915187528},{"id":"rooftopLoungesRestaurants_dccec8a54ab2","slug":"taratsa-athens-dcce","kind":"restaurant","name":"Taratsa Athens","lat":37.97577225088555,"lng":23.729185158634564,"url":"https://maps.app.goo.gl/jwnF2SS5G6PYqRPf9?g_st=ipc","address":"Μητροπόλεως 60, Αθήνα 105 63","categoryIds":["rooftop-lounges"],"categories":["Rooftop Lounges"],"distanceKm":0.04203302646939064},{"id":"coffeeBrunchRestaurants_52c7c7c59252","slug":"ciel-athens-52c7","kind":"restaurant","name":"Ciel Athens","lat":37.975701684177345,"lng":23.72877509005901,"url":"https://maps.app.goo.gl/U1toAvoUiB34xk528?g_st=ipc","address":"ΜΝΗΣΙΚΛΕΟΥΣ, Μητροπόλεως 2, Αθήνα 105 56","categoryIds":["coffee-brunch","luxury-dining"],"categories":["Coffee & Brunch Spots","Luxury Dining"],"legacySlugs":["ciel-athens-4c25"],"distanceKm":0.0746346932124484},{"id":"burgersRestaurants_72777d81b2c1","slug":"cadillac-burgers-7277","kind":"restaurant","name":"Cadillac Burgers","lat":37.97549144814891,"lng":23.728731411277973,"url":"https://maps.app.goo.gl/tbzr2ePrf29seJBFA?g_st=ipc","address":"Μνησικλέους 6, Αθήνα 105 56","categoryIds":["burgers"],"categories":["Burger Spots"],"distanceKm":0.07889805150282929},{"id":"coffeeBrunchRestaurants_d761c46075d4","slug":"le-petit-village-d761","kind":"restaurant","name":"Le Petit Village","lat":37.97573184070448,"lng":23.730557151684366,"url":"https://maps.app.goo.gl/yQDokn8qrofNRvbN9?g_st=ipc","address":"Φωκίωνος 2, Αθήνα 105 63","categoryIds":["coffee-brunch"],"categories":["Coffee & Brunch Spots"],"distanceKm":0.08334960318017744},{"id":"cheapEatsRestaurants_fb9d26e8cad9","slug":"meat-the-greek-fb9d","kind":"restaurant","name":"Meat the Greek","lat":37.97583452449836,"lng":23.730527268129777,"url":"https://maps.app.goo.gl/4GCcGcuQpLTaTXZf8?g_st=ipc","address":"Φωκίωνος 2-4, Αθήνα 105 63","categoryIds":["cheap-eats"],"categories":["Gyros & Cheap Eats"],"distanceKm":0.08343246944760323},{"id":"rooftopLoungesRestaurants_62315092aa2e","slug":"theathine-6231","kind":"restaurant","name":"Theathine","lat":37.976366087632414,"lng":23.72946341912717,"url":"https://maps.app.goo.gl/5zX4VEAQCzogaiPF9?g_st=ipc","address":"Ερμού 46, Αθήνα 105 63","categoryIds":["rooftop-lounges"],"categories":["Rooftop Lounges"],"distanceKm":0.08508704420969017},{"id":"gyrosSouvlakiRestaurants_514910b62a38","slug":"souvlaki-monastiraki-5149","kind":"restaurant","name":"Souvlaki Monastiraki","lat":37.975,"lng":23.729,"url":"https://maps.app.goo.gl/sample29","address":"Mitropoleos 2, Athina 105 63","categoryIds":["cheap-eats"],"categories":["Gyros & Cheap Eats"],"distanceKm":0.08690862322667234},{"id":"cheapEatsRestaurants_3392ef0104b3","slug":"focacceria-napul-e-3392","kind":"restaurant","name":"Focacceria Napul’e","lat":37.97562561163699,"lng":23.730612422068372,"url":"https://maps.app.goo.gl/1Z8wuAKBZ1px7oFG6?g_st=ipc","address":"Πετράκη 30, Αθήνα 105 63","categoryIds":["cheap-eats"],"categories":["Gyros & Cheap Eats"],"distanceKm":0.08711494290657763},{"id":"coffeeBrunchRestaurants_af73cfd62392","slug":"the-zillers-pastry-bar-af73","kind":"restaurant","name":"The Zillers Pastry Bar","lat":37.97475815330705,"lng":23.729657937121086,"url":"https://maps.app.goo.gl/F16LXUX65PanPNx76?g_st=ipc","address":"Παλαιολόγου Μπενιζέλου 6, Αθήνα 105 56","categoryIds":["coffee-brunch"],"categories":["Coffee & Brunch Spots"],"distanceKm":0.09486539660361124},{"id":"greekRestaurants_9a0e0e6e3a9d","slug":"feedel-urban-gastronomy-9a0e","kind":"restaurant","name":"Feedέλ Urban Gastronomy","lat":37.976600766846424,"lng":23.729911306320325,"url":"https://maps.app.goo.gl/Uppwoqd1GbSaLvCe7","address":"Κτενά 1, Αθήνα 105 63","categoryIds":["greek-restaurants","luxury-dining"],"categories":["Greek Restaurants","Luxury Dining"],"legacySlugs":["feedel-urban-gastronomy-858d"],"distanceKm":0.11303373062822081},{"id":"coffeeBrunchRestaurants_86c49b223ca7","slug":"gaya-athens-86c4","kind":"restaurant","name":"GAYA Athens","lat":37.97655155960143,"lng":23.729000167842386,"url":"https://maps.app.goo.gl/wY2FhMBr8ApzzSLw5?g_st=ipc","address":"Καλαμιώτου 2, Αθήνα 105 63","categoryIds":["coffee-brunch"],"categories":["Coffee & Brunch Spots"],"distanceKm":0.11782934310629634},{"id":"monasteriesChurches_33b82b7e9f7b","slug":"ieros-panepistimiakos-naos-eisodion-tis-theotokoy-kapnikarea-33b8","kind":"restaurant","name":"Ιερός Πανεπιστημιακός Ναός Εισοδίων της Θεοτόκου (Καπνικαρέα)","lat":37.97637980025147,"lng":23.72861650689245,"url":"https://maps.app.goo.gl/7LkLpxAa7L7V3fr8A?g_st=ipc","address":"Πλ. Καπνικαρέας 3, Αθήνα 105 63","categoryIds":["monasteries-churches"],"categories":["Monasteries & Spiritual Sites"],"distanceKm":0.12259644893516994},{"id":"vegetarianRestaurants_7a48cadc1cba","slug":"sugar-killer-7a48","kind":"restaurant","name":"Sugar Killer","lat":37.976654957150416,"lng":23.730157941231223,"url":"https://maps.app.goo.gl/326sYhMHWCiSjUJW9?g_st=ipc","address":"Περικλέους 33, Αθήνα 105 63","categoryIds":["vegetarian"],"categories":["Vegetarian Friendly Restaurants"],"distanceKm":0.12536240152401068},{"id":"vegetarianRestaurants_b74f212f3c6f","slug":"vegan-beat-athens-b74f","kind":"restaurant","name":"Vegan Beat Athens","lat":37.976741727063335,"lng":23.729824452963804,"url":"https://maps.app.goo.gl/2r2EDKFSvkng4GkF9?g_st=ipc","address":"Περικλέους 56, Αθήνα 105 60","categoryIds":["vegetarian"],"categories":["Vegetarian Friendly Restaurants"],"distanceKm":0.12704640450526233},{"id":"vegetarianRestaurants_1564131c7925","slug":"vietnam-street-food-1564","kind":"restaurant","name":"VIETNAM STREET FOOD","lat":37.97675287050778,"lng":23.729819366572254,"url":"https://maps.app.goo.gl/WYdqmMy3mDqLNW7e8?g_st=ipc","address":"Περικλέους 56, Αθήνα 105 60","categoryIds":["vegetarian"],"categories":["Vegetarian Friendly Restaurants"],"distanceKm":0.1282111621599311},{"id":"vegetarianRestaurants_dd280fa872e6","slug":"not-just-falafel-vegeterian-food-athens-vegan-friendly-dd28","kind":"restaurant","name":"Not Just Falafel | Vegeterian food Athens | Vegan Friendly","lat":37.97672606756175,"lng":23.730150682547393,"url":"https://maps.app.goo.gl/rugWqM8JRvoZaHPm9?g_st=ipc","address":"Ρόμβης 16, Αθήνα 105 62","categoryIds":["vegetarian"],"categories":["Vegetarian Friendly Restaurants"],"distanceKm":0.132494288357537},{"id":"luxuryDiningRestaurants_83e86c45f94e","slug":"dolli-s-83e8","kind":"restaurant","name":"DOLLI•S","lat":37.97581257538226,"lng":23.728126338151636,"url":"https://maps.app.goo.gl/otc3c7Va7CjPm1DW6?g_st=ipc","address":"Μητροπόλεως 49, Αθήνα 105 56","categoryIds":["luxury-dining","rooftop-lounges"],"categories":["Luxury Dining","Rooftop Lounges"],"legacySlugs":["dolli-s-6749"],"distanceKm":0.13272196335393524},{"id":"fishTavernasRestaurants_96126d9ba88c","slug":"zisis-9612","kind":"restaurant","name":"Ζήσης","lat":37.97677236195616,"lng":23.729130321852065,"url":"https://maps.app.goo.gl/B6NXu9TchhZNtX1m9?g_st=ipc","address":"Αθηναΐδος 3, Αθήνα 105 63","categoryIds":["fish-tavernas"],"categories":["Fish Tavernas"],"distanceKm":0.13607596233651412},{"id":"vegetarianRestaurants_e1e5ea98ec84","slug":"jaipur-palace-plaka-e1e5","kind":"restaurant","name":"Jaipur Palace Plaka","lat":37.9746957700778,"lng":23.728563859316758,"url":"https://maps.app.goo.gl/aNRwgGJgRT99wmHt5?g_st=ipc","address":"Mnisikleous 7B, Athina 105 56","categoryIds":["vegetarian"],"categories":["Vegetarian Friendly Restaurants"],"distanceKm":0.13747791220034458},{"id":"greekRestaurants_75bff303ba08","slug":"symposio-restaurant-75bf","kind":"restaurant","name":"Symposio Restaurant","lat":37.97466836386933,"lng":23.73070242967316,"url":"https://maps.app.goo.gl/tMkNDw4cpv1tsuv86?g_st=ipc","address":"Apollonos 22, Athina 105 56","categoryIds":["greek-restaurants"],"categories":["Greek Restaurants"],"distanceKm":0.14143308083328185},{"id":"italianRestaurants_ecac45aa4447","slug":"2h-restaurant-ecac","kind":"restaurant","name":"\"+2H Restaurant\"","lat":37.97531452405919,"lng":23.73121660311007,"url":"https://maps.app.goo.gl/gjaqkvxWUZYGRAXB9?g_st=ipc","address":"Rooftop of ERGON Bakehouse, Μητροπόλεως 27, Αθήνα 105 57","categoryIds":["italian"],"categories":["Italian Restaurants"],"distanceKm":0.14387804054088743},{"id":"coffeeBrunchRestaurants_29cc04ce6a93","slug":"ergon-bakehouse-athens-29cc","kind":"restaurant","name":"ERGON Bakehouse Athens","lat":37.97528171642416,"lng":23.731226375079583,"url":"https://maps.app.goo.gl/iqrzk1YEu34L4txn7?g_st=ipc","address":"27 Mitropoleos &, Πατρώου St, Αθήνα 105 57","categoryIds":["coffee-brunch"],"categories":["Coffee & Brunch Spots"],"distanceKm":0.14558565721702355},{"id":"coffeeBrunchRestaurants_9c4210ba6277","slug":"72h-artisanal-bakery-eatery-athens-9c42","kind":"restaurant","name":"72H Artisanal Bakery & Eatery Athens","lat":37.97530265670539,"lng":23.731274229624415,"url":"https://maps.app.goo.gl/UcP2CHpDdGDnZnK4A?g_st=ipc","address":"27 Mitropoleos &, Πατρώου 9, Αθήνα 105 57","categoryIds":["coffee-brunch"],"categories":["Coffee & Brunch Spots"],"distanceKm":0.14909714347921302}],"sameRegion":[],"mentionedGuides":[{"slug":"luxury-rooftop-restaurants-athens-el","title":"Πολυτελή Rooftop Εστιατόρια και Μπαρ στην Αθήνα"},{"slug":"luxury-rooftop-restaurants-athens","title":"Luxury Rooftop Restaurants & Bars in Athens"}],"canonicalSlug":"the-zillers-rooftop-gastronomy-2a50","isCanonicalEntity":true,"enrichment":{"summary_en":"The Zillers Rooftop Gastronomy is a curated restaurant in Αθήνα 105 63 in the Luxury Dining collection. It is connected to 315 nearby Googlementor picks to help travelers build a stronger local route.","summary_el":"The Zillers Rooftop Gastronomy είναι ένα επιλεγμένο σημείο φαγητού στην περιοχή Αθήνα 105 63 και ανήκει στη συλλογή Luxury Dining. Συνδέεται με 315 κοντινές προτάσεις του Googlementor για πιο ολοκληρωμένη εμπειρία.","vibe_tags":["curated","premium-dining","city-views"],"best_for":["first-time visitors","food lovers","special occasions"],"visit_moments":["golden hour","night out"],"practical_note":"Address and direct map link are available for easy turn-by-turn access.","nearby_walkable_count":315,"nearby_count_2km":663,"confidence":0.98},"areaContext":{"slug":"monastiraki","name":"Monastiraki"},"intentContexts":[{"href":"/luxury-dining/monastiraki","label":"Luxury Dining in Monastiraki","categorySlug":"luxury-dining","categoryName":"Luxury Dining","areaSlug":"monastiraki","areaName":"Monastiraki"},{"href":"/rooftops/monastiraki","label":"Rooftop Lounges in Monastiraki","categorySlug":"rooftops","categoryName":"Rooftop Lounges","areaSlug":"monastiraki","areaName":"Monastiraki"}]},"__N_SSG":true}