{"pageProps":{"entity":{"id":"mustSeeAttractions_1f6f7342d4cd","slug":"to-roloi-toy-peiraia-1f6f","kind":"restaurant","name":"Το Ρολόι του Πειραιά","lat":37.93913367533199,"lng":23.648716548781902,"url":"https://maps.app.goo.gl/T618Z3KqK9zezNFE9?g_st=ipc","address":"Ακτή Μουτσοπούλου 6, Πειραιάς 185 35","categoryIds":["attractions"],"categories":["Must-See Attractions"]},"sameCategory":[{"id":"mustSeeAttractions_7720a421889c","slug":"marina-floisvoy-7720","kind":"restaurant","name":"Μαρίνα Φλοίσβου","lat":37.9311951612676,"lng":23.68504538337465,"url":"https://maps.app.goo.gl/vxdQs7SscGUC98hY9?g_st=ipc","address":"Flisvos Marina, Αθήνα 175 61","categoryIds":["attractions"],"categories":["Must-See Attractions"]},{"id":"familyFriendly_a3e2f6188bf1","slug":"kentro-politismoy-idryma-stayros-niarchos-a3e2","kind":"restaurant","name":"Κέντρο Πολιτισμού Ίδρυμα Σταύρος Νιάρχος","lat":37.93985683037055,"lng":23.692122482978903,"url":"https://maps.app.goo.gl/ib2tnNRmM1foX6zd8?g_st=ipc","address":"Λεωφ. Ανδρέα Συγγρού 364, Καλλιθέα 176 74","categoryIds":["family-friendly","attractions"],"categories":["Kid Friendly Locations","Must-See Attractions"],"legacySlugs":["kentro-politismoy-idryma-stayros-niarchos-dc50"]},{"id":"mustSeeAttractions_aeebd3346525","slug":"pnyka-aeeb","kind":"restaurant","name":"Πνύκα","lat":37.96737351880718,"lng":23.721158867490345,"url":"https://maps.app.goo.gl/yJCvqZ3YjAxVjgmU6?g_st=ipc","address":"Αθήνα 117 41","categoryIds":["attractions"],"categories":["Must-See Attractions"]},{"id":"mustSeeAttractions_11b87cb6f066","slug":"philopappos-monument-11b8","kind":"restaurant","name":"Philopappos Monument","lat":37.96735214641467,"lng":23.72141968401236,"url":"https://maps.app.goo.gl/4mH8BGK5UQuAHaXf6?g_st=ipc","address":"Athens 117 41","categoryIds":["attractions"],"categories":["Must-See Attractions"]},{"id":"mustSeeAttractions_3df9a416cf1a","slug":"lofos-filopappoy-3df9","kind":"restaurant","name":"Λόφος Φιλοπάππου","lat":37.96711952882775,"lng":23.721574966297474,"url":"https://maps.app.goo.gl/oZosE6Kbfk2BP5e67?g_st=ipc","address":"Φυλής 215, Αθήνα 117 41","categoryIds":["attractions"],"categories":["Must-See Attractions"]},{"id":"familyFriendly_a550b3686c2d","slug":"ethniko-asteroskopeio-athinon-kentro-episkepton-thiseioy-a550","kind":"restaurant","name":"Εθνικό Αστεροσκοπείο Αθηνών - Κέντρο Επισκεπτών Θησείου","lat":37.97274718818258,"lng":23.717946612728728,"url":"https://maps.app.goo.gl/hbZeHeJkN4GXh5tc6?g_st=ipc","address":"Λόφος Νυμφών Θησείο, ΤΘ 20048, Αθήνα 118 10","categoryIds":["family-friendly","attractions"],"categories":["Kid Friendly Locations","Must-See Attractions"],"legacySlugs":["ethniko-asteroskopeio-athinon-kentro-episkepton-thiseioy-26d3"]},{"id":"mustSeeAttractions_bf865dc1bff4","slug":"prison-of-socrates-bf86","kind":"restaurant","name":"Prison of Socrates","lat":37.96945283540711,"lng":23.72099752982901,"url":"https://maps.app.goo.gl/431NuRe11zxrUqR89?g_st=ipc","address":"43, Rovertou Galli 39, Athina 117 41","categoryIds":["attractions"],"categories":["Must-See Attractions"]},{"id":"mustSeeAttractions_6f694258a5ea","slug":"thiseio-6f69","kind":"restaurant","name":"Θησείο","lat":37.97501242037082,"lng":23.717080869886306,"url":"https://maps.app.goo.gl/i7GUzZ6ceEZCukDC6?g_st=ipc","address":"Αθήνα 118 51","categoryIds":["attractions"],"categories":["Must-See Attractions"]},{"id":"mustSeeAttractions_31e331c60661","slug":"kerameikos-archaeological-site-31e3","kind":"restaurant","name":"Kerameikos Archaeological Site","lat":37.97803082106626,"lng":23.717271800112048,"url":"https://maps.app.goo.gl/21oaLw9mApwFReVy7?g_st=ipc","address":"Ermou 148, Athina 105 53","categoryIds":["attractions"],"categories":["Must-See Attractions"]},{"id":"mustSeeAttractions_e73ed47cb5a3","slug":"odeio-irodoy-toy-attikoy-e73e","kind":"restaurant","name":"Ωδείο Ηρώδου του Αττικού","lat":37.97079439393834,"lng":23.724582622108812,"url":"https://maps.app.goo.gl/rjXRZrpDRp5VnNP2A?g_st=ipc","address":"Διονυσίου Αρεοπαγίτου, Αθήνα 105 55","categoryIds":["attractions"],"categories":["Must-See Attractions"]},{"id":"mustSeeAttractions_f836a18a6282","slug":"naos-toy-ifaistoy-f836","kind":"restaurant","name":"Ναός του Ηφαίστου","lat":37.9755941105574,"lng":23.721451459878914,"url":"https://maps.app.goo.gl/auHh3GwXgN8RTikx6?g_st=ipc","address":"Αθήνα 105 55","categoryIds":["attractions"],"categories":["Must-See Attractions"]},{"id":"mustSeeAttractions_fa2e6a808026","slug":"archaia-agora-athinon-fa2e","kind":"restaurant","name":"Αρχαία Αγορά Αθηνών","lat":37.97489898202124,"lng":23.722093444133804,"url":"https://maps.app.goo.gl/ofAbPpuVbSmGyHGy7?g_st=ipc","address":"Αθήνα 105 55","categoryIds":["attractions"],"categories":["Must-See Attractions"]}],"nearby":[{"id":"cheapEatsRestaurants_8cc8f7ce2a5d","slug":"kali-pita-8cc8","kind":"restaurant","name":"Καλή Πίτα","lat":37.93904235716474,"lng":23.647494180172405,"url":"https://maps.app.goo.gl/5Uc5sfiitWqftH1u6?g_st=ipc","address":"Ακτή Μουτσοπούλου 10, Πειραιάς 185 35","categoryIds":["cheap-eats"],"categories":["Gyros & Cheap Eats"],"distanceKm":0.10767610816727793},{"id":"dessertsRestaurants_7b04a6c0e5e9","slug":"loukoumother-s-peiraias-7b04","kind":"restaurant","name":"Loukoumother's Πειραιάς","lat":37.93905157733481,"lng":23.647294517023667,"url":"https://maps.app.goo.gl/n5Dp63fF47u9TZuz6?g_st=ipc","address":"Ακτή Μουτσοπούλου 12, Πειραιάς 185 35","categoryIds":["desserts"],"categories":["Dessert Shops"],"distanceKm":0.12503950323371232},{"id":"greekRestaurants_7773207b8a15","slug":"little-ginger-7773","kind":"restaurant","name":"Little Ginger","lat":37.93943083536511,"lng":23.6501378633564,"url":"https://maps.app.goo.gl/ekwyDGT5qeED8gtk8","address":"Αγγέλου Μεταξά 13, Πειραιάς 185 34","categoryIds":["greek-restaurants"],"categories":["Greek Restaurants"],"distanceKm":0.1289480417889594},{"id":"cheapEatsRestaurants_976f1c06c63f","slug":"i-vromiara-the-gourmet-street-food-piraeus-976f","kind":"restaurant","name":"Η Βρωμιαρα - The Gourmet Street Food Piraeus","lat":37.94005665661438,"lng":23.649946814929663,"url":"https://maps.app.goo.gl/9bVUq8xDuxLwaLim9?g_st=ipc","address":"Σωτήρος Διός 47, Πειραιάς 185 34","categoryIds":["cheap-eats"],"categories":["Gyros & Cheap Eats"],"distanceKm":0.14890577359845567},{"id":"cheapEatsRestaurants_cd23ca747a49","slug":"jackaroo-cd23","kind":"restaurant","name":"JACKAROO","lat":37.94026416396424,"lng":23.649684152709604,"url":"https://maps.app.goo.gl/7CALFJPovo6YskzUA?g_st=ipc","address":"Σωτήρος Διός 45, Πειραιάς 185 34","categoryIds":["cheap-eats"],"categories":["Gyros & Cheap Eats"],"distanceKm":0.15166350692630326},{"id":"italianRestaurants_4128f283696a","slug":"santa-pasta-cucina-italiana-4128","kind":"restaurant","name":"SANTA PASTA Cucina Italiana","lat":37.94068201075252,"lng":23.64952027321399,"url":"https://maps.app.goo.gl/s3jT1Jfm88nb6Y8f8?g_st=ipc","address":"Γρ. Λαμπράκη 144, Πειραιάς 185 35","categoryIds":["italian"],"categories":["Italian Restaurants"],"distanceKm":0.18603558449500293},{"id":"mexicanRestaurants_a97d037088f2","slug":"che-cocina-y-barra-sudamericana-a97d","kind":"restaurant","name":"CHE Cocina y Barra Sudamericana","lat":37.94032437815617,"lng":23.645996360812326,"url":"https://maps.app.goo.gl/TyUmY21xfn9LHmce7?g_st=ipc","address":"Καραΐσκου 151, Πειραιάς 185 35","categoryIds":["mexican"],"categories":["Mexican Restaurants"],"distanceKm":0.27282613123570865},{"id":"coffeeBrunchRestaurants_dede4a68abbb","slug":"temps-perdu-dede","kind":"restaurant","name":"Temps Perdu","lat":37.94112588112371,"lng":23.646526456108827,"url":"https://maps.app.goo.gl/ABEv497Uv63A5df28?g_st=ipc","address":"Καραΐσκου 114, Πειραιάς 185 35","categoryIds":["coffee-brunch"],"categories":["Coffee & Brunch Spots"],"distanceKm":0.29318770022697827},{"id":"coffeeBrunchRestaurants_fe42c1fe0d07","slug":"la-belle-epoque-fe42","kind":"restaurant","name":"La Belle Époque","lat":37.94126457803724,"lng":23.646089165937596,"url":"https://maps.app.goo.gl/BAXbDkZ2it9TjYv19?g_st=ipc","address":"Αριστοτέλους 10, Πειραιάς 185 35","categoryIds":["coffee-brunch"],"categories":["Coffee & Brunch Spots"],"distanceKm":0.33049998359621674},{"id":"cheapEatsRestaurants_5cd53c0e6d00","slug":"la-jacka-5cd5","kind":"restaurant","name":"La Jacka","lat":37.9421277470468,"lng":23.647527719022438,"url":"https://maps.app.goo.gl/4aXg5d6SUN73hXDt8?g_st=ic","address":"Καραΐσκου 117, Pireas 185 32","categoryIds":["cheap-eats"],"categories":["Gyros & Cheap Eats"],"distanceKm":0.34886688681151307},{"id":"municipalities_45e34fb512ae","slug":"peiraias-45e3","kind":"municipality","name":"Πειραιάς","lat":37.9421,"lng":23.6465,"aliases":["Πειραιας","Πειραια","Pireaus","Pireus","Piraeus"],"region":"Πειραιάς","name_en":"Piraeus","region_en":"Piraeus","distanceKm":0.38285396111255304},{"id":"municipalities_88d7451feb4f","slug":"pasalimani-88d7","kind":"municipality","name":"Πασαλιμάνι","lat":37.9384,"lng":23.653,"region":"Πειραιάς","name_en":"Pasalimani","region_en":"Piraeus","distanceKm":0.384397884303225},{"id":"cheapEatsRestaurants_338abca2bc3e","slug":"jackaroo-338a","kind":"restaurant","name":"Jackaroo","lat":37.940156634414215,"lng":23.643183475106575,"url":"https://maps.app.goo.gl/QjFk2WWeE9jasgmR8?g_st=ipc","address":"Κολοκοτρώνη 126, Πειραιάς 185 35","categoryIds":["cheap-eats"],"categories":["Gyros & Cheap Eats"],"distanceKm":0.4983764617514078},{"id":"asianRestaurants_4f2a760fc2e5","slug":"rouan-thai-4f2a","kind":"restaurant","name":"Rouan Thai","lat":37.939187297472465,"lng":23.64209685014842,"url":"https://maps.app.goo.gl/s9uo8VDSoDevpowm6?g_st=ipc","address":"Νοταρά 131, Πειραιάς 185 36","categoryIds":["asian"],"categories":["Asian Restaurants"],"distanceKm":0.5805480112681731},{"id":"greekRestaurants_559e0d9ef868","slug":"marigo-edesmatopoleio-559e","kind":"restaurant","name":"Μαριγώ Εδεσματοπωλείο","lat":37.93961721991741,"lng":23.641779536091324,"url":"https://maps.app.goo.gl/4advyD22Ta7qiUEv7","address":"Φίλωνος 133, Πειραιάς 185 36","categoryIds":["greek-restaurants"],"categories":["Greek Restaurants"],"distanceKm":0.6107140863635717},{"id":"italianRestaurants_5214577033fb","slug":"portofino-cucina-italiana-5214","kind":"restaurant","name":"Portofino Cucina Italiana","lat":37.933560056703215,"lng":23.64800969933006,"url":"https://maps.app.goo.gl/V1DfNbY33j2yeRfy7?g_st=ipc","address":"Μαρίνα Ζέας, Πειραιάς 185 36","categoryIds":["italian"],"categories":["Italian Restaurants"],"distanceKm":0.6228505934446434},{"id":"dessertsRestaurants_485012761632","slug":"galaktopoleio-stamoy-peiraia-4850","kind":"restaurant","name":"Γαλακτοπωλείο ΣΤΑΜΟΥ, Πειραιά","lat":37.93559337890928,"lng":23.64309227138255,"url":"https://maps.app.goo.gl/msTiobs8vpLYrcz57?g_st=ipc","address":"Λεωφ. Αφεντούλη 16 &, Πραξιτέλους 243, Πειραιάς 185 36","categoryIds":["desserts"],"categories":["Dessert Shops"],"distanceKm":0.6310719945481404},{"id":"italianRestaurants_245a69e4c28d","slug":"italida-restaurant-245a","kind":"restaurant","name":"Italida Restaurant","lat":37.939531794803344,"lng":23.64139153468878,"url":"https://maps.app.goo.gl/vJFoPpuhcPupJ3ju7?g_st=ipc","address":"Φιλελλήνων 9, Πειραιάς 185 36","categoryIds":["italian"],"categories":["Italian Restaurants"],"distanceKm":0.6438924245098495},{"id":"luxuryDiningRestaurants_e93ed529fdfa","slug":"hams-clams-e93e","kind":"restaurant","name":"Hams & Clams","lat":37.93313157813386,"lng":23.64744436080488,"url":"https://maps.app.goo.gl/KsnmFZ1WnGooiyEV7?g_st=ipc","address":"Λιμάνι, Μαρίνα Ζέας, Πειραιάς 185 37","categoryIds":["luxury-dining"],"categories":["Luxury Dining"],"distanceKm":0.6766640487068755},{"id":"italianRestaurants_5ab192a29154","slug":"pizza-tros-5ab1","kind":"restaurant","name":"Pizza Tros","lat":37.93310764502524,"lng":23.647126189869965,"url":"https://maps.app.goo.gl/R29dtEiZf13f8My98?g_st=ipc","address":"Μαρίνα Ζέας, Πειραιάς 185 36","categoryIds":["italian"],"categories":["Italian Restaurants"],"distanceKm":0.6844256551706299},{"id":"asianRestaurants_7724da0cbe7e","slug":"ten-modern-asian-7724","kind":"restaurant","name":"Ten Modern Asian","lat":37.93291413644206,"lng":23.647263058130683,"url":"https://maps.app.goo.gl/updMqDsRmH6egHAL7?g_st=ipc","address":"Μαρίνα Ζέας, Πειραιάς 185 36","categoryIds":["asian"],"categories":["Asian Restaurants"],"distanceKm":0.7032304757283268},{"id":"burgersRestaurants_51cd3df73f20","slug":"mpar-mpee-kioy-freattyda-51cd","kind":"restaurant","name":"Μπαρ Μπεε Κιου - Φρεαττύδα","lat":37.93450645446817,"lng":23.642685440187794,"url":"https://maps.app.goo.gl/UkJPpNzXrBGL944RA?g_st=ipc","address":"Λεωφ. Φρεάττυδος 13, Πειραιάς 185 37","categoryIds":["burgers","cheap-eats"],"categories":["Burger Spots","Gyros & Cheap Eats"],"legacySlugs":["mpar-mpee-kioy-freattyda-b711"],"distanceKm":0.7378944450107636},{"id":"monasteriesChurches_616a7205bceb","slug":"ieros-naos-agioy-nikolaoy-616a","kind":"restaurant","name":"Ιερός Ναός Αγίου Νικολάου","lat":37.93852657714825,"lng":23.640083861716022,"url":"https://maps.app.goo.gl/yhWmXb3651phCnDF8?g_st=ipc","address":"Αγίου Νικολάου 2, Πειραιάς 185 37","categoryIds":["monasteries-churches"],"categories":["Monasteries & Spiritual Sites"],"distanceKm":0.7600545103558659},{"id":"cheapEatsRestaurants_ff4578059709","slug":"story-streat-ff45","kind":"restaurant","name":"Story Streat","lat":37.93927555121359,"lng":23.639905760009334,"url":"https://maps.app.goo.gl/EXsQn9E1PkJeJjZU9?g_st=ipc","address":"301 Ακτή Μιαούλη, Enanti Agiou Nikolaou, Πειραιάς 185 35","categoryIds":["cheap-eats"],"categories":["Gyros & Cheap Eats"],"distanceKm":0.7728265787054964}],"sameRegion":[],"mentionedGuides":[],"canonicalSlug":"to-roloi-toy-peiraia-1f6f","isCanonicalEntity":true,"enrichment":{"summary_en":"Το Ρολόι του Πειραιά is a curated restaurant in Πειραιάς 185 35 in the Must-See Attractions collection. It is connected to 24 nearby Googlementor picks to help travelers build a stronger local route.","summary_el":"Το Ρολόι του Πειραιά είναι ένα επιλεγμένο σημείο φαγητού στην περιοχή Πειραιάς 185 35 και ανήκει στη συλλογή Must-See Attractions. Συνδέεται με 24 κοντινές προτάσεις του Googlementor για πιο ολοκληρωμένη εμπειρία.","vibe_tags":["curated"],"best_for":["first-time visitors","food lovers"],"visit_moments":["lunch stop","dinner stop"],"practical_note":"Address and direct map link are available for easy turn-by-turn access.","nearby_walkable_count":24,"nearby_count_2km":55,"confidence":0.98},"areaContext":{"slug":"peiraias","name":"Piraeus"},"intentContexts":[]},"__N_SSG":true}