{"pageProps":{"entity":{"id":"greekRestaurants_0e26d4a47188","slug":"to-steki-0e26","kind":"restaurant","name":"Το Στέκι","lat":40.572585888519654,"lng":22.955645778588657,"url":"https://maps.app.goo.gl/1rTE4MnvZB8TLm2j8?g_st=ipc","address":"Κουντουριώτου 16, Καλαμαριά 551 32","categoryIds":["greek-restaurants"],"categories":["Greek Restaurants"]},"sameCategory":[{"id":"greekRestaurants_effaa488563e","slug":"nea-klimataria-effa","kind":"restaurant","name":"Νέα Κληματαριά","lat":40.58891669010003,"lng":22.944876147959,"url":"https://maps.app.goo.gl/RWo1fZbyn2z8MGaa9?g_st=ipc","address":"Θεμιστοκλή Σοφούλη 97, Θεσσαλονίκη 551 31","categoryIds":["greek-restaurants"],"categories":["Greek Restaurants"]},{"id":"greekRestaurants_d5512fead26c","slug":"kronos-para-thin-alos-d551","kind":"restaurant","name":"Κρόνος παρά θίν αλός","lat":40.59022357622001,"lng":22.9465897334504,"url":"https://maps.app.goo.gl/yBbugZp5EmUQT27x7?g_st=ipc","address":"Θεμιστοκλή Σοφούλη 77, Θεσσαλονίκη 551 31","categoryIds":["greek-restaurants"],"categories":["Greek Restaurants"]},{"id":"greekRestaurants_11bcbb15df27","slug":"chalaro-11bc","kind":"restaurant","name":"Χάλαρο","lat":40.59065020365281,"lng":22.947310711779775,"url":"https://maps.app.goo.gl/FknwoH4DjWTtgiZc8?g_st=ipc","address":"Θεμιστοκλή Σοφούλη 75, Θεσσαλονίκη 551 31","categoryIds":["greek-restaurants"],"categories":["Greek Restaurants"]},{"id":"greekRestaurants_a5b4656768b4","slug":"emporikon-a5b4","kind":"restaurant","name":"Εμπορικόν","lat":40.59154248489415,"lng":22.963270056520066,"url":"https://maps.app.goo.gl/1BGYAM6C7rUnMDot8?g_st=ipc","address":"Αιγαίου 2, Θεσσαλονίκη 542 48","categoryIds":["greek-restaurants"],"categories":["Greek Restaurants"]},{"id":"greekRestaurants_d690428e2039","slug":"nea-diagonios-d690","kind":"restaurant","name":"Nea Diagonios","lat":40.59234555425419,"lng":22.94797192954155,"url":"https://maps.app.goo.gl/TtmMpqEMxkewPb8G9?g_st=ipc","address":"Themistokli Sofouli 64Α, Thessaloniki 546 55","categoryIds":["greek-restaurants"],"categories":["Greek Restaurants"]},{"id":"greekRestaurants_e11b69a9f4fc","slug":"koronis-e11b","kind":"restaurant","name":"Κορωνίς","lat":40.59688587335896,"lng":22.955410845086725,"url":"https://maps.app.goo.gl/Kyh1q1o7596jHSuu9?g_st=ipc","address":"Θεμιστοκλή Σοφούλη 4, Θεσσαλονίκη 546 46","categoryIds":["greek-restaurants"],"categories":["Greek Restaurants"]},{"id":"greekRestaurants_caf46d3ae170","slug":"mpachtses-caf4","kind":"restaurant","name":"Μπαχτσές","lat":40.59735406643829,"lng":22.956242795320843,"url":"https://maps.app.goo.gl/24benajDUQutZUA78?g_st=ipc","address":"Λεωφ. Βασιλίσσης Όλγας 211, Θεσσαλονίκη 546 46","categoryIds":["greek-restaurants"],"categories":["Greek Restaurants"]},{"id":"greekRestaurants_5420cd09afd9","slug":"taverna-kronos-5420","kind":"restaurant","name":"Ταβέρνα Κρόνος","lat":40.59744980216976,"lng":22.955600566420387,"url":"https://maps.app.goo.gl/GJFXXJsfLXcf12tg7?g_st=ipc","address":"Β.Όλγας 178, & Γ. Βαφοπούλου 30, Θεσσαλονίκη 546 46","categoryIds":["greek-restaurants"],"categories":["Greek Restaurants"]},{"id":"greekRestaurants_f3f4dd42dcb0","slug":"rinokeros-f3f4","kind":"restaurant","name":"Rinókeros","lat":40.59858749847681,"lng":22.9516822591396,"url":"https://maps.app.goo.gl/6Kk5vxpU7Goxr2Zq7?g_st=ipc","address":"25is Martiou 2, Thessaloniki 546 46","categoryIds":["greek-restaurants"],"categories":["Greek Restaurants"]},{"id":"greekRestaurants_c2f14c425e63","slug":"alatorigani-c2f1","kind":"restaurant","name":"Αλατορίγανη","lat":40.60015243009011,"lng":22.95443250325129,"url":"https://maps.app.goo.gl/8H2pummkPQFjon5o8?g_st=ipc","address":"Λεωφ. Βασιλίσσης Όλγας 177, Θεσσαλονίκη 546 45","categoryIds":["greek-restaurants"],"categories":["Greek Restaurants"]},{"id":"greekRestaurants_4e13929c0cd5","slug":"fytra-4e13","kind":"restaurant","name":"Φύτρα","lat":40.6012681636797,"lng":22.966673149641366,"url":"https://maps.app.goo.gl/GaGbnHHiWn6UF2go6?g_st=ipc","address":"Αδριανουπόλεως 10, Θεσσαλονίκη 542 49","categoryIds":["greek-restaurants"],"categories":["Greek Restaurants"]},{"id":"greekRestaurants_e2775941e27f","slug":"lemargko-lemargo-e277","kind":"restaurant","name":"ΛΕΜΑΡΓΚΟ - LEMARGO","lat":40.55568833913434,"lng":22.99200579097481,"url":"https://maps.app.goo.gl/WVMwFqWKDdGPyWjd6?g_st=ipc","address":"11οχλμ. οδού, Thessaloniki, ΘΕΣΣΑΛΟΝΙΚΗΣ-ΜΟΥΔΑΝΙΩΝ, Θέρμη 570 01","categoryIds":["greek-restaurants"],"categories":["Greek Restaurants"]}],"nearby":[{"id":"cheapEatsRestaurants_3a3bde48c733","slug":"thess-gyro-3a3b","kind":"restaurant","name":"Thess...Gyro","lat":40.57305742887387,"lng":22.955729191150056,"url":"https://maps.app.goo.gl/UxFcV7SWYu9feyef9?g_st=ipc","address":"Smirnis 14, Kalamaria 551 32","categoryIds":["cheap-eats"],"categories":["Gyros & Cheap Eats"],"distanceKm":0.05290408820701972},{"id":"fishTavernasRestaurants_470d39921896","slug":"hamodrakas-seafood-restaurant-470d","kind":"restaurant","name":"Hamodrakas - Seafood Restaurant","lat":40.571711946022305,"lng":22.95231475803018,"url":"https://maps.app.goo.gl/6TCCV8GEPKaHee5b6?g_st=ipc","address":"Μ. Γαγύλη 13, Παραλία, Kalamaria 551 32","categoryIds":["fish-tavernas"],"categories":["Fish Tavernas"],"distanceKm":0.29765568083285443},{"id":"cheapEatsRestaurants_62516fc5ff91","slug":"theologos-fast-food-6251","kind":"restaurant","name":"Theologos Fast Food","lat":40.56936513403147,"lng":22.960477178944696,"url":"https://maps.app.goo.gl/ivkmYsPpBSwDCJHG7?g_st=ipc","address":"18, Aidiniou 14, Kalamaria 551 32","categoryIds":["cheap-eats"],"categories":["Gyros & Cheap Eats"],"distanceKm":0.5429420570814055},{"id":"fishTavernasRestaurants_e98c62e6ec54","slug":"en-plo-e98c","kind":"restaurant","name":"En Plo","lat":40.57398660392286,"lng":22.949456391166105,"url":"https://maps.app.goo.gl/veiyM1VvYLvbo86r8?g_st=ipc","address":"Nik. Plastira 14Β, Kalamaria 551 32","categoryIds":["fish-tavernas"],"categories":["Fish Tavernas"],"distanceKm":0.5454702429404117},{"id":"fishTavernasRestaurants_36204a46aece","slug":"to-karnagio-3620","kind":"restaurant","name":"Το Καρνάγιο","lat":40.574881874460935,"lng":22.94956377176227,"url":"https://maps.app.goo.gl/pPBVRQW1crZFz6ho8?g_st=ipc","address":"Agiou Nikolaou 4, Thessaloniki 551 32","categoryIds":["fish-tavernas"],"categories":["Fish Tavernas"],"distanceKm":0.5736327019590136},{"id":"fishTavernasRestaurants_8519dfc7e5a0","slug":"prigkipas-8519","kind":"restaurant","name":"Prigkipas","lat":40.56870307397198,"lng":22.96042239278236,"url":"https://maps.app.goo.gl/CftYQWb7WS78EL267?g_st=ipc","address":"Chanion 8, Kalamaria 551 32","categoryIds":["fish-tavernas"],"categories":["Fish Tavernas"],"distanceKm":0.5909159055052486},{"id":"fishTavernasRestaurants_696f7178604d","slug":"petros-ouzo-tavern-696f","kind":"restaurant","name":"\"Petros\" Ouzo Tavern","lat":40.5758568701644,"lng":22.94955610306511,"url":"https://maps.app.goo.gl/zWRjvQW7U7jg2RVz9?g_st=ipc","address":"Evelpidou 12, Kalamaria 551 32","categoryIds":["fish-tavernas"],"categories":["Fish Tavernas"],"distanceKm":0.6299421456237176},{"id":"fishTavernasRestaurants_d3195d3c5fff","slug":"arodo-d319","kind":"restaurant","name":"Aródo","lat":40.566822399097624,"lng":22.957889078590952,"url":"https://maps.app.goo.gl/1PTePSM62TKyXYyd9?g_st=ipc","address":"Thetidos 25, Θεσσαλονίκη 551 32","categoryIds":["fish-tavernas"],"categories":["Fish Tavernas"],"distanceKm":0.6682951977482395},{"id":"cheapEatsRestaurants_d02e33f8bb10","slug":"food-plaza-d02e","kind":"restaurant","name":"Food Plaza","lat":40.57666918251193,"lng":22.94927301198073,"url":"https://maps.app.goo.gl/zwY1QQTAGPf4oH7s8?g_st=ipc","address":"Skra 16, Kalamaria 551 32","categoryIds":["cheap-eats"],"categories":["Gyros & Cheap Eats"],"distanceKm":0.7041693030620617},{"id":"fishTavernasRestaurants_0b1c52c256c7","slug":"thermaikos-psarotaverna-kalamaria-thessaloniki-0b1c","kind":"restaurant","name":"Θερμαϊκός Ψαροταβέρνα | Καλαμαρία, Θεσσαλονίκη","lat":40.56643535238568,"lng":22.958306698225478,"url":"https://maps.app.goo.gl/fGHKAJK8MvBqvND6A?g_st=ipc","address":"Thetidos, Kalamaria 551 32","categoryIds":["fish-tavernas"],"categories":["Fish Tavernas"],"distanceKm":0.7198930972560577},{"id":"fishTavernasRestaurants_12f95d4f93d0","slug":"maiami-seafood-restaurant-12f9","kind":"restaurant","name":"Maiami Seafood Restaurant","lat":40.5660781564898,"lng":22.958426191574933,"url":"https://maps.app.goo.gl/iH1kytUDBvfY1Xmu5?g_st=ipc","address":"Thetidos 18, Kalamaria 551 32","categoryIds":["fish-tavernas","luxury-dining"],"categories":["Fish Tavernas","Luxury Dining"],"legacySlugs":["maiami-seafood-restaurant-20a0"],"distanceKm":0.7607826274612349},{"id":"dessertsRestaurants_971d24d9e3ed","slug":"pagota-themis-971d","kind":"restaurant","name":"Παγωτά 'Θέμης'","lat":40.58103606730307,"lng":22.951200963653005,"url":"https://maps.app.goo.gl/hLPTQRcHhxotqq366?g_st=ipc","address":"I. Passalidi 69, Kalamaria 551 32","categoryIds":["desserts"],"categories":["Dessert Shops"],"distanceKm":1.0118300606070563},{"id":"municipalities_af8ac1d142d6","slug":"kalamaria-af8a","kind":"municipality","name":"Καλαμαριά","lat":40.5825,"lng":22.9503,"region":"Ανατολική Θεσσαλονίκη","name_en":"Kalamaria","region_en":"East Thessaloniki","distanceKm":1.1912672902538843},{"id":"coffeeBrunchRestaurants_37a99c7a5e9b","slug":"cafe-plateia-37a9","kind":"restaurant","name":"Café Plateia","lat":40.58219813646138,"lng":22.94932374129252,"url":"https://maps.app.goo.gl/9R5MQ6z3jfLnmMwu7?g_st=ipc","address":"Mitropolitou Chrisanthou 0, Kalamaria 551 32","categoryIds":["coffee-brunch"],"categories":["Coffee & Brunch Spots"],"distanceKm":1.1947751443535883},{"id":"fishTavernasRestaurants_f8b7ef1f9834","slug":"mavri-thalassa-f8b7","kind":"restaurant","name":"Mavri Thalassa","lat":40.57843253808032,"lng":22.94322807682347,"url":"https://maps.app.goo.gl/BS4tZgxTYFAhXywDA?g_st=ipc","address":"Nik. Plastira 3, Kalamaria 551 32","categoryIds":["fish-tavernas","luxury-dining"],"categories":["Fish Tavernas","Luxury Dining"],"legacySlugs":["mavri-thalassa-e027"],"distanceKm":1.233929336922909},{"id":"cheapEatsRestaurants_70bee89e8126","slug":"serafino-70be","kind":"restaurant","name":"Serafino","lat":40.58386899036688,"lng":22.951506267568906,"url":"https://maps.app.goo.gl/M1gK3j7aiDegVjjs6?g_st=ipc","address":"Metamorfoseos 11, Kalamaria 551 32","categoryIds":["cheap-eats"],"categories":["Gyros & Cheap Eats"],"distanceKm":1.3024213189962661},{"id":"burgersRestaurants_7bf76fbc7d0a","slug":"burgler-7bf7","kind":"restaurant","name":"Burgler","lat":40.584120623109904,"lng":22.951979743044145,"url":"https://maps.app.goo.gl/yMSfiMNTRFpJoskdA?g_st=ipc","address":"Metamorfoseos 5, Kalamaria 551 31","categoryIds":["burgers"],"categories":["Burger Spots"],"distanceKm":1.3194442597668168},{"id":"burgersRestaurants_8f11f76e2e42","slug":"maverick-handmade-street-food-8f11","kind":"restaurant","name":"MAVERICK Handmade Street Food","lat":40.5733294711661,"lng":22.971759802516267,"url":"https://maps.app.goo.gl/Bc8D8iLK2oBQoFcm8?g_st=ipc","address":"Eth. Antistaseos 179, Kalamaria 551 34","categoryIds":["burgers","cheap-eats"],"categories":["Burger Spots","Gyros & Cheap Eats"],"legacySlugs":["maverick-handmade-street-food-77c2"],"distanceKm":1.3635199956139124},{"id":"italianRestaurants_f98055a56a7f","slug":"tonino-pizzeria-napoletana-f980","kind":"restaurant","name":"Tonino Pizzeria Napoletana","lat":40.58464427596488,"lng":22.951802816992593,"url":"https://maps.app.goo.gl/zebuXsdGAEsViD2MA?g_st=ipc","address":"Iereos Papanikola 13-15, Kalamaria 551 31","categoryIds":["italian"],"categories":["Italian Restaurants"],"distanceKm":1.3795522424657773},{"id":"municipalities_3059ca977111","slug":"karampoyrnaki-3059","kind":"municipality","name":"Καραμπουρνάκι","lat":40.5857,"lng":22.9535,"region":"Θεσσαλονίκη","name_en":"Karabournaki","region_en":"Thessaloniki","distanceKm":1.4694398424260864},{"id":"dessertsRestaurants_4fb635c33210","slug":"trigona-elenidi-4fb6","kind":"restaurant","name":"Trigona Elenidi","lat":40.58725693671977,"lng":22.9548680363337,"url":"https://maps.app.goo.gl/EpRLs9ycdMXcJNP16?g_st=ipc","address":"Adrianoupoleos 19, Kalamaria 551 33","categoryIds":["desserts"],"categories":["Dessert Shops"],"distanceKm":1.6326678624978435},{"id":"fishTavernasRestaurants_ff2ad0d31126","slug":"gialos-fish-seafood-tavern-ff2a","kind":"restaurant","name":"Gialos Fish & Seafood Tavern","lat":40.57948809433507,"lng":22.938505206144782,"url":"https://maps.app.goo.gl/Bgo34mDRNnqGBqcn6?g_st=ipc","address":"Ν.Πλαστήρα - Μ. Εμβολο - Ν.Α.Ο.Κ, Thessaloniki 551 31","categoryIds":["fish-tavernas"],"categories":["Fish Tavernas"],"distanceKm":1.6385131351608515},{"id":"luxuryDiningRestaurants_f789c3144485","slug":"marrone-restaurant-f789","kind":"restaurant","name":"Marrone Restaurant","lat":40.587514625354714,"lng":22.942944126653384,"url":"https://maps.app.goo.gl/rYECyH9YH5sKjowm8?g_st=ipc","address":"Themistokli Sofouli 111, Kalamaria 551 31","categoryIds":["luxury-dining"],"categories":["Luxury Dining"],"distanceKm":1.9764235091945053},{"id":"burgersRestaurants_af84766a95a5","slug":"brothers-in-law-af84","kind":"restaurant","name":"Brothers In Law","lat":40.59054130309985,"lng":22.959087966385763,"url":"https://maps.app.goo.gl/71PatbkFTVXX7R3w9?g_st=ipc","address":"Leof. Vasilissis Olgas 275, Thessaloniki 551 33","categoryIds":["burgers"],"categories":["Burger Spots"],"distanceKm":2.0176022893055885}],"sameRegion":[],"mentionedGuides":[{"slug":"american-college-of-greece-agia-paraskevi-guide-el","title":"American College of Greece: Οδηγός Αγίας Παρασκευής"},{"slug":"american-college-of-greece-agia-paraskevi-guide","title":"American College of Greece: Welcome to Agia Paraskevi"}],"canonicalSlug":"to-steki-0e26","isCanonicalEntity":true,"enrichment":{"summary_en":"Το Στέκι is a curated restaurant in Καλαμαριά 551 32 in the Greek Restaurants collection. It is connected to 11 nearby Googlementor picks to help travelers build a stronger local route.","summary_el":"Το Στέκι είναι ένα επιλεγμένο σημείο φαγητού στην περιοχή Καλαμαριά 551 32 και ανήκει στη συλλογή Greek Restaurants. Συνδέεται με 11 κοντινές προτάσεις του Googlementor για πιο ολοκληρωμένη εμπειρία.","vibe_tags":["curated"],"best_for":["first-time visitors","food lovers"],"visit_moments":["lunch stop","dinner stop"],"practical_note":"Address and direct map link are available for easy turn-by-turn access.","nearby_walkable_count":11,"nearby_count_2km":23,"confidence":0.98},"areaContext":{"slug":"kalamaria","name":"Kalamaria"},"intentContexts":[{"href":"/greek-restaurants/kalamaria","label":"Greek Restaurants in Kalamaria","categorySlug":"greek-restaurants","categoryName":"Greek Restaurants","areaSlug":"kalamaria","areaName":"Kalamaria"}]},"__N_SSG":true}