{"pageProps":{"entity":{"id":"greekRestaurants_9f5022be5281","slug":"to-tavernaki-tis-marinas-9f50","kind":"restaurant","name":"Το Ταβερνάκι της Μαρίνας","lat":39.62492333562477,"lng":19.9188396620582,"url":"https://maps.app.goo.gl/zBELB5QbZJL4Jsk99?g_st=ipc","address":"Βελισσαρίου 35, Κέρκυρα 491 00","categoryIds":["greek-restaurants"],"categories":["Greek Restaurants"]},"sameCategory":[{"id":"greekRestaurants_df023e747e5f","slug":"kanela-kai-garyfallo-mushroom-restaurant-df02","kind":"restaurant","name":"ΚΑΝΕΛΑ ΚΑΙ ΓΑΡΥΦΑΛΛΟ, Mushroom Restaurant","lat":39.873717064633475,"lng":20.75043313227449,"url":"https://maps.app.goo.gl/RMbRCUycwB1E3Sf99?g_st=ipc","address":"Κεντρική Οδός Βίτσας, Βίτσα Ζαγορίου 440 07","categoryIds":["greek-restaurants"],"categories":["Greek Restaurants"]},{"id":"greekRestaurants_9563a3f3deb0","slug":"presveia-restaurant-9563","kind":"restaurant","name":"ΠΡΕΣΒΕΙΑ Restaurant","lat":39.67117709848311,"lng":20.857314565299106,"url":"https://maps.app.goo.gl/kkBJ4gJX3sVvx1L98?g_st=ipc","address":"Λεωφ. Καραμανλή 17, Ιωάννινα 452 21","categoryIds":["greek-restaurants"],"categories":["Greek Restaurants"]},{"id":"greekRestaurants_0765f66fde9c","slug":"to-koytoyki-toy-nikola-0765","kind":"restaurant","name":"Το Κουτούκι του Νικόλα","lat":39.771642404674424,"lng":21.182737734785334,"url":"https://maps.app.goo.gl/rmdJZN2MRYsrSWWi7?g_st=ipc","address":"Τοσίτσα 6, Μέτσοβο 442 00","categoryIds":["greek-restaurants"],"categories":["Greek Restaurants"]},{"id":"greekRestaurants_1d1502fabe5a","slug":"margarita-restaurant-1d15","kind":"restaurant","name":"Margarita Restaurant","lat":38.83487688240494,"lng":20.711768051704645,"url":"https://maps.app.goo.gl/4VvcV8grfdUFnb8k8?g_st=ipc","address":"Dimitrioy golemi, Λευκάδα 311 00","categoryIds":["greek-restaurants"],"categories":["Greek Restaurants"]},{"id":"greekRestaurants_3127804c6fd3","slug":"drymonaki-3127","kind":"restaurant","name":"Drymonaki","lat":38.773138866298765,"lng":20.628773219324636,"url":"https://maps.app.goo.gl/PtQK43FC1oh4H367A?g_st=ipc","address":"Επαρ.Οδ. Λευκάδας - Κάτω Εξανθείας, Δρυμώνας 311 00","categoryIds":["greek-restaurants"],"categories":["Greek Restaurants"]},{"id":"greekRestaurants_d21bba9d342c","slug":"rachi-food-feelings-d21b","kind":"restaurant","name":"RACHI Food & Feelings","lat":38.75825764413059,"lng":20.616346707590512,"url":"https://maps.app.goo.gl/JGrrpXUs2MQoXr7q9?g_st=ipc","address":"Εξάνθεια 310 80","categoryIds":["greek-restaurants"],"categories":["Greek Restaurants"]},{"id":"greekRestaurants_711020d4f316","slug":"pardalo-katsiki-7110","kind":"restaurant","name":"Παρδαλό Κατσίκι","lat":38.76029753827684,"lng":20.64847159329693,"url":"https://maps.app.goo.gl/8pTbVRTApz74Yc7Y6?g_st=ipc","address":"Καρυά 310 80","categoryIds":["greek-restaurants"],"categories":["Greek Restaurants"]},{"id":"greekRestaurants_0ef8cfb2d853","slug":"kolokythas-oikogeneiaki-taverna-0ef8","kind":"restaurant","name":"ΚΟΛΟΚΥΘΑΣ Οικογενειακή Ταβέρνα","lat":38.79965914314924,"lng":20.740469326628666,"url":"https://maps.app.goo.gl/DdneXWByi7dQmATLA?g_st=ipc","address":"Πλαγια αιτολοκαρνανιας Πλαγιά, Πλαγιά 300 02","categoryIds":["greek-restaurants"],"categories":["Greek Restaurants"]},{"id":"greekRestaurants_e4a6c55ef106","slug":"t-aloni-e4a6","kind":"restaurant","name":"T'Aloni","lat":38.718102837279,"lng":20.601347450819645,"url":"https://maps.app.goo.gl/1ZUJJmBiae2uGevP7?g_st=ipc","address":"Greece, Επαρ.Οδ. Λευκάδας - Βασιλίκης, Χορτάτα 310 82","categoryIds":["greek-restaurants"],"categories":["Greek Restaurants"]},{"id":"greekRestaurants_b44de7a44b82","slug":"breath-of-zorbas-b44d","kind":"restaurant","name":"Breath of Zorbas","lat":38.75308739240382,"lng":20.721497707378486,"url":"https://maps.app.goo.gl/qhkhSbqR6wdTPs2u6?g_st=ipc","address":"Ανάσα του Ζορμπά, Νικιάνα 311 00","categoryIds":["greek-restaurants"],"categories":["Greek Restaurants"]},{"id":"greekRestaurants_3811b6034323","slug":"paradosiaki-taverna-i-tsioyrgiaka-enoikiazomena-domatia-3811","kind":"restaurant","name":"Παραδοσιακή Ταβέρνα \"η Τσιούργιακα\" - Ενοικιαζόμενα Δωμάτια","lat":40.079571651875234,"lng":21.18215440733225,"url":"https://maps.app.goo.gl/TpqmBy42hQoUhFFw8?g_st=ipc","address":"Αετία 511 00","categoryIds":["greek-restaurants"],"categories":["Greek Restaurants"]},{"id":"greekRestaurants_a07fccbcdfe3","slug":"taverna-o-minas-a07f","kind":"restaurant","name":"Ταβέρνα Ο Μηνάς","lat":38.745408998983734,"lng":20.72626254060498,"url":"https://maps.app.goo.gl/CMgtZcma5cpMYi7v9?g_st=ipc","address":"Νικιάνα 311 00","categoryIds":["greek-restaurants"],"categories":["Greek Restaurants"]}],"nearby":[{"id":"municipalities_c2a6f966632a","slug":"kerkyra-c2a6","kind":"municipality","name":"Κέρκυρα","lat":39.6243,"lng":19.9217,"aliases":["Kerkira","Corcyra","Κερκύρα","Κερκύρη","Κερκυρα","Kerkyra","Corfou"],"region":"Ιόνιο","name_en":"Corfu","region_en":"Ionian Islands","distanceKm":0.25459497531280223},{"id":"dessertsRestaurants_672e57be6b02","slug":"solo-gelato-672e","kind":"restaurant","name":"Solo Gelato","lat":39.62449131411604,"lng":19.92192848556591,"url":"https://maps.app.goo.gl/75zMv1NcKb3QY9T4A?g_st=ipc","address":"Michail Theotoki 3, Kerkira 491 00","categoryIds":["desserts"],"categories":["Dessert Shops"],"distanceKm":0.26887344643514116},{"id":"luxuryDiningRestaurants_447de7bad692","slug":"venetian-well-447d","kind":"restaurant","name":"Venetian Well","lat":39.62641881073211,"lng":19.921842707953036,"url":"https://maps.app.goo.gl/HLnA6MPvVh9foYtK6?g_st=ipc","address":"Πλατεια Λίλη Δεσύλλα 1, Kerkira 491 00","categoryIds":["luxury-dining"],"categories":["Luxury Dining"],"distanceKm":0.30627184241133143},{"id":"dessertsRestaurants_c84a0048c110","slug":"papagiorgis-patiserie-gelateria-c84a","kind":"restaurant","name":"Papagiorgis Patiserie-Gelateria","lat":39.624442580854314,"lng":19.922449483485316,"url":"https://maps.app.goo.gl/tsC3kM3FwzybS2zd6?g_st=ipc","address":"Nikiforou Theotoki 32, Kerkira 491 00","categoryIds":["desserts"],"categories":["Dessert Shops"],"distanceKm":0.3137565604841338},{"id":"cheapEatsRestaurants_bc792aeec77f","slug":"pitta-pappou-bc79","kind":"restaurant","name":"Pitta pappou","lat":39.62391916981706,"lng":19.9227027256586,"url":"https://maps.app.goo.gl/3x2uABEYb4yf4U9ZA?g_st=ipc","address":"ΑΓΙΩΝ ΠΑΝΤΩΝ 12, agion panton 12, Kerkira 491 00","categoryIds":["cheap-eats"],"categories":["Gyros & Cheap Eats"],"distanceKm":0.34919280271375003},{"id":"cheapEatsRestaurants_22e46faae4a1","slug":"di-santo-premium-sandwiches-22e4","kind":"restaurant","name":"Di Santo Premium Sandwiches","lat":39.6237687550092,"lng":19.923112693259046,"url":"https://maps.app.goo.gl/bBz55JsBTZudAbHR9?g_st=ipc","address":"Evgeniou Voulgareos 3, Kerkira 491 00","categoryIds":["cheap-eats"],"categories":["Gyros & Cheap Eats"],"distanceKm":0.3878378155898328},{"id":"italianRestaurants_ca939fad1a78","slug":"la-tavola-calda-ca93","kind":"restaurant","name":"La Tavola Calda","lat":39.623370627858776,"lng":19.923005947570733,"url":"https://maps.app.goo.gl/ENRUpZHsLbcTwuH2A?g_st=ipc","address":"Giotopoulou 10-12, Kerkira 491 00","categoryIds":["italian"],"categories":["Italian Restaurants"],"distanceKm":0.3964057623119244},{"id":"coffeeBrunchRestaurants_a96c83f91f07","slug":"kumquat-speciality-coffee-brunch-cocktails-a96c","kind":"restaurant","name":"Kumquat / speciality coffee / brunch / cocktails","lat":39.62122356019077,"lng":19.919537643557778,"url":"https://maps.app.goo.gl/3cEBJnGDVun8x3Pu5?g_st=ipc","address":"Σπύρου Σαμαρά 3 και, Kerkira 491 00","categoryIds":["coffee-brunch"],"categories":["Coffee & Brunch Spots"],"distanceKm":0.41571705123131875},{"id":"luxuryDiningRestaurants_456832c19fa5","slug":"spianada-meats-greens-4568","kind":"restaurant","name":"Spianada Meats & Greens","lat":39.62310170311375,"lng":19.923385713237856,"url":"https://maps.app.goo.gl/PRwrcwQFNPVZjFsk6?g_st=ipc","address":"Kapodistriou 32, Kerkira 491 00","categoryIds":["luxury-dining"],"categories":["Luxury Dining"],"distanceKm":0.4388945970452594},{"id":"luxuryDiningRestaurants_a41bdee807ed","slug":"ora-day-a41b","kind":"restaurant","name":"Ora Day","lat":39.62198349556085,"lng":19.925172942691578,"url":"https://maps.app.goo.gl/XLhEQFknHoz231GF7?g_st=ipc","address":"Agoniston Politechniou, Kerkira 491 00","categoryIds":["luxury-dining"],"categories":["Luxury Dining"],"distanceKm":0.6333205221316982},{"id":"mustSeeAttractions_95bea16be675","slug":"old-town-of-corfu-95be","kind":"restaurant","name":"Old Town of Corfu","lat":39.62343987783881,"lng":19.92891594231962,"url":"https://maps.app.goo.gl/iFY1Kcc4UwLiyRGc7?g_st=ipc","address":"Corfu 491 00","categoryIds":["attractions"],"categories":["Must-See Attractions"],"distanceKm":0.8786285737596025},{"id":"coffeeBrunchRestaurants_02639bfe1e4a","slug":"cafe-kanoni-0263","kind":"restaurant","name":"Cafe Kanoni","lat":39.59150641307164,"lng":19.917314978086413,"url":"https://maps.app.goo.gl/RBi9fUSj1gvzz2E86?g_st=ipc","address":"κανόνι, Kerkira 491 00","categoryIds":["coffee-brunch"],"categories":["Coffee & Brunch Spots"],"distanceKm":3.7180871914693387},{"id":"familyFriendly_e515147a29e0","slug":"aqualand-e515","kind":"restaurant","name":"Aqualand","lat":39.61697908099727,"lng":19.837429719404867,"url":"https://maps.app.goo.gl/NQ1AwXiEg5oZQg359?g_st=ipc","address":"Agios Ioannis 491 00","categoryIds":["family-friendly"],"categories":["Kid Friendly Locations"],"distanceKm":7.028594068241858},{"id":"mexicanRestaurants_09c0e00bc62f","slug":"picante-mexican-cocktail-bar-09c0","kind":"restaurant","name":"Picante Mexican - Cocktail Bar","lat":39.54688963792196,"lng":19.912527827268715,"url":"https://maps.app.goo.gl/gry6ZeCUAGqm9E3X7?g_st=ipc","address":"Benitses 490 84","categoryIds":["mexican"],"categories":["Mexican Restaurants"],"distanceKm":8.693793516914074},{"id":"luxuryDiningRestaurants_c23fed298e67","slug":"etrusco-c23f","kind":"restaurant","name":"Etrusco","lat":39.6891414540143,"lng":19.834904657627558,"url":"https://maps.app.goo.gl/x3VsqPUTtkawiKFC7?g_st=ipc","address":"Κάτω Κορακιάνα 490 83","categoryIds":["luxury-dining"],"categories":["Luxury Dining"],"distanceKm":10.130142467672156},{"id":"luxuryDiningRestaurants_4ac0f5cb2cce","slug":"makris-restaurant-4ac0","kind":"restaurant","name":"Makris Restaurant","lat":39.490901721836174,"lng":19.92628299466604,"url":"https://maps.app.goo.gl/GPZUEnWWjrQuRVWr7?g_st=ipc","address":"Miramare Beach, Moraitika 491 00","categoryIds":["luxury-dining"],"categories":["Luxury Dining"],"distanceKm":14.916178872368121},{"id":"coffeeBrunchRestaurants_8ce44b297b18","slug":"la-grotta-bar-8ce4","kind":"restaurant","name":"La Grotta Bar","lat":39.67381089427264,"lng":19.718606911052376,"url":"https://maps.app.goo.gl/HyZmnveaEpuiN62j8?g_st=ipc","address":"La Grotta Bay, Paleokastritsa 490 83","categoryIds":["coffee-brunch"],"categories":["Coffee & Brunch Spots"],"distanceKm":17.98437323318746},{"id":"municipalities_3976b9119f68","slug":"palaiokastritsa-3976","kind":"municipality","name":"Παλαιοκαστρίτσα","lat":39.6778,"lng":19.7139,"aliases":["Παλαιοκαστριτσα","Palaiokastritsa"],"region":"Ιόνιο","name_en":"Paleokastritsa","region_en":"Ionian Islands","distanceKm":18.504553315270797},{"id":"coffeeBrunchRestaurants_207254fa5966","slug":"bakalokafenio-michalas-kostas-2072","kind":"restaurant","name":"Bakalokafenio - Michalas Kostas","lat":39.681013717064104,"lng":19.71063796584377,"url":"https://maps.app.goo.gl/YrUQcKuXeVaBkqFR7?g_st=ipc","address":"Lakones 490 83","categoryIds":["coffee-brunch"],"categories":["Coffee & Brunch Spots"],"distanceKm":18.884163591876028},{"id":"coffeeBrunchRestaurants_aa7bbba77011","slug":"dolce-cafe-aa7b","kind":"restaurant","name":"Dolce Café","lat":39.68046834433433,"lng":19.703113468558957,"url":"https://maps.app.goo.gl/uW2pukpfg5XpBrAM9?g_st=ipc","address":"Lakones 490 83","categoryIds":["coffee-brunch"],"categories":["Coffee & Brunch Spots"],"distanceKm":19.474110965381186},{"id":"fishTavernasRestaurants_700d8feb6ab1","slug":"andromeda-restaurant-700d","kind":"restaurant","name":"Andromeda Restaurant","lat":39.79259047776619,"lng":19.8046234596079,"url":"https://maps.app.goo.gl/jMHKwGmxZZd6mhuh8?g_st=ipc","address":"Άγιος Στέφανος επίσκεψης, Acharavi 491 00","categoryIds":["fish-tavernas"],"categories":["Fish Tavernas"],"distanceKm":21.048708320926014},{"id":"dessertsRestaurants_51c501b69bcd","slug":"cosy-51c5","kind":"restaurant","name":"Cosy","lat":39.42695341977823,"lng":19.943982019426304,"url":"https://maps.app.goo.gl/tLH5nMQN5TJtaAzM8?g_st=ipc","address":"Αγ. Γεώργιος 490 80","categoryIds":["desserts"],"categories":["Dessert Shops"],"distanceKm":22.118620057216667}],"sameRegion":[],"mentionedGuides":[],"canonicalSlug":"to-tavernaki-tis-marinas-9f50","isCanonicalEntity":true,"enrichment":{"summary_en":"Το Ταβερνάκι της Μαρίνας is a curated restaurant in Κέρκυρα 491 00 in the Greek Restaurants collection. It is connected to 10 nearby Googlementor picks to help travelers build a stronger local route.","summary_el":"Το Ταβερνάκι της Μαρίνας είναι ένα επιλεγμένο σημείο φαγητού στην περιοχή Κέρκυρα 491 00 και ανήκει στη συλλογή Greek Restaurants. Συνδέεται με 10 κοντινές προτάσεις του Googlementor για πιο ολοκληρωμένη εμπειρία.","vibe_tags":["curated"],"best_for":["first-time visitors","food lovers"],"visit_moments":["lunch stop","dinner stop"],"practical_note":"Address and direct map link are available for easy turn-by-turn access.","nearby_walkable_count":10,"nearby_count_2km":11,"confidence":0.98},"areaContext":{"slug":"kerkyra","name":"Corfu"},"intentContexts":[]},"__N_SSG":true}