{"pageProps":{"entity":{"id":"familyFriendly_e11e3c30b5f9","slug":"trees-trees-e11e","kind":"restaurant","name":"Trees Trees","lat":40.60274841786202,"lng":23.00941473830645,"url":"https://maps.app.goo.gl/NStAQS6bJYjXPSMi8?g_st=ipc","address":"Ανατολής, Elaionon και, Pilea 555 35","categoryIds":["family-friendly"],"categories":["Kid Friendly Locations"]},"sameCategory":[{"id":"familyFriendly_b986941160fd","slug":"elaiorema-b986","kind":"restaurant","name":"Elaiorema","lat":40.60429462558645,"lng":22.984614393067023,"url":"https://maps.app.goo.gl/2QyvxSuh6SKLNY7X8?g_st=ic","address":"Pylaia 555 35","categoryIds":["family-friendly"],"categories":["Kid Friendly Locations"]},{"id":"familyFriendly_507eebfc1228","slug":"happy-play-507e","kind":"restaurant","name":"Happy Play","lat":40.58463538696909,"lng":22.98516339267734,"url":"https://maps.app.goo.gl/KdBGSDP4JgtkbeQQ7?g_st=ipc","address":"Ioanninon Rd 9-11, Pilea 555 35","categoryIds":["family-friendly"],"categories":["Kid Friendly Locations"]},{"id":"familyFriendly_49ab59220094","slug":"love-sports-club-49ab","kind":"restaurant","name":"Love Sports Club","lat":40.576783631024576,"lng":22.994808120184832,"url":"https://maps.app.goo.gl/BJcVtK4p1mr7qG5B7?g_st=ipc","address":"Unnamed Road, Pilea Chortiatis 555 35","categoryIds":["family-friendly"],"categories":["Kid Friendly Locations"]},{"id":"familyFriendly_5fc832b90305","slug":"partyland-pylaia-playground-restaurant-events-5fc8","kind":"restaurant","name":"PARTYLAND ΠΥΛΑΙΑ | PLAYGROUND | RESTAURANT | EVENTS","lat":40.57242727995374,"lng":22.992912588988382,"url":"https://maps.app.goo.gl/hq2iSCHB7jfquAbeA?g_st=ic","address":"St.Kazantzidi 49, Pilea 555 36","categoryIds":["family-friendly"],"categories":["Kid Friendly Locations"]},{"id":"familyFriendly_06e3b0e7591a","slug":"hado-arena-toumpa-06e3","kind":"restaurant","name":"HADO ARENA TOUMPA","lat":40.61298475023653,"lng":22.966163361832432,"url":"https://maps.app.goo.gl/Y3M4X3SLfpUBctf88?g_st=ipc","address":"Kleanthous 25, Thessaloniki 544 53","categoryIds":["family-friendly"],"categories":["Kid Friendly Locations"]},{"id":"familyFriendly_b6a37bf1af44","slug":"platanakia-natura-b6a3","kind":"restaurant","name":"Platanakia Natura","lat":40.59354583506236,"lng":23.05309273408505,"url":"https://maps.app.goo.gl/6g3bBu8datKxsCYq7?g_st=ipc","address":"St Paraskevopoulou, Panorama 552 36","categoryIds":["family-friendly"],"categories":["Kid Friendly Locations"]},{"id":"familyFriendly_b51fd1ec3681","slug":"noesis-science-center-technology-museum-b51f","kind":"restaurant","name":"NOESIS Science Center & Technology Museum","lat":40.562055011158115,"lng":22.995596178260882,"url":"https://maps.app.goo.gl/r83VD4fLTaPtYU7R6?g_st=ipc","address":"Θεσσαλονίκης 6 χλμ, Thermi 570 01","categoryIds":["family-friendly"],"categories":["Kid Friendly Locations"]},{"id":"familyFriendly_42d6652d0a87","slug":"garden-of-roses-playground-42d6","kind":"restaurant","name":"Garden of Roses Playground","lat":40.60699253708574,"lng":22.950719648023778,"url":"https://maps.app.goo.gl/cAbkipq3qupUHj1v7?g_st=ipc","address":"Leof. Meg. Alexandrou 14, Thessaloniki 546 43","categoryIds":["family-friendly"],"categories":["Kid Friendly Locations"]},{"id":"familyFriendly_70d9d42feecb","slug":"odysseas-fokas-park-70d9","kind":"restaurant","name":"Odysseas Fokas Park","lat":40.612796604966135,"lng":22.95168040124591,"url":"https://maps.app.goo.gl/yMHqMAgG61irWESX9?g_st=ipc","address":"Επιθεωρητού Δημητρίου Μισυρλή 26, Thessaloniki 542 50","categoryIds":["family-friendly"],"categories":["Kid Friendly Locations"]},{"id":"familyFriendly_a5c1b620864c","slug":"pedion-areos-a5c1","kind":"restaurant","name":"Pedion Areos","lat":40.62247582832067,"lng":22.955391871168274,"url":"https://maps.app.goo.gl/hVHTxMywZzbL2Rr26?g_st=ic","address":"Eth. Aminis 28, Thessaloniki 546 21","categoryIds":["family-friendly"],"categories":["Kid Friendly Locations"]},{"id":"familyFriendly_220ccb0fa158","slug":"road-safety-park-220c","kind":"restaurant","name":"Road Safety Park","lat":40.61702068861312,"lng":22.952313879309372,"url":"https://maps.app.goo.gl/dvUGTVktdMviyjRy9?g_st=ic","address":"Leof. Meg. Alexandrou 6, Thessaloniki 546 41","categoryIds":["family-friendly"],"categories":["Kid Friendly Locations"]},{"id":"familyFriendly_9a0302902146","slug":"perivallontiko-parko-thermis-9a03","kind":"restaurant","name":"Περιβαλλοντικό Πάρκο Θέρμης","lat":40.56073866312424,"lng":23.034167329764607,"url":"https://maps.app.goo.gl/RnpfKj2r4pesLq5V8?g_st=ipc","address":"Περιβαλλοντικό Πάρκο, Thermi 570 01","categoryIds":["family-friendly"],"categories":["Kid Friendly Locations"]}],"nearby":[{"id":"coffeeBrunchRestaurants_38190cc1f3e8","slug":"morrison-the-premium-rooftop-3819","kind":"restaurant","name":"Morrison • The Premium Rooftop","lat":40.60821540217915,"lng":22.998740403846558,"url":"https://maps.app.goo.gl/WNgG79yhRyL6k5GA9?g_st=ipc","address":"17is Noemvriou 87, Pilea 555 35","categoryIds":["coffee-brunch","rooftop-lounges"],"categories":["Coffee & Brunch Spots","Rooftop Lounges"],"legacySlugs":["morrison-the-premium-rooftop-2f03"],"distanceKm":1.0870039951035462},{"id":"fishTavernasRestaurants_4b85b6df400f","slug":"alepoy-mezedopoleio-4b85","kind":"restaurant","name":"Αλεπού Μεζεδοπωλείο","lat":40.607668350364605,"lng":22.993173165196392,"url":"https://maps.app.goo.gl/fMUK2hozw9hQG8zN8?g_st=ipc","address":"17is Noemvriou 26, Thessaloniki 555 34","categoryIds":["fish-tavernas"],"categories":["Fish Tavernas"],"distanceKm":1.4762329650609323},{"id":"greekRestaurants_532b03b35deb","slug":"trygetes-532b","kind":"restaurant","name":"Trygetes","lat":40.609449198477655,"lng":22.99030105913949,"url":"https://maps.app.goo.gl/Rf62EziGTreVjA668?g_st=ipc","address":"17is Noemvriou 12, Pilea 555 34","categoryIds":["greek-restaurants"],"categories":["Greek Restaurants"],"distanceKm":1.7772892891423737},{"id":"dessertsRestaurants_cc58df47a36e","slug":"nick-alexoudas-cc58","kind":"restaurant","name":"NICK ALEXOUDAS","lat":40.60097575143556,"lng":22.988160776463623,"url":"https://maps.app.goo.gl/svQRP7nS7UargNrc9?g_st=ipc","address":"Profitou Ilia 77, Pilea 555 35","categoryIds":["desserts"],"categories":["Dessert Shops"],"distanceKm":1.8051546790864823},{"id":"cheapEatsRestaurants_0c3a0f831178","slug":"food-truck-park-skg-0c3a","kind":"restaurant","name":"Food Truck Park SKG","lat":40.609281906480575,"lng":22.989500884434833,"url":"https://maps.app.goo.gl/hfoXLoQmnjaHwpUB7?g_st=ipc","address":"Kapetan Ntogra 31, Pilea 555 35","categoryIds":["cheap-eats"],"categories":["Gyros & Cheap Eats"],"distanceKm":1.831378310385238},{"id":"greekRestaurants_e5e2b9a4516b","slug":"strovolos-e5e2","kind":"restaurant","name":"Στρόβολος","lat":40.609636107203336,"lng":22.989436108652693,"url":"https://maps.app.goo.gl/yxZrsFbF6G2pXQQK9?g_st=ipc","address":"Μεσολογγίου 17 νοεμβριου, Θεσσαλονίκη 555 35","categoryIds":["greek-restaurants"],"categories":["Greek Restaurants"],"distanceKm":1.8523294916193527},{"id":"municipalities_c798a6e71a6d","slug":"panorama-c798","kind":"municipality","name":"Πανόραμα","lat":40.587,"lng":23.0188,"region":"Θεσσαλονίκη","name_en":"Panorama","region_en":"Thessaloniki","distanceKm":1.9220960753274916},{"id":"burgersRestaurants_96feec737ac7","slug":"brothers-in-law-96fe","kind":"restaurant","name":"Brothers In Law","lat":40.610811655039555,"lng":22.98741536304393,"url":"https://maps.app.goo.gl/VFJTVUrK126W1Uku9?g_st=ipc","address":"Grigoriou Lampraki 244, Pilea 543 52","categoryIds":["burgers"],"categories":["Burger Spots"],"distanceKm":2.0622564933735923},{"id":"municipalities_743916b7b194","slug":"charilaoy-7439","kind":"municipality","name":"Χαριλάου","lat":40.6054,"lng":22.9851,"region":"Θεσσαλονίκη","name_en":"Charilaou","region_en":"Thessaloniki","distanceKm":2.073765110208108},{"id":"familyFriendly_b986941160fd","slug":"elaiorema-b986","kind":"restaurant","name":"Elaiorema","lat":40.60429462558645,"lng":22.984614393067023,"url":"https://maps.app.goo.gl/2QyvxSuh6SKLNY7X8?g_st=ic","address":"Pylaia 555 35","categoryIds":["family-friendly"],"categories":["Kid Friendly Locations"],"distanceKm":2.100758738243349},{"id":"fishTavernasRestaurants_3eebfb65840d","slug":"glykanisos-3eeb","kind":"restaurant","name":"Glykanisos","lat":40.59789425560311,"lng":22.984970079796003,"url":"https://maps.app.goo.gl/uuxCBL4zdiCK3Cui9?g_st=ipc","address":"Meg. Alexandrou 46, Pilea 555 35","categoryIds":["fish-tavernas"],"categories":["Fish Tavernas"],"distanceKm":2.1331984394907764},{"id":"cheapEatsRestaurants_8ba579af851d","slug":"steakhouse-costas-8ba5","kind":"restaurant","name":"Steakhouse Costas","lat":40.607757700164754,"lng":22.984167654560377,"url":"https://maps.app.goo.gl/vkLu33M5Ct15FeXa6?g_st=ipc","address":"Emmanouil Fili 15, Pilea 555 34","categoryIds":["cheap-eats"],"categories":["Gyros & Cheap Eats"],"distanceKm":2.2029522954557192},{"id":"dessertsRestaurants_0447f5ff16d8","slug":"pie-serres-lambrakis-0447","kind":"restaurant","name":"Pie \"SERRES\" Lambrakis","lat":40.611438946577884,"lng":22.985616518677983,"url":"https://maps.app.goo.gl/t2b2XQwYxmP3pkBd6?g_st=ipc","address":"Grigoriou Lampraki 222, Thessaloniki 555 34","categoryIds":["desserts"],"categories":["Dessert Shops"],"distanceKm":2.2293287380193396},{"id":"cheapEatsRestaurants_2468c5a59712","slug":"petridis-and-sons-grill-house-2468","kind":"restaurant","name":"Petridis And Sons - Grill House","lat":40.61189681851916,"lng":22.984212166296615,"url":"https://maps.app.goo.gl/qmEdiZfcHrQAp8pU7?g_st=ipc","address":"Grigoriou Lampraki 206, Thessaloniki 555 34","categoryIds":["cheap-eats"],"categories":["Gyros & Cheap Eats"],"distanceKm":2.3582339044848957},{"id":"greekRestaurants_d9762e9f6ad6","slug":"to-neon-estiatorio-d976","kind":"restaurant","name":"ΤΟ ΝΕΟΝ εστιατόριο","lat":40.61224067227643,"lng":22.98407750802401,"url":"https://maps.app.goo.gl/fkULAaU3UcrpCHGRA?g_st=ipc","address":"Γρηγορίου Λαμπράκη 205 & Δημ.Τσιαπάνου 25-29, Άνω Τούμπα 543 52","categoryIds":["greek-restaurants"],"categories":["Greek Restaurants"],"distanceKm":2.3851611930890853},{"id":"greekRestaurants_87ad943f04be","slug":"mpaloyxis-87ad","kind":"restaurant","name":"ΜΠΑΛΟΥΞΗΣ","lat":40.60469663357637,"lng":22.980860258041304,"url":"https://maps.app.goo.gl/mkwSB515HmQ3h8yA8?g_st=ipc","address":"Δορυλαίου 86, Πυλαία 544 54","categoryIds":["greek-restaurants"],"categories":["Greek Restaurants"],"distanceKm":2.4203524101888827},{"id":"municipalities_4a13189642f7","slug":"aggelochori-4a13","kind":"municipality","name":"Αγγελοχώρι","lat":40.5886,"lng":22.9875,"aliases":["Αγγελοχωρι"],"region":"Θεσσαλονίκη","name_en":"Angelochori","region_en":"Thessaloniki","distanceKm":2.4287313768514545},{"id":"dessertsRestaurants_4314e81fb349","slug":"boutique-baking-pepi-beza-4314","kind":"restaurant","name":"Boutique Baking Pepi Beza","lat":40.59730321322995,"lng":22.979587033632086,"url":"https://maps.app.goo.gl/daRMg1RfmVJcgATKA?g_st=ipc","address":"Meg. Alexandrou 3, Pilea 555 35","categoryIds":["desserts"],"categories":["Dessert Shops"],"distanceKm":2.5900326832183374},{"id":"italianRestaurants_26ce0faec041","slug":"raffaele-pizza-pasta-26ce","kind":"restaurant","name":"Raffaele Pizza & Pasta","lat":40.609052469541666,"lng":22.97944908191486,"url":"https://maps.app.goo.gl/t8jAxdhgPG7fRJcE7?g_st=ipc","address":"Αμφιπόλεως 45, Thessaloniki 544 54","categoryIds":["italian"],"categories":["Italian Restaurants"],"distanceKm":2.6250153791283433},{"id":"coffeeBrunchRestaurants_15d66401c4fe","slug":"paradosiako-panorama-15d6","kind":"restaurant","name":"Παραδοσιακό (Πανόραμα)","lat":40.590095905104064,"lng":23.036102401133366,"url":"https://maps.app.goo.gl/TUmt6vrXSEXCXWNj8?g_st=ipc","address":"Papadopoulou 17, Panorama 552 36","categoryIds":["coffee-brunch"],"categories":["Coffee & Brunch Spots"],"distanceKm":2.656433415198462},{"id":"dessertsRestaurants_84006bf7f4fa","slug":"sugarini-8400","kind":"restaurant","name":"Sugarini","lat":40.61332571258828,"lng":22.981104601509724,"url":"https://maps.app.goo.gl/m9owYPpFDRCrPtgq6?g_st=ipc","address":"Grigoriou Lampraki 169, Thessaloniki 543 52","categoryIds":["desserts"],"categories":["Dessert Shops"],"distanceKm":2.6635915139270585},{"id":"cheapEatsRestaurants_1de3117b26db","slug":"omega-grill-1de3","kind":"restaurant","name":"Ωμέγα Grill","lat":40.6085969632586,"lng":22.97871142955339,"url":"https://maps.app.goo.gl/Jp9h1Xe2kPqJT7td9?g_st=ipc","address":"Αμφιπόλεως 34, Thessaloniki 544 54","categoryIds":["cheap-eats"],"categories":["Gyros & Cheap Eats"],"distanceKm":2.67231085832936},{"id":"dessertsRestaurants_2dd2e036af70","slug":"elenidis-2dd2","kind":"restaurant","name":"Elenidis","lat":40.590269244540906,"lng":23.036630664756583,"url":"https://maps.app.goo.gl/L8fJy8x72XPMwgQC6?g_st=ipc","address":"Venizelou 12, Panorama 552 36","categoryIds":["desserts"],"categories":["Dessert Shops"],"distanceKm":2.684353541098428},{"id":"coffeeBrunchRestaurants_79653b358f9a","slug":"dio-con-dio-7965","kind":"restaurant","name":"Dio Con Dio","lat":40.59016290783814,"lng":23.03657930037768,"url":"https://maps.app.goo.gl/SCXFA22cPne9xMiLA?g_st=ipc","address":"Papadopoulou 19, Panorama 552 36","categoryIds":["coffee-brunch"],"categories":["Coffee & Brunch Spots"],"distanceKm":2.6867833683673874}],"sameRegion":[],"mentionedGuides":[],"canonicalSlug":"trees-trees-e11e","isCanonicalEntity":true,"enrichment":{"summary_en":"Trees Trees is a curated restaurant in Pilea 555 35 in the Kid Friendly Locations collection. It is connected to 0 nearby Googlementor picks to help travelers build a stronger local route.","summary_el":"Trees Trees είναι ένα επιλεγμένο σημείο φαγητού στην περιοχή Pilea 555 35 και ανήκει στη συλλογή Kid Friendly Locations. Συνδέεται με 0 κοντινές προτάσεις του Googlementor για πιο ολοκληρωμένη εμπειρία.","vibe_tags":["curated","family-ready"],"best_for":["first-time visitors","food lovers","families"],"visit_moments":["lunch stop","dinner stop"],"practical_note":"Address and direct map link are available for easy turn-by-turn access.","nearby_walkable_count":0,"nearby_count_2km":7,"confidence":0.9},"areaContext":{"slug":"panorama","name":"Panorama"},"intentContexts":[{"href":"/family-friendly/panorama","label":"Kid Friendly Locations in Panorama","categorySlug":"family-friendly","categoryName":"Kid Friendly Locations","areaSlug":"panorama","areaName":"Panorama"}]},"__N_SSG":true}