{"pageProps":{"entity":{"id":"burgersRestaurants_7bcb47e330c5","slug":"tryfonas-kempaptzidikon-hamburgerie-7bcb","kind":"restaurant","name":"Τρύφωνας Κεμπαπτζίδικoν - Hamburgerie","lat":38.0125506362582,"lng":23.70608974489792,"url":"https://maps.app.goo.gl/cE9CbEn5LYoZ6WKj7?g_st=ipc","address":"Παρασκευοπούλου 51, Περιστέρι 121 34","categoryIds":["burgers","cheap-eats"],"categories":["Burger Spots","Gyros & Cheap Eats"],"legacySlugs":["tryfonas-kempaptzidikon-hamburgerie-390d"]},"sameCategory":[{"id":"burgersRestaurants_08ca7d0bda51","slug":"koutsi-katsika-street-food-nea-filadelfeia-08ca","kind":"restaurant","name":"Koutsi Katsika Street Food Νέα Φιλαδέλφεια","lat":38.03629712914596,"lng":23.73867302573474,"url":"https://maps.app.goo.gl/XqS8cuX3SxVKDWRr8?g_st=ipc","address":"Λεωφ. Δεκελείας 109, Νέα Φιλαδέλφεια Αττικής 143 41","categoryIds":["burgers","cheap-eats"],"categories":["Burger Spots","Gyros & Cheap Eats"],"legacySlugs":["koutsi-katsika-street-food-nea-filadelfeia-2553"]},{"id":"burgersRestaurants_c839a7ca9229","slug":"prigkipas-c839","kind":"restaurant","name":"Πρiγκιπας","lat":37.983677017107105,"lng":23.73451147367233,"url":"https://maps.app.goo.gl/fEvt3vsxx19nFxqw8?g_st=ipc","address":"Χαρ. Τρικούπη 23, Αθήνα 106 81","categoryIds":["burgers","cheap-eats"],"categories":["Burger Spots","Gyros & Cheap Eats"],"legacySlugs":["prigkipas-f678"]},{"id":"burgersRestaurants_3c1c73d21fec","slug":"meat-n-roses-kolonaki-3c1c","kind":"restaurant","name":"Meat n Roses Kolonaki","lat":37.97828442263524,"lng":23.735087640545906,"url":"https://maps.app.goo.gl/qGwCStnKNtrJzrtm6?g_st=ipc","address":"Αμερικής 7, Αθήνα 106 72","categoryIds":["burgers","cheap-eats"],"categories":["Burger Spots","Gyros & Cheap Eats"],"legacySlugs":["meat-n-roses-kolonaki-9219"]},{"id":"burgersRestaurants_333f3b6e6592","slug":"chicken-queen-333f","kind":"restaurant","name":"Chicken Queen","lat":37.96764787341708,"lng":23.749271201498335,"url":"https://maps.app.goo.gl/y9qpEuxuYdxvEzYY9?g_st=ipc","address":"Ευτυχίδου 47, Αθήνα 116 34","categoryIds":["burgers","cheap-eats"],"categories":["Burger Spots","Gyros & Cheap Eats"],"legacySlugs":["chicken-queen-b3b7"]},{"id":"burgersRestaurants_c05eb7f13ddf","slug":"psychiatreio-c05e","kind":"restaurant","name":"Ψυχιατρείο","lat":37.941454787946455,"lng":23.74643002685345,"url":"https://maps.app.goo.gl/nvzgc7zjFUEkgZMN8?g_st=ipc","address":"Αγίου Κωνσταντίνου 16, Ηλιούπολη 163 46","categoryIds":["burgers","cheap-eats"],"categories":["Burger Spots","Gyros & Cheap Eats"],"legacySlugs":["psychiatreio-6c0c"]},{"id":"burgersRestaurants_4906276397a1","slug":"godgilla-keratsini-4906","kind":"restaurant","name":"GODGILLA ΚΕΡΑΤΣΙΝΙ","lat":37.95895954039208,"lng":23.62512429010796,"url":"https://maps.app.goo.gl/XPM5TwgWvpZmGQUh6?g_st=ipc","address":"Θεόφραστου 54, Κερατσίνι 187 56","categoryIds":["burgers","cheap-eats"],"categories":["Burger Spots","Gyros & Cheap Eats"],"legacySlugs":["godgilla-keratsini-e67b"]},{"id":"burgersRestaurants_51cd3df73f20","slug":"mpar-mpee-kioy-freattyda-51cd","kind":"restaurant","name":"Μπαρ Μπεε Κιου - Φρεαττύδα","lat":37.93450645446817,"lng":23.642685440187794,"url":"https://maps.app.goo.gl/UkJPpNzXrBGL944RA?g_st=ipc","address":"Λεωφ. Φρεάττυδος 13, Πειραιάς 185 37","categoryIds":["burgers","cheap-eats"],"categories":["Burger Spots","Gyros & Cheap Eats"],"legacySlugs":["mpar-mpee-kioy-freattyda-b711"]},{"id":"burgersRestaurants_ceb67d2517dd","slug":"godgilla-umami-street-food-ceb6","kind":"restaurant","name":"Godgilla umami street food","lat":38.056565975998105,"lng":23.814008768575892,"url":"https://maps.app.goo.gl/WyovvCKHo17WtrPb8?g_st=ipc","address":"Γεωρ. Κοτζιά 2, Μαρούσι 151 26","categoryIds":["burgers","cheap-eats"],"categories":["Burger Spots","Gyros & Cheap Eats"],"legacySlugs":["godgilla-umami-street-food-784d"]},{"id":"burgersRestaurants_797126963f1f","slug":"amam-estiatorio-glyfada-7971","kind":"restaurant","name":"ΑΜΑΜ - ΕΣΤΙΑΤΟΡΙΟ - ΓΛΥΦΑΔΑ","lat":37.895880681449796,"lng":23.761095559330744,"url":"https://maps.app.goo.gl/fAsTx4mwCTHC78t86?g_st=ipc","address":"Γεωρ. Γεννηματά 11, Γλυφάδα 165 62","categoryIds":["burgers","cheap-eats"],"categories":["Burger Spots","Gyros & Cheap Eats"],"legacySlugs":["amam-estiatorio-glyfada-af98"]},{"id":"burgersRestaurants_9c2f22b0606b","slug":"hashtag-burger-9c2f","kind":"restaurant","name":"Hashtag#Burger","lat":37.89371001882756,"lng":23.763217485797266,"url":"https://maps.app.goo.gl/BsuHdbYYc8dsSTwn8?g_st=ipc","address":"Γεωρ. Γεννηματά 26, Γλυφάδα 165 62","categoryIds":["burgers","cheap-eats"],"categories":["Burger Spots","Gyros & Cheap Eats"],"legacySlugs":["hashtag-burger-30dc"]},{"id":"burgersRestaurants_4060fc5be247","slug":"maestro-cantina-4060","kind":"restaurant","name":"Maestro Cantina","lat":40.539870288194706,"lng":23.0207573353921,"url":"https://maps.app.goo.gl/WJTaYcJdPxACzwkXA?g_st=ipc","address":"EO Thessalonikis Poligirou 32, Thermi 570 01","categoryIds":["burgers","cheap-eats"],"categories":["Burger Spots","Gyros & Cheap Eats"],"legacySlugs":["maestro-cantina-5ff9"]},{"id":"burgersRestaurants_54aa085a6ef8","slug":"sinners-smash-burgers-54aa","kind":"restaurant","name":"Sinners Smash Burgers","lat":40.57608642412674,"lng":22.98935981589618,"url":"https://maps.app.goo.gl/Y2NDJtMWMoJrutpZ6?g_st=ipc","address":"Στέλιου Καζαντζίδη 31, Pilea 555 35","categoryIds":["burgers","cheap-eats"],"categories":["Burger Spots","Gyros & Cheap Eats"],"legacySlugs":["sinners-smash-burgers-e79f"]}],"nearby":[{"id":"cheapEatsRestaurants_27095ef62808","slug":"jackaroo-2709","kind":"restaurant","name":"Jackaroo","lat":38.0124039916799,"lng":23.705649430022987,"url":"https://maps.app.goo.gl/ZVfeByxQrS6SFYyH6?g_st=ipc","address":"Παρασκευοπούλου 45, Περιστέρι 121 35","categoryIds":["cheap-eats"],"categories":["Gyros & Cheap Eats"],"distanceKm":0.04187988694366845},{"id":"greekRestaurants_8f61506d1171","slug":"basegrill-athens-8f61","kind":"restaurant","name":"Basegrill Athens","lat":38.01200938597209,"lng":23.7082215195935,"url":"https://maps.app.goo.gl/4HcYYs1yQVdq1giy8","address":"Λεωφ. Κωνσταντινουπόλεως 64, Περιστέρι 121 33","categoryIds":["greek-restaurants","luxury-dining"],"categories":["Greek Restaurants","Luxury Dining"],"legacySlugs":["basegrill-athens-1a54"],"distanceKm":0.19621859616555198},{"id":"greekRestaurants_9c5c07b28afc","slug":"schinos-mpistro-9c5c","kind":"restaurant","name":"Σχίνος Μπιστρό","lat":38.01228323858559,"lng":23.703471319893453,"url":"https://maps.app.goo.gl/VEoaxecqRaF6Y2in8","address":"Μεγ. Αλεξάνδρου 88, Περιστέρι 121 32","categoryIds":["greek-restaurants"],"categories":["Greek Restaurants"],"distanceKm":0.23131380110855712},{"id":"municipalities_6d3b56c27da3","slug":"peristeri-6d3b","kind":"municipality","name":"Περιστέρι","lat":38.015,"lng":23.7035,"aliases":["Peristeria"],"region":"Δυτικά Προάστια","name_en":"Peristeri","region_en":"Western Suburbs","distanceKm":0.3544741083445281},{"id":"greekRestaurants_c4daeb8f4d66","slug":"malanos-c4da","kind":"restaurant","name":"Μαλανος","lat":38.0129537569984,"lng":23.7103246194612,"url":"https://maps.app.goo.gl/RHBwmAA2mvG3Eie58","address":"Ιωλκού 2, Περιστέρι 121 33","categoryIds":["greek-restaurants"],"categories":["Greek Restaurants"],"distanceKm":0.37370508498798566},{"id":"cheapEatsRestaurants_093f463c1994","slug":"krepes-gorillas-093f","kind":"restaurant","name":"Κρέπες Gorillas","lat":38.011039639297316,"lng":23.701212318200714,"url":"https://maps.app.goo.gl/Us2VxvnWiFa4zh7E6?g_st=ipc","address":"Παρασκευοπούλου 14, Περιστέρι 121 32","categoryIds":["cheap-eats"],"categories":["Gyros & Cheap Eats"],"distanceKm":0.45914996673622555},{"id":"greekRestaurants_d28823b9eec2","slug":"myrtia-peristeri-d288","kind":"restaurant","name":"Μυρτιά - Περιστέρι","lat":38.00643775276086,"lng":23.706964574646523,"url":"https://maps.app.goo.gl/ZmkpQ1J6yj1b1iUX6","address":"Αγίας Παρασκευής 24, Περιστέρι 121 32","categoryIds":["greek-restaurants"],"categories":["Greek Restaurants"],"distanceKm":0.6840292166661247},{"id":"dessertsRestaurants_dee89939fc01","slug":"fatto-a-mano-dee8","kind":"restaurant","name":"Fatto a mano","lat":38.01285925597916,"lng":23.69800274614105,"url":"https://maps.app.goo.gl/pLS84iDcmv72Qzqa6?g_st=ipc","address":"Κώστα Βάρναλη 21, Περιστέρι 121 34","categoryIds":["desserts"],"categories":["Dessert Shops"],"distanceKm":0.7093133004648127},{"id":"coffeeBrunchRestaurants_311880d8c64b","slug":"the-roosters-3118","kind":"restaurant","name":"The Roosters","lat":38.01136673827295,"lng":23.697881523081808,"url":"https://maps.app.goo.gl/4RrZxNGRywBkjvdY7?g_st=ipc","address":"25ης Μαρτίου 7, Περιστέρι 121 32","categoryIds":["coffee-brunch"],"categories":["Coffee & Brunch Spots"],"distanceKm":0.7310603801498521},{"id":"greekRestaurants_66d5a57225f6","slug":"taverna-o-karagkiozis-66d5","kind":"restaurant","name":"Ταβέρνα Ο Καραγκιόζης","lat":38.01836729151931,"lng":23.702104419170855,"url":"https://maps.app.goo.gl/zhCvjvwCT9rbixAE6","address":"Τρώων 9, Bournazi 121 33","categoryIds":["greek-restaurants"],"categories":["Greek Restaurants"],"distanceKm":0.7349970499410234},{"id":"cheapEatsRestaurants_bcddf7ad717f","slug":"wolfie-s-west-side-bcdd","kind":"restaurant","name":"Wolfie’s West Side","lat":38.01077144638466,"lng":23.697740028763043,"url":"https://maps.app.goo.gl/LdnLWyeBqVd2Tcme7?g_st=ipc","address":"Kosta Varnali 6, Peristeri 121 32","categoryIds":["cheap-eats"],"categories":["Gyros & Cheap Eats"],"distanceKm":0.7577895840767962},{"id":"cheapEatsRestaurants_e8ef6d026703","slug":"i-vromiara-the-gourmet-street-food-peristeri-e8ef","kind":"restaurant","name":"Η Βρωμιάρα - The Gourmet Street Food Περιστέρι","lat":38.0121286185235,"lng":23.696851045660715,"url":"https://maps.app.goo.gl/zuoR5Z99oiyHXZs26?g_st=ipc","address":"Λεωφ. Παναγή Τσαλδάρη 16, Περιστέρι 121 34","categoryIds":["cheap-eats"],"categories":["Gyros & Cheap Eats"],"distanceKm":0.8107436405504284},{"id":"coffeeBrunchRestaurants_1af20f440d3d","slug":"farin-moya-farin-moua-1af2","kind":"restaurant","name":"Φαρίν Μουά (Farin Moua)","lat":38.01222147430599,"lng":23.696769307184784,"url":"https://maps.app.goo.gl/JTr1zxCGMeDfbPnm6?g_st=ipc","address":"Ερυθραίας 2, Περιστέρι 121 34","categoryIds":["coffee-brunch"],"categories":["Coffee & Brunch Spots"],"distanceKm":0.8173647768396066},{"id":"luxuryDiningRestaurants_0fe20ce95de7","slug":"travolta-athens-0fe2","kind":"restaurant","name":"Travolta Athens","lat":38.005280171628534,"lng":23.702492953168832,"url":"https://maps.app.goo.gl/SyrzTdSeaJcSZMj28?g_st=ipc","address":"Αγίου Παύλου 33, Περιστέρι 121 32","categoryIds":["luxury-dining"],"categories":["Luxury Dining"],"distanceKm":0.8676840085802467},{"id":"dessertsRestaurants_d015844307c4","slug":"melissa-define-pastry-d015","kind":"restaurant","name":"Melissa Define Pastry","lat":38.005374786794874,"lng":23.70042813616108,"url":"https://maps.app.goo.gl/2dgPEnwHsxFhZdUv8?g_st=ipc","address":"Εθνάρχου Μακαρίου 43, Περιστέρι 121 31","categoryIds":["desserts"],"categories":["Dessert Shops"],"distanceKm":0.9395288082925284},{"id":"asianRestaurants_0fe2688bf847","slug":"shisan-sushi-bar-0fe2","kind":"restaurant","name":"Shisan Sushi Bar","lat":38.01157900293343,"lng":23.695417186581494,"url":"https://maps.app.goo.gl/W1ubxVBTLcx41Yqd8?g_st=ipc","address":"Αιμιλίου Βεάκη 36, Περιστέρι 121 34","categoryIds":["asian"],"categories":["Asian Restaurants"],"distanceKm":0.941226950519496},{"id":"dessertsRestaurants_96d806e54fdc","slug":"zacharoplasteia-konstantinidis-96d8","kind":"restaurant","name":"ΖΑΧΑΡΟΠΛΑΣΤΕΙΑ ΚΩΝΣΤΑΝΤΙΝΙΔΗΣ","lat":38.00389002360962,"lng":23.70225603913556,"url":"https://maps.app.goo.gl/41mNPJi23HwsoihK8?g_st=ipc","address":"Εθνάρχου Μακαρίου 17, Περιστέρι 121 31","categoryIds":["desserts"],"categories":["Dessert Shops"],"distanceKm":1.019910360295922},{"id":"municipalities_843525938864","slug":"sepolia-8435","kind":"municipality","name":"Σεπόλια","lat":38.0056,"lng":23.7139,"aliases":["Σεπολια"],"region":"Κέντρο Αθήνας","name_en":"Sepolia","region_en":"Athens Center","distanceKm":1.0322617339390672},{"id":"cheapEatsRestaurants_aa9fa501d8da","slug":"billy-s-sandwich-peristeri-billy-s-kantina-aa9f","kind":"restaurant","name":"Billy's sandwich Peristeri (Billy’s Kantina)","lat":38.00300791270127,"lng":23.702770148654015,"url":"https://maps.app.goo.gl/kQSFCYCMduFPwVhw9?g_st=ipc","address":"Π. Μελά 11, Περιστέρι 121 31","categoryIds":["cheap-eats"],"categories":["Gyros & Cheap Eats"],"distanceKm":1.1002395879691895},{"id":"cheapEatsRestaurants_64ecfbc2f3f4","slug":"mayro-alati-64ec","kind":"restaurant","name":"Μαύρο Αλάτι","lat":38.011756038342455,"lng":23.693312637532987,"url":"https://maps.app.goo.gl/WBopamZ7xeysedvt5?g_st=ipc","address":"Αιμιλίου Βεάκη 44, Περιστέρι 121 34","categoryIds":["cheap-eats"],"categories":["Gyros & Cheap Eats"],"distanceKm":1.1228619600859164},{"id":"coffeeBrunchRestaurants_6a62e770d50a","slug":"mind-the-cup-6a62","kind":"restaurant","name":"Mind The Cup","lat":38.01157944836187,"lng":23.693274104432696,"url":"https://maps.app.goo.gl/ztF6fFTkc58DpW1r6?g_st=ipc","address":"Αιμιλίου Βεάκη 29, Περιστέρι 121 34","categoryIds":["coffee-brunch","vegetarian"],"categories":["Coffee & Brunch Spots","Vegetarian Friendly Restaurants"],"legacySlugs":["mind-the-cup-0167"],"distanceKm":1.1279390517811874},{"id":"dessertsRestaurants_fe0eaa42452f","slug":"iceroll-peristeri-fe0e","kind":"restaurant","name":"Iceroll Peristeri","lat":38.01176430122643,"lng":23.693145391813818,"url":"https://maps.app.goo.gl/vjP8tAUnWK58Uq5x7?g_st=ipc","address":"Αιμιλίου Βεάκη 46, Περιστέρι 121 34","categoryIds":["desserts"],"categories":["Dessert Shops"],"distanceKm":1.1373981580800223},{"id":"italianRestaurants_1b88f38100c7","slug":"the-italians-peristeri-1b88","kind":"restaurant","name":"The italians_peristeri","lat":38.01175840681134,"lng":23.693124439008372,"url":"https://maps.app.goo.gl/EPn5hzC47NSHkek9A?g_st=ipc","address":"Αιμιλίου Βεάκη 46, Περιστέρι 121 34","categoryIds":["italian"],"categories":["Italian Restaurants"],"distanceKm":1.1392789113725224},{"id":"coffeeBrunchRestaurants_d973150da438","slug":"godmama-s-yard-d973","kind":"restaurant","name":"Godmama's Yard","lat":38.01041883422101,"lng":23.693182201934864,"url":"https://maps.app.goo.gl/eq6S1VVqt14LtEJ1A?g_st=ipc","address":"Βασ. Αλεξάνδρου 98, Περιστέρι 121 34","categoryIds":["coffee-brunch"],"categories":["Coffee & Brunch Spots"],"distanceKm":1.1553959022973657}],"sameRegion":[],"mentionedGuides":[],"canonicalSlug":"tryfonas-kempaptzidikon-hamburgerie-7bcb","isCanonicalEntity":false,"enrichment":{"summary_en":"Τρύφωνας Κεμπαπτζίδικoν - Hamburgerie is a curated restaurant in Περιστέρι 121 34 in the Burger Spots collection. It is connected to 11 nearby Googlementor picks to help travelers build a stronger local route.","summary_el":"Τρύφωνας Κεμπαπτζίδικoν - Hamburgerie είναι ένα επιλεγμένο σημείο φαγητού στην περιοχή Περιστέρι 121 34 και ανήκει στη συλλογή Burger Spots. Συνδέεται με 11 κοντινές προτάσεις του Googlementor για πιο ολοκληρωμένη εμπειρία.","vibe_tags":["curated","budget-friendly"],"best_for":["first-time visitors","food lovers","budget travelers"],"visit_moments":["lunch stop","dinner stop"],"practical_note":"Address and direct map link are available for easy turn-by-turn access.","nearby_walkable_count":11,"nearby_count_2km":54,"confidence":0.98},"areaContext":{"slug":"peristeri","name":"Peristeri"},"intentContexts":[{"href":"/cheap-eats/peristeri","label":"Gyros & Cheap Eats in Peristeri","categorySlug":"cheap-eats","categoryName":"Gyros & Cheap Eats","areaSlug":"peristeri","areaName":"Peristeri"}]},"__N_SSG":true}