{"pageProps":{"entity":{"id":"greekRestaurants_3188c54ebc61","slug":"vlachiki-gastra-3188","kind":"restaurant","name":"Βλάχικη Γάστρα","lat":38.11813280551885,"lng":23.875469007658698,"url":"https://maps.app.goo.gl/DHcE17CBEXSZqg9G9","address":"Κολοκοτρώνη 14, Ροδόπολη 145 74","categoryIds":["greek-restaurants"],"categories":["Greek Restaurants"]},"sameCategory":[{"id":"greekRestaurants_8bd7eaffbbd0","slug":"ayli-8bd7","kind":"restaurant","name":"Αυλή","lat":38.1169884488727,"lng":23.873697271500465,"url":"https://maps.app.goo.gl/j3KcRnM1M4kAsQz36","address":"25ης Μαρτίου 24, Ροδόπολη 145 74","categoryIds":["greek-restaurants"],"categories":["Greek Restaurants"]},{"id":"greekRestaurants_626964779e0f","slug":"pipinios-6269","kind":"restaurant","name":"Pipinios","lat":38.12550464522669,"lng":23.87986733346546,"url":"https://maps.app.goo.gl/iPGdNokEkHQwjcP5A","address":"Πέππα 1, Σταμάτα 145 75","categoryIds":["greek-restaurants"],"categories":["Greek Restaurants"]},{"id":"greekRestaurants_a8f96784536e","slug":"peinirli-eleytheriadis-a8f9","kind":"restaurant","name":"Πεϊνιρλί Ελευθεριάδης","lat":38.11739320879304,"lng":23.862199451872925,"url":"https://maps.app.goo.gl/hWqtsGrqa7nCZyh16","address":"Σολωμού 26, Δροσιά 145 72","categoryIds":["greek-restaurants"],"categories":["Greek Restaurants"]},{"id":"greekRestaurants_eb34b601c233","slug":"amygdaleza-eb34","kind":"restaurant","name":"Αμυγδαλέζα","lat":38.138791020092526,"lng":23.886474004082586,"url":"https://maps.app.goo.gl/xbczXzqr95568Y2p7","address":"Μεγ. Αλεξάνδρου 86, Σταμάτα 145 75","categoryIds":["greek-restaurants"],"categories":["Greek Restaurants"]},{"id":"greekRestaurants_a9fd28504adb","slug":"agroktima-regkoykoy-taverna-stamata-a9fd","kind":"restaurant","name":"Αγρόκτημα Ρεγκούκου Ταβέρνα Σταμάτα","lat":38.142623703496184,"lng":23.888598580375778,"url":"https://maps.app.goo.gl/X9aRczkLosh9Awyu8","address":"Έκτορος, Σταμάτα 145 75","categoryIds":["greek-restaurants"],"categories":["Greek Restaurants"]},{"id":"greekRestaurants_c38384cb3d4e","slug":"gakias-c383","kind":"restaurant","name":"Γάκιας","lat":38.09024721634053,"lng":23.815925478181978,"url":"https://maps.app.goo.gl/5fW7sQn1VfXFue1i8","address":"Ευαγγελίστριας και Κρήνης, Νέα Ερυθραία 146 71","categoryIds":["greek-restaurants"],"categories":["Greek Restaurants"]},{"id":"greekRestaurants_b22d69737b66","slug":"parasia-istories-geyseon-b22d","kind":"restaurant","name":"Παρασιά Ιστορίες Γεύσεων","lat":38.08628061091575,"lng":23.81539216213334,"url":"https://maps.app.goo.gl/FtKavrSVarJSeYwXA","address":"Σκιάθου 3, Κηφισιά 145 64","categoryIds":["greek-restaurants"],"categories":["Greek Restaurants"]},{"id":"greekRestaurants_89a2b5f64a13","slug":"taverna-to-koytoyki-89a2","kind":"restaurant","name":"Ταβέρνα Το Κουτούκι","lat":38.083850431201256,"lng":23.816117674528748,"url":"https://maps.app.goo.gl/wD1K2DMnmMrpmHVu7","address":"Λεωφ. Κηφισίας 308, Κηφισιά 145 63","categoryIds":["greek-restaurants"],"categories":["Greek Restaurants"]},{"id":"greekRestaurants_ea49f706ac3a","slug":"vathis-taverna-kifisia-ea49","kind":"restaurant","name":"Βαθης - Ταβέρνα - Κηφισιά","lat":38.08767324286352,"lng":23.812020752033984,"url":"https://maps.app.goo.gl/8zy6QLVSBAEWjShh9","address":"Κύρου 7, Κηφισιά 145 64","categoryIds":["greek-restaurants"],"categories":["Greek Restaurants"]},{"id":"greekRestaurants_6b39ddfea6e1","slug":"magginas-taverna-melissia-6b39","kind":"restaurant","name":"Μαγγινας Ταβέρνα Μελίσσια","lat":38.06545992903425,"lng":23.842357706146192,"url":"https://maps.app.goo.gl/FMMwbifodFsWzbX47","address":"Πλ. Εθ. Αντιστάσεως, Μελίσσια 151 27","categoryIds":["greek-restaurants"],"categories":["Greek Restaurants"]},{"id":"greekRestaurants_88c2247c1ee0","slug":"kivotos-88c2","kind":"restaurant","name":"Κιβωτός","lat":38.09806564019595,"lng":23.80316229730133,"url":"https://maps.app.goo.gl/U5NQdUWeNcGPMbcs9","address":"Διός 32, Κηφισιά 145 64","categoryIds":["greek-restaurants"],"categories":["Greek Restaurants"]},{"id":"greekRestaurants_7971743137f0","slug":"tavernier-7971","kind":"restaurant","name":"Tavernier","lat":38.09316882456775,"lng":23.805434203164346,"url":"https://maps.app.goo.gl/irth7CYMSHY5DX7t5","address":"Ελπίδος 24, Κηφισιά 145 64","categoryIds":["greek-restaurants"],"categories":["Greek Restaurants"]}],"nearby":[{"id":"greekRestaurants_8bd7eaffbbd0","slug":"ayli-8bd7","kind":"restaurant","name":"Αυλή","lat":38.1169884488727,"lng":23.873697271500465,"url":"https://maps.app.goo.gl/j3KcRnM1M4kAsQz36","address":"25ης Μαρτίου 24, Ροδόπολη 145 74","categoryIds":["greek-restaurants"],"categories":["Greek Restaurants"],"distanceKm":0.20053740239590054},{"id":"greekRestaurants_626964779e0f","slug":"pipinios-6269","kind":"restaurant","name":"Pipinios","lat":38.12550464522669,"lng":23.87986733346546,"url":"https://maps.app.goo.gl/iPGdNokEkHQwjcP5A","address":"Πέππα 1, Σταμάτα 145 75","categoryIds":["greek-restaurants"],"categories":["Greek Restaurants"],"distanceKm":0.9055169469300984},{"id":"greekRestaurants_a8f96784536e","slug":"peinirli-eleytheriadis-a8f9","kind":"restaurant","name":"Πεϊνιρλί Ελευθεριάδης","lat":38.11739320879304,"lng":23.862199451872925,"url":"https://maps.app.goo.gl/hWqtsGrqa7nCZyh16","address":"Σολωμού 26, Δροσιά 145 72","categoryIds":["greek-restaurants"],"categories":["Greek Restaurants"],"distanceKm":1.163755494387769},{"id":"municipalities_10b34011c7ab","slug":"stamata-10b3","kind":"municipality","name":"Σταμάτα","lat":38.108,"lng":23.8669,"region":"Βόρεια Προάστια","name_en":"Stamata","region_en":"North Suburbs","distanceKm":1.3533337823456637},{"id":"italianRestaurants_7494ebc89891","slug":"amici-miei-cucina-italiana-7494","kind":"restaurant","name":"Amici Miei Cucina Italiana","lat":38.1201358654641,"lng":23.85982839112877,"url":"https://maps.app.goo.gl/TKR7jw9ozmdL38DBA?g_st=ipc","address":"στρατηγού πετρίτη 7, Δροσιά 145 72","categoryIds":["italian"],"categories":["Italian Restaurants"],"distanceKm":1.3862553126158101},{"id":"asianRestaurants_d8c154eb91c4","slug":"cho-cho-san-drosia-d8c1","kind":"restaurant","name":"Cho Cho San Drosiá","lat":38.12004731625109,"lng":23.859184242640065,"url":"https://maps.app.goo.gl/uWRDz7jVt5VDWMv8A?g_st=ipc","address":"Πεύκων 17, Δροσιά 145 72","categoryIds":["asian"],"categories":["Asian Restaurants"],"distanceKm":1.4404146834344909},{"id":"cheapEatsRestaurants_0da1d84ce28f","slug":"mitsos-0da1","kind":"restaurant","name":"Μητσος","lat":38.120677354658696,"lng":23.859244908556484,"url":"https://maps.app.goo.gl/5G7Zm7z9NT4rMbC6A?g_st=ipc","address":"Λεωφ. Δροσιάς Σταματάς 4, Δροσιά 145 75","categoryIds":["cheap-eats"],"categories":["Gyros & Cheap Eats"],"distanceKm":1.4472112514019737},{"id":"burgersRestaurants_95cc953a5a70","slug":"con-voi-brunch-burgers-cocktails-95cc","kind":"restaurant","name":"Con Voi Brunch - Burgers & Cocktails","lat":38.12062536277459,"lng":23.858921152377892,"url":"https://maps.app.goo.gl/Nzdtzrh2vbG4T4VM8?g_st=ipc","address":"Λεωφ. Δροσιάς Σταματάς 2, Δροσιά 145 72","categoryIds":["burgers"],"categories":["Burger Spots"],"distanceKm":1.4738997026987102},{"id":"familyFriendly_840d2fe28674","slug":"ktima-kokotoy-840d","kind":"restaurant","name":"ΚΤΗΜΑ ΚΟΚΟΤΟΥ","lat":38.12312970101472,"lng":23.891798090837362,"url":"https://maps.app.goo.gl/9xRLBKhZXYMexEQX8?g_st=ipc","address":"Κτήμα Γ. Κοκοτού 1, Σταμάτα 145 75","categoryIds":["family-friendly","wineries-vineyards"],"categories":["Kid Friendly Locations","Wineries & Vineyards"],"legacySlugs":["ktima-kokotoy-a927"],"distanceKm":1.5327015668854882},{"id":"fishTavernasRestaurants_eaec6bd11d2a","slug":"tsipoyradiko-anoixi-para-tetarto-eaec","kind":"restaurant","name":"Τσιπουράδικο \"Άνοιξη παρά Τέταρτο\"","lat":38.13115537085702,"lng":23.860540472523713,"url":"https://maps.app.goo.gl/sSz3YRigMVCbLBcq6?g_st=ipc","address":"Αθηνών Χαλκίδος 17, Άνοιξη 145 69","categoryIds":["fish-tavernas"],"categories":["Fish Tavernas"],"distanceKm":1.949893030426249},{"id":"municipalities_b9a5c4b0e427","slug":"dionysos-b9a5","kind":"municipality","name":"Διόνυσος","lat":38.106,"lng":23.8583,"region":"Βόρεια Προάστια","name_en":"Dionysos","region_en":"North Suburbs","distanceKm":2.0190038508889803},{"id":"italianRestaurants_493a4203dbb3","slug":"da-michele-493a","kind":"restaurant","name":"Da Michele","lat":38.133061719353606,"lng":23.858730163431314,"url":"https://maps.app.goo.gl/ZAb7BbVjZ5jTGd8i8?g_st=ipc","address":"Λεωφ. Μαραθώνος 61, Άνοιξη 145 69","categoryIds":["italian"],"categories":["Italian Restaurants"],"distanceKm":2.2134845296610073},{"id":"italianRestaurants_b94ef05a5cdb","slug":"nebbiolo-b94e","kind":"restaurant","name":"Nebbiolo","lat":38.114438017917074,"lng":23.849732672241302,"url":"https://maps.app.goo.gl/wzivni6cAptzeBTTA","address":"Leof. Thiseos 111, Ekali 145 78","categoryIds":["italian"],"categories":["Italian Restaurants"],"distanceKm":2.2886862432129886},{"id":"greekRestaurants_eb34b601c233","slug":"amygdaleza-eb34","kind":"restaurant","name":"Αμυγδαλέζα","lat":38.138791020092526,"lng":23.886474004082586,"url":"https://maps.app.goo.gl/xbczXzqr95568Y2p7","address":"Μεγ. Αλεξάνδρου 86, Σταμάτα 145 75","categoryIds":["greek-restaurants"],"categories":["Greek Restaurants"],"distanceKm":2.490624268677285},{"id":"dessertsRestaurants_f058cc3bd51b","slug":"galaktopoleio-stamoy-f058","kind":"restaurant","name":"Γαλακτοπωλείο ΣΤΑΜΟΥ","lat":38.1355559087603,"lng":23.85739092129188,"url":"https://maps.app.goo.gl/qoaBzXLhGQRUPCxZ8?g_st=ipc","address":"Λεωφ. Μαραθώνος 88, Άνοιξη 145 69","categoryIds":["desserts"],"categories":["Dessert Shops"],"distanceKm":2.500780638312596},{"id":"municipalities_da89497c2656","slug":"agios-stefanos-da89","kind":"municipality","name":"Άγιος Στέφανος","lat":38.1369,"lng":23.8586,"region":"Βόρεια Προάστια","name_en":"Agios Stefanos","region_en":"North Suburbs","distanceKm":2.5557797920193033},{"id":"municipalities_9db4da788e71","slug":"rodopoli-9db4","kind":"municipality","name":"Ροδόπολη","lat":38.1307,"lng":23.8504,"region":"Βόρεια Προάστια","name_en":"Rodopoli","region_en":"North Suburbs","distanceKm":2.6002871699609598},{"id":"italianRestaurants_6f0d9cef63fd","slug":"goloso-ristorante-pizzeria-6f0d","kind":"restaurant","name":"GOLOSO ristorante pizzeria","lat":38.139099968736645,"lng":23.85960963696723,"url":"https://maps.app.goo.gl/kpW87YGKNcL27Bhi9","address":"Grigoriou Lampraki 6, Ag. Stefanos 145 65","categoryIds":["italian"],"categories":["Italian Restaurants"],"distanceKm":2.7129230135453186},{"id":"greekRestaurants_a9fd28504adb","slug":"agroktima-regkoykoy-taverna-stamata-a9fd","kind":"restaurant","name":"Αγρόκτημα Ρεγκούκου Ταβέρνα Σταμάτα","lat":38.142623703496184,"lng":23.888598580375778,"url":"https://maps.app.goo.gl/X9aRczkLosh9Awyu8","address":"Έκτορος, Σταμάτα 145 75","categoryIds":["greek-restaurants"],"categories":["Greek Restaurants"],"distanceKm":2.955501792696225},{"id":"municipalities_51534bbed11a","slug":"ekali-5153","kind":"municipality","name":"Εκάλη","lat":38.1177,"lng":23.8368,"region":"Βόρεια Προάστια","name_en":"Ekali","region_en":"North Suburbs","distanceKm":3.3831737053446083},{"id":"monasteriesChurches_8c6aab96c311","slug":"iera-moni-agioy-panteleimonos-kokkinara-pentelis-8c6a","kind":"restaurant","name":"Ιερά Μονή Αγίου Παντελεήμονος Κοκκιναρά Πεντέλης","lat":38.088041404491655,"lng":23.864689883498706,"url":"https://maps.app.goo.gl/57pNkxA8Hvik3tA97?g_st=ipc","address":"3VP8+Q2, Κηφισιά 145 63","categoryIds":["monasteries-churches"],"categories":["Monasteries & Spiritual Sites"],"distanceKm":3.4763998543829313},{"id":"monasteriesChurches_0be61b94a0f8","slug":"ieros-naos-agias-marinas-ekalis-0be6","kind":"restaurant","name":"Ιερός Ναός Αγίας Μαρίνας Εκάλης","lat":38.10774629476024,"lng":23.837173739444502,"url":"https://maps.app.goo.gl/rDcWxEZj5h9aqKaW6?g_st=ipc","address":"Λεωφ. Θησέως 54, Εκάλη 145 78","categoryIds":["monasteries-churches"],"categories":["Monasteries & Spiritual Sites"],"distanceKm":3.5438394624377194},{"id":"familyFriendly_993db4ae8c60","slug":"paidikes-ekdiloseis-xenes-glosses-petit-paris-993d","kind":"restaurant","name":"ΠΑΙΔΙΚΕΣ ΕΚΔΗΛΩΣΕΙΣ-ΞΕΝΕΣ ΓΛΩΣΣΕΣ | PETIT PARIS","lat":38.10232524306243,"lng":23.827672622944732,"url":"https://maps.app.goo.gl/4YmyHX6EqG7wK1GEA?g_st=ipc","address":"Κρίνων 2, Νέα Ερυθραία 146 71","categoryIds":["family-friendly"],"categories":["Kid Friendly Locations"],"distanceKm":4.536145546926813},{"id":"familyFriendly_53d1fe8092e8","slug":"parko-andrea-papandreoy-53d1","kind":"restaurant","name":"Πάρκο Ανδρέα Παπανδρέου","lat":38.1031196150353,"lng":23.81935226972679,"url":"https://maps.app.goo.gl/DqJ2RQU9EoTQdjWRA?g_st=ipc","address":"146 71, Αισχύλου 18, Νέα Ερυθραία 146 71","categoryIds":["family-friendly"],"categories":["Kid Friendly Locations"],"distanceKm":5.185731533975747}],"sameRegion":[],"mentionedGuides":[],"canonicalSlug":"vlachiki-gastra-3188","isCanonicalEntity":true,"enrichment":{"summary_en":"Βλάχικη Γάστρα is a curated restaurant in Ροδόπολη 145 74 in the Greek Restaurants collection. It is connected to 1 nearby Googlementor picks to help travelers build a stronger local route.","summary_el":"Βλάχικη Γάστρα είναι ένα επιλεγμένο σημείο φαγητού στην περιοχή Ροδόπολη 145 74 και ανήκει στη συλλογή Greek Restaurants. Συνδέεται με 1 κοντινές προτάσεις του Googlementor για πιο ολοκληρωμένη εμπειρία.","vibe_tags":["curated"],"best_for":["first-time visitors","food lovers"],"visit_moments":["lunch stop","dinner stop"],"practical_note":"Address and direct map link are available for easy turn-by-turn access.","nearby_walkable_count":1,"nearby_count_2km":10,"confidence":0.9},"areaContext":{"slug":"stamata","name":"Stamata"},"intentContexts":[]},"__N_SSG":true}