{"pageProps":{"entity":{"id":"municipalities_5b2ddd41014c","slug":"ydra-5b2d","kind":"municipality","name":"Ύδρα","lat":37.35,"lng":23.4667,"aliases":["Υδρα"],"region":"Νησιά Αργοσαρωνικού","name_en":"Hydra","region_en":"Saronic Islands"},"sameCategory":[],"nearby":[{"id":"greekRestaurants_2a52e887a9bb","slug":"i-oraia-ydra-2a52","kind":"restaurant","name":"Η Ωραία Ύδρα","lat":37.34994288805934,"lng":23.466175945881538,"url":"https://maps.app.goo.gl/rkvAbXZyRA6uxizH8?g_st=ipc","address":"Ύδρας, Ύδρα 180 40","categoryIds":["greek-restaurants"],"categories":["Greek Restaurants"],"distanceKm":0.04675642237920238},{"id":"coffeeBrunchRestaurants_6a007e672d77","slug":"the-pirate-bar-6a00","kind":"restaurant","name":"The Pirate Bar","lat":37.34970734644238,"lng":23.46509825080948,"url":"https://maps.app.goo.gl/kHR9XPEtdhdttpmr9?g_st=ipc","address":"Βότση, Ύδρα 180 40","categoryIds":["coffee-brunch"],"categories":["Coffee & Brunch Spots"],"distanceKm":0.14527646187564494},{"id":"greekRestaurants_957bfb0c0005","slug":"psaropoyla-g-mayrommatis-i-mayrommatis-g-eystathioy-oe-o-e-957b","kind":"restaurant","name":"ΨΑΡΟΠΟΥΛΑ Γ.ΜΑΥΡΟΜΜΑΤΗΣ-Η.ΜΑΥΡΟΜΜΑΤΗΣ-Γ.ΕΥΣΤΑΘΙΟΥ ΟΕ Ο.Ε","lat":37.34973982167689,"lng":23.46495374540123,"url":"https://maps.app.goo.gl/Xci6cmF7LRrnCad59?g_st=ipc","address":"Μιαούλη 454, Ύδρα 180 40","categoryIds":["greek-restaurants"],"categories":["Greek Restaurants"],"distanceKm":0.15704605200700736},{"id":"fishTavernasRestaurants_83ba819e5d0a","slug":"psaropoula-83ba","kind":"restaurant","name":"Psaropoula","lat":37.349711329596715,"lng":23.46495669234671,"url":"https://maps.app.goo.gl/iEjEefYGNPNwNDDy6?g_st=ipc","address":"Miaouli 454, Idra 180 40","categoryIds":["fish-tavernas"],"categories":["Fish Tavernas"],"distanceKm":0.15740543901090231},{"id":"fishTavernasRestaurants_a1376fc53fb5","slug":"omilos-restaurant-bar-a137","kind":"restaurant","name":"Omilos Restaurant Bar","lat":37.35145736724594,"lng":23.46444594181709,"url":"https://maps.app.goo.gl/WChcxQZZeaRjrCgLA?g_st=ipc","address":"Epar.Od. Mandrakiou-Molou, Idra 180 40","categoryIds":["fish-tavernas"],"categories":["Fish Tavernas"],"distanceKm":0.2568238469433036},{"id":"fishTavernasRestaurants_23eb511b3910","slug":"sunset-restaurant-23eb","kind":"restaurant","name":"Sunset Restaurant","lat":37.35168822648852,"lng":23.46274301702218,"url":"https://maps.app.goo.gl/24WnQ3Q4oomRkZm38?g_st=ipc","address":"Eparxiaki odos Hydra, 180 40","categoryIds":["fish-tavernas"],"categories":["Fish Tavernas"],"distanceKm":0.39696071340326605},{"id":"coffeeBrunchRestaurants_24def4a9906d","slug":"ydroneta-24de","kind":"restaurant","name":"Υδρονέτα","lat":37.35156953668086,"lng":23.462454743451826,"url":"https://maps.app.goo.gl/JdZyRYb4EEJyr1MGA?g_st=ipc","address":"Επαρ.Οδ. Μανδρακίου-Μωλόυ, Ύδρα 180 40","categoryIds":["coffee-brunch"],"categories":["Coffee & Brunch Spots"],"distanceKm":0.41384976674416224},{"id":"fishTavernasRestaurants_d190706d0f4c","slug":"techne-restaurant-social-d190","kind":"restaurant","name":"Téchnē Restaurant & Social","lat":37.3499478063,"lng":23.461255663187938,"url":"https://maps.app.goo.gl/LkcL3YyhTtP2AGh39?g_st=ipc","address":"Epar.Od. Mandrakiou-Molou, Idra 180 40","categoryIds":["fish-tavernas"],"categories":["Fish Tavernas"],"distanceKm":0.4812806665119285},{"id":"greekRestaurants_37c38a309ff6","slug":"castello-hydra-37c3","kind":"restaurant","name":"Castello Hydra","lat":37.34652415693392,"lng":23.455436035571626,"url":"https://maps.app.goo.gl/ZWwvNsRtXjXrDC2j9?g_st=ipc","address":"Kamini Hydra Island Hydra Island, 180 40","categoryIds":["greek-restaurants"],"categories":["Greek Restaurants"],"distanceKm":1.0680696163572803},{"id":"municipalities_fabe4f2e7a38","slug":"poros-fabe","kind":"municipality","name":"Πόρος","lat":37.4996,"lng":23.4534,"aliases":["Πορος"],"region":"Νησιά Αργοσαρωνικού","name_en":"Poros","region_en":"Saronic Islands","distanceKm":16.67616982753874},{"id":"greekRestaurants_5cc6a0ad45a2","slug":"dimitris-family-butcher-taverna-5cc6","kind":"restaurant","name":"DIMITRIS FAMILY BUTCHER TAVERNA","lat":37.49998863137907,"lng":23.454951269041434,"url":"https://maps.app.goo.gl/rVV7dw6UQwPvjHip9?g_st=ipc","address":"25 ΜΑΡΤΙΟΥ 12, Πόρος 180 20","categoryIds":["greek-restaurants"],"categories":["Greek Restaurants"],"distanceKm":16.710212483294445},{"id":"fishTavernasRestaurants_1990237d6026","slug":"poseidon-restaurant-1990","kind":"restaurant","name":"Poseidon Restaurant","lat":37.50071286982713,"lng":23.45417804690704,"url":"https://maps.app.goo.gl/1Th6rJgnvtfqZg6q7?g_st=ipc","address":"Πλατεία Βιρβίλη, Πόρος 180 20","categoryIds":["fish-tavernas"],"categories":["Fish Tavernas"],"distanceKm":16.79494635723935},{"id":"rooftopLoungesRestaurants_b9086fd9d613","slug":"oceanis-rooftop-garden-cocktails-b908","kind":"restaurant","name":"Oceanis Rooftop Garden Cocktails","lat":37.501996070488,"lng":23.45562913585347,"url":"https://maps.app.goo.gl/jsTmkoKprsWbmQrL7?g_st=ipc","address":"Πόρος 180 20","categoryIds":["rooftop-lounges"],"categories":["Rooftop Lounges"],"distanceKm":16.92944169265778},{"id":"municipalities_50a65bde2637","slug":"ermioni-50a6","kind":"municipality","name":"Ερμιόνη","lat":37.3881,"lng":23.2431,"aliases":["Ερμιονη","Hermione"],"region":"Αργολίδα","name_en":"Ermioni","region_en":"Argolis","distanceKm":20.208882303457177},{"id":"municipalities_a3110e651ee8","slug":"spetses-a311","kind":"municipality","name":"Σπέτσες","lat":37.2634,"lng":23.1564,"aliases":["Σπετσες"],"region":"Νησιά Αργοσαρωνικού","name_en":"Spetses","region_en":"Saronic Islands","distanceKm":29.084720947105406},{"id":"greekRestaurants_194196a775f8","slug":"taverna-mpatzavalis-1941","kind":"restaurant","name":"Ταβέρνα Μπατζάβαλης","lat":37.538801302509206,"lng":23.20804103233561,"url":"https://maps.app.goo.gl/PctHkeeHVJEeQDux6?g_st=ipc","address":"Καρατζάς 180 20","categoryIds":["greek-restaurants"],"categories":["Greek Restaurants"],"distanceKm":31.018960380377756},{"id":"municipalities_f635a4bd67b3","slug":"agkistri-f635","kind":"municipality","name":"Αγκίστρι","lat":37.7124,"lng":23.3447,"region":"Νησιά Αργοσαρωνικού","name_en":"Agistri","region_en":"Saronic Islands","distanceKm":41.708322260913576},{"id":"municipalities_1fbee9b0f2e3","slug":"aigina-1fbe","kind":"municipality","name":"Αίγινα","lat":37.746,"lng":23.4273,"aliases":["Αιγινα","Aegina","Egina"],"region":"Νησιά Αργοσαρωνικού","name_en":"Aegina","region_en":"Saronic Islands","distanceKm":44.16997890793762},{"id":"municipalities_8fb165d3aa1c","slug":"salamina-8fb1","kind":"municipality","name":"Σαλαμίνα","lat":37.9645,"lng":23.4965,"region":"Νησιά Αργοσαρωνικού","name_en":"Salamina","region_en":"Saronic Islands","distanceKm":68.37962007696376}],"sameRegion":[{"id":"municipalities_1fbee9b0f2e3","slug":"aigina-1fbe","kind":"municipality","name":"Αίγινα","lat":37.746,"lng":23.4273,"aliases":["Αιγινα","Aegina","Egina"],"region":"Νησιά Αργοσαρωνικού","name_en":"Aegina","region_en":"Saronic Islands"},{"id":"municipalities_8fb165d3aa1c","slug":"salamina-8fb1","kind":"municipality","name":"Σαλαμίνα","lat":37.9645,"lng":23.4965,"region":"Νησιά Αργοσαρωνικού","name_en":"Salamina","region_en":"Saronic Islands"},{"id":"municipalities_a3110e651ee8","slug":"spetses-a311","kind":"municipality","name":"Σπέτσες","lat":37.2634,"lng":23.1564,"aliases":["Σπετσες"],"region":"Νησιά Αργοσαρωνικού","name_en":"Spetses","region_en":"Saronic Islands"},{"id":"municipalities_f635a4bd67b3","slug":"agkistri-f635","kind":"municipality","name":"Αγκίστρι","lat":37.7124,"lng":23.3447,"region":"Νησιά Αργοσαρωνικού","name_en":"Agistri","region_en":"Saronic Islands"},{"id":"municipalities_fabe4f2e7a38","slug":"poros-fabe","kind":"municipality","name":"Πόρος","lat":37.4996,"lng":23.4534,"aliases":["Πορος"],"region":"Νησιά Αργοσαρωνικού","name_en":"Poros","region_en":"Saronic Islands"}],"mentionedGuides":[{"slug":"greece-2026-holidays-guide-el","title":"Ελλάδα 2026: Αργίες & Εκδηλώσεις"},{"slug":"greece-weather-swimming-ferry-guide-el","title":"Πότε να Επισκεφτείτε την Ελλάδα: Καιρός & Κολύμπι"}],"canonicalSlug":"ydra-5b2d","isCanonicalEntity":true,"enrichment":{"summary_en":"Ύδρα is a curated neighborhood area in Νησιά Αργοσαρωνικού. It is connected to 8 nearby Googlementor picks to help travelers build a stronger local route.","summary_el":"Ύδρα είναι ένα επιλεγμένο σημείο ενδιαφέροντος στην περιοχή Νησιά Αργοσαρωνικού. Συνδέεται με 8 κοντινές προτάσεις του Googlementor για πιο ολοκληρωμένη εμπειρία.","vibe_tags":["local-neighborhood","base-for-exploring"],"best_for":["first-time visitors","walk-and-explore days","return visitors"],"visit_moments":["late morning walks","sunset exploration"],"practical_note":"8 curated places are within walkable distance from this area center.","nearby_walkable_count":8,"nearby_count_2km":9,"confidence":0.6},"areaContext":{"slug":"ydra","name":"Hydra"},"intentContexts":[]},"__N_SSG":true}