{"pageProps":{"payload":{"area":{"id":"municipalities_54bb39e9ab94","name":"Δάφνη","nameEn":"Dafni","region":"Νότια Προάστια","regionEn":"Southern Suburbs","lat":37.95,"lng":23.732,"urlSlug":"dafni","aliases":["Δάφνη","Dafni","Δάφνη Southern Suburbs","Dafni Southern Suburbs","Daphni","Δαφνη","Daphne","dafni-54bb","dafni"]},"category":{"id":"italian","name":"Italian Restaurants","urlSlug":"italian","aliases":["italian","Italian Restaurants","italian-restaurants"]},"entities":[{"entity":{"id":"italianRestaurants_297de75e2491","slug":"la-bella-napoli-297d","kind":"restaurant","name":"La Bella Napoli","lat":37.95333874485214,"lng":23.726510881566565,"url":"https://maps.app.goo.gl/viysAA695txjhPLE6?g_st=ipc","address":"Ρουμπέση 64, Αθήνα 172 30","categoryIds":["italian"],"categories":["Italian Restaurants"]},"distanceKm":0.6078375622434057},{"entity":{"id":"italianRestaurants_7df507160f43","slug":"de-michelle-7df5","kind":"restaurant","name":"DE MICHELLE","lat":37.94606996265572,"lng":23.727087729280314,"url":"https://maps.app.goo.gl/iqvRwdhG4FanUzaEA?g_st=ipc","address":"Μητροπολίτου Ευθυβούλη 17, Νέα Σμύρνη 171 24","categoryIds":["italian"],"categories":["Italian Restaurants"]},"distanceKm":0.6135951489939151},{"entity":{"id":"italianRestaurants_22324beef805","slug":"pizza-days-agioy-dimitrioy-2232","kind":"restaurant","name":"Pizza Days - Αγίου Δημητρίου","lat":37.9436201391912,"lng":23.733022003629234,"url":"https://maps.app.goo.gl/mj45NkH8L5jqeHD58?g_st=ipc","address":"Ανδρέα Παπανδρέου 2, Αγ. Δημήτριος Αττικής 173 41","categoryIds":["italian"],"categories":["Italian Restaurants"]},"distanceKm":0.7150460886531309},{"entity":{"id":"italianRestaurants_bdaaf75d6c5e","slug":"canarino-bdaa","kind":"restaurant","name":"Canarino","lat":37.95905367625766,"lng":23.73382645635927,"url":"https://maps.app.goo.gl/kPu5BDkNuumunei99?g_st=ipc","address":"Ηλία Ηλιού 28, Αθήνα 117 43","categoryIds":["italian"],"categories":["Italian Restaurants"]},"distanceKm":1.0193798307083564},{"entity":{"id":"italianRestaurants_d26e71c0baaa","slug":"p3-pizza-pasta-piazza-d26e","kind":"restaurant","name":"P3 • Pizza Pasta Piazza","lat":37.95458478436311,"lng":23.74640491373037,"url":"https://maps.app.goo.gl/RxyTMGLyt4d7KQ4T7?g_st=ipc","address":"Πλ. Υμηττού 15, Υμηττός 172 37","categoryIds":["italian"],"categories":["Italian Restaurants"]},"distanceKm":1.3620276048829203},{"entity":{"id":"italianRestaurants_20d0a7e98724","slug":"dei-fratelli-ristorante-italiano-20d0","kind":"restaurant","name":"Dei Fratelli - Ristorante Italiano","lat":37.954535351071335,"lng":23.71576098163187,"url":"https://maps.app.goo.gl/hbqzvikXoNEXvdgj7?g_st=ipc","address":"ΚΡΑΤΗΤΟΣ 10 &, Σπαθαρη, Νέα Σμύρνη 171 21","categoryIds":["italian"],"categories":["Italian Restaurants"]},"distanceKm":1.510506363496039},{"entity":{"id":"italianRestaurants_3441b54b92cd","slug":"vissente-italian-comfort-food-3441","kind":"restaurant","name":"Vissente - Italian comfort food","lat":37.94750349815223,"lng":23.714501612675416,"url":"https://maps.app.goo.gl/UadeCSeXLWu8p8wK6?g_st=ipc","address":"Πλ. Αθανασίου Καρύλλου 9, Νέα Σμύρνη 171 21","categoryIds":["italian"],"categories":["Italian Restaurants"]},"distanceKm":1.5592385409878586},{"entity":{"id":"italianRestaurants_5abecb9e2aaa","slug":"voylkanizater-5abe","kind":"restaurant","name":"Βουλκανιζατέρ","lat":37.96367095489114,"lng":23.724556596700353,"url":"https://maps.app.goo.gl/HebUjJkB8SUt6Xp36?g_st=ipc","address":"Οδυσσέα Ανδρούτσου 17, Αθήνα 117 41","categoryIds":["italian"],"categories":["Italian Restaurants"]},"distanceKm":1.6543001676326274},{"entity":{"id":"italianRestaurants_da11e2c73563","slug":"cavaliere-ristorante-concettuale-da11","kind":"restaurant","name":"Cavaliere Ristorante Concettuale","lat":37.944619471140975,"lng":23.71414682617668,"url":"https://maps.app.goo.gl/WcUWRBUhr7SBrvaw8?g_st=ipc","address":"Λεωφ. Ελ. Βενιζέλου 42, Νέα Σμύρνη 171 22","categoryIds":["italian"],"categories":["Italian Restaurants"]},"distanceKm":1.6758994763102955},{"entity":{"id":"italianRestaurants_f25cb6c501bb","slug":"la-nonna-f25c","kind":"restaurant","name":"la nonna","lat":37.966397023107625,"lng":23.734629464112153,"url":"https://maps.app.goo.gl/JWJwotwbGCaC9dvV6?g_st=ipc","address":"Αναπαύσεως 11, Αθήνα 116 36","categoryIds":["italian"],"categories":["Italian Restaurants"]},"distanceKm":1.8377821518020188},{"entity":{"id":"italianRestaurants_13c8863a9591","slug":"pizza-dough-13c8","kind":"restaurant","name":"Pizza Dough!","lat":37.96630825345609,"lng":23.72750504939054,"url":"https://maps.app.goo.gl/nNiwhy5xKwpgF7Lo6?g_st=ipc","address":"Δημητρακοπούλου 17, Αθήνα 117 42","categoryIds":["italian"],"categories":["Italian Restaurants"]},"distanceKm":1.8557220724397503},{"entity":{"id":"italianRestaurants_d5b2689c4a11","slug":"romatella-pinsa-romana-d5b2","kind":"restaurant","name":"Romatella - Pinsa Romana","lat":37.96690380968513,"lng":23.72869589039828,"url":"https://maps.app.goo.gl/qy2UDY83bx3RhcUU9?g_st=ipc","address":"Φαλήρου 4, Αθήνα 117 42","categoryIds":["italian"],"categories":["Italian Restaurants"]},"distanceKm":1.9018089937741662},{"entity":{"id":"italianRestaurants_354541199b79","slug":"aglio-olio-peperoncino-3545","kind":"restaurant","name":"AGLIO, OLIO & PEPERONCINO","lat":37.96798831953671,"lng":23.7299912754838,"url":"https://maps.app.goo.gl/EgPatpb6TGQzX94s6?g_st=ipc","address":"Πορίνου 13, Αθήνα 117 42","categoryIds":["italian"],"categories":["Italian Restaurants"]},"distanceKm":2.0079476361095803},{"entity":{"id":"italianRestaurants_eb6dad79ff00","slug":"colibri-eb6d","kind":"restaurant","name":"Colibri","lat":37.96629536354424,"lng":23.742907448127177,"url":"https://maps.app.goo.gl/p6S1BxZ6W3VgwiR46?g_st=ipc","address":"Εμπεδοκλέους 15, Αθήνα 116 35","categoryIds":["italian"],"categories":["Italian Restaurants"]},"distanceKm":2.0488262207298775},{"entity":{"id":"italianRestaurants_c197477778a8","slug":"fratti-bistro-c197","kind":"restaurant","name":"Fratti Bistro","lat":37.96852406982216,"lng":23.725725056108836,"url":"https://maps.app.goo.gl/v5TXqxqHKdw7mrCr5?g_st=ipc","address":"Φράττι 1, Αθήνα 117 42","categoryIds":["italian"],"categories":["Italian Restaurants"]},"distanceKm":2.1319828995751755},{"entity":{"id":"italianRestaurants_2ca02a129667","slug":"luma-2ca0","kind":"restaurant","name":"Luma","lat":37.967195735298965,"lng":23.74306872996665,"url":"https://maps.app.goo.gl/csSJRksdwNoDcqqE7?g_st=ipc","address":"Φερεκύδου 2, Αθήνα 116 35","categoryIds":["italian"],"categories":["Italian Restaurants"]},"distanceKm":2.1442387911788203},{"entity":{"id":"italianRestaurants_2b0b4658687c","slug":"agave-athens-2b0b","kind":"restaurant","name":"agave athens","lat":37.9657831829776,"lng":23.746184137622457,"url":"https://maps.app.goo.gl/uUSmZ457DPu3bX9J6?g_st=ipc","address":"Ευφράνορος 40, Αθήνα 116 35","categoryIds":["italian"],"categories":["Italian Restaurants"]},"distanceKm":2.150934405607564},{"entity":{"id":"dessertsRestaurants_e497a22f982a","slug":"mario-luigi-e497","kind":"restaurant","name":"Mario & Luigi","lat":37.96604463058155,"lng":23.746371855606792,"url":"https://maps.app.goo.gl/rjbBWs56GxATknGu9?g_st=ipc","address":"Ευφράνορος 35, Αθήνα 116 35","categoryIds":["desserts","italian"],"categories":["Dessert Shops","Italian Restaurants"]},"distanceKm":2.184171246758138},{"entity":{"id":"italianRestaurants_858265b3f822","slug":"cosa-nostra-fresca-pasta-pagrati-8582","kind":"restaurant","name":"Cosa Nostra Fresca Pasta Pagrati","lat":37.96783594678004,"lng":23.743332676630974,"url":"https://maps.app.goo.gl/CdMX5E6yxNBbvoYs8?g_st=ipc","address":"Αρχιμήδους 8, Αθήνα 116 35","categoryIds":["italian","vegetarian"],"categories":["Italian Restaurants","Vegetarian Friendly Restaurants"]},"distanceKm":2.218220541851093},{"entity":{"id":"italianRestaurants_a131f0639f33","slug":"trattoria-italia-d-onofrio-a131","kind":"restaurant","name":"Trattoria Italia D'onofrio","lat":37.96439892270411,"lng":23.71376404461326,"url":"https://maps.app.goo.gl/QybTqvRE6JzNcqyYA?g_st=ipc","address":"Βαρνουντος 6, Αθήνα 117 41","categoryIds":["italian"],"categories":["Italian Restaurants"]},"distanceKm":2.262674880946204},{"entity":{"id":"italianRestaurants_e396fe74ff9a","slug":"le-pizze-di-san-gennaro-e396","kind":"restaurant","name":"LE PIZZE DI SAN GENNARO","lat":37.93395718694605,"lng":23.71495698828565,"url":"https://maps.app.goo.gl/BW3pXFd1SVKpBcai6?g_st=ipc","address":"Ευξείνου Πόντου 172, Νέα Σμύρνη 171 23","categoryIds":["italian"],"categories":["Italian Restaurants"]},"distanceKm":2.3272015261214007},{"entity":{"id":"italianRestaurants_67b7b653e959","slug":"cupola-67b7","kind":"restaurant","name":"Cupola","lat":37.97044661658537,"lng":23.742232273257617,"url":"https://maps.app.goo.gl/mFVjH2gTLzicYaVJA?g_st=ipc","address":"Ευφοριωνος 13, Αθήνα 116 35","categoryIds":["italian"],"categories":["Italian Restaurants"]},"distanceKm":2.4441365532992054},{"entity":{"id":"italianRestaurants_13c0dc268b15","slug":"lost-athens-13c0","kind":"restaurant","name":"Lost Athens","lat":37.970670759829304,"lng":23.746680147108094,"url":"https://maps.app.goo.gl/Y9CFJNjG4R2hx4hB6?g_st=ipc","address":"Αρχελάου 7, Αθήνα 116 35","categoryIds":["italian"],"categories":["Italian Restaurants"]},"distanceKm":2.634278682350598},{"entity":{"id":"italianRestaurants_05ab7052947d","slug":"tre-sorelle-pizza-05ab","kind":"restaurant","name":"Tre Sorelle Pizza","lat":37.971668400347134,"lng":23.745923794431828,"url":"https://maps.app.goo.gl/dt7Xajoo364aPHjy7?g_st=ipc","address":"Αρχελάου 19, Αθήνα 116 35","categoryIds":["italian"],"categories":["Italian Restaurants"]},"distanceKm":2.700995744104545},{"entity":{"id":"italianRestaurants_a85b9e4df417","slug":"brigante-syntagma-a85b","kind":"restaurant","name":"Brigante (Σύνταγμα)","lat":37.97426577787846,"lng":23.734179177201504,"url":"https://maps.app.goo.gl/RmErpGj8TndJSV9v7?g_st=ipc","address":"Ξενοφώντος 6, Αθήνα 105 57","categoryIds":["italian"],"categories":["Italian Restaurants"]},"distanceKm":2.704986230831038},{"entity":{"id":"italianRestaurants_4213a3098622","slug":"ami-italian-bistrot-4213","kind":"restaurant","name":"Ami Italian Bistrot","lat":37.97469248298705,"lng":23.732316050865755,"url":"https://maps.app.goo.gl/ddcDFfjhHBSTkLzH8?g_st=ipc","address":"Βουλής, Απόλλωνος &, Αθήνα 105 57","categoryIds":["italian"],"categories":["Italian Restaurants"]},"distanceKm":2.7458186330960777},{"entity":{"id":"italianRestaurants_8dc12f0e929e","slug":"ovio-8dc1","kind":"restaurant","name":"OVIO","lat":37.974772406489194,"lng":23.732726038133688,"url":"https://maps.app.goo.gl/YsVGa9MzZPoFLxFs9?g_st=ipc","address":"Απόλλωνος 4, Αθήνα 105 57","categoryIds":["italian"],"categories":["Italian Restaurants"]},"distanceKm":2.755301209821529},{"entity":{"id":"italianRestaurants_ef8284fad678","slug":"v1935-roof-garden-ef82","kind":"restaurant","name":"V1935 Roof Garden","lat":37.974997891356715,"lng":23.732428069404467,"url":"https://maps.app.goo.gl/TKodgxdpAuijQZCk7?g_st=ipc","address":"Βουλής 29, Αθήνα 105 57","categoryIds":["italian"],"categories":["Italian Restaurants"]},"distanceKm":2.7798920150041355},{"entity":{"id":"italianRestaurants_ecac45aa4447","slug":"2h-restaurant-ecac","kind":"restaurant","name":"\"+2H Restaurant\"","lat":37.97531452405919,"lng":23.73121660311007,"url":"https://maps.app.goo.gl/gjaqkvxWUZYGRAXB9?g_st=ipc","address":"Rooftop of ERGON Bakehouse, Μητροπόλεως 27, Αθήνα 105 57","categoryIds":["italian"],"categories":["Italian Restaurants"]},"distanceKm":2.815684349708369},{"entity":{"id":"italianRestaurants_41ab3f71a154","slug":"aliola-s-ermou-41ab","kind":"restaurant","name":"Aliola’s Ermou","lat":37.97633249966058,"lng":23.7318293724108,"url":"https://maps.app.goo.gl/4FHfDnNt7PhJxhxK6?g_st=ipc","address":"Ερμού 18 &, Διομείας 2, Αθήνα 105 63","categoryIds":["italian"],"categories":["Italian Restaurants"]},"distanceKm":2.9280785765215365}],"counts":{"totalEntities":3884,"totalInArea":661,"totalInCategory":187,"totalCategoryArea":48},"relatedCategories":[{"categoryId":"coffee-brunch","categorySlug":"brunch","categoryName":"Coffee & Brunch Spots","count":117,"passesThreshold":true},{"categoryId":"cheap-eats","categorySlug":"cheap-eats","categoryName":"Gyros & Cheap Eats","count":90,"passesThreshold":true},{"categoryId":"greek-restaurants","categorySlug":"greek-restaurants","categoryName":"Greek Restaurants","count":79,"passesThreshold":true},{"categoryId":"desserts","categorySlug":"desserts","categoryName":"Dessert Shops","count":74,"passesThreshold":true},{"categoryId":"luxury-dining","categorySlug":"luxury-dining","categoryName":"Luxury Dining","count":63,"passesThreshold":true},{"categoryId":"vegetarian","categorySlug":"vegetarian","categoryName":"Vegetarian Friendly Restaurants","count":52,"passesThreshold":true},{"categoryId":"rooftop-lounges","categorySlug":"rooftops","categoryName":"Rooftop Lounges","count":48,"passesThreshold":true},{"categoryId":"attractions","categorySlug":"attractions","categoryName":"Must-See Attractions","count":39,"passesThreshold":true},{"categoryId":"asian","categorySlug":"asian-restaurants","categoryName":"Asian Restaurants","count":33,"passesThreshold":true},{"categoryId":"burgers","categorySlug":"burgers","categoryName":"Burger Spots","count":31,"passesThreshold":true}],"relatedAreas":[{"areaId":"municipalities_0eb5ad956816","areaName":"Νέος Κόσμος","areaSlug":"neos-kosmos","count":55,"passesThreshold":true,"nearestDistanceKm":0.39025733648971295},{"areaId":"municipalities_5bc013791cf8","areaName":"Πλάκα","areaSlug":"plaka","count":54,"passesThreshold":true,"nearestDistanceKm":0.3266789467744417},{"areaId":"municipalities_4149fa79e27b","areaName":"Ακρόπολη","areaSlug":"akropoli","count":53,"passesThreshold":true,"nearestDistanceKm":0.33091562692553705},{"areaId":"municipalities_b85b54408d92","areaName":"Θησείο","areaSlug":"thiseio","count":53,"passesThreshold":true,"nearestDistanceKm":0.4756036039649925},{"areaId":"municipalities_2bcfcb8b899f","areaName":"Ψυρρή","areaSlug":"psyrri","count":52,"passesThreshold":true,"nearestDistanceKm":0.1510454712057809},{"areaId":"municipalities_616efd2a0d9b","areaName":"Κουκάκι","areaSlug":"koykaki","count":52,"passesThreshold":true,"nearestDistanceKm":0.19801141304296088},{"areaId":"municipalities_d7e1aaaed4f9","areaName":"Μοναστηράκι","areaSlug":"monastiraki","count":52,"passesThreshold":true,"nearestDistanceKm":0.19973661664296335},{"areaId":"municipalities_0889636ab7df","areaName":"Πετράλωνα","areaSlug":"petralona","count":52,"passesThreshold":true,"nearestDistanceKm":0.2921546617940782},{"areaId":"municipalities_0cae2c00b932","areaName":"Κολωνάκι","areaSlug":"kolonaki","count":51,"passesThreshold":true,"nearestDistanceKm":0.0944876405538942},{"areaId":"municipalities_877c3bc81df5","areaName":"Σύνταγμα","areaSlug":"syntagma","count":51,"passesThreshold":true,"nearestDistanceKm":0.1476340164271105}],"passesThreshold":true},"hasAreaGuidePage":true,"topGuides":[]},"__N_SSG":true}