{"pageProps":{"payload":{"area":{"id":"municipalities_2f324ee27306","name":"Εξάρχεια","nameEn":"Exarcheia","region":"Κέντρο Αθήνας","regionEn":"Athens Center","lat":37.984,"lng":23.7365,"urlSlug":"exarcheia","aliases":["Εξάρχεια","Exarcheia","Εξάρχεια Athens Center","Exarcheia Athens Center","Exarchia","Eksarheia","Εξαρχεια","Εξαρχειά","Exarxia","Eksarchia","exarcheia-2f32","exarcheia"]},"category":{"id":"italian","name":"Italian Restaurants","urlSlug":"italian","aliases":["italian","Italian Restaurants","italian-restaurants"]},"entities":[{"entity":{"id":"italianRestaurants_26c15b5688a4","slug":"valtezziana-2-0-26c1","kind":"restaurant","name":"Valtezziana 2.0","lat":37.985220488107345,"lng":23.735852167301612,"url":"https://maps.app.goo.gl/qNCJTFj4cbH4ymKR8?g_st=ipc","address":"Βαλτετσίου 41, Αθήνα 106 81","categoryIds":["italian"],"categories":["Italian Restaurants"]},"distanceKm":0.14711008772011236},{"entity":{"id":"italianRestaurants_d9eb835a787b","slug":"il-postino-d9eb","kind":"restaurant","name":"IL POSTINO","lat":37.982131533851984,"lng":23.737093611323974,"url":"https://maps.app.goo.gl/7Te4ShNfhnjxZ4C97?g_st=ipc","address":"Γριβαίων 3, Αθήνα 106 80","categoryIds":["italian"],"categories":["Italian Restaurants"]},"distanceKm":0.2141787924390494},{"entity":{"id":"italianRestaurants_f3fa54dd222e","slug":"mystic-pizza-pasta-f3fa","kind":"restaurant","name":"Mystic Pizza & Pasta","lat":37.98571885741884,"lng":23.735343296198398,"url":"https://maps.app.goo.gl/1SJBX6YThtp2jdfQ8?g_st=ipc","address":"Εμμανουήλ Μπενάκη 76, Αθήνα 106 81","categoryIds":["italian"],"categories":["Italian Restaurants"]},"distanceKm":0.216348784678516},{"entity":{"id":"italianRestaurants_52398969c9ea","slug":"alex-the-fresh-pasta-bar-5239","kind":"restaurant","name":"ALEX the fresh pasta bar","lat":37.98144779340368,"lng":23.73652703184346,"url":"https://maps.app.goo.gl/sAWyTjj3m9qMaTaY8?g_st=ipc","address":"Μασσαλίας 16, Αθήνα 106 80","categoryIds":["italian"],"categories":["Italian Restaurants"]},"distanceKm":0.28380231424542524},{"entity":{"id":"italianRestaurants_a02be0df2fa9","slug":"frankie-a02b","kind":"restaurant","name":"Frankie","lat":37.98052235951531,"lng":23.738034947822758,"url":"https://maps.app.goo.gl/Ju5CstFm66m8QTbA9?g_st=ipc","address":"Σκουφά 42, Αθήνα 106 72","categoryIds":["italian"],"categories":["Italian Restaurants"]},"distanceKm":0.4094286483153838},{"entity":{"id":"italianRestaurants_b4580bbde39a","slug":"piadina-lumbro-b458","kind":"restaurant","name":"Piadina Lumbro","lat":37.97943796124596,"lng":23.735657958882037,"url":"https://maps.app.goo.gl/uGAbtwYha4Eeb7c56?g_st=ipc","address":"Ομήρου 15, Αθήνα 106 72","categoryIds":["italian"],"categories":["Italian Restaurants"]},"distanceKm":0.5126158362880716},{"entity":{"id":"italianRestaurants_ed5df50f2107","slug":"dilien-ed5d","kind":"restaurant","name":"Dilien","lat":37.98733679240523,"lng":23.730994400110465,"url":"https://maps.app.goo.gl/yeGNTXa4VUk4Paqs5","address":"Stournari 43, Athina 106 82","categoryIds":["italian"],"categories":["Italian Restaurants"]},"distanceKm":0.6086729274811904},{"entity":{"id":"italianRestaurants_c9470358a12d","slug":"la-pasteria-c947","kind":"restaurant","name":"La Pasteria","lat":37.97832911911956,"lng":23.73614187652223,"url":"https://maps.app.goo.gl/4tmrg1wVrWp5rgjx6?g_st=ipc","address":"Βαλαωρίτου 15, Αθήνα 106 71","categoryIds":["italian"],"categories":["Italian Restaurants"]},"distanceKm":0.6313538914108304},{"entity":{"id":"italianRestaurants_f8696119f84a","slug":"dr-8-f869","kind":"restaurant","name":"DR.8","lat":37.97961742890019,"lng":23.730308681463843,"url":"https://maps.app.goo.gl/e4S1yWk4AQ9uuCD96?g_st=ipc","address":"Δραγατσανίου 8, Αθήνα 105 59","categoryIds":["italian"],"categories":["Italian Restaurants"]},"distanceKm":0.729337657536275},{"entity":{"id":"italianRestaurants_15f54ac83ec4","slug":"gloria-gati-15f5","kind":"restaurant","name":"Gloria Gati","lat":37.97802514944533,"lng":23.731662994218254,"url":"https://maps.app.goo.gl/VyAef5tB1eVm8LECA?g_st=ipc","address":"Πλ. Αγίου Γεωργίου Καρύτση 6, Αθήνα 105 61","categoryIds":["italian"],"categories":["Italian Restaurants"]},"distanceKm":0.7881104827957267},{"entity":{"id":"coffeeBrunchRestaurants_03891d56076e","slug":"odori-0389","kind":"restaurant","name":"Odori","lat":37.97922436265169,"lng":23.729754698272135,"url":"https://maps.app.goo.gl/Wa5G5txL7dyLZjDX9?g_st=ipc","address":"Σκουλενίου 2, Αθήνα 105 61","categoryIds":["coffee-brunch","italian"],"categories":["Coffee & Brunch Spots","Italian Restaurants"]},"distanceKm":0.7946668213349475},{"entity":{"id":"italianRestaurants_9735f36161b6","slug":"pracsitele-9735","kind":"restaurant","name":"Pracsitele","lat":37.978075255049035,"lng":23.730655699973674,"url":"https://maps.app.goo.gl/uY33YuN8n7TKUXd86?g_st=ipc","address":"Πραξιτέλους 7, Αθήνα 105 62","categoryIds":["italian"],"categories":["Italian Restaurants"]},"distanceKm":0.8345030310321897},{"entity":{"id":"italianRestaurants_e7c94ca15e1b","slug":"granello-pizza-italiana-e7c9","kind":"restaurant","name":"Granello - Pizza Italiana","lat":37.97667761548528,"lng":23.73173801660532,"url":"https://maps.app.goo.gl/nkhWXfUCf8UqXp5W9?g_st=ipc","address":"Περικλέους 18, Αθήνα 105 62","categoryIds":["italian"],"categories":["Italian Restaurants"]},"distanceKm":0.9149530250252847},{"entity":{"id":"italianRestaurants_5bb1f8760120","slug":"brunello-5bb1","kind":"restaurant","name":"Brunello","lat":37.97774328484756,"lng":23.74346729703624,"url":"https://maps.app.goo.gl/71Ffa4D3sz17HHuJ7?g_st=ipc","address":"Λουκιανού 21b, Αθήνα 106 75","categoryIds":["italian"],"categories":["Italian Restaurants"]},"distanceKm":0.9256979770213892},{"entity":{"id":"italianRestaurants_41ab3f71a154","slug":"aliola-s-ermou-41ab","kind":"restaurant","name":"Aliola’s Ermou","lat":37.97633249966058,"lng":23.7318293724108,"url":"https://maps.app.goo.gl/4FHfDnNt7PhJxhxK6?g_st=ipc","address":"Ερμού 18 &, Διομείας 2, Αθήνα 105 63","categoryIds":["italian"],"categories":["Italian Restaurants"]},"distanceKm":0.945771540577733},{"entity":{"id":"italianRestaurants_3be4af98c471","slug":"trattoria-capanna-3be4","kind":"restaurant","name":"Trattoria Capanna","lat":37.978619151360974,"lng":23.74496219249258,"url":"https://maps.app.goo.gl/TbrGKuznviUTnbH8A?g_st=ipc","address":"Πλουτάρχου 38, Αθήνα 106 75","categoryIds":["italian","luxury-dining"],"categories":["Italian Restaurants","Luxury Dining"]},"distanceKm":0.9529243220162795},{"entity":{"id":"italianRestaurants_468953c2e15e","slug":"malconi-s-italian-restaurant-4689","kind":"restaurant","name":"Malconi's Italian Restaurant","lat":37.9782776822669,"lng":23.744765633446125,"url":"https://maps.app.goo.gl/q6QEwwnvQiVfYob8A?g_st=ipc","address":"Patriarhou Ioakim 43 &, Πλουτάρχου 23, Αθήνα 106 75","categoryIds":["italian"],"categories":["Italian Restaurants"]},"distanceKm":0.9642031652910986},{"entity":{"id":"italianRestaurants_ef8284fad678","slug":"v1935-roof-garden-ef82","kind":"restaurant","name":"V1935 Roof Garden","lat":37.974997891356715,"lng":23.732428069404467,"url":"https://maps.app.goo.gl/TKodgxdpAuijQZCk7?g_st=ipc","address":"Βουλής 29, Αθήνα 105 57","categoryIds":["italian"],"categories":["Italian Restaurants"]},"distanceKm":1.0627095982881203},{"entity":{"id":"italianRestaurants_0a253e52c51e","slug":"gorlomi-0a25","kind":"restaurant","name":"Gorlomi","lat":37.97728908184003,"lng":23.74514067416134,"url":"https://maps.app.goo.gl/XB7Fy2Zdva4f5Hrv6?g_st=ipc","address":"Πλουτάρχου 9, Αθήνα 106 75","categoryIds":["italian","luxury-dining"],"categories":["Italian Restaurants","Luxury Dining"]},"distanceKm":1.0631922169468424},{"entity":{"id":"italianRestaurants_ecac45aa4447","slug":"2h-restaurant-ecac","kind":"restaurant","name":"\"+2H Restaurant\"","lat":37.97531452405919,"lng":23.73121660311007,"url":"https://maps.app.goo.gl/gjaqkvxWUZYGRAXB9?g_st=ipc","address":"Rooftop of ERGON Bakehouse, Μητροπόλεως 27, Αθήνα 105 57","categoryIds":["italian"],"categories":["Italian Restaurants"]},"distanceKm":1.0710604909172121},{"entity":{"id":"italianRestaurants_8dc12f0e929e","slug":"ovio-8dc1","kind":"restaurant","name":"OVIO","lat":37.974772406489194,"lng":23.732726038133688,"url":"https://maps.app.goo.gl/YsVGa9MzZPoFLxFs9?g_st=ipc","address":"Απόλλωνος 4, Αθήνα 105 57","categoryIds":["italian"],"categories":["Italian Restaurants"]},"distanceKm":1.078061443946089},{"entity":{"id":"italianRestaurants_4213a3098622","slug":"ami-italian-bistrot-4213","kind":"restaurant","name":"Ami Italian Bistrot","lat":37.97469248298705,"lng":23.732316050865755,"url":"https://maps.app.goo.gl/ddcDFfjhHBSTkLzH8?g_st=ipc","address":"Βουλής, Απόλλωνος &, Αθήνα 105 57","categoryIds":["italian"],"categories":["Italian Restaurants"]},"distanceKm":1.0979967442081757},{"entity":{"id":"italianRestaurants_a85b9e4df417","slug":"brigante-syntagma-a85b","kind":"restaurant","name":"Brigante (Σύνταγμα)","lat":37.97426577787846,"lng":23.734179177201504,"url":"https://maps.app.goo.gl/RmErpGj8TndJSV9v7?g_st=ipc","address":"Ξενοφώντος 6, Αθήνα 105 57","categoryIds":["italian"],"categories":["Italian Restaurants"]},"distanceKm":1.1013441538044297},{"entity":{"id":"italianRestaurants_f99f052e2cb0","slug":"tartufo-cucina-italiana-f99f","kind":"restaurant","name":"Tartufo Cucina Italiana","lat":37.97745304334609,"lng":23.72475266844782,"url":"https://maps.app.goo.gl/VGYffngsR22p4GZ36?g_st=ipc","address":"Αγ. Θέκλας 9, Αθήνα 105 54","categoryIds":["italian"],"categories":["Italian Restaurants"]},"distanceKm":1.2609728503342568},{"entity":{"id":"italianRestaurants_67b7b653e959","slug":"cupola-67b7","kind":"restaurant","name":"Cupola","lat":37.97044661658537,"lng":23.742232273257617,"url":"https://maps.app.goo.gl/mFVjH2gTLzicYaVJA?g_st=ipc","address":"Ευφοριωνος 13, Αθήνα 116 35","categoryIds":["italian"],"categories":["Italian Restaurants"]},"distanceKm":1.5886132548631},{"entity":{"id":"italianRestaurants_05ab7052947d","slug":"tre-sorelle-pizza-05ab","kind":"restaurant","name":"Tre Sorelle Pizza","lat":37.971668400347134,"lng":23.745923794431828,"url":"https://maps.app.goo.gl/dt7Xajoo364aPHjy7?g_st=ipc","address":"Αρχελάου 19, Αθήνα 116 35","categoryIds":["italian"],"categories":["Italian Restaurants"]},"distanceKm":1.60077415563786},{"entity":{"id":"italianRestaurants_13c0dc268b15","slug":"lost-athens-13c0","kind":"restaurant","name":"Lost Athens","lat":37.970670759829304,"lng":23.746680147108094,"url":"https://maps.app.goo.gl/Y9CFJNjG4R2hx4hB6?g_st=ipc","address":"Αρχελάου 7, Αθήνα 116 35","categoryIds":["italian"],"categories":["Italian Restaurants"]},"distanceKm":1.7300084961076712},{"entity":{"id":"burgersRestaurants_96fe4c6a69f2","slug":"stivs-a-e-kerameikos-champoyrgker-pitses-96fe","kind":"restaurant","name":"ΣΤΗΒΣ Α.Ε. Κεραμεικός - ΧΑΜΠΟΥΡΓΚΕΡ & ΠΙΤΣΕΣ","lat":37.981862507718745,"lng":23.71676727771988,"url":"https://maps.app.goo.gl/dfoGjBoXnHtHAokj9?g_st=ipc","address":"Σαλαμίνος 42, Αθήνα 104 35","categoryIds":["burgers","italian"],"categories":["Burger Spots","Italian Restaurants"]},"distanceKm":1.7456944616131667},{"entity":{"id":"cheapEatsRestaurants_f6e9355765da","slug":"armando-pizzeria-cafeteria-f6e9","kind":"restaurant","name":"Armando Pizzeria Cafeteria","lat":37.98213236236815,"lng":23.71647213293712,"url":"https://maps.app.goo.gl/X5ofrEqzBi24eigT6?g_st=ipc","address":"Σαλαμίνος 43, Αθήνα 104 35","categoryIds":["cheap-eats","italian"],"categories":["Gyros & Cheap Eats","Italian Restaurants"]},"distanceKm":1.767545142149538},{"entity":{"id":"italianRestaurants_eda14ce07bd0","slug":"proveleggios-eda1","kind":"restaurant","name":"Proveleggioς","lat":37.98314343701362,"lng":23.716034626731084,"url":"https://maps.app.goo.gl/MitPmZaCFjCBtxr4A?g_st=ipc","address":"Παραμυθίας 11, Αθήνα 104 35","categoryIds":["italian"],"categories":["Italian Restaurants"]},"distanceKm":1.7961619807755997}],"counts":{"totalEntities":3884,"totalInArea":770,"totalInCategory":187,"totalCategoryArea":49},"relatedCategories":[{"categoryId":"coffee-brunch","categorySlug":"brunch","categoryName":"Coffee & Brunch Spots","count":129,"passesThreshold":true},{"categoryId":"cheap-eats","categorySlug":"cheap-eats","categoryName":"Gyros & Cheap Eats","count":113,"passesThreshold":true},{"categoryId":"greek-restaurants","categorySlug":"greek-restaurants","categoryName":"Greek Restaurants","count":100,"passesThreshold":true},{"categoryId":"desserts","categorySlug":"desserts","categoryName":"Dessert Shops","count":82,"passesThreshold":true},{"categoryId":"vegetarian","categorySlug":"vegetarian","categoryName":"Vegetarian Friendly Restaurants","count":73,"passesThreshold":true},{"categoryId":"luxury-dining","categorySlug":"luxury-dining","categoryName":"Luxury Dining","count":70,"passesThreshold":true},{"categoryId":"rooftop-lounges","categorySlug":"rooftops","categoryName":"Rooftop Lounges","count":54,"passesThreshold":true},{"categoryId":"attractions","categorySlug":"attractions","categoryName":"Must-See Attractions","count":43,"passesThreshold":true},{"categoryId":"asian","categorySlug":"asian-restaurants","categoryName":"Asian Restaurants","count":40,"passesThreshold":true},{"categoryId":"burgers","categorySlug":"burgers","categoryName":"Burger Spots","count":36,"passesThreshold":true}],"relatedAreas":[{"areaId":"municipalities_0eb5ad956816","areaName":"Νέος Κόσμος","areaSlug":"neos-kosmos","count":55,"passesThreshold":true,"nearestDistanceKm":0.39025733648971295},{"areaId":"municipalities_5bc013791cf8","areaName":"Πλάκα","areaSlug":"plaka","count":54,"passesThreshold":true,"nearestDistanceKm":0.3266789467744417},{"areaId":"municipalities_4149fa79e27b","areaName":"Ακρόπολη","areaSlug":"akropoli","count":53,"passesThreshold":true,"nearestDistanceKm":0.33091562692553705},{"areaId":"municipalities_b85b54408d92","areaName":"Θησείο","areaSlug":"thiseio","count":53,"passesThreshold":true,"nearestDistanceKm":0.4756036039649925},{"areaId":"municipalities_2bcfcb8b899f","areaName":"Ψυρρή","areaSlug":"psyrri","count":52,"passesThreshold":true,"nearestDistanceKm":0.1510454712057809},{"areaId":"municipalities_616efd2a0d9b","areaName":"Κουκάκι","areaSlug":"koykaki","count":52,"passesThreshold":true,"nearestDistanceKm":0.19801141304296088},{"areaId":"municipalities_d7e1aaaed4f9","areaName":"Μοναστηράκι","areaSlug":"monastiraki","count":52,"passesThreshold":true,"nearestDistanceKm":0.19973661664296335},{"areaId":"municipalities_0889636ab7df","areaName":"Πετράλωνα","areaSlug":"petralona","count":52,"passesThreshold":true,"nearestDistanceKm":0.2921546617940782},{"areaId":"municipalities_0cae2c00b932","areaName":"Κολωνάκι","areaSlug":"kolonaki","count":51,"passesThreshold":true,"nearestDistanceKm":0.0944876405538942},{"areaId":"municipalities_877c3bc81df5","areaName":"Σύνταγμα","areaSlug":"syntagma","count":51,"passesThreshold":true,"nearestDistanceKm":0.1476340164271105}],"passesThreshold":true},"hasAreaGuidePage":true,"topGuides":[{"slug":"american-college-of-greece-agia-paraskevi-guide-el","title":"American College of Greece: Οδηγός Αγίας Παρασκευής","date":"2026-02-13"},{"slug":"american-college-of-greece-agia-paraskevi-guide","title":"American College of Greece: Welcome to Agia Paraskevi","date":"2026-02-13"}]},"__N_SSG":true}