{"pageProps":{"payload":{"area":{"id":"municipalities_786b92402462","name":"Αιγάλεω","nameEn":"Aigaleo","region":"Δυτικά Προάστια","regionEn":"Western Suburbs","lat":38.0089,"lng":23.6825,"urlSlug":"aigaleo","aliases":["Αιγάλεω","Aigaleo","Αιγάλεω Western Suburbs","Aigaleo Western Suburbs","Egaleo","aigaleo-786b","aigaleo"]},"category":null,"entities":[{"entity":{"id":"italianRestaurants_e4215b95fee5","slug":"la-greca-peristeri-e421","kind":"restaurant","name":"La Greca Περιστέρι","lat":38.010196542861046,"lng":23.67916957954494,"url":"https://maps.app.goo.gl/HJ2LMpj8kWkR6MSZ9?g_st=ipc","address":"Τζων Κέννεντυ 149, Περιστέρι 121 36","categoryIds":["italian"],"categories":["Italian Restaurants"]},"distanceKm":0.3254564116082195},{"entity":{"id":"asianRestaurants_fd79716bd06b","slug":"mayman-fd79","kind":"restaurant","name":"Mayman","lat":38.01237886315462,"lng":23.686035629770352,"url":"https://maps.app.goo.gl/u5z1UYphrgpUNHe16","address":"Dodekanisou 1, Peristeri 121 36","categoryIds":["asian"],"categories":["Asian Restaurants"]},"distanceKm":0.4955685958120962},{"entity":{"id":"cheapEatsRestaurants_e447034a05ff","slug":"o-oraios-tis-geitonias-ovelistirio-e447","kind":"restaurant","name":"Ο ΩΡΑΙΟΣ ΤΗΣ ΓΕΙΤΟΝΙΑΣ ΟΒΕΛΙΣΤΗΡΙΟ","lat":38.01006375373495,"lng":23.6881134895059,"url":"https://maps.app.goo.gl/MTNygxiVF9e3viYE9?g_st=ipc","address":"Θηβών 119, Περιστέρι 121 36","categoryIds":["cheap-eats"],"categories":["Gyros & Cheap Eats"]},"distanceKm":0.508545438582783},{"entity":{"id":"cheapEatsRestaurants_f4852478be70","slug":"kantina-mpilis-f485","kind":"restaurant","name":"Καντίνα Μπίλης","lat":38.01164780075542,"lng":23.6884871707283,"url":"https://maps.app.goo.gl/CHy9bu3k15qybj71A?g_st=ipc","address":"Πελασγίας 7, Περιστέρι 121 31","categoryIds":["cheap-eats"],"categories":["Gyros & Cheap Eats"]},"distanceKm":0.607039477095424},{"entity":{"id":"cheapEatsRestaurants_9b3a59c497dd","slug":"to-magkali-peristeri-9b3a","kind":"restaurant","name":"Το Μαγκάλι (Περιστέρι)","lat":38.01338073065152,"lng":23.686862336191798,"url":"https://maps.app.goo.gl/cpKq1vTipGxLPNCu7?g_st=ipc","address":"Δωδεκανήσου 24, Πελοπίδα 48, Περιστέρι 121 34","categoryIds":["cheap-eats"],"categories":["Gyros & Cheap Eats"]},"distanceKm":0.6279337037878735},{"entity":{"id":"greekRestaurants_6208e477b281","slug":"pappu-athens-6208","kind":"restaurant","name":"Pāppu Athens","lat":38.01046990272616,"lng":23.68965527636987,"url":"https://maps.app.goo.gl/QKrjcz5bwnJE9QXA6","address":"Μεσολογγίου 100, Περιστέρι 121 31","categoryIds":["greek-restaurants"],"categories":["Greek Restaurants"]},"distanceKm":0.65073398400493},{"entity":{"id":"mexicanRestaurants_cccdda88c52d","slug":"la-casa-azul-cccd","kind":"restaurant","name":"La Casa Azul","lat":38.01237602759444,"lng":23.68855969778912,"url":"https://maps.app.goo.gl/HmeGfenDmu6xhBo27","address":"Thivon 143, Peristeri 121 34","categoryIds":["mexican"],"categories":["Mexican Restaurants"]},"distanceKm":0.6566886499931144},{"entity":{"id":"mexicanRestaurants_249dc358fb68","slug":"item-249d","kind":"restaurant","name":"𝖫𝖠 𝖢𝖠𝖲𝖠 𝖠𝖹𝖴𝖫","lat":38.01238167042839,"lng":23.68855888974166,"url":"https://maps.app.goo.gl/w4rjy3ViFe7tB9vZ8?g_st=ipc","address":"Θηβών 143, Περιστέρι 121 34","categoryIds":["mexican"],"categories":["Mexican Restaurants"]},"distanceKm":0.657000940989572},{"entity":{"id":"asianRestaurants_530d2b0642c6","slug":"koi-sushi-bar-peristeri-530d","kind":"restaurant","name":"Koi Sushi Bar | Peristeri","lat":38.01186121788653,"lng":23.689184297983758,"url":"https://maps.app.goo.gl/88pCTr6wSS31ANgE6?g_st=ipc","address":"Πελασγίας 6, Περιστέρι 121 36","categoryIds":["asian"],"categories":["Asian Restaurants"]},"distanceKm":0.6718363240694822},{"entity":{"id":"coffeeBrunchRestaurants_56346e942815","slug":"qahwa-roastery-5634","kind":"restaurant","name":"Qahwa Roastery","lat":38.00443805181344,"lng":23.67683735104457,"url":"https://maps.app.goo.gl/iwKrvWdDuhAmB8YHA?g_st=ipc","address":"Αγίου Σπυρίδωνος 48, Αιγάλεω 122 43","categoryIds":["coffee-brunch"],"categories":["Coffee & Brunch Spots"]},"distanceKm":0.7016465175057331},{"entity":{"id":"coffeeBrunchRestaurants_ebe61501db3c","slug":"anemologio-enallaktiko-kafe-ebe6","kind":"restaurant","name":"Ανεμολόγιο εναλλακτικό καφέ","lat":38.01553415279337,"lng":23.680397259584772,"url":"https://maps.app.goo.gl/CdGAWQcCNoqhMaoLA?g_st=ipc","address":"Πελοπίδα 106, Περιστέρι 121 35","categoryIds":["coffee-brunch"],"categories":["Coffee & Brunch Spots"]},"distanceKm":0.7603380129418726},{"entity":{"id":"burgersRestaurants_61f30a1a8896","slug":"arch-beer-house-61f3","kind":"restaurant","name":"Arch Beer House","lat":38.013998175642,"lng":23.688328178434592,"url":"https://maps.app.goo.gl/ESAdNAhkQW7WvLqWA?g_st=ipc","address":"Εθ. Αντιστάσεως 91, Περιστέρι 121 34","categoryIds":["burgers"],"categories":["Burger Spots"]},"distanceKm":0.7629414553698587},{"entity":{"id":"greekRestaurants_894000c6e69f","slug":"arch-beer-house-8940","kind":"restaurant","name":"Arch Beer House","lat":38.01418942631727,"lng":23.68836608869776,"url":"https://maps.app.goo.gl/LiRMqJ6hgSpNtgJ99","address":"Εθ. Αντιστάσεως 91, Περιστέρι 121 34","categoryIds":["greek-restaurants"],"categories":["Greek Restaurants"]},"distanceKm":0.7810538379720364},{"entity":{"id":"italianRestaurants_b8dec0e1044a","slug":"makaroynes-exceptional-cuisine-b8de","kind":"restaurant","name":"Μακαρούνες (exceptional cuisine)","lat":38.01172277822911,"lng":23.691017826226332,"url":"https://maps.app.goo.gl/h2o6228dtCcx8xr98?g_st=ipc","address":"Αιμιλίου Βεάκη 70, Περιστέρι 121 34","categoryIds":["italian"],"categories":["Italian Restaurants"]},"distanceKm":0.809573999493188},{"entity":{"id":"coffeeBrunchRestaurants_c560ff32aef8","slug":"sempre-coffee-cocktail-bar-c560","kind":"restaurant","name":"sempre coffee & cocktail bar","lat":38.01143610501892,"lng":23.691242502233425,"url":"https://maps.app.goo.gl/AJY2nLTvRqUqFGG26?g_st=ipc","address":"Σαρανταπόρου 51, Περιστέρι 121 34","categoryIds":["coffee-brunch"],"categories":["Coffee & Brunch Spots"]},"distanceKm":0.8162006623926786},{"entity":{"id":"greekRestaurants_e84451b3cebc","slug":"taverna-psistaria-o-thomas-apo-to-1980-e844","kind":"restaurant","name":"Ταβέρνα - Ψησταριά ο Θωμάς απο το 1980","lat":38.015942140522725,"lng":23.686390666199237,"url":"https://maps.app.goo.gl/ZYNUbquE3yHM5E837","address":"Χαλκοκονδύλη 39, Περιστέρι 121 35","categoryIds":["greek-restaurants"],"categories":["Greek Restaurants"]},"distanceKm":0.8540191732207673},{"entity":{"id":"greekRestaurants_3bf98dd0eb38","slug":"anemologio-enallaktiko-kafe-3bf9","kind":"restaurant","name":"Ανεμολόγιο εναλλακτικό καφέ","lat":38.016523540675394,"lng":23.68057325145113,"url":"https://maps.app.goo.gl/jpKMuFsoZ998HnQE8","address":"Πελοπίδα 106, Περιστέρι 121 35","categoryIds":["greek-restaurants"],"categories":["Greek Restaurants"]},"distanceKm":0.8643415877694637},{"entity":{"id":"cheapEatsRestaurants_78dd0823b695","slug":"psitopoleio-peloponnisos-psita-soyvlas-thivon-78dd","kind":"restaurant","name":"ΨΗΤΟΠΩΛΕΙΟ ΠΕΛΟΠΟΝΝΗΣΟΣ (ΨΗΤΑ ΣΟΥΒΛΑΣ ΘΗΒΩΝ)","lat":38.00117940953343,"lng":23.684942285189337,"url":"https://maps.app.goo.gl/TuyE1q1NNNhTr3Vo6?g_st=ipc","address":"Θηβών 531, Αιγάλεω 122 43","categoryIds":["cheap-eats"],"categories":["Gyros & Cheap Eats"]},"distanceKm":0.884757350096257},{"entity":{"id":"burgersRestaurants_d4b7de9746f1","slug":"butcher-s-burger-peristeri-steak-house-d4b7","kind":"restaurant","name":"Butcher's Burger Peristeri & Steak House","lat":38.01156289236995,"lng":23.69228404120557,"url":"https://maps.app.goo.gl/HZTQZzXmyYMQ3mzX9?g_st=ipc","address":"Αιμιλίου Βεάκη 41, Περιστέρι 121 34","categoryIds":["burgers"],"categories":["Burger Spots"]},"distanceKm":0.9068859722408995},{"entity":{"id":"familyFriendly_8e9d5a82d610","slug":"alsos-peristerioy-8e9d","kind":"restaurant","name":"Άλσος Περιστερίου","lat":38.01691760996396,"lng":23.68608991560274,"url":"https://maps.app.goo.gl/RLSd71ewXvmvT1cB6?g_st=ipc","address":"Αγίου Βασιλείου 63, Περιστέρι 121 35","categoryIds":["family-friendly"],"categories":["Kid Friendly Locations"]},"distanceKm":0.9453653932170621},{"entity":{"id":"coffeeBrunchRestaurants_d973150da438","slug":"godmama-s-yard-d973","kind":"restaurant","name":"Godmama's Yard","lat":38.01041883422101,"lng":23.693182201934864,"url":"https://maps.app.goo.gl/eq6S1VVqt14LtEJ1A?g_st=ipc","address":"Βασ. Αλεξάνδρου 98, Περιστέρι 121 34","categoryIds":["coffee-brunch"],"categories":["Coffee & Brunch Spots"]},"distanceKm":0.9509974641629473},{"entity":{"id":"italianRestaurants_1b88f38100c7","slug":"the-italians-peristeri-1b88","kind":"restaurant","name":"The italians_peristeri","lat":38.01175840681134,"lng":23.693124439008372,"url":"https://maps.app.goo.gl/EPn5hzC47NSHkek9A?g_st=ipc","address":"Αιμιλίου Βεάκη 46, Περιστέρι 121 34","categoryIds":["italian"],"categories":["Italian Restaurants"]},"distanceKm":0.9835818906713167},{"entity":{"id":"dessertsRestaurants_fe0eaa42452f","slug":"iceroll-peristeri-fe0e","kind":"restaurant","name":"Iceroll Peristeri","lat":38.01176430122643,"lng":23.693145391813818,"url":"https://maps.app.goo.gl/vjP8tAUnWK58Uq5x7?g_st=ipc","address":"Αιμιλίου Βεάκη 46, Περιστέρι 121 34","categoryIds":["desserts"],"categories":["Dessert Shops"]},"distanceKm":0.9855308535428497},{"entity":{"id":"vegetarianRestaurants_016755eabd8e","slug":"mind-the-cup-0167","kind":"restaurant","name":"Mind The Cup","lat":38.011576434122055,"lng":23.69327033132574,"url":"https://maps.app.goo.gl/Qh5Yd5AbSn3b3GSX9?g_st=ipc","address":"Αιμιλίου Βεάκη 29, Περιστέρι 121 34","categoryIds":["vegetarian"],"categories":["Vegetarian Friendly Restaurants"]},"distanceKm":0.9894141757643423},{"entity":{"id":"coffeeBrunchRestaurants_6a62e770d50a","slug":"mind-the-cup-6a62","kind":"restaurant","name":"Mind The Cup","lat":38.01157944836187,"lng":23.693274104432696,"url":"https://maps.app.goo.gl/ztF6fFTkc58DpW1r6?g_st=ipc","address":"Αιμιλίου Βεάκη 29, Περιστέρι 121 34","categoryIds":["coffee-brunch"],"categories":["Coffee & Brunch Spots"]},"distanceKm":0.9898302527297835},{"entity":{"id":"cheapEatsRestaurants_64ecfbc2f3f4","slug":"mayro-alati-64ec","kind":"restaurant","name":"Μαύρο Αλάτι","lat":38.011756038342455,"lng":23.693312637532987,"url":"https://maps.app.goo.gl/WBopamZ7xeysedvt5?g_st=ipc","address":"Αιμιλίου Βεάκη 44, Περιστέρι 121 34","categoryIds":["cheap-eats"],"categories":["Gyros & Cheap Eats"]},"distanceKm":0.9991159234540918},{"entity":{"id":"dessertsRestaurants_05b930fb8ac7","slug":"zacharoplasteio-andreadakis-peristeri-05b9","kind":"restaurant","name":"Ζαχαροπλαστείο Ανδρεαδάκης Περιστέρι","lat":38.01702641407976,"lng":23.675166561774304,"url":"https://maps.app.goo.gl/zRyi93GrVsyvFdqa8?g_st=ipc","address":"Πελοπίδα 172, Περιστέρι 121 37","categoryIds":["desserts"],"categories":["Dessert Shops"]},"distanceKm":1.1087291464776456},{"entity":{"id":"cheapEatsRestaurants_85d33bf344bd","slug":"psistaria-mparmpa-q-85d3","kind":"restaurant","name":"Ψησταριά ΜΠΑΡΜΠΑ-Q","lat":38.00370912884522,"lng":23.671659527057734,"url":"https://maps.app.goo.gl/hUJucEmJmMyQKCdo7?g_st=ipc","address":"Ηρακλείτου 68, Αιγάλεω 122 43","categoryIds":["cheap-eats"],"categories":["Gyros & Cheap Eats"]},"distanceKm":1.1114229219798357},{"entity":{"id":"cheapEatsRestaurants_0640e4f8d480","slug":"o-saltsas-0640","kind":"restaurant","name":"Ο Σάλτσας","lat":38.00504433316188,"lng":23.6944140076251,"url":"https://maps.app.goo.gl/FvTc2tgDrzPX1PFX7?g_st=ipc","address":"Σοφοκλή Βενιζέλου 50, Περιστέρι 121 34","categoryIds":["cheap-eats"],"categories":["Gyros & Cheap Eats"]},"distanceKm":1.128454989286643},{"entity":{"id":"coffeeBrunchRestaurants_7f4487a3dbe7","slug":"to-tapsaki-7f44","kind":"restaurant","name":"ΤΟ ΤΑΨΑΚΙ","lat":38.01602416062038,"lng":23.69208574474452,"url":"https://maps.app.goo.gl/1RLYBjPgBMgH7a6F8?g_st=ipc","address":"Λεωφ. Παναγή Τσαλδάρη 95, Περιστέρι 121 34","categoryIds":["coffee-brunch"],"categories":["Coffee & Brunch Spots"]},"distanceKm":1.154459341033485}],"counts":{"totalEntities":4118,"totalInArea":110,"totalInCategory":0,"totalCategoryArea":110},"relatedCategories":[{"categoryId":"cheap-eats","categorySlug":"cheap-eats","categoryName":"Gyros & Cheap Eats","count":27,"passesThreshold":true},{"categoryId":"greek-restaurants","categorySlug":"greek-restaurants","categoryName":"Greek Restaurants","count":21,"passesThreshold":true},{"categoryId":"desserts","categorySlug":"desserts","categoryName":"Dessert Shops","count":17,"passesThreshold":true},{"categoryId":"coffee-brunch","categorySlug":"brunch","categoryName":"Coffee & Brunch Spots","count":16,"passesThreshold":true},{"categoryId":"family-friendly","categorySlug":"family-friendly","categoryName":"Kid Friendly Locations","count":7,"passesThreshold":true},{"categoryId":"italian","categorySlug":"italian","categoryName":"Italian Restaurants","count":6,"passesThreshold":true},{"categoryId":"asian","categorySlug":"asian-restaurants","categoryName":"Asian Restaurants","count":4,"passesThreshold":true},{"categoryId":"mexican","categorySlug":"mexican","categoryName":"Mexican Restaurants","count":4,"passesThreshold":true},{"categoryId":"burgers","categorySlug":"burgers","categoryName":"Burger Spots","count":3,"passesThreshold":false},{"categoryId":"luxury-dining","categorySlug":"luxury-dining","categoryName":"Luxury Dining","count":2,"passesThreshold":false}],"relatedAreas":[{"areaId":"municipalities_5bc013791cf8","areaName":"Πλάκα","areaSlug":"plaka","count":873,"passesThreshold":true,"nearestDistanceKm":0.012491754607387504},{"areaId":"municipalities_877c3bc81df5","areaName":"Σύνταγμα","areaSlug":"syntagma","count":868,"passesThreshold":true,"nearestDistanceKm":0.009392084429921843},{"areaId":"municipalities_0cae2c00b932","areaName":"Κολωνάκι","areaSlug":"kolonaki","count":859,"passesThreshold":true,"nearestDistanceKm":0.019551496670837543},{"areaId":"municipalities_d7e1aaaed4f9","areaName":"Μοναστηράκι","areaSlug":"monastiraki","count":858,"passesThreshold":true,"nearestDistanceKm":0.0015439249117317326},{"areaId":"municipalities_4149fa79e27b","areaName":"Ακρόπολη","areaSlug":"akropoli","count":857,"passesThreshold":true,"nearestDistanceKm":0.005729795337023071},{"areaId":"municipalities_0fd1d03201a0","areaName":"Μετς","areaSlug":"mets","count":857,"passesThreshold":true,"nearestDistanceKm":0.0655206557127576},{"areaId":"municipalities_2bcfcb8b899f","areaName":"Ψυρρή","areaSlug":"psyrri","count":856,"passesThreshold":true,"nearestDistanceKm":0.047074153549061026},{"areaId":"municipalities_616efd2a0d9b","areaName":"Κουκάκι","areaSlug":"koykaki","count":855,"passesThreshold":true,"nearestDistanceKm":0.03240357443173243},{"areaId":"municipalities_b85b54408d92","areaName":"Θησείο","areaSlug":"thiseio","count":849,"passesThreshold":true,"nearestDistanceKm":0.08292401975417248},{"areaId":"municipalities_2f324ee27306","areaName":"Εξάρχεια","areaSlug":"exarcheia","count":848,"passesThreshold":true,"nearestDistanceKm":0.08690050688547628}],"passesThreshold":true},"topGuides":[{"slug":"tap-water-safe-greece-el","title":"Είναι Ασφαλές να Πίνετε Νερό Βρύσης στην Ελλάδα;","date":"2026-03-04"},{"slug":"tap-water-safe-greece","title":"Is Tap Water Safe to Drink in Greece?","date":"2026-03-04"},{"slug":"traveling-to-greece-on-a-budget-el","title":"Ταξιδι στην Ελλαδα με μικρο budget","date":"2026-02-10"}]},"__N_SSG":true}