{"pageProps":{"entity":{"id":"mustSeeAttractions_fd0e893870f5","slug":"delos-fd0e","kind":"restaurant","name":"Delos","lat":37.39618494324863,"lng":25.268932318593706,"url":"https://maps.app.goo.gl/8aSHhZk2bT9dK56z5?g_st=ipc","address":"Delos 846 00","categoryIds":["attractions"],"categories":["Must-See Attractions"]},"sameCategory":[{"id":"mustSeeAttractions_a300a861d115","slug":"temple-of-apollo-portara-a300","kind":"restaurant","name":"Temple of Apollo (Portara)","lat":37.110129464281634,"lng":25.372467767266336,"url":"https://maps.app.goo.gl/baiRLz2tmYaTbVkt8?g_st=ipc","address":"Naxos 843 00","categoryIds":["attractions"],"categories":["Must-See Attractions"]},{"id":"mustSeeAttractions_e7d3f595ce74","slug":"spilaio-katafyki-e7d3","kind":"restaurant","name":"Σπήλαιο Καταφύκι","lat":37.381809266398925,"lng":24.430137129464182,"url":"https://maps.app.goo.gl/ihjdRvavpYz6Jjd5A?g_st=ipc","address":"Δρυοπίδα 840 06","categoryIds":["attractions"],"categories":["Must-See Attractions"]},{"id":"mustSeeAttractions_3720c0633a0c","slug":"holy-monastery-of-the-virgin-mary-chozoviotissa-3720","kind":"restaurant","name":"Holy Monastery of the Virgin Mary Chozoviotissa","lat":36.834565267585596,"lng":25.909512235575725,"url":"https://maps.app.goo.gl/v6AEM7JEAUPMzrvP7?g_st=ipc","address":"Amorgos 840 08","categoryIds":["attractions"],"categories":["Must-See Attractions"]},{"id":"mustSeeAttractions_5cb6c86470e2","slug":"holy-cave-of-the-apocalypse-5cb6","kind":"restaurant","name":"Holy Cave of the Apocalypse","lat":37.3145181446206,"lng":26.544738455388703,"url":"https://maps.app.goo.gl/WRBFuHyUphGycx6B6?g_st=ipc","address":"Patmos Municipality 855 00","categoryIds":["attractions"],"categories":["Must-See Attractions"]},{"id":"mustSeeAttractions_d2b428b50440","slug":"archaiologikos-choros-soynioy-d2b4","kind":"restaurant","name":"Αρχαιολογικός Χώρος Σουνίου","lat":37.65015898457581,"lng":24.02460331248824,"url":"https://maps.app.goo.gl/H1hDYWZinAPpvjKR9?g_st=ipc","address":"Λαυρεωτική 195 00","categoryIds":["attractions"],"categories":["Must-See Attractions"]},{"id":"mustSeeAttractions_4af28e33d14a","slug":"naos-poseidona-4af2","kind":"restaurant","name":"Ναός Ποσειδώνα","lat":37.65020662017392,"lng":24.024585105239044,"url":"https://maps.app.goo.gl/TiGdJ3goZZvH3vQTA?g_st=ipc","address":"Σούνιο 195 00","categoryIds":["attractions"],"categories":["Must-See Attractions"]},{"id":"mustSeeAttractions_dd3b16c50b83","slug":"holy-monastery-of-saint-john-the-theologian-dd3b","kind":"restaurant","name":"Holy Monastery of Saint John the Theologian","lat":37.30929209644781,"lng":26.547790252510435,"url":"https://maps.app.goo.gl/KRvkAKujnAt5Cebt6?g_st=ipc","address":"Patmos 855 00","categoryIds":["attractions"],"categories":["Must-See Attractions"]},{"id":"mustSeeAttractions_fcaf48a77b52","slug":"akrotiri-fcaf","kind":"restaurant","name":"Akrotiri","lat":36.351796236748676,"lng":25.403447201033227,"url":"https://maps.app.goo.gl/wBKcGui1HWeMLpjPA?g_st=ipc","address":"Fira 847 00","categoryIds":["attractions"],"categories":["Must-See Attractions"]}],"nearby":[{"id":"luxuryDiningRestaurants_1ddd2e5b1131","slug":"botrini-s-restaurant-mykonos-1ddd","kind":"restaurant","name":"Botrini's Restaurant Mykonos","lat":37.42357245673207,"lng":25.30823643743267,"url":"https://maps.app.goo.gl/ZQF2Z95MsiUa9YY38?g_st=ipc","address":"Agios Ioannis Mykonos, Cyclades, 846 00","categoryIds":["luxury-dining"],"categories":["Luxury Dining"],"distanceKm":4.617927296972834},{"id":"fishTavernasRestaurants_f0d4e1537e1b","slug":"hippie-fish-mykonos-f0d4","kind":"restaurant","name":"Hippie Fish Mykonos","lat":37.4216168444124,"lng":25.3115215810695,"url":"https://maps.app.goo.gl/P1ey2vdmerWsiMqXA?g_st=ipc","address":"Agios Ioannis, Mikonos 846 00","categoryIds":["fish-tavernas"],"categories":["Fish Tavernas"],"distanceKm":4.706078187784748},{"id":"luxuryDiningRestaurants_d24a172fc696","slug":"hippie-fish-mykonos-d24a","kind":"restaurant","name":"Hippie Fish Mykonos","lat":37.42161523221791,"lng":25.31152471778021,"url":"https://maps.app.goo.gl/soco5KSQywsn86Ls8?g_st=ipc","address":"Agios Ioannis, Mikonos 846 00","categoryIds":["luxury-dining"],"categories":["Luxury Dining"],"distanceKm":4.706191958169839},{"id":"greekRestaurants_566686612459","slug":"to-apomero-5666","kind":"restaurant","name":"To Apomero","lat":37.42477406853952,"lng":25.32149373228756,"url":"https://maps.app.goo.gl/4yepbmXBXgqmqxi48?g_st=ipc","address":"Ορνός 846 00","categoryIds":["greek-restaurants"],"categories":["Greek Restaurants"],"distanceKm":5.626481644245138},{"id":"italianRestaurants_519a6524c076","slug":"farina-cucina-italiana-ornos-beach-519a","kind":"restaurant","name":"Farina Cucina Italiana Ornos Beach","lat":37.423083029478946,"lng":25.323628340986495,"url":"https://maps.app.goo.gl/M9VCoMv93LnDJZyTA?g_st=ipc","address":"Beach, Ornos 846 00","categoryIds":["italian"],"categories":["Italian Restaurants"],"distanceKm":5.681874304079972},{"id":"greekRestaurants_65a0b2970a3d","slug":"apaggio-restaurant-65a0","kind":"restaurant","name":"Apaggio Restaurant","lat":37.420283656696064,"lng":25.32646761589959,"url":"https://maps.app.goo.gl/UwjfqnkpvGWAV4zJ7?g_st=ipc","address":"Beach, BEFORE SANTA MARINA ENTRANCE, Ορνός 846 00","categoryIds":["greek-restaurants"],"categories":["Greek Restaurants"],"distanceKm":5.745031699203632},{"id":"coffeeBrunchRestaurants_8a37a705164c","slug":"ola-mykonos-breakfast-tacos-cocktails-8a37","kind":"restaurant","name":"Ola Mykonos - Breakfast, Tacos, Cocktails","lat":37.42580212278426,"lng":25.322386656781635,"url":"https://maps.app.goo.gl/HfixfBMZYH8oTEGWA?g_st=ipc","address":"Korfos Beach, Mikonos 846 00","categoryIds":["coffee-brunch"],"categories":["Coffee & Brunch Spots"],"distanceKm":5.756328903678233},{"id":"italianRestaurants_26298b2afd51","slug":"sistina-mykonos-2629","kind":"restaurant","name":"Sistina Mykonos","lat":37.42270720054724,"lng":25.33392940009779,"url":"https://maps.app.goo.gl/jbVQZaFoXT3nCmEQ6?g_st=ipc","address":"Platis Gialos, Mikonos 846 00","categoryIds":["italian"],"categories":["Italian Restaurants"],"distanceKm":6.453994304557529}],"sameRegion":[],"mentionedGuides":[]},"__N_SSG":true}