{"pageProps":{"entity":{"id":"vegetarianRestaurants_e4171a750969","slug":"feyrouz-athens-e417","kind":"restaurant","name":"Feyrouz_Athens","lat":37.97815368375059,"lng":23.72764654408699,"url":"https://maps.app.goo.gl/cceYxANJTPRNHFuB6?g_st=ipc","address":"Καρόρη 23 και, Αγάθωνος 1, Αθήνα 105 51","categoryIds":["vegetarian"],"categories":["Vegetarian Friendly Restaurants"]},"sameCategory":[{"id":"vegetarianRestaurants_c42b13d2db7e","slug":"shedia-home-cafe-restaurant-giftshop-c42b","kind":"restaurant","name":"Shedia Home - Cafe, Restaurant & Giftshop","lat":37.977833037817305,"lng":23.72875153673485,"url":"https://maps.app.goo.gl/9Dfe1mtSN788EyGb7?g_st=ipc","address":"Κολοκοτρώνη 56, Αθήνα 105 60","categoryIds":["vegetarian"],"categories":["Vegetarian Friendly Restaurants"]},{"id":"vegetarianRestaurants_7e314f6791f9","slug":"fontana-7e31","kind":"restaurant","name":"Fontana","lat":37.976643434278735,"lng":23.727544640785275,"url":"https://maps.app.goo.gl/AuBtWGWtH3xRZBEV8?g_st=ipc","address":"Αιόλου 17, Αθήνα 105 51","categoryIds":["vegetarian"],"categories":["Vegetarian Friendly Restaurants"]},{"id":"vegetarianRestaurants_5b207cd61024","slug":"av-it-5b20","kind":"restaurant","name":"AV IT","lat":37.976939825548584,"lng":23.728942581826033,"url":"https://maps.app.goo.gl/Kt7esiHQgo5rmoWc7?g_st=ipc","address":"Καλαμιώτου 8, Αθήνα 105 60","categoryIds":["vegetarian"],"categories":["Vegetarian Friendly Restaurants"]},{"id":"vegetarianRestaurants_aa8084f25928","slug":"anana-coffee-food-aa80","kind":"restaurant","name":"Anana Coffee|Food","lat":37.979074429744934,"lng":23.72938956678435,"url":"https://maps.app.goo.gl/cDLfqH5tSTmhvzCn8?g_st=ipc","address":"Πραξιτέλους 33, Αθήνα 105 60","categoryIds":["vegetarian"],"categories":["Vegetarian Friendly Restaurants"]},{"id":"vegetarianRestaurants_089d08918f7a","slug":"the-doc-s-burger-bar-089d","kind":"restaurant","name":"The Doc's Burger Bar","lat":37.977440412426056,"lng":23.725635777283433,"url":"https://maps.app.goo.gl/tKAx8hEqAm45KgqJ7?g_st=ipc","address":"Ανδρέα Μιαούλη 10, Αθήνα 105 54","categoryIds":["vegetarian"],"categories":["Vegetarian Friendly Restaurants"]},{"id":"vegetarianRestaurants_66f29ff77bdf","slug":"inloveagain-specialty-coffee-66f2","kind":"restaurant","name":"InLoveAgain. Specialty coffee","lat":37.97733209854113,"lng":23.72987682666704,"url":"https://maps.app.goo.gl/GuskwaqjTh2E9fc66?g_st=ipc","address":"Κλειτίου 3, Αθήνα 105 60","categoryIds":["vegetarian"],"categories":["Vegetarian Friendly Restaurants"]},{"id":"vegetarianRestaurants_bddb739d813a","slug":"plan-e-t-ice-cream-bddb","kind":"restaurant","name":"Plan(e)t Ice Cream","lat":37.976877362334406,"lng":23.72538097636171,"url":"https://maps.app.goo.gl/9hUg9Uc89kW2GUqL6?g_st=ipc","address":"Ερμού 86, Αθήνα 105 54","categoryIds":["vegetarian"],"categories":["Vegetarian Friendly Restaurants"]},{"id":"vegetarianRestaurants_1564131c7925","slug":"vietnam-street-food-1564","kind":"restaurant","name":"VIETNAM STREET FOOD","lat":37.97675287050778,"lng":23.729819366572254,"url":"https://maps.app.goo.gl/WYdqmMy3mDqLNW7e8?g_st=ipc","address":"Περικλέους 56, Αθήνα 105 60","categoryIds":["vegetarian"],"categories":["Vegetarian Friendly Restaurants"]}],"nearby":[{"id":"cheapEatsRestaurants_0155944d18e6","slug":"feyrouz-athens-0155","kind":"restaurant","name":"Feyrouz_Athens","lat":37.97815189918129,"lng":23.727647148068286,"url":"https://maps.app.goo.gl/vF2fcE6pnayp7atp8?g_st=ipc","address":"Καρόρη 23 και, Αγάθωνος 1, Αθήνα 105 51","categoryIds":["cheap-eats"],"categories":["Gyros & Cheap Eats"],"distanceKm":0.0002053751028927803},{"id":"burgersRestaurants_d55e3b1fc4f6","slug":"one-burger-d55e","kind":"restaurant","name":"ONE BURGER","lat":37.97831953861062,"lng":23.727493287060057,"url":"https://maps.app.goo.gl/N76y7HGoU6TuZHcW8?g_st=ipc","address":"Αγάθωνος 7, Αθήνα 105 51","categoryIds":["burgers"],"categories":["Burger Spots"],"distanceKm":0.02281568296713517},{"id":"coffeeBrunchRestaurants_1535869ba0db","slug":"bookbar-by-kaktos-1535","kind":"restaurant","name":"BOOKBAR by Kaktos","lat":37.97778372453625,"lng":23.727694162578636,"url":"https://maps.app.goo.gl/nkivf4z4Dxrwg4Su6?g_st=ipc","address":"Αιόλου 39, Αθήνα 105 51","categoryIds":["coffee-brunch"],"categories":["Coffee & Brunch Spots"],"distanceKm":0.04134877324835876},{"id":"luxuryDiningRestaurants_e80ec81a6e88","slug":"ateno-cook-deli-e80e","kind":"restaurant","name":"Ateno Cook & Deli","lat":37.97838376630937,"lng":23.72811686512798,"url":"https://maps.app.goo.gl/f7xcdqi6HEkGGDrXA?g_st=ipc","address":"Αιόλου 52 &, Μιλτιάδου, Αθήνα 105 60","categoryIds":["luxury-dining"],"categories":["Luxury Dining"],"distanceKm":0.04851682137020707},{"id":"cheapEatsRestaurants_753d5449336c","slug":"la-pizzetta-753d","kind":"restaurant","name":"La Pizzetta","lat":37.97847520528142,"lng":23.728112025622647,"url":"https://maps.app.goo.gl/K4gKpgJyy7hobcQQ6?g_st=ipc","address":"Αιόλου 56, Αθήνα 105 60","categoryIds":["cheap-eats"],"categories":["Gyros & Cheap Eats"],"distanceKm":0.05424684895205964},{"id":"cheapEatsRestaurants_73b2f6130df6","slug":"groovy-ham-73b2","kind":"restaurant","name":"Groovy Ham","lat":37.978434992498535,"lng":23.728303604469694,"url":"https://maps.app.goo.gl/bFq352ScX4ijnYoH8?g_st=ipc","address":"Μιλτιάδου 22, Αθήνα 105 60","categoryIds":["cheap-eats"],"categories":["Gyros & Cheap Eats"],"distanceKm":0.06553709890574103},{"id":"coffeeBrunchRestaurants_efaa63d4fa10","slug":"dope-efaa","kind":"restaurant","name":"Dope","lat":37.97832305246442,"lng":23.72690477526337,"url":"https://maps.app.goo.gl/JomysUEbYVtYn2KN6?g_st=ipc","address":"Βύσσης 25, Αθήνα 105 51","categoryIds":["coffee-brunch"],"categories":["Coffee & Brunch Spots"],"distanceKm":0.06768787475663907},{"id":"coffeeBrunchRestaurants_0ae149633aed","slug":"folk-0ae1","kind":"restaurant","name":"Folk.","lat":37.97880874771429,"lng":23.72797999271096,"url":"https://maps.app.goo.gl/6T8xDeGdNhWe15Wy8?g_st=ipc","address":"Βύσσης 2, Αθήνα 105 51","categoryIds":["coffee-brunch"],"categories":["Coffee & Brunch Spots"],"distanceKm":0.07848445664214476}],"sameRegion":[],"mentionedGuides":[{"slug":"tap-water-safe-greece-el","title":"Είναι Ασφαλές να Πίνετε Νερό Βρύσης στην Ελλάδα;"},{"slug":"tap-water-safe-greece","title":"Is Tap Water Safe to Drink in Greece?"},{"slug":"traveling-to-greece-on-a-budget-el","title":"Ταξιδι στην Ελλαδα με μικρο budget"},{"slug":"traveling-to-greece-on-a-budget","title":"Traveling to Greece on a Budget"}]},"__N_SSG":true}