{"pageProps":{"entity":{"id":"greekRestaurants_025e209eb62b","slug":"hasika-025e","kind":"restaurant","name":"Hasika","lat":35.36781760941864,"lng":24.474835852084063,"url":"https://maps.app.goo.gl/hVvx64ssnxuZvpzs7?g_st=ipc","address":"Αγίας Βαρβάρας 11-13, Ρέθυμνο 741 31","categoryIds":["greek-restaurants"],"categories":["Greek Restaurants"]},"sameCategory":[{"id":"greekRestaurants_b50a3b0926c1","slug":"raki-ba-raki-b50a","kind":"restaurant","name":"Raki Ba Raki","lat":35.370091171281985,"lng":24.473900295265366,"url":"https://maps.app.goo.gl/9dE1VSZKrMDMbd5q8?g_st=ipc","address":"Ραδαμάνθυος 16, Ρέθυμνο 741 31","categoryIds":["greek-restaurants"],"categories":["Greek Restaurants"]},{"id":"greekRestaurants_640a14efa101","slug":"taverna-alekos-640a","kind":"restaurant","name":"Ταβέρνα Αλέκος","lat":35.30375888651602,"lng":24.459324408714505,"url":"https://maps.app.goo.gl/PgBU6UUwxg9oXgGh6?g_st=ipc","address":"Επαρ.Οδ. Ρέθυμνου-Αγίας Γαλήνης, Αρμένοι 741 50","categoryIds":["greek-restaurants"],"categories":["Greek Restaurants"]},{"id":"greekRestaurants_454ccdf9aa06","slug":"vrisi-restaurant-454c","kind":"restaurant","name":"Vrisi Restaurant","lat":35.19843251555281,"lng":24.402218916691474,"url":"https://maps.app.goo.gl/hnANNzynf7sfyaKTA?g_st=ipc","address":"Μύρθιος, 740 60","categoryIds":["greek-restaurants"],"categories":["Greek Restaurants"]},{"id":"greekRestaurants_5e3d51ca0200","slug":"parasia-chania-vamos-parasia-chania-vamos-5e3d","kind":"restaurant","name":"Παρασιά Χανιά Βάμος- Parasia Chania Vamos","lat":35.4074884812459,"lng":24.18598092998549,"url":"https://maps.app.goo.gl/BmHbkuLGE1ioGoyp8?g_st=ipc","address":"διαλέξτε τον επαρχιακό δρόμο, Από Ρέθυμνο βγείτε δεξιά στην έξοδο στο ελαιουργειο Κανάκη και έπειτα πάρτε τον επαρχιακό δρόμο προς Παρασιά, Από, Βρύσες 730 08","categoryIds":["greek-restaurants"],"categories":["Greek Restaurants"]},{"id":"greekRestaurants_585e0390a5d3","slug":"ntoynias-585e","kind":"restaurant","name":"Ντουνιάς","lat":35.40906562971069,"lng":24.014822409059008,"url":"https://maps.app.goo.gl/fPzWW7jmw3vrMepH9?g_st=ipc","address":"Keramion, Νεροκούρος 731 00","categoryIds":["greek-restaurants"],"categories":["Greek Restaurants"]},{"id":"greekRestaurants_4a595232b3a3","slug":"o-koympes-4a59","kind":"restaurant","name":"Ο Κουμπές","lat":35.5043816279159,"lng":24.026404656039464,"url":"https://maps.app.goo.gl/aq1X1YzrveFNjWCR6?g_st=ipc","address":"Παναγούλη 1, Χανιά 731 34","categoryIds":["greek-restaurants"],"categories":["Greek Restaurants"]},{"id":"greekRestaurants_f24ffdee3a33","slug":"i-taverna-toy-gianni-sto-kyparissi-f24f","kind":"restaurant","name":"Η ταβέρνα του Γιάννη στο Κυπαρίσσι","lat":35.19205483334649,"lng":25.077800899282035,"url":"https://maps.app.goo.gl/VdRwFKm52QBw7CuU8?g_st=ipc","address":"Κυπαρίσσι, Κυπάρισσος 715 00","categoryIds":["greek-restaurants"],"categories":["Greek Restaurants"]},{"id":"greekRestaurants_a50073ea32f7","slug":"peskesi-a500","kind":"restaurant","name":"Πεσκέσι","lat":35.34024406072665,"lng":25.132467165389027,"url":"https://maps.app.goo.gl/yUQNhdHvkcuWtksw6?g_st=ipc","address":"Καπετάν Χαραλάμπη 6-8, Ηράκλειο 712 02","categoryIds":["greek-restaurants"],"categories":["Greek Restaurants"]}],"nearby":[{"id":"greekRestaurants_b50a3b0926c1","slug":"raki-ba-raki-b50a","kind":"restaurant","name":"Raki Ba Raki","lat":35.370091171281985,"lng":24.473900295265366,"url":"https://maps.app.goo.gl/9dE1VSZKrMDMbd5q8?g_st=ipc","address":"Ραδαμάνθυος 16, Ρέθυμνο 741 31","categoryIds":["greek-restaurants"],"categories":["Greek Restaurants"],"distanceKm":0.2666612831429761},{"id":"municipalities_b647ea36f888","slug":"rethymno-b647","kind":"municipality","name":"Ρέθυμνο","lat":35.3647,"lng":24.4821,"aliases":["Ρεθυμνο","Rethimno","Rethymnon"],"region":"Κεντρική Κρήτη","name_en":"Rethymno","region_en":"Central Crete","distanceKm":0.7443380685107651},{"id":"dessertsRestaurants_b443fe373cff","slug":"savoidakis-bakery-patisserie-rethymno-b443","kind":"restaurant","name":"Σαβοϊδάκης Bakery & Patisserie, Ρέθυμνο","lat":35.3644961337899,"lng":24.48870910519482,"url":"https://maps.app.goo.gl/GXNdrvZMon8LLp5Y6?g_st=ipc","address":"Mark. Portaliou 57, Rethymno 741 50","categoryIds":["desserts"],"categories":["Dessert Shops"],"distanceKm":1.3110684856875185},{"id":"coffeeBrunchRestaurants_0e2f635e730f","slug":"savoidakis-bakery-patisserie-rethymno-0e2f","kind":"restaurant","name":"Σαβοϊδάκης Bakery & Patisserie, Ρέθυμνο","lat":35.364498475258735,"lng":24.48871039963828,"url":"https://maps.app.goo.gl/JMMKwevbapcLZ5jw5?g_st=ipc","address":"Mark. Portaliou 57, Rethymno 741 50","categoryIds":["coffee-brunch"],"categories":["Coffee & Brunch Spots"],"distanceKm":1.3111077764071113},{"id":"familyFriendly_179239195c85","slug":"biotopoi-of-crete-nature-park-1792","kind":"restaurant","name":"Biotopoi of Crete Nature Park","lat":35.36002627927518,"lng":24.496326916546945,"url":"https://maps.app.goo.gl/bgFXGA2JPNnDk4Nh8?g_st=ipc","address":"Kalaitzakis Kastelakia, Rethymno 741 33","categoryIds":["family-friendly"],"categories":["Kid Friendly Locations"],"distanceKm":2.132678332937017},{"id":"familyFriendly_e3a260aa1584","slug":"calcetto-e3a2","kind":"restaurant","name":"Calcetto","lat":35.35988785622983,"lng":24.496442751230653,"url":"https://maps.app.goo.gl/acAH5pkUBqCJVJGj6?g_st=ipc","address":"Ιωάννου Καλαϊτζάκη, Rethymno 741 00","categoryIds":["family-friendly"],"categories":["Kid Friendly Locations"],"distanceKm":2.1485528661290245},{"id":"wineriesVineyards_46f14cfdb608","slug":"the-secret-gorge-restaurant-wine-tasting-experience-46f1","kind":"restaurant","name":"The Secret Gorge - Restaurant & Wine Tasting Experience","lat":35.36437657461691,"lng":24.41937540675887,"url":"https://maps.app.goo.gl/JcxKmH9JYsFLhZKR9?g_st=ipc","address":"3rd Klm. National Road, Rethymno 741 50","categoryIds":["wineries-vineyards"],"categories":["Wineries & Vineyards"],"distanceKm":5.043475898140773},{"id":"luxuryDiningRestaurants_2ae90f83c8cf","slug":"the-secret-gorge-restaurant-wine-tasting-experience-2ae9","kind":"restaurant","name":"The Secret Gorge - Restaurant & Wine Tasting Experience","lat":35.36437434920116,"lng":24.419370445837004,"url":"https://maps.app.goo.gl/gPHcQmEJJv1GDCXa7?g_st=ipc","address":"3rd Klm. National Road, Rethymno 741 50","categoryIds":["luxury-dining"],"categories":["Luxury Dining"],"distanceKm":5.043943286021076}],"sameRegion":[],"mentionedGuides":[]},"__N_SSG":true}