{"pageProps":{"entity":{"id":"dessertsRestaurants_d96257796e81","slug":"kokkion-monastiraki-d962","kind":"restaurant","name":"Kokkion Μοναστηράκι","lat":37.97829626511462,"lng":23.72638522814765,"url":"https://maps.app.goo.gl/FfAWG58apt6AFDPU7?g_st=ipc","address":"Πρωτογένους 2, Αθήνα 105 54","categoryIds":["desserts"],"categories":["Dessert Shops"]},"sameCategory":[{"id":"dessertsRestaurants_259da585070b","slug":"loukoumadaki-athens-259d","kind":"restaurant","name":"Loukoumadaki Athens","lat":37.977901135383384,"lng":23.725373600096002,"url":"https://maps.app.goo.gl/qqDCoKK1WRYwRxk99?g_st=ipc","address":"Miaouli 18, Athina 105 54","categoryIds":["desserts"],"categories":["Dessert Shops"]},{"id":"dessertsRestaurants_64c591cf617e","slug":"l-arte-del-gelato-64c5","kind":"restaurant","name":"L'Arte del Gelato","lat":37.97831483150659,"lng":23.72508265750619,"url":"https://maps.app.goo.gl/8FCA5DcN18fwe2916?g_st=ipc","address":"Μιαούλη 26, Αθήνα 105 54","categoryIds":["desserts"],"categories":["Dessert Shops"]},{"id":"dessertsRestaurants_b25f1646b2cd","slug":"zoympoyrloy-b25f","kind":"restaurant","name":"Ζουμπουρλού","lat":37.97853908270467,"lng":23.72510275526626,"url":"https://maps.app.goo.gl/Cfhdki2vmrcV7YwL6?g_st=ipc","address":"Αισχύλου 4, Αθήνα 105 54","categoryIds":["desserts"],"categories":["Dessert Shops"]},{"id":"dessertsRestaurants_5f029576403e","slug":"mrsofty-5f02","kind":"restaurant","name":"MrSofty","lat":37.97794945664196,"lng":23.72507127899626,"url":"https://maps.app.goo.gl/qwbSWbdWTMN4EmVKA?g_st=ipc","address":"Miaouli 19, Athina 105 54","categoryIds":["desserts"],"categories":["Dessert Shops"]},{"id":"dessertsRestaurants_195d87455c89","slug":"ta-serbetia-stou-psyrri-195d","kind":"restaurant","name":"Ta Serbetia stou Psyrri","lat":37.97876489928662,"lng":23.725063077362762,"url":"https://maps.app.goo.gl/t2M6Ma6B3LXC2PSo6?g_st=ipc","address":"105 54, Eschilou 3, Athina 105 54","categoryIds":["desserts"],"categories":["Dessert Shops"]},{"id":"dessertsRestaurants_06178cd0bad9","slug":"ta-serbetia-stou-psyrri-0617","kind":"restaurant","name":"Ta Serbetia stou Psyrri","lat":37.97876293538819,"lng":23.725047329543127,"url":"https://maps.app.goo.gl/bgt7zDJhQUaUd4AZA?g_st=ipc","address":"105 54, Eschilou 3, Athina 105 54","categoryIds":["desserts"],"categories":["Dessert Shops"]},{"id":"dessertsRestaurants_d00ebd9aea63","slug":"to-sermpetospito-tis-nansys-d00e","kind":"restaurant","name":"Το Σερμπετόσπιτο της Νάνσυς","lat":37.97833603994479,"lng":23.724854486877806,"url":"https://maps.app.goo.gl/uH3RaY6mJ3jPCHMHA?g_st=ipc","address":"Πλ. Ηρώων 1, Αθήνα 105 54","categoryIds":["desserts"],"categories":["Dessert Shops"]},{"id":"dessertsRestaurants_722e1b739382","slug":"iceroll-722e","kind":"restaurant","name":"IceRoll","lat":37.97685958783748,"lng":23.726327595889753,"url":"https://maps.app.goo.gl/8LHJovnHdYJkvDpY9?g_st=ipc","address":"Αθηνάς 2, Αθήνα 105 51","categoryIds":["desserts"],"categories":["Dessert Shops"]}],"nearby":[{"id":"cheapEatsRestaurants_16ba629709d2","slug":"just-pita-16ba","kind":"restaurant","name":"Just Pita","lat":37.97840949020096,"lng":23.726739666799467,"url":"https://maps.app.goo.gl/hyeDVXAzDsSq1RQz5?g_st=ipc","address":"Αθηνάς 18, Αθήνα 105 51","categoryIds":["cheap-eats"],"categories":["Gyros & Cheap Eats"],"distanceKm":0.0335202966901462},{"id":"cheapEatsRestaurants_24f0cfa0516a","slug":"ringo-kalamaki-pub-24f0","kind":"restaurant","name":"RINGO Kalamaki Pub","lat":37.978249435688795,"lng":23.72590325237898,"url":"https://maps.app.goo.gl/EvDBZN3YG2DfzNcdA?g_st=ipc","address":"Πρωτογένους 8, Αθήνα 105 54","categoryIds":["cheap-eats"],"categories":["Gyros & Cheap Eats"],"distanceKm":0.042564291972905344},{"id":"coffeeBrunchRestaurants_efaa63d4fa10","slug":"dope-efaa","kind":"restaurant","name":"Dope","lat":37.97832305246442,"lng":23.72690477526337,"url":"https://maps.app.goo.gl/JomysUEbYVtYn2KN6?g_st=ipc","address":"Βύσσης 25, Αθήνα 105 51","categoryIds":["coffee-brunch"],"categories":["Coffee & Brunch Spots"],"distanceKm":0.04563494508052317},{"id":"cheapEatsRestaurants_0371c77b2517","slug":"tsiknaboom-0371","kind":"restaurant","name":"TsiknaBoom","lat":37.97906604032225,"lng":23.726418827071747,"url":"https://maps.app.goo.gl/DxnAjbtDdfK3oFbr9?g_st=ipc","address":"Παλλάδος 2-4, Αθήνα 105 54","categoryIds":["cheap-eats"],"categories":["Gyros & Cheap Eats"],"distanceKm":0.08564574198206756},{"id":"burgersRestaurants_d55e3b1fc4f6","slug":"one-burger-d55e","kind":"restaurant","name":"ONE BURGER","lat":37.97831953861062,"lng":23.727493287060057,"url":"https://maps.app.goo.gl/N76y7HGoU6TuZHcW8?g_st=ipc","address":"Αγάθωνος 7, Αθήνα 105 51","categoryIds":["burgers"],"categories":["Burger Spots"],"distanceKm":0.09715440708655},{"id":"dessertsRestaurants_259da585070b","slug":"loukoumadaki-athens-259d","kind":"restaurant","name":"Loukoumadaki Athens","lat":37.977901135383384,"lng":23.725373600096002,"url":"https://maps.app.goo.gl/qqDCoKK1WRYwRxk99?g_st=ipc","address":"Miaouli 18, Athina 105 54","categoryIds":["desserts"],"categories":["Dessert Shops"],"distanceKm":0.09895680530934746},{"id":"coffeeBrunchRestaurants_8d3de33104cf","slug":"the-brunch-factory-8d3d","kind":"restaurant","name":"The Brunch Factory","lat":37.977341602927304,"lng":23.726205472467996,"url":"https://maps.app.goo.gl/CB8h73sPXUiPQmTu7?g_st=ipc","address":"Αθηνάς 11, Αθήνα 105 54","categoryIds":["coffee-brunch"],"categories":["Coffee & Brunch Spots"],"distanceKm":0.10731644580426569},{"id":"vegetarianRestaurants_e4171a750969","slug":"feyrouz-athens-e417","kind":"restaurant","name":"Feyrouz_Athens","lat":37.97815368375059,"lng":23.72764654408699,"url":"https://maps.app.goo.gl/cceYxANJTPRNHFuB6?g_st=ipc","address":"Καρόρη 23 και, Αγάθωνος 1, Αθήνα 105 51","categoryIds":["vegetarian"],"categories":["Vegetarian Friendly Restaurants"],"distanceKm":0.11168388419242407}],"sameRegion":[],"mentionedGuides":[{"slug":"acropolis-complete-guide-el","title":"Επίσκεψη στην Ακρόπολη & το Μουσείο Ακρόπολης"},{"slug":"acropolis-complete-guide","title":"Visiting the Acropolis & Acropolis Museum"},{"slug":"athens-airport-to-city-guide-el","title":"Πώς να Πάτε από το Αεροδρόμιο της Αθήνας στο Κέντρο"},{"slug":"athens-airport-to-city-guide","title":"Getting From Athens Airport to the City Center"},{"slug":"athens-hop-on-hop-off-guide-el","title":"Οδηγός για τα Hop-On-Hop-Off Λεωφορεία της Αθήνας"},{"slug":"athens-hop-on-hop-off-guide","title":"Ultimate Guide to Athens Hop-On-Hop-Off Bus Tours"},{"slug":"athens-layover-6-hours-guide-el","title":"Πώς να Περάσετε 6 Ώρες Αναμονής στο Αεροδρόμιο της Αθήνας"},{"slug":"athens-layover-6-hours-guide","title":"How to Spend a 6 Hour Layover in Athens"}]},"__N_SSG":true}