{"pageProps":{"entity":{"id":"wineriesVineyards_262c7717edc1","slug":"oinopoieio-papagiannakos-262c","kind":"restaurant","name":"Οινοποιείο Παπαγιαννάκος","lat":37.90457982525897,"lng":23.983420618508436,"url":"https://maps.app.goo.gl/nRd1KxMycS9cXqd6A?g_st=ipc","address":"Πυθαγόρα, Μαρκόπουλο Μεσογαίας 190 03","categoryIds":["wineries-vineyards"],"categories":["Wineries & Vineyards"]},"sameCategory":[{"id":"wineriesVineyards_fb04a0d726bd","slug":"oinopoieio-prifti-fb04","kind":"restaurant","name":"Οινοποιείο Πρίφτη","lat":37.742934639668164,"lng":24.024928046003534,"url":"https://maps.app.goo.gl/s9SpDZV9kTGdK3aE6?g_st=ipc","address":"Μαρκάτι 190 01","categoryIds":["wineries-vineyards"],"categories":["Wineries & Vineyards"]},{"id":"wineriesVineyards_a92793e20307","slug":"ktima-kokotoy-a927","kind":"restaurant","name":"ΚΤΗΜΑ ΚΟΚΟΤΟΥ","lat":38.12312381812047,"lng":23.891784558722108,"url":"https://maps.app.goo.gl/TDK8DNGSKRuGWju37?g_st=ipc","address":"Κτήμα Γ. Κοκοτού 1, Σταμάτα 145 75","categoryIds":["wineries-vineyards"],"categories":["Wineries & Vineyards"]},{"id":"wineriesVineyards_07784b315d36","slug":"oinopoieio-zegginis-0778","kind":"restaurant","name":"Οινοποιείο Ζεγγίνης","lat":38.14341389755598,"lng":23.983053677151467,"url":"https://maps.app.goo.gl/ZRuTWvGbiLUcFQZw7?g_st=ipc","address":"Λεωφόρος Κάτω Σουλίου 62, Μαραθώνας 190 07","categoryIds":["wineries-vineyards"],"categories":["Wineries & Vineyards"]},{"id":"wineriesVineyards_3edb4c37dc1f","slug":"estates-costa-lazaridi-oenotria-land-3edb","kind":"restaurant","name":"Estates Costa Lazaridi - Oenotria Land","lat":38.23173089487007,"lng":23.870908077071547,"url":"https://maps.app.goo.gl/aoRwmKxMU5cHCnRX6?g_st=ipc","address":"2nd km Kapandriti Kalamos road, Kapandriti, 19014, 190 14","categoryIds":["wineries-vineyards"],"categories":["Wineries & Vineyards"]},{"id":"wineriesVineyards_387acae649dd","slug":"lykos-winery-387a","kind":"restaurant","name":"Lykos Winery","lat":38.40318852137616,"lng":23.75129901619749,"url":"https://maps.app.goo.gl/N8pQEWcDemQKLK6N6?g_st=ipc","address":"ΜΑΛΑΚΩΝΤΑΣ 0, Eretria 340 08","categoryIds":["wineries-vineyards"],"categories":["Wineries & Vineyards"]},{"id":"wineriesVineyards_91ab76f741da","slug":"ktima-moyson-muses-estate-91ab","kind":"restaurant","name":"Κτήμα Μουσών / Muses Estate","lat":38.310939635727244,"lng":23.111723523497265,"url":"https://maps.app.goo.gl/s6vXZTgfmnzvhcm38?g_st=ipc","address":"Άσκρη 320 02","categoryIds":["wineries-vineyards"],"categories":["Wineries & Vineyards"]},{"id":"wineriesVineyards_659a4688a423","slug":"oinopoieio-chrysolora-659a","kind":"restaurant","name":"Οινοποιείο Χρυσολωρά","lat":37.186843478967006,"lng":24.50813577853972,"url":"https://maps.app.goo.gl/Mb44SR4hNKDDndUD6?g_st=ipc","address":"Φλάσκος - Προφήτης Ηλίας, Σέριφος 840 05","categoryIds":["wineries-vineyards"],"categories":["Wineries & Vineyards"]},{"id":"wineriesVineyards_a4d0adc4e189","slug":"oinopoieio-chatzakis-a4d0","kind":"restaurant","name":"Οινοποιείο Χατζάκης","lat":37.487911506949764,"lng":24.920189638380265,"url":"https://maps.app.goo.gl/PnEvnYgAhh5oLj4j6?g_st=ipc","address":"Αη Μιχάλης 841 00","categoryIds":["wineries-vineyards"],"categories":["Wineries & Vineyards"]}],"nearby":[{"id":"mustSeeAttractions_28785f0c1603","slug":"naos-vrayronias-artemidos-2878","kind":"restaurant","name":"Ναός Βραυρωνίας Αρτέμιδος","lat":37.925951413998256,"lng":23.993485515950447,"url":"https://maps.app.goo.gl/GHxTmYXX8KQuXnnF8?g_st=ipc","address":"Βραυρώνα 190 03","categoryIds":["attractions"],"categories":["Must-See Attractions"],"distanceKm":2.5351341053610206},{"id":"coffeeBrunchRestaurants_9c82093341f1","slug":"kazba-bar-kouzina-9c82","kind":"restaurant","name":"Kazba Bar Kouzina","lat":37.89105125077896,"lng":24.008282807805728,"url":"https://maps.app.goo.gl/RrMxEDqS2TizyDi36?g_st=ipc","address":"Λεωφ. Γ. Γρέγου 27, Πόρτο Ράφτη 190 03","categoryIds":["coffee-brunch"],"categories":["Coffee & Brunch Spots"],"distanceKm":2.649906294925078},{"id":"coffeeBrunchRestaurants_5b4cddd34628","slug":"mparko-5b4c","kind":"restaurant","name":"Μπάρκο","lat":37.89368052857063,"lng":24.013107601829738,"url":"https://maps.app.goo.gl/eVBj1NWi5ai3UMgQ9?g_st=ipc","address":"Λεωφ. Γ. Γρέγου 57, Πόρτο Ράφτη 190 23","categoryIds":["coffee-brunch"],"categories":["Coffee & Brunch Spots"],"distanceKm":2.8729698565095614},{"id":"fishTavernasRestaurants_69aafe29cadb","slug":"the-coral-69aa","kind":"restaurant","name":"The Coral","lat":37.93546332991727,"lng":24.012144070196292,"url":"https://maps.app.goo.gl/LrMfAiKJ9cCQAH6v7?g_st=ipc","address":"Leof. Vravronos 367, Artemis 190 16","categoryIds":["fish-tavernas"],"categories":["Fish Tavernas"],"distanceKm":4.259249688950151},{"id":"fishTavernasRestaurants_b12448499c96","slug":"psarotaverna-chamolia-b124","kind":"restaurant","name":"Ψαροταβέρνα Χαμολιά","lat":37.920806600246216,"lng":24.027771872272915,"url":"https://maps.app.goo.gl/f74w2o4iUn9xQDDs8?g_st=ipc","address":"Κλειούς, Βραυρώνα 190 03","categoryIds":["fish-tavernas"],"categories":["Fish Tavernas"],"distanceKm":4.288819459354589},{"id":"mexicanRestaurants_3d3eda2795fe","slug":"ancho-3d3e","kind":"restaurant","name":"Ancho","lat":37.93619879432701,"lng":23.947326529806652,"url":"https://maps.app.goo.gl/vZsWgNz2ht7aShcY9","address":"Attiki Odos, Spata Artemida 190 04","categoryIds":["mexican"],"categories":["Mexican Restaurants"],"distanceKm":4.7313309937656705},{"id":"fishTavernasRestaurants_1101abe83696","slug":"mezedopoleio-i-chira-1101","kind":"restaurant","name":"Μεζεδοπωλείο «Η Χηρα»","lat":37.939079061504245,"lng":24.016183745998713,"url":"https://maps.app.goo.gl/ZtfRTs2EoQpXQkyy8?g_st=ipc","address":"Αγίου Κωνσταντίνου και Ελένης, Άρτεμις 190 16","categoryIds":["fish-tavernas"],"categories":["Fish Tavernas"],"distanceKm":4.793225242791914},{"id":"dessertsRestaurants_244c93cd072a","slug":"terkenlis-el-venizelos-afixeis-244c","kind":"restaurant","name":"Τερκενλής Ελ. Βενιζέλος - Αφίξεις","lat":37.93767356668546,"lng":23.9476854578976,"url":"https://maps.app.goo.gl/VzWCZGWnxpdFBbDj6?g_st=ipc","address":"Αττική Οδός, Δήμος Σπάτων - Αρτέμιδος 190 04","categoryIds":["desserts"],"categories":["Dessert Shops"],"distanceKm":4.833935127076572}],"sameRegion":[],"mentionedGuides":[]},"__N_SSG":true}