{"pageProps":{"entity":{"id":"mustSeeAttractions_9b8993cb09f3","slug":"archaiologikos-choros-eleysinas-9b89","kind":"restaurant","name":"Αρχαιολογικός Χώρος Ελευσίνας","lat":38.04235410298215,"lng":23.539415339881792,"url":"https://maps.app.goo.gl/CQEgQ38KdmafS3mN7?g_st=ipc","address":"Σωτηρίου Γκιόκα 1, Ελευσίνα 192 00","categoryIds":["attractions"],"categories":["Must-See Attractions"]},"sameCategory":[{"id":"mustSeeAttractions_211504525918","slug":"iera-moni-dafnioy-2115","kind":"restaurant","name":"Ιερά Μονή Δαφνίου","lat":38.012987406661985,"lng":23.63601735879107,"url":"https://maps.app.goo.gl/wutdpyatwyXBUYRR6?g_st=ipc","address":"Ιερά Οδός, Χαϊδάρι 124 61","categoryIds":["attractions"],"categories":["Must-See Attractions"]},{"id":"mustSeeAttractions_1f6f7342d4cd","slug":"to-roloi-toy-peiraia-1f6f","kind":"restaurant","name":"Το Ρολόι του Πειραιά","lat":37.93913367533199,"lng":23.648716548781902,"url":"https://maps.app.goo.gl/T618Z3KqK9zezNFE9?g_st=ipc","address":"Ακτή Μουτσοπούλου 6, Πειραιάς 185 35","categoryIds":["attractions"],"categories":["Must-See Attractions"]},{"id":"mustSeeAttractions_31e331c60661","slug":"kerameikos-archaeological-site-31e3","kind":"restaurant","name":"Kerameikos Archaeological Site","lat":37.97803082106626,"lng":23.717271800112048,"url":"https://maps.app.goo.gl/21oaLw9mApwFReVy7?g_st=ipc","address":"Ermou 148, Athina 105 53","categoryIds":["attractions"],"categories":["Must-See Attractions"]},{"id":"mustSeeAttractions_6f694258a5ea","slug":"thiseio-6f69","kind":"restaurant","name":"Θησείο","lat":37.97501242037082,"lng":23.717080869886306,"url":"https://maps.app.goo.gl/i7GUzZ6ceEZCukDC6?g_st=ipc","address":"Αθήνα 118 51","categoryIds":["attractions"],"categories":["Must-See Attractions"]},{"id":"mustSeeAttractions_26d34993a0ba","slug":"ethniko-asteroskopeio-athinon-kentro-episkepton-thiseioy-26d3","kind":"restaurant","name":"Εθνικό Αστεροσκοπείο Αθηνών - Κέντρο Επισκεπτών Θησείου","lat":37.972744612814594,"lng":23.717947819468222,"url":"https://maps.app.goo.gl/6gQt8KFRg9ZbnwLVA?g_st=ipc","address":"Λόφος Νυμφών Θησείο, ΤΘ 20048, Αθήνα 118 10","categoryIds":["attractions"],"categories":["Must-See Attractions"]},{"id":"mustSeeAttractions_dc5030eb7fbd","slug":"kentro-politismoy-idryma-stayros-niarchos-dc50","kind":"restaurant","name":"Κέντρο Πολιτισμού Ίδρυμα Σταύρος Νιάρχος","lat":37.939856198299935,"lng":23.69211972785974,"url":"https://maps.app.goo.gl/pQWTjEcbS98njE48A?g_st=ipc","address":"Λεωφ. Ανδρέα Συγγρού 364, Καλλιθέα 176 74","categoryIds":["attractions"],"categories":["Must-See Attractions"]},{"id":"mustSeeAttractions_f836a18a6282","slug":"naos-toy-ifaistoy-f836","kind":"restaurant","name":"Ναός του Ηφαίστου","lat":37.9755941105574,"lng":23.721451459878914,"url":"https://maps.app.goo.gl/auHh3GwXgN8RTikx6?g_st=ipc","address":"Αθήνα 105 55","categoryIds":["attractions"],"categories":["Must-See Attractions"]},{"id":"mustSeeAttractions_fa2e6a808026","slug":"archaia-agora-athinon-fa2e","kind":"restaurant","name":"Αρχαία Αγορά Αθηνών","lat":37.97489898202124,"lng":23.722093444133804,"url":"https://maps.app.goo.gl/ofAbPpuVbSmGyHGy7?g_st=ipc","address":"Αθήνα 105 55","categoryIds":["attractions"],"categories":["Must-See Attractions"]}],"nearby":[{"id":"greekRestaurants_884db7ea726f","slug":"rakoyn-884d","kind":"restaurant","name":"Ρακούν","lat":38.04130257579753,"lng":23.540052368264472,"url":"https://maps.app.goo.gl/8AuC45RCCAkJsvne9","address":"Νικολαΐδου 66, Ελευσίνα 192 00","categoryIds":["greek-restaurants"],"categories":["Greek Restaurants"],"distanceKm":0.1295509690759428},{"id":"familyFriendly_a59e646924f0","slug":"parko-arkopolis-a59e","kind":"restaurant","name":"Πάρκο ARKOPOLIS","lat":38.04423565223715,"lng":23.533199733095568,"url":"https://maps.app.goo.gl/x7x4Lu9B5vabrAyJ7?g_st=ipc","address":"Μαρίας Κιουρί, Ελευσίνα 192 00","categoryIds":["family-friendly"],"categories":["Kid Friendly Locations"],"distanceKm":0.5831318655534298},{"id":"greekRestaurants_9cb9af8d0b5c","slug":"ayli-eleysina-9cb9","kind":"restaurant","name":"Αυλή Ελευσίνα","lat":38.03677889549646,"lng":23.538522460635875,"url":"https://maps.app.goo.gl/FqXm1SHTy3UsbXZy9","address":"Κανελλόπουλου 9, Ελευσίνα 192 00","categoryIds":["greek-restaurants"],"categories":["Greek Restaurants"],"distanceKm":0.6248467785818081},{"id":"municipalities_91603d960254","slug":"eleysina-9160","kind":"municipality","name":"Ελευσίνα","lat":38.0333,"lng":23.5333,"aliases":["Ελευσινα"],"region":"Δυτική Αττική","name_en":"Elefsina","region_en":"West Attica","distanceKm":1.1403587763779617},{"id":"cheapEatsRestaurants_8c8fe904de1f","slug":"o-gyros-tis-polis-8c8f","kind":"restaurant","name":"Ο Γύρος Της Πόλης","lat":38.066483272222705,"lng":23.529477178860592,"url":"https://maps.app.goo.gl/aT8YqVdyM8ijeioo7?g_st=ipc","address":"Τέρμα Αφών, Afon Kipreou, Ελευσίνα 190 18","categoryIds":["cheap-eats"],"categories":["Gyros & Cheap Eats"],"distanceKm":2.8206193526035004},{"id":"cheapEatsRestaurants_ff5878e53264","slug":"iliadis-coffee-and-food-ff58","kind":"restaurant","name":"ILIADIS COFFEE AND FOOD","lat":38.04539961819888,"lng":23.58539496057634,"url":"https://maps.app.goo.gl/vsiCvaNeFCuC7Dfv8?g_st=ipc","address":"Λεωφ. Δημοκρατίας 67, Ασπρόπυργος 193 00","categoryIds":["cheap-eats"],"categories":["Gyros & Cheap Eats"],"distanceKm":4.040667157976307},{"id":"cheapEatsRestaurants_d7c29e2a0475","slug":"soyvlakia-o-pinis-d7c2","kind":"restaurant","name":"ΣΟΥΒΛΑΚΙΑ \"Ο ΠΙΝΗΣ\"","lat":38.059665035702054,"lng":23.588228176039767,"url":"https://maps.app.goo.gl/jR5vQVFM7HLTQP8n9?g_st=ipc","address":"Σαλαμίνος 39, Ασπρόπυργος 193 00","categoryIds":["cheap-eats"],"categories":["Gyros & Cheap Eats"],"distanceKm":4.68758681542415},{"id":"municipalities_e0afc01f23ce","slug":"aspropyrgos-e0af","kind":"municipality","name":"Ασπρόπυργος","lat":38.0667,"lng":23.6,"region":"Δυτική Αττική","name_en":"Aspropyrgos","region_en":"West Attica","distanceKm":5.955492893495937}],"sameRegion":[],"mentionedGuides":[]},"__N_SSG":true}