{"pageProps":{"entity":{"id":"cheapEatsRestaurants_0c3a0f831178","slug":"food-truck-park-skg-0c3a","kind":"restaurant","name":"Food Truck Park SKG","lat":40.609281906480575,"lng":22.989500884434833,"url":"https://maps.app.goo.gl/hfoXLoQmnjaHwpUB7?g_st=ipc","address":"Kapetan Ntogra 31, Pilea 555 35","categoryIds":["cheap-eats"],"categories":["Gyros & Cheap Eats"]},"sameCategory":[{"id":"cheapEatsRestaurants_8ba579af851d","slug":"steakhouse-costas-8ba5","kind":"restaurant","name":"Steakhouse Costas","lat":40.607757700164754,"lng":22.984167654560377,"url":"https://maps.app.goo.gl/vkLu33M5Ct15FeXa6?g_st=ipc","address":"Emmanouil Fili 15, Pilea 555 34","categoryIds":["cheap-eats"],"categories":["Gyros & Cheap Eats"]},{"id":"cheapEatsRestaurants_2468c5a59712","slug":"petridis-and-sons-grill-house-2468","kind":"restaurant","name":"Petridis And Sons - Grill House","lat":40.61189681851916,"lng":22.984212166296615,"url":"https://maps.app.goo.gl/qmEdiZfcHrQAp8pU7?g_st=ipc","address":"Grigoriou Lampraki 206, Thessaloniki 555 34","categoryIds":["cheap-eats"],"categories":["Gyros & Cheap Eats"]},{"id":"cheapEatsRestaurants_1de3117b26db","slug":"omega-grill-1de3","kind":"restaurant","name":"Ωμέγα Grill","lat":40.6085969632586,"lng":22.97871142955339,"url":"https://maps.app.goo.gl/Jp9h1Xe2kPqJT7td9?g_st=ipc","address":"Αμφιπόλεως 34, Thessaloniki 544 54","categoryIds":["cheap-eats"],"categories":["Gyros & Cheap Eats"]},{"id":"cheapEatsRestaurants_bf1d972f9838","slug":"gyradiko-bf1d","kind":"restaurant","name":"Gyradiko","lat":40.615031188130764,"lng":22.97695657295727,"url":"https://maps.app.goo.gl/6Bmdb1UVvVyTyyNdA?g_st=ipc","address":"Grigoriou Lampraki 125, Thessaloniki 543 51","categoryIds":["cheap-eats"],"categories":["Gyros & Cheap Eats"]},{"id":"cheapEatsRestaurants_543fb752ef8d","slug":"souvlatzidiko-543f","kind":"restaurant","name":"Souvlatzidiko","lat":40.615140054166176,"lng":22.976602700104493,"url":"https://maps.app.goo.gl/dKu85q9fYtc6krXf7?g_st=ipc","address":"Διαγορα, με Λαμπρακη, Thessaloniki 543 51","categoryIds":["cheap-eats"],"categories":["Gyros & Cheap Eats"]},{"id":"cheapEatsRestaurants_8f3b208739c0","slug":"funky-s-thessaloniki-8f3b","kind":"restaurant","name":"Funky's Thessaloniki","lat":40.615543107651526,"lng":22.974915159309568,"url":"https://maps.app.goo.gl/QNUEoQzqLuXtrpVc7?g_st=ipc","address":"Grigoriou Lampraki 110, Thessaloniki 543 51","categoryIds":["cheap-eats"],"categories":["Gyros & Cheap Eats"]},{"id":"cheapEatsRestaurants_d5f34328ce60","slug":"grn-toympa-d5f3","kind":"restaurant","name":"ΓΡΝ Τούμπα","lat":40.606092536657584,"lng":22.971298180015925,"url":"https://maps.app.goo.gl/xNHbtpHz8gpf4vYR6?g_st=ipc","address":"Michail Chourmouzi 41, Thessaloniki 544 53","categoryIds":["cheap-eats"],"categories":["Gyros & Cheap Eats"]},{"id":"cheapEatsRestaurants_3c28289caa25","slug":"giotis-3c28","kind":"restaurant","name":"Giotis","lat":40.60922266804071,"lng":22.97064673048183,"url":"https://maps.app.goo.gl/EWmSLiCCxYM2N33x6?g_st=ipc","address":"Mark. Mpotsari 150, Thessaloniki 544 53","categoryIds":["cheap-eats"],"categories":["Gyros & Cheap Eats"]}],"nearby":[{"id":"greekRestaurants_e5e2b9a4516b","slug":"strovolos-e5e2","kind":"restaurant","name":"Στρόβολος","lat":40.609636107203336,"lng":22.989436108652693,"url":"https://maps.app.goo.gl/yxZrsFbF6G2pXQQK9?g_st=ipc","address":"Μεσολογγίου 17 νοεμβριου, Θεσσαλονίκη 555 35","categoryIds":["greek-restaurants"],"categories":["Greek Restaurants"],"distanceKm":0.0397630904667326},{"id":"greekRestaurants_532b03b35deb","slug":"trygetes-532b","kind":"restaurant","name":"Trygetes","lat":40.609449198477655,"lng":22.99030105913949,"url":"https://maps.app.goo.gl/Rf62EziGTreVjA668?g_st=ipc","address":"17is Noemvriou 12, Pilea 555 34","categoryIds":["greek-restaurants"],"categories":["Greek Restaurants"],"distanceKm":0.07006161168552519},{"id":"burgersRestaurants_96feec737ac7","slug":"brothers-in-law-96fe","kind":"restaurant","name":"Brothers In Law","lat":40.610811655039555,"lng":22.98741536304393,"url":"https://maps.app.goo.gl/VFJTVUrK126W1Uku9?g_st=ipc","address":"Grigoriou Lampraki 244, Pilea 543 52","categoryIds":["burgers"],"categories":["Burger Spots"],"distanceKm":0.2447999921333046},{"id":"fishTavernasRestaurants_4b85b6df400f","slug":"alepoy-mezedopoleio-4b85","kind":"restaurant","name":"Αλεπού Μεζεδοπωλείο","lat":40.607668350364605,"lng":22.993173165196392,"url":"https://maps.app.goo.gl/fMUK2hozw9hQG8zN8?g_st=ipc","address":"17is Noemvriou 26, Thessaloniki 555 34","categoryIds":["fish-tavernas"],"categories":["Fish Tavernas"],"distanceKm":0.3581783699874621},{"id":"dessertsRestaurants_0447f5ff16d8","slug":"pie-serres-lambrakis-0447","kind":"restaurant","name":"Pie \"SERRES\" Lambrakis","lat":40.611438946577884,"lng":22.985616518677983,"url":"https://maps.app.goo.gl/t2b2XQwYxmP3pkBd6?g_st=ipc","address":"Grigoriou Lampraki 222, Thessaloniki 555 34","categoryIds":["desserts"],"categories":["Dessert Shops"],"distanceKm":0.40625614290904827},{"id":"cheapEatsRestaurants_8ba579af851d","slug":"steakhouse-costas-8ba5","kind":"restaurant","name":"Steakhouse Costas","lat":40.607757700164754,"lng":22.984167654560377,"url":"https://maps.app.goo.gl/vkLu33M5Ct15FeXa6?g_st=ipc","address":"Emmanouil Fili 15, Pilea 555 34","categoryIds":["cheap-eats"],"categories":["Gyros & Cheap Eats"],"distanceKm":0.4810566738581192},{"id":"cheapEatsRestaurants_2468c5a59712","slug":"petridis-and-sons-grill-house-2468","kind":"restaurant","name":"Petridis And Sons - Grill House","lat":40.61189681851916,"lng":22.984212166296615,"url":"https://maps.app.goo.gl/qmEdiZfcHrQAp8pU7?g_st=ipc","address":"Grigoriou Lampraki 206, Thessaloniki 555 34","categoryIds":["cheap-eats"],"categories":["Gyros & Cheap Eats"],"distanceKm":0.5327789093962486},{"id":"greekRestaurants_d9762e9f6ad6","slug":"to-neon-estiatorio-d976","kind":"restaurant","name":"ΤΟ ΝΕΟΝ εστιατόριο","lat":40.61224067227643,"lng":22.98407750802401,"url":"https://maps.app.goo.gl/fkULAaU3UcrpCHGRA?g_st=ipc","address":"Γρηγορίου Λαμπράκη 205 & Δημ.Τσιαπάνου 25-29, Άνω Τούμπα 543 52","categoryIds":["greek-restaurants"],"categories":["Greek Restaurants"],"distanceKm":0.5637618801984174}],"sameRegion":[],"mentionedGuides":[]},"__N_SSG":true}