{"pageProps":{"entity":{"id":"greekRestaurants_b0e401ff0ee4","slug":"koytsi-katsika-layrio-b0e4","kind":"restaurant","name":"Κουτσή Κατσίκα Λαύριο","lat":37.712808004930835,"lng":24.055992621254646,"url":"https://maps.app.goo.gl/GZaKZri1vc4Knfup7?g_st=ipc","address":"Κουντουριώτη, Λιμάνι Λαυρίου 6, Λαύριο 195 00","categoryIds":["greek-restaurants"],"categories":["Greek Restaurants"]},"sameCategory":[{"id":"greekRestaurants_d71e6913cb90","slug":"gyradiko-o-christos-d71e","kind":"restaurant","name":"Γυραδικο Ο Χρήστος","lat":37.71739386499137,"lng":24.054309535577552,"url":"https://maps.app.goo.gl/QyQBQ66ua51RomM56?g_st=ipc","address":"Λεωφ. Σουνίου 6, Λαύριο 195 00","categoryIds":["greek-restaurants"],"categories":["Greek Restaurants"]},{"id":"greekRestaurants_fbdca7941b9f","slug":"stafylomeli-fbdc","kind":"restaurant","name":"Σταφυλομέλι","lat":37.80427446071782,"lng":23.98986829628017,"url":"https://maps.app.goo.gl/aDeFKvVmZyVF7ZpSA","address":"Επαρ.Οδ. Κερατέας-Ανάβυσσου 77, Κερατέα 190 01","categoryIds":["greek-restaurants"],"categories":["Greek Restaurants"]},{"id":"greekRestaurants_69fc9f288c42","slug":"lazo-69fc","kind":"restaurant","name":"Λάζο","lat":37.808550661496035,"lng":23.978467603150243,"url":"https://maps.app.goo.gl/fKnjDEunWNjANCQ27","address":"Αθηνών Σουνίου 53, Κερατέα 190 01","categoryIds":["greek-restaurants"],"categories":["Greek Restaurants"]},{"id":"greekRestaurants_cc0b98bd06d3","slug":"gavrilis-taverna-cc0b","kind":"restaurant","name":"Γαβριλης Ταβερνα","lat":37.82834073423115,"lng":23.969307203160838,"url":"https://maps.app.goo.gl/bdVU3oQaAfncuVsN9","address":"Αγίου Δημητρίου, Κουβαράς 190 03","categoryIds":["greek-restaurants"],"categories":["Greek Restaurants"]},{"id":"greekRestaurants_d0fbec7a3dcb","slug":"melikokon-mezedopoleio-porto-rafti-d0fb","kind":"restaurant","name":"MELIKOKON - MEZEDOPOLEIO - PORTO RAFTI","lat":37.867136583168865,"lng":24.038674142484993,"url":"https://maps.app.goo.gl/52G1EjfGK3qFyDtY6?g_st=ipc","address":"Τέρμα, Leof. Avlakiou, Porto Rafti 190 03","categoryIds":["greek-restaurants"],"categories":["Greek Restaurants"]},{"id":"greekRestaurants_8851a9198b0c","slug":"o-christoforos-8851","kind":"restaurant","name":"Ο Χριστόφορος","lat":37.84084854419875,"lng":23.927116302854657,"url":"https://maps.app.goo.gl/qHLpPbKqrYerTaBG8","address":"Μιχάλη Καλαβρυτινού 11, Καλύβια Θορικού 190 10","categoryIds":["greek-restaurants"],"categories":["Greek Restaurants"]},{"id":"greekRestaurants_4897cd79b835","slug":"to-trigono-4897","kind":"restaurant","name":"Το Τρίγωνο","lat":37.842540231960264,"lng":23.92981276182192,"url":"https://maps.app.goo.gl/pPFdZPKhVShhMrpC6","address":"Αθηνων 36, Καλύβια Θορικού 190 10","categoryIds":["greek-restaurants"],"categories":["Greek Restaurants"]},{"id":"greekRestaurants_2ecb7afbe3a2","slug":"taverna-o-moyroyzis-2ecb","kind":"restaurant","name":"Ταβέρνα ο Μουρούζης","lat":37.841203116649474,"lng":23.927040364485364,"url":"https://maps.app.goo.gl/ezdUi47iiXAnpXxY9","address":"Βασιλείου Γεωργάκη 2, Καλύβια Θορικού 190 10","categoryIds":["greek-restaurants"],"categories":["Greek Restaurants"]}],"nearby":[{"id":"fishTavernasRestaurants_747917a1e974","slug":"agkyra-7479","kind":"restaurant","name":"Άγκυρα","lat":37.714457783213085,"lng":24.05577913623349,"url":"https://maps.app.goo.gl/FXSCcGp2kJVSweSb7?g_st=ipc","address":"Ψαραγορά Λαύριο 3, Ανδρέα Αλεξάνδρου, Λαύριο 195 00","categoryIds":["fish-tavernas"],"categories":["Fish Tavernas"],"distanceKm":0.18440564593497716},{"id":"fishTavernasRestaurants_c99168937472","slug":"rerras-c991","kind":"restaurant","name":"Ρέρρας","lat":37.714742366222666,"lng":24.055779972024514,"url":"https://maps.app.goo.gl/vTuWH4xsgnxg1ctN7?g_st=ipc","address":"Κων/νου Πλειώνη, Ανδρέα Αλεξάνδρου και, Λαύριο 195 00","categoryIds":["fish-tavernas"],"categories":["Fish Tavernas"],"distanceKm":0.2159029883110543},{"id":"dessertsRestaurants_af542a277d7b","slug":"solo-gelato-layrio-af54","kind":"restaurant","name":"Solo Gelato Λαύριο","lat":37.715574795821375,"lng":24.054591619024354,"url":"https://maps.app.goo.gl/N2FmFnyANGsotRZs7?g_st=ipc","address":"Πλ. Ηρ. Πολυτεχνείου 28, Λαύριο 195 00","categoryIds":["desserts"],"categories":["Dessert Shops"],"distanceKm":0.33141771923840707},{"id":"cheapEatsRestaurants_598437c8481b","slug":"gyradiko-o-christos-5984","kind":"restaurant","name":"Γυραδικο \"Ο Χρήστος\"","lat":37.7173396733135,"lng":24.054314949086613,"url":"https://maps.app.goo.gl/Kg9SVim1DWH8Lytb6?g_st=ipc","address":"Λεωφ. Σουνίου 6, Λαύριο 195 00","categoryIds":["cheap-eats"],"categories":["Gyros & Cheap Eats"],"distanceKm":0.5250629715295921},{"id":"greekRestaurants_d71e6913cb90","slug":"gyradiko-o-christos-d71e","kind":"restaurant","name":"Γυραδικο Ο Χρήστος","lat":37.71739386499137,"lng":24.054309535577552,"url":"https://maps.app.goo.gl/QyQBQ66ua51RomM56?g_st=ipc","address":"Λεωφ. Σουνίου 6, Λαύριο 195 00","categoryIds":["greek-restaurants"],"categories":["Greek Restaurants"],"distanceKm":0.5309811781423636},{"id":"fishTavernasRestaurants_06b05ccb28e3","slug":"o-foros-psarotaverna-06b0","kind":"restaurant","name":"Ο Φόρος Ψαροταβέρνα","lat":37.730230476020374,"lng":24.052869189449837,"url":"https://maps.app.goo.gl/3QEEjs3jdS92q1p9A?g_st=ipc","address":"Θορικό 195 00","categoryIds":["fish-tavernas"],"categories":["Fish Tavernas"],"distanceKm":1.9566719402022341},{"id":"municipalities_84c97cf0a61f","slug":"layreotiki-84c9","kind":"municipality","name":"Λαυρεωτική","lat":37.7333,"lng":24.0667,"region":"Ανατολικά Προάστια","name_en":"Lavreotiki","region_en":"Eastern Suburbs","distanceKm":2.465547383288983},{"id":"wineriesVineyards_fb04a0d726bd","slug":"oinopoieio-prifti-fb04","kind":"restaurant","name":"Οινοποιείο Πρίφτη","lat":37.742934639668164,"lng":24.024928046003534,"url":"https://maps.app.goo.gl/s9SpDZV9kTGdK3aE6?g_st=ipc","address":"Μαρκάτι 190 01","categoryIds":["wineries-vineyards"],"categories":["Wineries & Vineyards"],"distanceKm":4.322734948825311}],"sameRegion":[],"mentionedGuides":[]},"__N_SSG":true}