{"pageProps":{"entity":{"id":"cheapEatsRestaurants_cda079c65f38","slug":"lorda-cda0","kind":"restaurant","name":"Λόρδα","lat":37.986574816164286,"lng":23.734456878858524,"url":"https://maps.app.goo.gl/nBaQ33jw6JEZQp7X9?g_st=ipc","address":"Σπύρου Τρικούπη 3, Αθήνα 106 83","categoryIds":["cheap-eats"],"categories":["Gyros & Cheap Eats"]},"sameCategory":[{"id":"cheapEatsRestaurants_724c8ca91031","slug":"mangal-724c","kind":"restaurant","name":"Mangal","lat":37.98648075392058,"lng":23.733903117356245,"url":"https://maps.app.goo.gl/fZ3o2N67Ya2WA1aQA?g_st=ipc","address":"Σολωμού 12, Αθήνα 106 83","categoryIds":["cheap-eats"],"categories":["Gyros & Cheap Eats"]},{"id":"cheapEatsRestaurants_cab7e72e3b11","slug":"psitopoleion-giorgos-manos-cab7","kind":"restaurant","name":"Ψητοπωλείον Γιώργος - Μάνος","lat":37.9855993281782,"lng":23.733208439532696,"url":"https://maps.app.goo.gl/jYKrRJuSFDD632N47?g_st=ipc","address":"Θεμιστοκλέους 39, Αθήνα 106 77","categoryIds":["cheap-eats"],"categories":["Gyros & Cheap Eats"]},{"id":"cheapEatsRestaurants_0f0ae09c0d4e","slug":"guerilla-chef-burgers-0f0a","kind":"restaurant","name":"Guerilla Chef Burgers","lat":37.98671993993366,"lng":23.731787435580728,"url":"https://maps.app.goo.gl/K2QVLnm9vHS1E3cF9?g_st=ipc","address":"37.98671993993366, 23.731787435580728","categoryIds":["cheap-eats"],"categories":["Gyros & Cheap Eats"]},{"id":"cheapEatsRestaurants_6b9bfc66a8e4","slug":"lacantina-streetfood-6b9b","kind":"restaurant","name":"Lacantina streetfood","lat":37.98418112510836,"lng":23.734735469259256,"url":"https://maps.app.goo.gl/in5jozRVDDW97jJc8?g_st=ipc","address":"Ζωοδόχου Πηγής 24, Αθήνα 106 81","categoryIds":["cheap-eats"],"categories":["Gyros & Cheap Eats"]},{"id":"cheapEatsRestaurants_f678b7a854d0","slug":"prigkipas-f678","kind":"restaurant","name":"Πρiγκιπας","lat":37.98367685276512,"lng":23.73451397788728,"url":"https://maps.app.goo.gl/v9CtcwcCChGuLbxQ7?g_st=ipc","address":"Χαρ. Τρικούπη 23, Αθήνα 106 81","categoryIds":["cheap-eats"],"categories":["Gyros & Cheap Eats"]},{"id":"cheapEatsRestaurants_5338053c1323","slug":"cocoretsi-5338","kind":"restaurant","name":"Cocoretsi","lat":37.984933091622935,"lng":23.73142125517845,"url":"https://maps.app.goo.gl/sz7bawT1imNu9L696?g_st=ipc","address":"Ακαδημίας 95, Αθήνα 106 77","categoryIds":["cheap-eats"],"categories":["Gyros & Cheap Eats"]},{"id":"cheapEatsRestaurants_7a147c673f5b","slug":"soyvlaki-i-leivadia-7a14","kind":"restaurant","name":"Σουβλάκι Η Λειβαδιά","lat":37.984552486382015,"lng":23.7305119942548,"url":"https://maps.app.goo.gl/DMoZEUMYCkZLa2k59?g_st=ipc","address":"Κάνιγγος 2-4, Αθήνα 106 77","categoryIds":["cheap-eats"],"categories":["Gyros & Cheap Eats"]},{"id":"cheapEatsRestaurants_318abcd239ee","slug":"kalopsimeno-318a","kind":"restaurant","name":"Καλοψημένο","lat":37.98304777386895,"lng":23.735997970914198,"url":"https://maps.app.goo.gl/TiMP26dpbHXJx6pS9?g_st=ipc","address":"Ιπποκράτους 37, Αθήνα 106 80","categoryIds":["cheap-eats"],"categories":["Gyros & Cheap Eats"]}],"nearby":[{"id":"cheapEatsRestaurants_724c8ca91031","slug":"mangal-724c","kind":"restaurant","name":"Mangal","lat":37.98648075392058,"lng":23.733903117356245,"url":"https://maps.app.goo.gl/fZ3o2N67Ya2WA1aQA?g_st=ipc","address":"Σολωμού 12, Αθήνα 106 83","categoryIds":["cheap-eats"],"categories":["Gyros & Cheap Eats"],"distanceKm":0.04964532299501128},{"id":"asianRestaurants_4360c7ba70e3","slug":"microulee-4360","kind":"restaurant","name":"Microulee","lat":37.98699838431432,"lng":23.73426742337473,"url":"https://maps.app.goo.gl/KAcLL73vy6J6TTKv5?g_st=ipc","address":"Στουρνάρη 14, Αθήνα 106 83","categoryIds":["asian"],"categories":["Asian Restaurants"],"distanceKm":0.04993957108744762},{"id":"coffeeBrunchRestaurants_24a3c9b03a04","slug":"behold-theman-24a3","kind":"restaurant","name":"behold theman","lat":37.986871883204095,"lng":23.73489020906335,"url":"https://maps.app.goo.gl/avUBs2LwMous6Xs97?g_st=ipc","address":"Ιδεοχώρος, Στουρνάρη 6, Αθήνα 106 83","categoryIds":["coffee-brunch"],"categories":["Coffee & Brunch Spots"],"distanceKm":0.050332383964910916},{"id":"dessertsRestaurants_1784b9fa852d","slug":"baklamania-1784","kind":"restaurant","name":"Baklamania","lat":37.985982058793134,"lng":23.733879471082627,"url":"https://maps.app.goo.gl/dVejuM8qJpCUsYq38?g_st=ipc","address":"Θεμιστοκλέους 49, Αθήνα 106 83","categoryIds":["desserts"],"categories":["Dessert Shops"],"distanceKm":0.08309669016928242},{"id":"vegetarianRestaurants_7f7c33a1a56c","slug":"rozalia-7f7c","kind":"restaurant","name":"Ροζαλία","lat":37.98607917346581,"lng":23.735180101843408,"url":"https://maps.app.goo.gl/UngDLMKcNPzNvksZ6?g_st=ipc","address":"Βαλτετσίου 59, Αθήνα 106 81","categoryIds":["vegetarian"],"categories":["Vegetarian Friendly Restaurants"],"distanceKm":0.08399283328988807},{"id":"greekRestaurants_5d1d35aa177d","slug":"gioysoyroym-5d1d","kind":"restaurant","name":"Γιουσουρούμ","lat":37.98634442442922,"lng":23.733413179378076,"url":"https://maps.app.goo.gl/jh9iV3W2AMUY6Pev5","address":"Σουλτάνη 11, Αθήνα 106 82","categoryIds":["greek-restaurants"],"categories":["Greek Restaurants"],"distanceKm":0.09498860202514904},{"id":"mexicanRestaurants_5d5b665dab34","slug":"poncho-tacos-5d5b","kind":"restaurant","name":"Poncho TACOS","lat":37.986865601219684,"lng":23.73564152842256,"url":"https://maps.app.goo.gl/UDV48UEWHbvnBPVPA?g_st=ipc","address":"Θεμιστοκλέους 63, Αθήνα 106 83","categoryIds":["mexican"],"categories":["Mexican Restaurants"],"distanceKm":0.10873958629308281},{"id":"dessertsRestaurants_0a4575669b20","slug":"sorolop-0a45","kind":"restaurant","name":"Sorolop","lat":37.98564970745245,"lng":23.73486137468713,"url":"https://maps.app.goo.gl/JHNfHtwZtaTRv5c86?g_st=ipc","address":"Ανδρέα Μεταξά 17, Αθήνα 106 81","categoryIds":["desserts"],"categories":["Dessert Shops"],"distanceKm":0.10880435202523252}],"sameRegion":[],"mentionedGuides":[]},"__N_SSG":true}