{"pageProps":{"payload":{"area":{"id":"municipalities_0eb5ad956816","name":"Νέος Κόσμος","nameEn":"Neos Kosmos","region":"Κέντρο Αθήνας","regionEn":"Athens Center","lat":37.9563,"lng":23.7289,"urlSlug":"neos-kosmos","aliases":["Νέος Κόσμος","Neos Kosmos","Νέος Κόσμος Athens Center","Neos Kosmos Athens Center","neos-kosmos-0eb5","neos-kosmos"]},"category":{"id":"rooftop-lounges","name":"Rooftop Lounges","urlSlug":"rooftops","aliases":["rooftop-lounges","Rooftop Lounges","rooftop","roof-top"]},"entities":[{"entity":{"id":"rooftopLoungesRestaurants_eff063b05a76","slug":"premiere-restaurant-eff0","kind":"restaurant","name":"Premiere Restaurant","lat":37.95933669311001,"lng":23.721893436588108,"url":"https://maps.app.goo.gl/xdoJybpRxJKYAgbKA?g_st=ipc","address":"Λεωφ. Ανδρέα Συγγρού 89-93, Αθήνα 117 45","categoryIds":["rooftop-lounges"],"categories":["Rooftop Lounges"]},"distanceKm":0.7009756645157438},{"entity":{"id":"rooftopLoungesRestaurants_7028a5f2c855","slug":"bg-s-roof-garden-terrace-7028","kind":"restaurant","name":"BG's Roof Garden Terrace","lat":37.96555476887021,"lng":23.73099014305094,"url":"https://maps.app.goo.gl/DYB3podcUfK36W3e8?g_st=ipc","address":"Menaimahou 1 & Theofilopoulou, Καλλιρρόης Avenue, 18, 117 43","categoryIds":["rooftop-lounges"],"categories":["Rooftop Lounges"]},"distanceKm":1.0452703282938187},{"entity":{"id":"rooftopLoungesRestaurants_0166d74152d9","slug":"180-west-rooftop-lounge-restaurant-0166","kind":"restaurant","name":"180º West Rooftop Lounge Restaurant","lat":37.965774750504295,"lng":23.727676619784248,"url":"https://maps.app.goo.gl/B2UsgvhxQkuJx2dU7?g_st=ipc","address":"Φαλήρου 37-39, Αθήνα 117 42","categoryIds":["rooftop-lounges"],"categories":["Rooftop Lounges"]},"distanceKm":1.0589893977325147},{"entity":{"id":"rooftopLoungesRestaurants_208f904925e8","slug":"stork-rooftop-bar-restaurant-208f","kind":"restaurant","name":"stork rooftop bar restaurant","lat":37.967099364958976,"lng":23.7303307646006,"url":"https://maps.app.goo.gl/AF5AEBzt63j5tves7?g_st=ipc","address":"Λεωφόρος Συγγρού 21, Βούρβαχη 2, Αθήνα 117 43","categoryIds":["rooftop-lounges"],"categories":["Rooftop Lounges"]},"distanceKm":1.2073678692314227},{"entity":{"id":"rooftopLoungesRestaurants_9f3b51889721","slug":"neoma-9f3b","kind":"restaurant","name":"Neoma","lat":37.96667210546055,"lng":23.72293271432969,"url":"https://maps.app.goo.gl/GwTqDERwqhw3c72o8?g_st=ipc","address":"Μουσών 13, Αθήνα 117 41","categoryIds":["rooftop-lounges"],"categories":["Rooftop Lounges"]},"distanceKm":1.2664281057740272},{"entity":{"id":"rooftopLoungesRestaurants_fcea5b936f33","slug":"point-a-acropolis-point-fcea","kind":"restaurant","name":"POINT A (Acropolis Point)","lat":37.96841369245368,"lng":23.72706589017976,"url":"https://maps.app.goo.gl/v7R1uCgcNgpHdRQC9?g_st=ipc","address":"Ροβέρτου Γκάλι 4a, Αθήνα 117 42","categoryIds":["rooftop-lounges"],"categories":["Rooftop Lounges"]},"distanceKm":1.356544272284457},{"entity":{"id":"rooftopLoungesRestaurants_f8cacb8baac7","slug":"athens-gate-rooftop-bar-restaurant-f8ca","kind":"restaurant","name":"Athens Gate Rooftop Bar & Restaurant","lat":37.968775997362016,"lng":23.73145032913701,"url":"https://maps.app.goo.gl/q9X7pZzbyKPo8wEb6?g_st=ipc","address":"Leof. Andrea Siggrou 10, Athina 117 41","categoryIds":["rooftop-lounges"],"categories":["Rooftop Lounges"]},"distanceKm":1.4051690023252879},{"entity":{"id":"rooftopLoungesRestaurants_ffb0768cb43f","slug":"sense-modern-greek-cuisine-ffb0","kind":"restaurant","name":"SENSE Modern Greek Cuisine","lat":37.969502770972106,"lng":23.73085864462358,"url":"https://maps.app.goo.gl/oqEScqUBomYigxGZ7?g_st=ipc","address":"Διονυσίου Αρεοπαγίτου 5, Αθήνα 117 42","categoryIds":["rooftop-lounges"],"categories":["Rooftop Lounges"]},"distanceKm":1.478088678491574},{"entity":{"id":"rooftopLoungesRestaurants_d90628c167d7","slug":"anefani-d906","kind":"restaurant","name":"Ανεφάνη","lat":37.97353358251965,"lng":23.727822920102838,"url":"https://maps.app.goo.gl/cvCxoTrVfjboNT7X7?g_st=ipc","address":"Μνησικλέους 24, Αθήνα 105 56","categoryIds":["rooftop-lounges"],"categories":["Rooftop Lounges"]},"distanceKm":1.91861177533384},{"entity":{"id":"rooftopLoungesRestaurants_6bc9125d2c6e","slug":"odos-lysioy-6bc9","kind":"restaurant","name":"Οδος Λυσιου","lat":37.97368556896764,"lng":23.727989877138466,"url":"https://maps.app.goo.gl/QFStwG4KRSZkG2Em7?g_st=ipc","address":"Mnisikleous 22 and, Lisiou corner, Athina 105 56","categoryIds":["rooftop-lounges"],"categories":["Rooftop Lounges"]},"distanceKm":1.9348328011723102},{"entity":{"id":"rooftopLoungesRestaurants_f22b7c0a1efd","slug":"art-lounge-rooftop-f22b","kind":"restaurant","name":"Art Lounge Rooftop","lat":37.97343228721452,"lng":23.733497513314063,"url":"https://maps.app.goo.gl/CrXGtb53B5ftpJTg6?g_st=ipc","address":"Ναυάρχου Νικοδήμου 1, Αθήνα 105 57","categoryIds":["rooftop-lounges"],"categories":["Rooftop Lounges"]},"distanceKm":1.9471916676635437},{"entity":{"id":"rooftopLoungesRestaurants_e53024397065","slug":"electra-roof-garden-e530","kind":"restaurant","name":"Electra Roof Garden","lat":37.973799293487446,"lng":23.731619153637734,"url":"https://maps.app.goo.gl/ieHySBRUu73ccrv99?g_st=ipc","address":"Ναυάρχου Νικοδήμου 18-20, Αθήνα 105 57","categoryIds":["rooftop-lounges"],"categories":["Rooftop Lounges"]},"distanceKm":1.9603791927855727},{"entity":{"id":"rooftopLoungesRestaurants_ffccd88e3b0f","slug":"thea-terrace-bar-ffcc","kind":"restaurant","name":"Thea Terrace Bar","lat":37.97456272302777,"lng":23.731138501787182,"url":"https://maps.app.goo.gl/KVbnoHN86FaFe6Ch8?g_st=ipc","address":"Απόλλωνος 21, Αθήνα 105 57","categoryIds":["rooftop-lounges"],"categories":["Rooftop Lounges"]},"distanceKm":2.0401816316021657},{"entity":{"id":"rooftopLoungesRestaurants_a01decd3b001","slug":"ergon-house-athens-a01d","kind":"restaurant","name":"ERGON House Athens","lat":37.975246808550054,"lng":23.73151614516128,"url":"https://maps.app.goo.gl/B5dVNDQK9SeSRhFZ9?g_st=ipc","address":"23, Μητροπόλεως Street, Αθήνα 105 57","categoryIds":["rooftop-lounges"],"categories":["Rooftop Lounges"]},"distanceKm":2.119235023398506},{"entity":{"id":"rooftopLoungesRestaurants_f3d7923bdece","slug":"metropolis-roof-garden-f3d7","kind":"restaurant","name":"Metropolis Roof Garden","lat":37.97522089278689,"lng":23.732019228567697,"url":"https://maps.app.goo.gl/AzbgD3qbjVmSu6L77?g_st=ipc","address":"Μητροπόλεως 15, Αθήνα 105 57","categoryIds":["rooftop-lounges"],"categories":["Rooftop Lounges"]},"distanceKm":2.12160245799664},{"entity":{"id":"rooftopLoungesRestaurants_f3813d39259f","slug":"thissio-view-rooftop-estiatorio-mpar-f381","kind":"restaurant","name":"THISSIO VIEW - Rooftop Εστιατόριο & Μπάρ","lat":37.974080279276336,"lng":23.719915035860108,"url":"https://maps.app.goo.gl/fQ8YQr8FRL5GzrPm7?g_st=ipc","address":"Αποστόλου Παύλου 25, Αθήνα 118 51","categoryIds":["rooftop-lounges"],"categories":["Rooftop Lounges"]},"distanceKm":2.128201847431142},{"entity":{"id":"rooftopLoungesRestaurants_f6776fb8dcd6","slug":"hill-athens-rooftop-restaurant-f677","kind":"restaurant","name":"Hill Athens Rooftop Restaurant","lat":37.97419365813568,"lng":23.719905442723636,"url":"https://maps.app.goo.gl/3QDHt2qN9bAbpZCo6?g_st=ipc","address":"Αποστόλου Παύλου 27, Αθήνα 118 51","categoryIds":["rooftop-lounges"],"categories":["Rooftop Lounges"]},"distanceKm":2.1402283111996967},{"entity":{"id":"rooftopLoungesRestaurants_deda42ca6a1c","slug":"the-zillers-rooftop-gastronomy-deda","kind":"restaurant","name":"The Zillers Rooftop Gastronomy","lat":37.975610918169195,"lng":23.729618662596703,"url":"https://maps.app.goo.gl/ewydNFU5RP3inTPF7?g_st=ipc","address":"Μητροπόλεως 54, Αθήνα 105 63","categoryIds":["rooftop-lounges"],"categories":["Rooftop Lounges"]},"distanceKm":2.1482001377543067},{"entity":{"id":"rooftopLoungesRestaurants_dccec8a54ab2","slug":"taratsa-athens-dcce","kind":"restaurant","name":"Taratsa Athens","lat":37.97577225088555,"lng":23.729185158634564,"url":"https://maps.app.goo.gl/jwnF2SS5G6PYqRPf9?g_st=ipc","address":"Μητροπόλεως 60, Αθήνα 105 63","categoryIds":["rooftop-lounges"],"categories":["Rooftop Lounges"]},"distanceKm":2.1653598079501792},{"entity":{"id":"rooftopLoungesRestaurants_6749bcabe1a1","slug":"dolli-s-6749","kind":"restaurant","name":"DOLLI•S","lat":37.975812516804545,"lng":23.72812700621026,"url":"https://maps.app.goo.gl/zGocv2wEa4M7oU8NA?g_st=ipc","address":"Μητροπόλεως 49, Αθήνα 105 56","categoryIds":["rooftop-lounges"],"categories":["Rooftop Lounges"]},"distanceKm":2.1707507973299602},{"entity":{"id":"rooftopLoungesRestaurants_fb4de5c9639b","slug":"elysium-athens-rooftop-dining-cocktails-fb4d","kind":"restaurant","name":"Elysium Athens Rooftop | Dining & Cocktails","lat":37.97568079594514,"lng":23.731930908514958,"url":"https://maps.app.goo.gl/XadarqG8B9MPBT9e7?g_st=ipc","address":"15-17, Ερμού 105 63, Αθήνα","categoryIds":["rooftop-lounges"],"categories":["Rooftop Lounges"]},"distanceKm":2.171363726928396},{"entity":{"id":"rooftopLoungesRestaurants_fd3b2b6edd97","slug":"anglais-athens-fd3b","kind":"restaurant","name":"Anglais Athens","lat":37.97603265069114,"lng":23.726612987310695,"url":"https://maps.app.goo.gl/3tBECibCkAn27cvf9?g_st=ipc","address":"Κηρυκείου 6, Αθήνα 105 55","categoryIds":["rooftop-lounges"],"categories":["Rooftop Lounges"]},"distanceKm":2.203311100993087},{"entity":{"id":"rooftopLoungesRestaurants_986af6d41f8f","slug":"ermou-18-beyond-the-horizon-986a","kind":"restaurant","name":"Ermou 18 Beyond the Horizon","lat":37.97612467035227,"lng":23.731892472806617,"url":"https://maps.app.goo.gl/29x8TUkS1Zi5ckeK6?g_st=ipc","address":"Ermou 18 Beyond the Horizon","categoryIds":["rooftop-lounges"],"categories":["Rooftop Lounges"]},"distanceKm":2.219956839856177},{"entity":{"id":"rooftopLoungesRestaurants_f5cf87cae9d4","slug":"city-zen-all-day-bar-restaurant-f5cf","kind":"restaurant","name":"City ZEN All Day Bar Restaurant","lat":37.97627508580123,"lng":23.72741558524515,"url":"https://maps.app.goo.gl/jqRmCH3g4tS3Er5o8?g_st=ipc","address":"Αιόλου 11, Αθήνα 105 55","categoryIds":["rooftop-lounges"],"categories":["Rooftop Lounges"]},"distanceKm":2.224936823400578},{"entity":{"id":"rooftopLoungesRestaurants_912cd994ade6","slug":"okra-912c","kind":"restaurant","name":"Okra","lat":37.97626609583597,"lng":23.72702294452752,"url":"https://maps.app.goo.gl/ZPqVVmebDU5mua9w9?g_st=ipc","address":"Μητροπόλεως 82, Αθήνα 105 55","categoryIds":["rooftop-lounges"],"categories":["Rooftop Lounges"]},"distanceKm":2.2262180981208823},{"entity":{"id":"rooftopLoungesRestaurants_62315092aa2e","slug":"theathine-6231","kind":"restaurant","name":"Theathine","lat":37.976366087632414,"lng":23.72946341912717,"url":"https://maps.app.goo.gl/5zX4VEAQCzogaiPF9?g_st=ipc","address":"Ερμού 46, Αθήνα 105 63","categoryIds":["rooftop-lounges"],"categories":["Rooftop Lounges"]},"distanceKm":2.231793736558864},{"entity":{"id":"rooftopLoungesRestaurants_9481fd0f2935","slug":"360-cocktail-bar-9481","kind":"restaurant","name":"360 Cocktail Bar","lat":37.97638780084513,"lng":23.72554423506802,"url":"https://maps.app.goo.gl/MDc3Ag3ciiiASdRN8?g_st=ipc","address":"Ηφαίστου 2, Αθήνα 105 55","categoryIds":["rooftop-lounges"],"categories":["Rooftop Lounges"]},"distanceKm":2.252949985682269},{"entity":{"id":"rooftopLoungesRestaurants_611d43a0bb40","slug":"tudor-hall-611d","kind":"restaurant","name":"Tudor Hall","lat":37.976268352095765,"lng":23.7349212835823,"url":"https://maps.app.goo.gl/m71roWoTizDjiDpo9?g_st=ipc","address":"Γεωρ. Α' 3, Αθήνα 105 64","categoryIds":["rooftop-lounges"],"categories":["Rooftop Lounges"]},"distanceKm":2.2822586104470206},{"entity":{"id":"rooftopLoungesRestaurants_304d8926bc1b","slug":"hyper-astro-bar-304d","kind":"restaurant","name":"Hyper Astro Bar","lat":37.97675012881044,"lng":23.726361870755426,"url":"https://maps.app.goo.gl/fGYKpxkmiHEMsHYe9?g_st=ipc","address":"Ερμού 78, & Αθηνάς 2, Αθήνα 105 51","categoryIds":["rooftop-lounges"],"categories":["Rooftop Lounges"]},"distanceKm":2.2848101055758865},{"entity":{"id":"rooftopLoungesRestaurants_c34049f74a4c","slug":"gb-roof-garden-restaurant-bar-c340","kind":"restaurant","name":"GB Roof Garden Restaurant & Bar","lat":37.97622491152129,"lng":23.73551130501855,"url":"https://maps.app.goo.gl/dd7gZSbVftPp5h3y8?g_st=ipc","address":"GB Roof Garden Restaurant & Bar","categoryIds":["rooftop-lounges"],"categories":["Rooftop Lounges"]},"distanceKm":2.2900995875641237}],"counts":{"totalEntities":4118,"totalInArea":836,"totalInCategory":76,"totalCategoryArea":51},"relatedCategories":[{"categoryId":"coffee-brunch","categorySlug":"brunch","categoryName":"Coffee & Brunch Spots","count":132,"passesThreshold":true},{"categoryId":"cheap-eats","categorySlug":"cheap-eats","categoryName":"Gyros & Cheap Eats","count":107,"passesThreshold":true},{"categoryId":"greek-restaurants","categorySlug":"greek-restaurants","categoryName":"Greek Restaurants","count":96,"passesThreshold":true},{"categoryId":"desserts","categorySlug":"desserts","categoryName":"Dessert Shops","count":80,"passesThreshold":true},{"categoryId":"luxury-dining","categorySlug":"luxury-dining","categoryName":"Luxury Dining","count":70,"passesThreshold":true},{"categoryId":"vegetarian","categorySlug":"vegetarian","categoryName":"Vegetarian Friendly Restaurants","count":69,"passesThreshold":true},{"categoryId":"italian","categorySlug":"italian","categoryName":"Italian Restaurants","count":55,"passesThreshold":true},{"categoryId":"burgers","categorySlug":"burgers","categoryName":"Burger Spots","count":41,"passesThreshold":true},{"categoryId":"attractions","categorySlug":"attractions","categoryName":"Must-See Attractions","count":41,"passesThreshold":true},{"categoryId":"asian","categorySlug":"asian-restaurants","categoryName":"Asian Restaurants","count":38,"passesThreshold":true}],"relatedAreas":[{"areaId":"municipalities_877c3bc81df5","areaName":"Σύνταγμα","areaSlug":"syntagma","count":54,"nearestDistanceKm":0.08609569079999148},{"areaId":"municipalities_0cae2c00b932","areaName":"Κολωνάκι","areaSlug":"kolonaki","count":54,"nearestDistanceKm":0.29115760149699993},{"areaId":"municipalities_2f324ee27306","areaName":"Εξάρχεια","areaSlug":"exarcheia","count":54,"nearestDistanceKm":0.47994761014554205},{"areaId":"municipalities_0fd1d03201a0","areaName":"Μετς","areaSlug":"mets","count":54,"nearestDistanceKm":1.1709569532469846},{"areaId":"municipalities_61eaea5bd3d9","areaName":"Ιλίσια","areaSlug":"ilisia","count":53,"nearestDistanceKm":0.4989951283806969},{"areaId":"municipalities_75ddb64a42fd","areaName":"Γύζη","areaSlug":"gyzi","count":53,"nearestDistanceKm":1.2782051368418632},{"areaId":"municipalities_f73663b8f738","areaName":"Αττική","areaSlug":"attiki","count":53,"nearestDistanceKm":1.4341304277923237},{"areaId":"municipalities_d7e1aaaed4f9","areaName":"Μοναστηράκι","areaSlug":"monastiraki","count":52,"nearestDistanceKm":0.03133410583524247},{"areaId":"municipalities_2bcfcb8b899f","areaName":"Ψυρρή","areaSlug":"psyrri","count":52,"nearestDistanceKm":0.06256608932486563},{"areaId":"municipalities_b85b54408d92","areaName":"Θησείο","areaSlug":"thiseio","count":52,"nearestDistanceKm":0.08292401975417248}],"passesThreshold":true}},"__N_SSG":true}