{"pageProps":{"payload":{"area":{"id":"municipalities_f73663b8f738","name":"Αττική","nameEn":"Attiki","region":"Κέντρο Αθήνας","regionEn":"Athens Center","lat":37.9958,"lng":23.7292,"urlSlug":"attiki","aliases":["Αττική","Attiki","Αττική Athens Center","Attiki Athens Center","Αττικη","Victoria","attiki-f736","attiki"]},"category":{"id":"burgers","name":"Burger Spots","urlSlug":"burgers","aliases":["burgers","Burger Spots","burger-spots"]},"entities":[{"entity":{"id":"burgersRestaurants_cd431d540de7","slug":"guerilla-chef-burgers-cd43","kind":"restaurant","name":"Guerilla Chef Burgers","lat":37.98670260429295,"lng":23.731789751446545,"url":"https://maps.app.goo.gl/dpwZgAJWWe2cfPeG9?g_st=ipc","address":"Σολωμού 33, Αθήνα 106 82","categoryIds":["burgers"],"categories":["Burger Spots"]},"distanceKm":1.036729587884099},{"entity":{"id":"burgersRestaurants_293449c2193c","slug":"exberg-2934","kind":"restaurant","name":"Exberg","lat":37.985722017039464,"lng":23.73377568835493,"url":"https://maps.app.goo.gl/671QPGYqt87fhozt8?g_st=ipc","address":"Θεμιστοκλέους 56, Αθήνα 106 81","categoryIds":["burgers"],"categories":["Burger Spots"]},"distanceKm":1.1902014712522548},{"entity":{"id":"burgersRestaurants_c839a7ca9229","slug":"prigkipas-c839","kind":"restaurant","name":"Πρiγκιπας","lat":37.983677017107105,"lng":23.73451147367233,"url":"https://maps.app.goo.gl/fEvt3vsxx19nFxqw8?g_st=ipc","address":"Χαρ. Τρικούπη 23, Αθήνα 106 81","categoryIds":["burgers"],"categories":["Burger Spots"]},"distanceKm":1.426115631321072},{"entity":{"id":"burgersRestaurants_73788d5c5e26","slug":"street-habit-burgers-sandwiches-7378","kind":"restaurant","name":"Street Habit Burgers & Sandwiches","lat":37.982308190228395,"lng":23.718935233979323,"url":"https://maps.app.goo.gl/ypf3MAMpnquGQSrr6?g_st=ipc","address":"Λεωνίδου 41, Μαραθώνος 20, Αθήνα 104 36","categoryIds":["burgers"],"categories":["Burger Spots"]},"distanceKm":1.7492494883265959},{"entity":{"id":"burgersRestaurants_7e2f237c9f2e","slug":"juicygrill-athens-downtown-7e2f","kind":"restaurant","name":"juicygrill_Athens (downtown)","lat":37.97921135341064,"lng":23.730357458956963,"url":"https://maps.app.goo.gl/Nb6on5D2zYtdFLqw7?g_st=ipc","address":"Παλαιών Πατρών Γερμανού 7, Αθήνα 105 61","categoryIds":["burgers"],"categories":["Burger Spots"]},"distanceKm":1.8473603567695813},{"entity":{"id":"burgersRestaurants_96fe4c6a69f2","slug":"stivs-a-e-kerameikos-champoyrgker-pitses-96fe","kind":"restaurant","name":"ΣΤΗΒΣ Α.Ε. Κεραμεικός - ΧΑΜΠΟΥΡΓΚΕΡ & ΠΙΤΣΕΣ","lat":37.981862507718745,"lng":23.71676727771988,"url":"https://maps.app.goo.gl/dfoGjBoXnHtHAokj9?g_st=ipc","address":"Σαλαμίνος 42, Αθήνα 104 35","categoryIds":["burgers"],"categories":["Burger Spots"]},"distanceKm":1.8944511120798038},{"entity":{"id":"burgersRestaurants_73735eff606b","slug":"meat-n-roses-kolonaki-7373","kind":"restaurant","name":"Meat n Roses Kolonaki","lat":37.97930236645354,"lng":23.735454286708567,"url":"https://maps.app.goo.gl/KJyNqjkU3cm9AqGa8?g_st=ic","address":"Omirou 13, Athina 106 72","categoryIds":["burgers"],"categories":["Burger Spots"]},"distanceKm":1.91458720228412},{"entity":{"id":"burgersRestaurants_d55e3b1fc4f6","slug":"one-burger-d55e","kind":"restaurant","name":"ONE BURGER","lat":37.97831953861062,"lng":23.727493287060057,"url":"https://maps.app.goo.gl/N76y7HGoU6TuZHcW8?g_st=ipc","address":"Αγάθωνος 7, Αθήνα 105 51","categoryIds":["burgers"],"categories":["Burger Spots"]},"distanceKm":1.9494850643219672},{"entity":{"id":"burgersRestaurants_e836c8590f61","slug":"one-burger-e836","kind":"restaurant","name":"ONE BURGER","lat":37.97831689957045,"lng":23.72749322677574,"url":"https://maps.app.goo.gl/ntrNb7xRjJ6JvZ9AA?g_st=ic","address":"One Burger, Agathonos 7, Greece 105 51","categoryIds":["burgers"],"categories":["Burger Spots"]},"distanceKm":1.9497780528465214},{"entity":{"id":"burgersRestaurants_cc99e8bcfb01","slug":"ortsag-nextgen-street-resto-cc99","kind":"restaurant","name":"ORTSAG - NextGen Street Resto","lat":37.980720186478266,"lng":23.716880146435926,"url":"https://maps.app.goo.gl/Ty754KFyBeh5iYD99?g_st=ipc","address":"Κεραμεικού 93-95, Αθήνα 104 35","categoryIds":["burgers"],"categories":["Burger Spots"]},"distanceKm":1.9943288277563656},{"entity":{"id":"burgersRestaurants_09af19b27a7c","slug":"po-boys-bbq-09af","kind":"restaurant","name":"PO'BOYS BBQ","lat":37.97837875741083,"lng":23.723280392822467,"url":"https://maps.app.goo.gl/j39YQoSzREu8gQk77?g_st=ipc","address":"Agatharchou 12 &, Λεπενιώτου, Αθήνα 105 54","categoryIds":["burgers"],"categories":["Burger Spots"]},"distanceKm":2.0054180326691147},{"entity":{"id":"burgersRestaurants_3c1c73d21fec","slug":"meat-n-roses-kolonaki-3c1c","kind":"restaurant","name":"Meat n Roses Kolonaki","lat":37.97828442263524,"lng":23.735087640545906,"url":"https://maps.app.goo.gl/qGwCStnKNtrJzrtm6?g_st=ipc","address":"Αμερικής 7, Αθήνα 106 72","categoryIds":["burgers"],"categories":["Burger Spots"]},"distanceKm":2.014833169177781},{"entity":{"id":"burgersRestaurants_f300f2c4a7ef","slug":"starlight-burgers-f300","kind":"restaurant","name":"Starlight Burgers","lat":37.97768708628673,"lng":23.730973383072776,"url":"https://maps.app.goo.gl/tRpSe3harTyJVBVg7?g_st=ipc","address":"Πραξιτέλους 1, Αθήνα 105 62","categoryIds":["burgers"],"categories":["Burger Spots"]},"distanceKm":2.0200516451918555},{"entity":{"id":"burgersRestaurants_ca036ca42e3f","slug":"pax-burgers-ca03","kind":"restaurant","name":"Pax burgers","lat":37.97692157366875,"lng":23.727728305189554,"url":"https://maps.app.goo.gl/w3oRJbpwaMiNHFW39?g_st=ipc","address":"Αιόλου 34, Αθήνα 105 63","categoryIds":["burgers"],"categories":["Burger Spots"]},"distanceKm":2.1031438271232488},{"entity":{"id":"burgersRestaurants_594f0da03951","slug":"the-smashers-athens-594f","kind":"restaurant","name":"The Smashers Athens","lat":37.976855263908405,"lng":23.728850035341498,"url":"https://maps.app.goo.gl/eZb9zRu5ZEKX8jLZ6?g_st=ipc","address":"Καλαμιώτου 7, Αθήνα 105 63","categoryIds":["burgers"],"categories":["Burger Spots"]},"distanceKm":2.1067818036222588},{"entity":{"id":"burgersRestaurants_7c6e8e764472","slug":"the-smashers-athens-7c6e","kind":"restaurant","name":"The Smashers Athens","lat":37.97685470027012,"lng":23.728849657560023,"url":"https://maps.app.goo.gl/uKyi2SUBZv1EWPoV7?g_st=ic","address":"Kalamiotou 7, Athina 105 63","categoryIds":["burgers"],"categories":["Burger Spots"]},"distanceKm":2.1068449529400017},{"entity":{"id":"burgersRestaurants_6bb98587ed95","slug":"four-hands-6bb9","kind":"restaurant","name":"Four Hands","lat":37.98010264048048,"lng":23.71572330295299,"url":"https://maps.app.goo.gl/ppbxAjV7hVEDbZiV7?g_st=ipc","address":"Κεραμεικού 111, Αθήνα 104 35","categoryIds":["burgers"],"categories":["Burger Spots"]},"distanceKm":2.1075000764754157},{"entity":{"id":"burgersRestaurants_de31086328e0","slug":"balboa-athens-de31","kind":"restaurant","name":"Balboa Athens","lat":37.977044741999016,"lng":23.724391193177723,"url":"https://maps.app.goo.gl/xqbjAq65izWtnBT18?g_st=ipc","address":"Αρτέμιδος 1-3, Αθήνα 105 54","categoryIds":["burgers"],"categories":["Burger Spots"]},"distanceKm":2.127646006733236},{"entity":{"id":"burgersRestaurants_72777d81b2c1","slug":"cadillac-burgers-7277","kind":"restaurant","name":"Cadillac Burgers","lat":37.97549144814891,"lng":23.728731411277973,"url":"https://maps.app.goo.gl/tbzr2ePrf29seJBFA?g_st=ipc","address":"Μνησικλέους 6, Αθήνα 105 56","categoryIds":["burgers"],"categories":["Burger Spots"]},"distanceKm":2.258581319336353},{"entity":{"id":"burgersRestaurants_fed9fc98ba72","slug":"lobby-athens-fed9","kind":"restaurant","name":"Lobby Athens","lat":37.97480226330857,"lng":23.732216902854162,"url":"https://maps.app.goo.gl/McpvxRFgv3HSY4VF6?g_st=ipc","address":"Βουλής 30, Αθήνα 105 57","categoryIds":["burgers"],"categories":["Burger Spots"]},"distanceKm":2.3497648478609925},{"entity":{"id":"burgersRestaurants_49b08b8052e0","slug":"birdman-49b0","kind":"restaurant","name":"Birdman","lat":37.97462442043903,"lng":23.73232607660368,"url":"https://maps.app.goo.gl/hqjbsZtLtS6aPvv9A?g_st=ipc","address":"Βουλής 35, Αθήνα 105 57","categoryIds":["burgers"],"categories":["Burger Spots"]},"distanceKm":2.3705023287329343},{"entity":{"id":"burgersRestaurants_349cb9dc8b75","slug":"smash-n-bun-349c","kind":"restaurant","name":"Smash'n Bun","lat":37.97817483675376,"lng":23.745292656199194,"url":"https://maps.app.goo.gl/4n21xowaSG1Zg8d79?g_st=ipc","address":"Πατριάρχου Ιωακείμ 48, Αθήνα 106 76","categoryIds":["burgers"],"categories":["Burger Spots"]},"distanceKm":2.414533050244563},{"entity":{"id":"burgersRestaurants_bf81509e8678","slug":"ekiben-kitchen-bf81","kind":"restaurant","name":"EKIBEN KITCHEN","lat":37.97373737994253,"lng":23.732680748460968,"url":"https://maps.app.goo.gl/UYx5LEnNcAUkY8XX8?g_st=ipc","address":"Σκούφου 15, Αθήνα 105 57","categoryIds":["burgers"],"categories":["Burger Spots"]},"distanceKm":2.472145189670309},{"entity":{"id":"burgersRestaurants_2cfc1007d530","slug":"criminal-taste-smash-burger-2cfc","kind":"restaurant","name":"Criminal Taste - Smash Burger","lat":37.98830387219437,"lng":23.758246415299563,"url":"https://maps.app.goo.gl/bjsnq9fK7qPHgAum7?g_st=ipc","address":"Πανόρμου 10, Αθήνα 115 23","categoryIds":["burgers"],"categories":["Burger Spots"]},"distanceKm":2.6784054925007736},{"entity":{"id":"burgersRestaurants_7bcb47e330c5","slug":"tryfonas-kempaptzidikon-hamburgerie-7bcb","kind":"restaurant","name":"Τρύφωνας Κεμπαπτζίδικoν - Hamburgerie","lat":38.0125506362582,"lng":23.70608974489792,"url":"https://maps.app.goo.gl/cE9CbEn5LYoZ6WKj7?g_st=ipc","address":"Παρασκευοπούλου 51, Περιστέρι 121 34","categoryIds":["burgers"],"categories":["Burger Spots"]},"distanceKm":2.7512404154090455},{"entity":{"id":"burgersRestaurants_bfe01035e2db","slug":"agora-select-bfe0","kind":"restaurant","name":"Agora Select","lat":37.97626574663726,"lng":23.751456733864202,"url":"https://maps.app.goo.gl/GxR6tX8MHegtVPLA7?g_st=ipc","address":"Χατζηγιάννη Μέξη 8 και, Κων/νου Βεντήρη 9, Αθήνα 115 28","categoryIds":["burgers"],"categories":["Burger Spots"]},"distanceKm":2.919379946465644},{"entity":{"id":"burgersRestaurants_7a76471a6430","slug":"nob-burger-7a76","kind":"restaurant","name":"nob.burger","lat":37.97058357459842,"lng":23.741857084173848,"url":"https://maps.app.goo.gl/7ty7gMmfJYVeTM5H9?g_st=ipc","address":"Ερατοσθένους 3, Αθήνα 116 35","categoryIds":["burgers"],"categories":["Burger Spots"]},"distanceKm":3.0153980186758242},{"entity":{"id":"burgersRestaurants_4f7bcdd337e0","slug":"smashtag-4f7b","kind":"restaurant","name":"SmashTag","lat":37.97795470114958,"lng":23.756263128218805,"url":"https://maps.app.goo.gl/pRV1Ja3nApcMjLDQ7?g_st=ic","address":"Michalakopoulou 68, Athina 115 28","categoryIds":["burgers"],"categories":["Burger Spots"]},"distanceKm":3.092373185637006},{"entity":{"id":"burgersRestaurants_01b4e6c2697b","slug":"smashtag-01b4","kind":"restaurant","name":"SmashTag","lat":37.97799517923772,"lng":23.75631086140523,"url":"https://maps.app.goo.gl/Yu7VLwDA42Wp7pZo8","address":"Michalakopoulou 68, Athina 115 28","categoryIds":["burgers"],"categories":["Burger Spots"]},"distanceKm":3.0926990622857624},{"entity":{"id":"burgersRestaurants_a48e075150a2","slug":"greasy-spoon-athens-a48e","kind":"restaurant","name":"Greasy Spoon Athens","lat":37.971165228067136,"lng":23.74653583168114,"url":"https://maps.app.goo.gl/jy3gfbvNXVipSkrJA?g_st=ic","address":"Archelaou 14, Athina 116 35","categoryIds":["burgers"],"categories":["Burger Spots"]},"distanceKm":3.1324107987602394}],"counts":{"totalEntities":4118,"totalInArea":799,"totalInCategory":149,"totalCategoryArea":37},"relatedCategories":[{"categoryId":"coffee-brunch","categorySlug":"brunch","categoryName":"Coffee & Brunch Spots","count":117,"passesThreshold":true},{"categoryId":"cheap-eats","categorySlug":"cheap-eats","categoryName":"Gyros & Cheap Eats","count":105,"passesThreshold":true},{"categoryId":"greek-restaurants","categorySlug":"greek-restaurants","categoryName":"Greek Restaurants","count":97,"passesThreshold":true},{"categoryId":"desserts","categorySlug":"desserts","categoryName":"Dessert Shops","count":84,"passesThreshold":true},{"categoryId":"luxury-dining","categorySlug":"luxury-dining","categoryName":"Luxury Dining","count":68,"passesThreshold":true},{"categoryId":"vegetarian","categorySlug":"vegetarian","categoryName":"Vegetarian Friendly Restaurants","count":67,"passesThreshold":true},{"categoryId":"rooftop-lounges","categorySlug":"rooftops","categoryName":"Rooftop Lounges","count":53,"passesThreshold":true},{"categoryId":"italian","categorySlug":"italian","categoryName":"Italian Restaurants","count":43,"passesThreshold":true},{"categoryId":"attractions","categorySlug":"attractions","categoryName":"Must-See Attractions","count":43,"passesThreshold":true},{"categoryId":"asian","categorySlug":"asian-restaurants","categoryName":"Asian Restaurants","count":36,"passesThreshold":true}],"relatedAreas":[{"areaId":"municipalities_0fd1d03201a0","areaName":"Μετς","areaSlug":"mets","count":41,"passesThreshold":true,"nearestDistanceKm":0.12882501007381097},{"areaId":"municipalities_616efd2a0d9b","areaName":"Κουκάκι","areaSlug":"koykaki","count":41,"passesThreshold":true,"nearestDistanceKm":0.23024781270339945},{"areaId":"municipalities_0eb5ad956816","areaName":"Νέος Κόσμος","areaSlug":"neos-kosmos","count":41,"passesThreshold":true,"nearestDistanceKm":0.59344218288968},{"areaId":"municipalities_0cae2c00b932","areaName":"Κολωνάκι","areaSlug":"kolonaki","count":40,"passesThreshold":true,"nearestDistanceKm":0.2051962031951513},{"areaId":"municipalities_5bc013791cf8","areaName":"Πλάκα","areaSlug":"plaka","count":40,"passesThreshold":true,"nearestDistanceKm":0.29027673070205606},{"areaId":"municipalities_e7a6ea2b75ba","areaName":"Παγκράτι","areaSlug":"pagkrati","count":40,"passesThreshold":true,"nearestDistanceKm":0.36191605868268945},{"areaId":"municipalities_4149fa79e27b","areaName":"Ακρόπολη","areaSlug":"akropoli","count":40,"passesThreshold":true,"nearestDistanceKm":0.5172904005509317},{"areaId":"municipalities_2bcfcb8b899f","areaName":"Ψυρρή","areaSlug":"psyrri","count":39,"passesThreshold":true,"nearestDistanceKm":0.10663290938047862},{"areaId":"municipalities_d7e1aaaed4f9","areaName":"Μοναστηράκι","areaSlug":"monastiraki","count":39,"passesThreshold":true,"nearestDistanceKm":0.12793777428820374},{"areaId":"municipalities_2f324ee27306","areaName":"Εξάρχεια","areaSlug":"exarcheia","count":39,"passesThreshold":true,"nearestDistanceKm":0.17794061189245036}],"passesThreshold":true},"hasAreaGuidePage":true},"__N_SSG":true}