{"pageProps":{"entity":{"id":"monasteriesChurches_ff4d16b5f0b9","slug":"agios-dimitrios-loympardiaris-ff4d","kind":"restaurant","name":"Άγιος Δημήτριος Λουμπαρδιάρης","lat":37.97006358405725,"lng":23.72028596273088,"url":"https://maps.app.goo.gl/Fzr51bKUwjAtydxA7?g_st=ipc","address":"Αθήνα 117 41","categoryIds":["monasteries-churches"],"categories":["Monasteries & Spiritual Sites"]},"sameCategory":[{"id":"monasteriesChurches_526ec40757ea","slug":"ieros-naos-agias-marinas-thiseioy-526e","kind":"restaurant","name":"Ιερός Ναός Αγίας Μαρίνας Θησείου","lat":37.97369230338061,"lng":23.718995271203244,"url":"https://maps.app.goo.gl/RzkAj7rMQNDfRMKN8?g_st=ipc","address":"Αγίας Μαρίνας 1, Αθήνα 118 51","categoryIds":["monasteries-churches"],"categories":["Monasteries & Spiritual Sites"]},{"id":"monasteriesChurches_3b14e4e4fde2","slug":"ieros-naos-agias-sofias-akropoleos-3b14","kind":"restaurant","name":"Ιερός Ναός Αγίας Σοφίας Ακροπόλεως","lat":37.96969305070506,"lng":23.72539590621987,"url":"https://maps.app.goo.gl/GdJWue7opw56LmEv9?g_st=ipc","address":"Διονυσίου Αρεοπαγίτου 45, Αθήνα 117 42","categoryIds":["monasteries-churches"],"categories":["Monasteries & Spiritual Sites"]},{"id":"monasteriesChurches_8533fc9b9b94","slug":"ieros-naos-agion-anargyron-kolokynthi-metochion-panagioy-tafoy-8533","kind":"restaurant","name":"Ιερός Ναός Αγίων Αναργύρων Κολοκύνθη - Μετόχιον Παναγίου Τάφου","lat":37.97293435768165,"lng":23.728208879310362,"url":"https://maps.app.goo.gl/nKcEJuoZ25jXrQqeA?g_st=ipc","address":"Ερεχθέως 18, Αθήνα 105 56","categoryIds":["monasteries-churches"],"categories":["Monasteries & Spiritual Sites"]},{"id":"monasteriesChurches_10f29f7ed669","slug":"ieros-naos-agioy-nikolaoy-ragkava-10f2","kind":"restaurant","name":"Ιερός Ναός Αγίου Νικολάου Ραγκαβά","lat":37.972457611954724,"lng":23.729131060991204,"url":"https://maps.app.goo.gl/HnQHckK1xrE13jmu5?g_st=ipc","address":"Πρυτανείου 1, Αθήνα 105 58","categoryIds":["monasteries-churches"],"categories":["Monasteries & Spiritual Sites"]},{"id":"monasteriesChurches_33b82b7e9f7b","slug":"ieros-panepistimiakos-naos-eisodion-tis-theotokoy-kapnikarea-33b8","kind":"restaurant","name":"Ιερός Πανεπιστημιακός Ναός Εισοδίων της Θεοτόκου (Καπνικαρέα)","lat":37.97637980025147,"lng":23.72861650689245,"url":"https://maps.app.goo.gl/7LkLpxAa7L7V3fr8A?g_st=ipc","address":"Πλ. Καπνικαρέας 3, Αθήνα 105 63","categoryIds":["monasteries-churches"],"categories":["Monasteries & Spiritual Sites"]},{"id":"monasteriesChurches_d3d098c448a4","slug":"ieros-naos-agias-eirinis-d3d0","kind":"restaurant","name":"Ιερός Ναός Αγίας Ειρήνης","lat":37.977134855411386,"lng":23.727779375021544,"url":"https://maps.app.goo.gl/JehgGspdoWfwue8w5?g_st=ipc","address":"Αιόλου 36, Αθήνα 105 60","categoryIds":["monasteries-churches"],"categories":["Monasteries & Spiritual Sites"]},{"id":"monasteriesChurches_37c0d5b10bef","slug":"ieros-mitropolitikos-naos-eyaggelismoy-tis-theotokoy-37c0","kind":"restaurant","name":"Ιερός Μητροπολιτικός Ναός Ευαγγελισμού της Θεοτόκου","lat":37.975376487881356,"lng":23.72984816695813,"url":"https://maps.app.goo.gl/MUAqskRD72AoRTQJA?g_st=ipc","address":"E056 105, Αθήνα 118 54","categoryIds":["monasteries-churches"],"categories":["Monasteries & Spiritual Sites"]},{"id":"monasteriesChurches_70c088ccf077","slug":"ieros-naos-agias-foteinis-ilisoy-70c0","kind":"restaurant","name":"Ιερός Ναός Αγίας Φωτεινής Ιλισού","lat":37.96759253152895,"lng":23.734352593011444,"url":"https://maps.app.goo.gl/jdAdCNX9K2HoSujs9?g_st=ipc","address":"Αρδηττού 3, Αθήνα 105 57","categoryIds":["monasteries-churches"],"categories":["Monasteries & Spiritual Sites"]}],"nearby":[{"id":"mustSeeAttractions_bf865dc1bff4","slug":"prison-of-socrates-bf86","kind":"restaurant","name":"Prison of Socrates","lat":37.96945283540711,"lng":23.72099752982901,"url":"https://maps.app.goo.gl/431NuRe11zxrUqR89?g_st=ipc","address":"43, Rovertou Galli 39, Athina 117 41","categoryIds":["attractions"],"categories":["Must-See Attractions"],"distanceKm":0.09221022848159866},{"id":"mustSeeAttractions_aeebd3346525","slug":"pnyka-aeeb","kind":"restaurant","name":"Πνύκα","lat":37.96737351880718,"lng":23.721158867490345,"url":"https://maps.app.goo.gl/yJCvqZ3YjAxVjgmU6?g_st=ipc","address":"Αθήνα 117 41","categoryIds":["attractions"],"categories":["Must-See Attractions"],"distanceKm":0.30875376833795476},{"id":"mustSeeAttractions_11b87cb6f066","slug":"philopappos-monument-11b8","kind":"restaurant","name":"Philopappos Monument","lat":37.96735214641467,"lng":23.72141968401236,"url":"https://maps.app.goo.gl/4mH8BGK5UQuAHaXf6?g_st=ipc","address":"Athens 117 41","categoryIds":["attractions"],"categories":["Must-See Attractions"],"distanceKm":0.31745540270537437},{"id":"coffeeBrunchRestaurants_f2909cf2cf63","slug":"fresko-yogurt-bar-f290","kind":"restaurant","name":"Fresko Yogurt Bar","lat":37.97293031928317,"lng":23.72030106020887,"url":"https://maps.app.goo.gl/i3qPMdgczqaXz45r8?g_st=ipc","address":"Ιουλίου Σμιθ 2, Αθήνα 118 51","categoryIds":["coffee-brunch"],"categories":["Coffee & Brunch Spots"],"distanceKm":0.31876916026570556},{"id":"dessertsRestaurants_7bd01cf1e63e","slug":"fresko-yogurt-bar-7bd0","kind":"restaurant","name":"Fresko Yogurt Bar","lat":37.9729332607424,"lng":23.720307507382138,"url":"https://maps.app.goo.gl/iHsYU8dLuNLhL1VR9?g_st=ipc","address":"Ιουλίου Σμιθ 2, Αθήνα 118 51","categoryIds":["desserts"],"categories":["Dessert Shops"],"distanceKm":0.3190990770449943},{"id":"mustSeeAttractions_3df9a416cf1a","slug":"lofos-filopappoy-3df9","kind":"restaurant","name":"Λόφος Φιλοπάππου","lat":37.96711952882775,"lng":23.721574966297474,"url":"https://maps.app.goo.gl/oZosE6Kbfk2BP5e67?g_st=ipc","address":"Φυλής 215, Αθήνα 117 41","categoryIds":["attractions"],"categories":["Must-See Attractions"],"distanceKm":0.3463162411338358},{"id":"mustSeeAttractions_26d34993a0ba","slug":"ethniko-asteroskopeio-athinon-kentro-episkepton-thiseioy-26d3","kind":"restaurant","name":"Εθνικό Αστεροσκοπείο Αθηνών - Κέντρο Επισκεπτών Θησείου","lat":37.972744612814594,"lng":23.717947819468222,"url":"https://maps.app.goo.gl/6gQt8KFRg9ZbnwLVA?g_st=ipc","address":"Λόφος Νυμφών Θησείο, ΤΘ 20048, Αθήνα 118 10","categoryIds":["attractions"],"categories":["Must-See Attractions"],"distanceKm":0.36177337928521375},{"id":"familyFriendly_a550b3686c2d","slug":"ethniko-asteroskopeio-athinon-kentro-episkepton-thiseioy-a550","kind":"restaurant","name":"Εθνικό Αστεροσκοπείο Αθηνών - Κέντρο Επισκεπτών Θησείου","lat":37.97274718818258,"lng":23.717946612728728,"url":"https://maps.app.goo.gl/hbZeHeJkN4GXh5tc6?g_st=ipc","address":"Λόφος Νυμφών Θησείο, ΤΘ 20048, Αθήνα 118 10","categoryIds":["family-friendly"],"categories":["Kid Friendly Locations"],"distanceKm":0.362069291195082}],"sameRegion":[],"mentionedGuides":[],"canonicalSlug":"agios-dimitrios-loympardiaris-ff4d","isCanonicalEntity":true},"__N_SSG":true}