{"pageProps":{"entity":{"id":"greekRestaurants_aecd56dedac2","slug":"agora-select-aecd","kind":"restaurant","name":"Agora Select","lat":37.97639030206746,"lng":23.751435246572814,"url":"https://maps.app.goo.gl/Emn145fBqqdH5XE6A","address":"Χατζηγιάννη Μέξη 8 και, Κων/νου Βεντήρη 9, Αθήνα 115 28","categoryIds":["greek-restaurants"],"categories":["Greek Restaurants"]},"sameCategory":[{"id":"greekRestaurants_7edc46b44623","slug":"5f-7edc","kind":"restaurant","name":"5Φ","lat":37.972863677998646,"lng":23.753932616513207,"url":"https://maps.app.goo.gl/ZMLzvJ9Vxp7NSoVNA","address":"Diocharous 31 &, Κλεισούρας, Αθήνα 161 21","categoryIds":["greek-restaurants"],"categories":["Greek Restaurants"]},{"id":"greekRestaurants_eb74ce369d8c","slug":"skalakia-eb74","kind":"restaurant","name":"Σκαλάκια","lat":37.97743768834,"lng":23.756590141442583,"url":"https://maps.app.goo.gl/awU151ZstgomSVZZ8","address":"Διονυσίου Αιγινήτου 32, Αθήνα 115 28","categoryIds":["greek-restaurants"],"categories":["Greek Restaurants"]},{"id":"greekRestaurants_f2230e55c586","slug":"o-platanos-f223","kind":"restaurant","name":"Ο Πλάτανος","lat":37.98012652047389,"lng":23.757043689219586,"url":"https://maps.app.goo.gl/GVj14ysF6cMr9ZoA6","address":"Σεβαστείας 6, Αθήνα 115 28","categoryIds":["greek-restaurants"],"categories":["Greek Restaurants"]},{"id":"greekRestaurants_1f74ff05ff24","slug":"estiatorio-filippoy-1f74","kind":"restaurant","name":"Εστιατόριο Φιλίππου","lat":37.979221094535326,"lng":23.744501065071557,"url":"https://maps.app.goo.gl/Zq4cnAxJ4Dx6qQUq8","address":"Ξενοκράτους 19, Αθήνα 106 75","categoryIds":["greek-restaurants"],"categories":["Greek Restaurants"]},{"id":"greekRestaurants_04415057069a","slug":"mayros-gatos-0441","kind":"restaurant","name":"Μαύρος Γάτος","lat":37.97162418889942,"lng":23.74471067108262,"url":"https://maps.app.goo.gl/aCqxbn2mAS63MWhA9","address":"Πολέμωνος 4, Αθήνα 116 35","categoryIds":["greek-restaurants"],"categories":["Greek Restaurants"]},{"id":"greekRestaurants_90f9e65f33cf","slug":"alsos-mezedopoleio-90f9","kind":"restaurant","name":"Αλσος μεζεδοπωλείο","lat":37.97542863089566,"lng":23.76053636122563,"url":"https://maps.app.goo.gl/LFkoegopciPhWfk59","address":"Ούλωφ Πάλμε 1, Ζωγράφου 115 28","categoryIds":["greek-restaurants"],"categories":["Greek Restaurants"]},{"id":"greekRestaurants_52e671578a6f","slug":"karavitis-52e6","kind":"restaurant","name":"Καραβίτης","lat":37.97158436368886,"lng":23.743633373686446,"url":"https://maps.app.goo.gl/8qs2pU39Ev8Bi4Gu6","address":"Παυσανίου 4, Αθήνα 116 35","categoryIds":["greek-restaurants"],"categories":["Greek Restaurants"]},{"id":"greekRestaurants_b892553ca459","slug":"i-dexameni-paradosiako-kafeneio-b892","kind":"restaurant","name":"Η Δεξαμενή| παραδοσιακό καφενείο","lat":37.97904976951895,"lng":23.7417447741282,"url":"https://maps.app.goo.gl/LtHtTEpZMdDdqe3S8","address":"Πλ. Δεξαμενής, Αθήνα 106 73","categoryIds":["greek-restaurants"],"categories":["Greek Restaurants"]}],"nearby":[{"id":"burgersRestaurants_bfe01035e2db","slug":"agora-select-bfe0","kind":"restaurant","name":"Agora Select","lat":37.97626574663726,"lng":23.751456733864202,"url":"https://maps.app.goo.gl/GxR6tX8MHegtVPLA7?g_st=ipc","address":"Χατζηγιάννη Μέξη 8 και, Κων/νου Βεντήρη 9, Αθήνα 115 28","categoryIds":["burgers"],"categories":["Burger Spots"],"distanceKm":0.01397740141257521},{"id":"luxuryDiningRestaurants_0dfbfc3ae821","slug":"cookoovaya-0dfb","kind":"restaurant","name":"Cookoovaya","lat":37.976921193543475,"lng":23.751481425496852,"url":"https://maps.app.goo.gl/eVWjuM8b4LpyY8yk7?g_st=ipc","address":"Χατζηγιάννη Μέξη 2a, Αθήνα 115 28","categoryIds":["luxury-dining"],"categories":["Luxury Dining"],"distanceKm":0.0591710402444377},{"id":"luxuryDiningRestaurants_fd7f4b7743de","slug":"ox-athens-fd7f","kind":"restaurant","name":"Ox Athens","lat":37.975866043758764,"lng":23.75171237040956,"url":"https://maps.app.goo.gl/Em7n6W5HcPciEXPN7?g_st=ipc","address":"Χατζηγιάννη Μέξη 9, Αθήνα 115 28","categoryIds":["luxury-dining"],"categories":["Luxury Dining"],"distanceKm":0.06315305468814422},{"id":"coffeeBrunchRestaurants_fbed74066d32","slug":"gran-caffe-italiano-fbed","kind":"restaurant","name":"Gran Caffè Italiano","lat":37.97787235686609,"lng":23.750751437299407,"url":"https://maps.app.goo.gl/6qkVJ1W6HAGxTfVV8?g_st=ipc","address":"Μονής Πετράκη 3, & Υψηλάντου 44, Αθήνα 115 21","categoryIds":["coffee-brunch"],"categories":["Coffee & Brunch Spots"],"distanceKm":0.17535781225629912},{"id":"luxuryDiningRestaurants_b76457bf515f","slug":"vezene-athens-b764","kind":"restaurant","name":"Vezené Athens","lat":37.97470285308878,"lng":23.751002243210046,"url":"https://maps.app.goo.gl/u2HXnXpcXqTUxdbF6?g_st=ipc","address":"Βρασίδα 11, Αθήνα 115 28","categoryIds":["luxury-dining"],"categories":["Luxury Dining"],"distanceKm":0.19143577845757975},{"id":"luxuryDiningRestaurants_64a18bdb8e32","slug":"simul-64a1","kind":"restaurant","name":"Simul","lat":37.97792157218587,"lng":23.750427343616465,"url":"https://maps.app.goo.gl/mzwKBdesag7itwYi6?g_st=ipc","address":"Υψηλάντου 63, Αθήνα 115 21","categoryIds":["luxury-dining"],"categories":["Luxury Dining"],"distanceKm":0.1918231965996684},{"id":"coffeeBrunchRestaurants_fe6dc1179f31","slug":"the-roosters-ilisia-fe6d","kind":"restaurant","name":"The Roosters Ilisia","lat":37.97416538642229,"lng":23.75106552061932,"url":"https://maps.app.goo.gl/owWsQcbJ7FzLk2VC9?g_st=ipc","address":"Ίωνος Δραγούμη 58, Αθήνα 115 28","categoryIds":["coffee-brunch"],"categories":["Coffee & Brunch Spots"],"distanceKm":0.24951285574660853},{"id":"dessertsRestaurants_bfef81917506","slug":"grigoris-terkenlis-bfef","kind":"restaurant","name":"Γρηγόρης - Τερκενλής","lat":37.97862799242535,"lng":23.752935643354185,"url":"https://maps.app.goo.gl/4h9LfxEi587omUSM9?g_st=ipc","address":"Βασ. Σοφίας 64, Αθήνα 115 28","categoryIds":["desserts"],"categories":["Dessert Shops"],"distanceKm":0.2814355866686052}],"sameRegion":[],"mentionedGuides":[],"canonicalSlug":"agora-select-aecd","isCanonicalEntity":true},"__N_SSG":true}