{"pageProps":{"entity":{"id":"coffeeBrunchRestaurants_f69353dde3df","slug":"ammos-beach-bar-restaurant-kefalonia-f693","kind":"restaurant","name":"Ammos Beach Bar & Restaurant | Kefalonia","lat":38.08122535953636,"lng":20.800056619766497,"url":"https://maps.app.goo.gl/SxeeHeaBpXq8VgZe8?g_st=ipc","address":"Κεφαλληνίας, Skala 281 00","categoryIds":["coffee-brunch"],"categories":["Coffee & Brunch Spots"]},"sameCategory":[{"id":"coffeeBrunchRestaurants_b203c212827d","slug":"remetzo-kafe-b203","kind":"restaurant","name":"Ρεμετζο καφέ","lat":38.14775445639953,"lng":20.7788036615171,"url":"https://maps.app.goo.gl/DJjkbdzn9Sg4yrHY7?g_st=ipc","address":"Metaxa, Kefalonia 280 82","categoryIds":["coffee-brunch"],"categories":["Coffee & Brunch Spots"]},{"id":"coffeeBrunchRestaurants_caa1d894f98a","slug":"kafepoleion-caa1","kind":"restaurant","name":"Kafepoleion","lat":38.14255916452544,"lng":20.54310186456745,"url":"https://maps.app.goo.gl/YKFX8hPovFNGt9pDA?g_st=ipc","address":"Κοκύλια, Kefalonia 281 00","categoryIds":["coffee-brunch"],"categories":["Coffee & Brunch Spots"]},{"id":"coffeeBrunchRestaurants_9057c09060eb","slug":"espresso-house-9057","kind":"restaurant","name":"Espresso house","lat":38.17163745193254,"lng":20.492476064422643,"url":"https://maps.app.goo.gl/yzerSoB1WzcjYnKq5?g_st=ipc","address":"Devosetou 15, Argostoli 281 00","categoryIds":["coffee-brunch"],"categories":["Coffee & Brunch Spots"]},{"id":"coffeeBrunchRestaurants_febf410e8642","slug":"costa-costa-beach-bar-febf","kind":"restaurant","name":"Costa Costa Beach Bar","lat":38.15380761963389,"lng":20.4824739703724,"url":"https://maps.app.goo.gl/TgFrHfc8nxYVBh9z7?g_st=ipc","address":"Lassi, Argostoli 281 00","categoryIds":["coffee-brunch"],"categories":["Coffee & Brunch Spots"]},{"id":"coffeeBrunchRestaurants_ebff8d600624","slug":"jenkins-lounge-eatery-ebff","kind":"restaurant","name":"Jenkins Lounge Eatery","lat":37.786543893628924,"lng":20.898568985854595,"url":"https://maps.app.goo.gl/1TG8uMAi1MTZQgiY8?g_st=ipc","address":"Psaron 3, Zakinthos 291 00","categoryIds":["coffee-brunch"],"categories":["Coffee & Brunch Spots"]},{"id":"coffeeBrunchRestaurants_4e218b55f113","slug":"madisons-kitchen-bar-4e21","kind":"restaurant","name":"Madisons Kitchen Bar","lat":37.78371523709895,"lng":20.898097278049377,"url":"https://maps.app.goo.gl/Anc3Yu4uRzD8XagR9?g_st=ipc","address":"Lomvardou 36, Zakinthos 291 00","categoryIds":["coffee-brunch"],"categories":["Coffee & Brunch Spots"]},{"id":"coffeeBrunchRestaurants_7849cd86ff9a","slug":"myrtillo-7849","kind":"restaurant","name":"myrtillo","lat":38.33016504186232,"lng":20.54543331787743,"url":"https://maps.app.goo.gl/jceQN1dFVGYrVSaFA?g_st=ipc","address":"Divarata 280 81","categoryIds":["coffee-brunch"],"categories":["Coffee & Brunch Spots"]},{"id":"coffeeBrunchRestaurants_b487e1e8e4bb","slug":"la-mer-b487","kind":"restaurant","name":"La Mer","lat":38.15655535964722,"lng":21.36777415023951,"url":"https://maps.app.goo.gl/ijDMxEmSaLdDH7FR8?g_st=ipc","address":"Larisos 270 52","categoryIds":["coffee-brunch"],"categories":["Coffee & Brunch Spots"]}],"nearby":[{"id":"greekRestaurants_c713b6900534","slug":"mikelatos-restaurant-c713","kind":"restaurant","name":"Mikelatos Restaurant","lat":38.07400478265195,"lng":20.79838946434788,"url":"https://maps.app.goo.gl/ds2jewM3NunSWLKo6?g_st=ipc","address":"Central pedestrian road of Skala, Σκάλα 280 86","categoryIds":["greek-restaurants"],"categories":["Greek Restaurants"],"distanceKm":0.8160448575241016},{"id":"fishTavernasRestaurants_aba93243463b","slug":"sunrise-fish-restaurant-aba9","kind":"restaurant","name":"Sunrise fish restaurant","lat":38.069862361650536,"lng":20.798458806990475,"url":"https://maps.app.goo.gl/zpgr1Pu7huw8UAn16?g_st=ipc","address":"Sunrise, Skala 280 86","categoryIds":["fish-tavernas"],"categories":["Fish Tavernas"],"distanceKm":1.2712248832869404},{"id":"fishTavernasRestaurants_7b6b6c02756b","slug":"blue-sea-restaurant-7b6b","kind":"restaurant","name":"Blue Sea Restaurant","lat":38.06482061618168,"lng":20.749944356791246,"url":"https://maps.app.goo.gl/w2imtD4bnSK6jDox6?g_st=ipc","address":"Κάτω Κατελειός 280 86","categoryIds":["fish-tavernas"],"categories":["Fish Tavernas"],"distanceKm":4.75075734852173},{"id":"greekRestaurants_ff8ef7b622ff","slug":"sunset-restaurant-ff8e","kind":"restaurant","name":"Sunset Restaurant","lat":38.147065849821686,"lng":20.783912907033883,"url":"https://maps.app.goo.gl/8Z2amJ2HCnAWKU728?g_st=ipc","address":"Πόρος 280 86","categoryIds":["greek-restaurants"],"categories":["Greek Restaurants"],"distanceKm":7.456115740171251},{"id":"coffeeBrunchRestaurants_b203c212827d","slug":"remetzo-kafe-b203","kind":"restaurant","name":"Ρεμετζο καφέ","lat":38.14775445639953,"lng":20.7788036615171,"url":"https://maps.app.goo.gl/DJjkbdzn9Sg4yrHY7?g_st=ipc","address":"Metaxa, Kefalonia 280 82","categoryIds":["coffee-brunch"],"categories":["Coffee & Brunch Spots"],"distanceKm":7.627781665006759},{"id":"mustSeeAttractions_20af350a9d06","slug":"blue-caves-zakynthos-20af","kind":"restaurant","name":"Blue Caves Zakynthos","lat":37.93034342843555,"lng":20.705251154680667,"url":"https://maps.app.goo.gl/aFhekQczUnCUCkXt7?g_st=ipc","address":"Porthmos Zakinthou","categoryIds":["attractions"],"categories":["Must-See Attractions"],"distanceKm":18.7209831738527},{"id":"wineriesVineyards_76d903b57c64","slug":"orealios-gaea-vine-growers-of-robola-76d9","kind":"restaurant","name":"Orealios Gaea - Vine Growers of Robola","lat":38.16303564266763,"lng":20.590291534978753,"url":"https://maps.app.goo.gl/nZzm6EuiZsKmkSxr7?g_st=ipc","address":"Valsamata 281 00","categoryIds":["wineries-vineyards"],"categories":["Wineries & Vineyards"],"distanceKm":20.48070146276557},{"id":"greekRestaurants_fef489007c02","slug":"anna-s-tavern-xasteria-fef4","kind":"restaurant","name":"Anna's Tavern (Xasteria)","lat":38.11938430612937,"lng":20.562853128007966,"url":"https://maps.app.goo.gl/k6iUiCZV7gkf1jreA?g_st=ipc","address":"Κεραμειές 281 00","categoryIds":["greek-restaurants"],"categories":["Greek Restaurants"],"distanceKm":21.185228453852588}],"sameRegion":[],"mentionedGuides":[],"canonicalSlug":"ammos-beach-bar-restaurant-kefalonia-f693","isCanonicalEntity":true},"__N_SSG":true}