{"pageProps":{"entity":{"id":"coffeeBrunchRestaurants_b47f6bd0d6ab","slug":"bahamas-urban-brunch-bar-b47f","kind":"restaurant","name":"Bahamas Urban |Brunch| Bar","lat":40.55455255928708,"lng":23.018985570943435,"url":"https://maps.app.goo.gl/MseUiktgczouvbdp7?g_st=ipc","address":"Thermis-Panoramatos Rd 7, Thermi 570 01","categoryIds":["coffee-brunch"],"categories":["Coffee & Brunch Spots"]},"sameCategory":[{"id":"coffeeBrunchRestaurants_cae5ad9a4492","slug":"join-juice-bars-cae5","kind":"restaurant","name":"JOIN juice bars","lat":40.555069982077164,"lng":22.99254169325442,"url":"https://maps.app.goo.gl/VvKcZzDAukezDVie8?g_st=ipc","address":"11ο χλμ εθνικής οδού, A/D Thessalonikis Neon Moudanion, Thessaloniki 570 01","categoryIds":["coffee-brunch"],"categories":["Coffee & Brunch Spots"]},{"id":"coffeeBrunchRestaurants_5b87d322c2b5","slug":"pink-dot-cafe-5b87","kind":"restaurant","name":"Pink Dot Cafe","lat":40.548406580479465,"lng":22.98186227348721,"url":"https://maps.app.goo.gl/CG2fgJcxKmWaKuAV6?g_st=ipc","address":"Leof. Georgikis Scholis 84, Pilea 570 01","categoryIds":["coffee-brunch"],"categories":["Coffee & Brunch Spots"]},{"id":"coffeeBrunchRestaurants_3849ba172973","slug":"ergon-agora-east-3849","kind":"restaurant","name":"ERGON Agora (East)","lat":40.55876847950934,"lng":22.976949760424034,"url":"https://maps.app.goo.gl/um7bZpan68i3iqsx7?g_st=ipc","address":"Leof. Georgikis Scholis 50, Pilea Chortiatis 555 35","categoryIds":["coffee-brunch"],"categories":["Coffee & Brunch Spots"]},{"id":"coffeeBrunchRestaurants_15d66401c4fe","slug":"paradosiako-panorama-15d6","kind":"restaurant","name":"Παραδοσιακό (Πανόραμα)","lat":40.590095905104064,"lng":23.036102401133366,"url":"https://maps.app.goo.gl/TUmt6vrXSEXCXWNj8?g_st=ipc","address":"Papadopoulou 17, Panorama 552 36","categoryIds":["coffee-brunch"],"categories":["Coffee & Brunch Spots"]},{"id":"coffeeBrunchRestaurants_79653b358f9a","slug":"dio-con-dio-7965","kind":"restaurant","name":"Dio Con Dio","lat":40.59016290783814,"lng":23.03657930037768,"url":"https://maps.app.goo.gl/SCXFA22cPne9xMiLA?g_st=ipc","address":"Papadopoulou 19, Panorama 552 36","categoryIds":["coffee-brunch"],"categories":["Coffee & Brunch Spots"]},{"id":"coffeeBrunchRestaurants_38190cc1f3e8","slug":"morrison-the-premium-rooftop-3819","kind":"restaurant","name":"Morrison • The Premium Rooftop","lat":40.60821540217915,"lng":22.998740403846558,"url":"https://maps.app.goo.gl/WNgG79yhRyL6k5GA9?g_st=ipc","address":"17is Noemvriou 87, Pilea 555 35","categoryIds":["coffee-brunch"],"categories":["Coffee & Brunch Spots"]},{"id":"coffeeBrunchRestaurants_7f4ca735b5ec","slug":"laterna-7f4c","kind":"restaurant","name":"Laterna","lat":40.597256928464596,"lng":22.96766795433404,"url":"https://maps.app.goo.gl/UuEUGrB58srruWFPA?g_st=ipc","address":"Voulgari 64, Thessaloniki 542 49","categoryIds":["coffee-brunch"],"categories":["Coffee & Brunch Spots"]},{"id":"coffeeBrunchRestaurants_37a99c7a5e9b","slug":"cafe-plateia-37a9","kind":"restaurant","name":"Café Plateia","lat":40.58219813646138,"lng":22.94932374129252,"url":"https://maps.app.goo.gl/9R5MQ6z3jfLnmMwu7?g_st=ipc","address":"Mitropolitou Chrisanthou 0, Kalamaria 551 32","categoryIds":["coffee-brunch"],"categories":["Coffee & Brunch Spots"]}],"nearby":[{"id":"dessertsRestaurants_96b542039411","slug":"trigona-panoramatos-drossa-proin-giannis-96b5","kind":"restaurant","name":"Τρίγωνα Πανοράματος Δροσσά (πρώην Γιάννης)","lat":40.549930484948774,"lng":23.019231796608217,"url":"https://maps.app.goo.gl/iU3xLN5pQr3ggcxF9?g_st=ipc","address":"Tavaki 24, Thermi 570 01","categoryIds":["desserts"],"categories":["Dessert Shops"],"distanceKm":0.5143720607775937},{"id":"burgersRestaurants_21be773739d0","slug":"brothers-in-law-smash-n-pasta-thermi-21be","kind":"restaurant","name":"Brothers in Law Smash 'n' Pasta Thermi","lat":40.5561230976469,"lng":23.012690012150046,"url":"https://maps.app.goo.gl/tDetHtpfpgzNvuNC7?g_st=ipc","address":"5 χλμ, Χαρ. Θέρμης 1ο χλμ, Thermi 570 01","categoryIds":["burgers"],"categories":["Burger Spots"],"distanceKm":0.5598073589080369},{"id":"italianRestaurants_6cb6cc585c70","slug":"brothers-in-law-smash-n-pasta-thermi-6cb6","kind":"restaurant","name":"Brothers in Law Smash 'n' Pasta Thermi","lat":40.55612517346044,"lng":23.012690343386318,"url":"https://maps.app.goo.gl/eGCLTTn1odF58Myt5?g_st=ipc","address":"5 χλμ, Χαρ. Θέρμης 1ο χλμ, Thermi 570 01","categoryIds":["italian"],"categories":["Italian Restaurants"],"distanceKm":0.5598528159486114},{"id":"familyFriendly_42d11ef19ff8","slug":"cloud-22-family-room-42d1","kind":"restaurant","name":"Cloud 22 Family Room","lat":40.54922868058373,"lng":23.01923766208044,"url":"https://maps.app.goo.gl/Pz6v5LnzAbK4gQGx6?g_st=ic","address":"Tavaki 17, Thermi 570 01","categoryIds":["family-friendly"],"categories":["Kid Friendly Locations"],"distanceKm":0.5923713206550583},{"id":"cheapEatsRestaurants_0353751e2b08","slug":"grn-thermi-0353","kind":"restaurant","name":"ΓΡΝ Θέρμη","lat":40.54741782851475,"lng":23.01948092443365,"url":"https://maps.app.goo.gl/uCq2bBxGLbG7MnvB6?g_st=ipc","address":"Agiou Nikolaou 30, Thermi 570 01","categoryIds":["cheap-eats"],"categories":["Gyros & Cheap Eats"],"distanceKm":0.7944490192480869},{"id":"dessertsRestaurants_ab7dd444d3fa","slug":"nick-alexoudas-ab7d","kind":"restaurant","name":"NICK ALEXOUDAS","lat":40.547044888222544,"lng":23.01874068673441,"url":"https://maps.app.goo.gl/SVoXU7LGnn3dArUNA?g_st=ipc","address":"Agiou Nikolaou 2, Thermi 570 01","categoryIds":["desserts"],"categories":["Dessert Shops"],"distanceKm":0.8350712856655741},{"id":"dessertsRestaurants_07fcae20c5c0","slug":"osten-07fc","kind":"restaurant","name":"OSTEN","lat":40.55792217779551,"lng":23.01007689548662,"url":"https://maps.app.goo.gl/vtyePWkmH3e9Cxi2A?g_st=ipc","address":"4χλμ, Χαρ. Θέρμης, Thessaloniki 570 01","categoryIds":["desserts"],"categories":["Dessert Shops"],"distanceKm":0.8407343779070082},{"id":"burgersRestaurants_d5586ce24d0b","slug":"osten-d558","kind":"restaurant","name":"OSTEN","lat":40.55792173583846,"lng":23.01007604885629,"url":"https://maps.app.goo.gl/JrNCtkPthNJns9L16?g_st=ipc","address":"4χλμ, Χαρ. Θέρμης, Thessaloniki 570 01","categoryIds":["burgers"],"categories":["Burger Spots"],"distanceKm":0.8407765116737235}],"sameRegion":[],"mentionedGuides":[],"canonicalSlug":"bahamas-urban-brunch-bar-b47f","isCanonicalEntity":true},"__N_SSG":true}