{"pageProps":{"entity":{"id":"fishTavernasRestaurants_71c8fedcef80","slug":"carnayo-restaurant-skiathos-71c8","kind":"restaurant","name":"Carnayo Restaurant Skiathos","lat":39.165824279351774,"lng":23.493041550704223,"url":"https://maps.app.goo.gl/DardoapX9Zoh1VF77?g_st=ipc","address":"Paraliakos, Skiathos 370 02","categoryIds":["fish-tavernas"],"categories":["Fish Tavernas"]},"sameCategory":[{"id":"fishTavernasRestaurants_efccd15b6223","slug":"kehria-tarsanas-taverna-efcc","kind":"restaurant","name":"Kehria Tarsanas Taverna","lat":39.18412173483994,"lng":23.445119695165598,"url":"https://maps.app.goo.gl/tUiEEByDucNo1PfbA?g_st=ipc","address":"Unnamed Road, Skiathos 370 02","categoryIds":["fish-tavernas"],"categories":["Fish Tavernas"]},{"id":"fishTavernasRestaurants_77d3e9a1bb44","slug":"infinity-blue-restaurant-77d3","kind":"restaurant","name":"Infinity Blue Restaurant","lat":39.142389727462664,"lng":23.44573084758166,"url":"https://maps.app.goo.gl/GYPTidFzoXiRNDdCA?g_st=ipc","address":"Kolios, 370 02","categoryIds":["fish-tavernas"],"categories":["Fish Tavernas"]},{"id":"fishTavernasRestaurants_c628ee14dc22","slug":"taverna-areti-stamoulis-c628","kind":"restaurant","name":"Taverna Areti - Stamoulis","lat":39.172445737181256,"lng":23.342568733517215,"url":"https://maps.app.goo.gl/tHMerUFf4UU2S8jr8?g_st=ipc","address":"Αγ. Γεώργιος 370 06","categoryIds":["fish-tavernas"],"categories":["Fish Tavernas"]},{"id":"fishTavernasRestaurants_baf37ae6d6a8","slug":"korali-seafood-restaurant-agnontas-skopelos-baf3","kind":"restaurant","name":"Korali Seafood Restaurant . Agnontas Skopelos","lat":39.08302676907846,"lng":23.71151668170709,"url":"https://maps.app.goo.gl/DpvC9bsrL18rv9WD9?g_st=ipc","address":"Epar.Od. Agnontas, Skopelos 370 03","categoryIds":["fish-tavernas"],"categories":["Fish Tavernas"]},{"id":"fishTavernasRestaurants_8539d0698831","slug":"argo-restaurant-8539","kind":"restaurant","name":"Argo Restaurant","lat":39.17227725570198,"lng":23.22064957150471,"url":"https://maps.app.goo.gl/HKBpdAh3KxQWGaRr8?g_st=ipc","address":"Epar.Od. Milina-Trikeri, Milina 370 13","categoryIds":["fish-tavernas"],"categories":["Fish Tavernas"]},{"id":"fishTavernasRestaurants_458d48d686b2","slug":"akrogiali-galanos-458d","kind":"restaurant","name":"Ακρογιαλι Γαλανος","lat":39.26649482814042,"lng":23.166733047141467,"url":"https://maps.app.goo.gl/KNjSWtb43DnSGnxU7?g_st=ipc","address":"Epar.Od. Lefokastrou-Afisou, Afissos 370 10","categoryIds":["fish-tavernas"],"categories":["Fish Tavernas"]},{"id":"fishTavernasRestaurants_c8eeb49067cc","slug":"aggelika-fish-taverna-c8ee","kind":"restaurant","name":"Aggelika Fish Taverna","lat":39.37460340431694,"lng":23.203276067077514,"url":"https://maps.app.goo.gl/TXanhReoHFTGYtHL9?g_st=ipc","address":"Μαγνησία Πήλιο Τσαγκαράδα Μυλοπόταμος, Πήλιο Μυλοπόταμος 370 12","categoryIds":["fish-tavernas"],"categories":["Fish Tavernas"]},{"id":"fishTavernasRestaurants_fb10a0ef09f6","slug":"to-karnagio-to-karnagio-agia-kyriaki-notioy-pilioy-fb10","kind":"restaurant","name":"To Karnagio / Το Καρνάγιο - Αγία Κυριακή Νοτίου Πηλίου","lat":39.09262802220784,"lng":23.06864421145359,"url":"https://maps.app.goo.gl/9qZMAALf8EZ6XnGKA?g_st=ipc","address":"Epar.Od. Trikeriou-Agias Kiriakis 212, Ag. Kiriaki 370 09","categoryIds":["fish-tavernas"],"categories":["Fish Tavernas"]}],"nearby":[{"id":"luxuryDiningRestaurants_bee2cc095415","slug":"the-windmill-restaurant-skiathos-bee2","kind":"restaurant","name":"The Windmill Restaurant Skiathos","lat":39.16543805944577,"lng":23.490849932444878,"url":"https://maps.app.goo.gl/4ZzNn5XN7C4AnWHF9?g_st=ipc","address":"Pension Margarita, Kontroni Opposite, Skiathos 370 02","categoryIds":["luxury-dining"],"categories":["Luxury Dining"],"distanceKm":0.19376305107873545},{"id":"greekRestaurants_c392fb301228","slug":"marmita-c392","kind":"restaurant","name":"Marmita","lat":39.16450960419779,"lng":23.488358363186613,"url":"https://maps.app.goo.gl/jYUxHbE5ospf2bg48?g_st=ipc","address":"Ευαγγελιστρίας 30, Σκιάθος 370 02","categoryIds":["greek-restaurants"],"categories":["Greek Restaurants"],"distanceKm":0.4293995974297637},{"id":"greekRestaurants_50b52c2fce61","slug":"giardino-segreto-50b5","kind":"restaurant","name":"Giardino Segreto","lat":39.16422013445391,"lng":23.48827332832573,"url":"https://maps.app.goo.gl/oYFqCwTb84JgPcHYA?g_st=ipc","address":"Ευαγγελιστρίας 14, Σκιάθος 370 02","categoryIds":["greek-restaurants"],"categories":["Greek Restaurants"],"distanceKm":0.44811274005503826},{"id":"municipalities_97b9bf0a5122","slug":"skiathos-97b9","kind":"municipality","name":"Σκιάθος","lat":39.162,"lng":23.491,"region":"Θεσσαλία","name_en":"Skiathos","region_en":"Thessaly","distanceKm":0.4602272944557731},{"id":"greekRestaurants_2de2c6623e00","slug":"crazy-cow-restaurant-2de2","kind":"restaurant","name":"Crazy Cow Restaurant","lat":39.167432153990596,"lng":23.488032347781342,"url":"https://maps.app.goo.gl/L62CBz8TJif4qS2W9?g_st=ipc","address":"Evaggelistrias Str, Σκιάθος 370 02","categoryIds":["greek-restaurants"],"categories":["Greek Restaurants"],"distanceKm":0.4673940553363462},{"id":"italianRestaurants_0856ecb11f91","slug":"la-cucina-di-maria-0856","kind":"restaurant","name":"La Cucina di Maria","lat":39.16258431460264,"lng":23.488686516582533,"url":"https://maps.app.goo.gl/MBu7u1d7kC6PuBVm8?g_st=ipc","address":"Πλατεία Τριών Ιεραρχών, Skiathos 370 02","categoryIds":["italian"],"categories":["Italian Restaurants"],"distanceKm":0.5203517775481357},{"id":"greekRestaurants_bba8f99baf04","slug":"vasilikos-bba8","kind":"restaurant","name":"Βασιλικός","lat":39.163149427181544,"lng":23.4879040653568,"url":"https://maps.app.goo.gl/72rYJCHEmhpQn6o56?g_st=ipc","address":"5F7Q+65W, Σκιάθος 370 02","categoryIds":["greek-restaurants"],"categories":["Greek Restaurants"],"distanceKm":0.5335194222021076},{"id":"vegetarianRestaurants_4b016e396a37","slug":"basilikos-4b01","kind":"restaurant","name":"Basilikos","lat":39.16312454298035,"lng":23.487902942019232,"url":"https://maps.app.goo.gl/ds7UYPCteddf9Z6T7?g_st=ipc","address":"5F7Q+65W, Skiathos 370 02","categoryIds":["vegetarian"],"categories":["Vegetarian Friendly Restaurants"],"distanceKm":0.5351471531348233}],"sameRegion":[],"mentionedGuides":[],"canonicalSlug":"carnayo-restaurant-skiathos-71c8","isCanonicalEntity":true},"__N_SSG":true}