{"pageProps":{"entity":{"id":"luxuryDiningRestaurants_18db80acc872","slug":"drakoulis-dry-raw-kolonaki-18db","kind":"restaurant","name":"Drakoulis Dry & Raw Kolonaki","lat":37.97718005520891,"lng":23.741289591081852,"url":"https://maps.app.goo.gl/LMGwAzhv7RzR34wj6?g_st=ipc","address":"Πλ. Φιλικής Εταιρείας 14, Αθήνα 106 74","categoryIds":["luxury-dining"],"categories":["Luxury Dining"]},"sameCategory":[{"id":"luxuryDiningRestaurants_10b90e1a8f52","slug":"zano-athens-10b9","kind":"restaurant","name":"Zanó - Athens","lat":37.97774961244962,"lng":23.741221128338456,"url":"https://maps.app.goo.gl/ybfkAt98uRcmLcZLA?g_st=ipc","address":"Παναγιώτου Αναγνωστοπούλου 3, Αθήνα 106 73","categoryIds":["luxury-dining"],"categories":["Luxury Dining"]},{"id":"luxuryDiningRestaurants_2ecaca7a8cdf","slug":"brutus-tavern-2eca","kind":"restaurant","name":"Brutus Tavern","lat":37.9778313193549,"lng":23.741690006593426,"url":"https://maps.app.goo.gl/9gWFrAvvmqBKsy2bA?g_st=ipc","address":"Λεβέντη 3, Αθήνα 106 73","categoryIds":["luxury-dining"],"categories":["Luxury Dining"]},{"id":"luxuryDiningRestaurants_e28089becd81","slug":"nido-athens-e280","kind":"restaurant","name":"NiDo Athens","lat":37.977919345579465,"lng":23.741770246682712,"url":"https://maps.app.goo.gl/okbeASGTeSTwszzP7?g_st=ipc","address":"Λεβέντη 5, Αθήνα 106 73","categoryIds":["luxury-dining"],"categories":["Luxury Dining"]},{"id":"luxuryDiningRestaurants_4207b64cfee5","slug":"ronin-4207","kind":"restaurant","name":"Ronin","lat":37.97868261628751,"lng":23.74283922763361,"url":"https://maps.app.goo.gl/7nmcpWX3r9sBfd248?g_st=ipc","address":"Ξανθίππου 2, Αθήνα 106 75","categoryIds":["luxury-dining"],"categories":["Luxury Dining"]},{"id":"luxuryDiningRestaurants_dc35227b76dd","slug":"iodio-dc35","kind":"restaurant","name":"Iodio","lat":37.97846718508711,"lng":23.7434152762831,"url":"https://maps.app.goo.gl/xJsngrNWcKcLy6AB6?g_st=ipc","address":"Λουκιανού 36, Αθήνα 106 75","categoryIds":["luxury-dining"],"categories":["Luxury Dining"]},{"id":"luxuryDiningRestaurants_d4cce740d47c","slug":"rooftop-terrace-on-top-of-st-george-hotel-d4cc","kind":"restaurant","name":"Rooftop Terrace on top of St. George Hotel","lat":37.97925289319014,"lng":23.74214536289671,"url":"https://maps.app.goo.gl/NWNaSroxE1Lncry6A?g_st=ipc","address":"Αθήνα 106 75","categoryIds":["luxury-dining"],"categories":["Luxury Dining"]},{"id":"luxuryDiningRestaurants_313a938ef96e","slug":"st-george-lycabettus-lifestyle-hotel-313a","kind":"restaurant","name":"St George Lycabettus Lifestyle Hotel","lat":37.979411883866305,"lng":23.742302492612982,"url":"https://maps.app.goo.gl/Nw5wbke6z4TMJnQi8?g_st=ipc","address":"Κλεομένους 2, Αθήνα 106 75","categoryIds":["luxury-dining"],"categories":["Luxury Dining"]},{"id":"luxuryDiningRestaurants_b803a88d407f","slug":"zurbaran-athens-b803","kind":"restaurant","name":"Zurbaran Athens","lat":37.97801172701077,"lng":23.744349686117033,"url":"https://maps.app.goo.gl/rXKGxv9snP1gaFVh9?g_st=ipc","address":"Πατριάρχου Ιωακείμ 38, Αθήνα 106 75","categoryIds":["luxury-dining"],"categories":["Luxury Dining"]}],"nearby":[{"id":"luxuryDiningRestaurants_10b90e1a8f52","slug":"zano-athens-10b9","kind":"restaurant","name":"Zanó - Athens","lat":37.97774961244962,"lng":23.741221128338456,"url":"https://maps.app.goo.gl/ybfkAt98uRcmLcZLA?g_st=ipc","address":"Παναγιώτου Αναγνωστοπούλου 3, Αθήνα 106 73","categoryIds":["luxury-dining"],"categories":["Luxury Dining"],"distanceKm":0.06361552757325696},{"id":"coffeeBrunchRestaurants_32f3744210f1","slug":"ruins-athens-urban-area-32f3","kind":"restaurant","name":"Ruins Athens Urban Area","lat":37.97772096182225,"lng":23.740886798075717,"url":"https://maps.app.goo.gl/m4eWX6HzHjiKpfSEA?g_st=ipc","address":"Τσακάλωφ 4, Αθήνα 106 73","categoryIds":["coffee-brunch"],"categories":["Coffee & Brunch Spots"],"distanceKm":0.06974218025496728},{"id":"luxuryDiningRestaurants_2ecaca7a8cdf","slug":"brutus-tavern-2eca","kind":"restaurant","name":"Brutus Tavern","lat":37.9778313193549,"lng":23.741690006593426,"url":"https://maps.app.goo.gl/9gWFrAvvmqBKsy2bA?g_st=ipc","address":"Λεβέντη 3, Αθήνα 106 73","categoryIds":["luxury-dining"],"categories":["Luxury Dining"],"distanceKm":0.0804736613811956},{"id":"luxuryDiningRestaurants_e28089becd81","slug":"nido-athens-e280","kind":"restaurant","name":"NiDo Athens","lat":37.977919345579465,"lng":23.741770246682712,"url":"https://maps.app.goo.gl/okbeASGTeSTwszzP7?g_st=ipc","address":"Λεβέντη 5, Αθήνα 106 73","categoryIds":["luxury-dining"],"categories":["Luxury Dining"],"distanceKm":0.09237204010399623},{"id":"dessertsRestaurants_adae00fa679c","slug":"cake-kolonaki-adae","kind":"restaurant","name":"CAKE Kolonaki","lat":37.97679932249832,"lng":23.7424790611418,"url":"https://maps.app.goo.gl/ga6C3Z87HsSYfMGx5?g_st=ipc","address":"Ηροδότου 15, Αθήνα 106 74","categoryIds":["desserts"],"categories":["Dessert Shops"],"distanceKm":0.11252511520898435},{"id":"coffeeBrunchRestaurants_f6e68f133ff0","slug":"chez-michel-f6e6","kind":"restaurant","name":"Chez Michel","lat":37.976675534882084,"lng":23.742456621704683,"url":"https://maps.app.goo.gl/XTb8dAWevvMWgsTW9?g_st=ic","address":"Irodotou 15, Athina 106 74","categoryIds":["coffee-brunch"],"categories":["Coffee & Brunch Spots"],"distanceKm":0.1166644709671073},{"id":"coffeeBrunchRestaurants_0ab06e0868e5","slug":"me-kolonaki-0ab0","kind":"restaurant","name":"me kolonaki","lat":37.9765612906505,"lng":23.742423758521817,"url":"https://maps.app.goo.gl/LxVhS9ugcHWgEPFa7?g_st=ipc","address":"Καψάλη 10, Αθήνα 106 74","categoryIds":["coffee-brunch"],"categories":["Coffee & Brunch Spots"],"distanceKm":0.12089796744290238},{"id":"mustSeeAttractions_4a961e3001a5","slug":"moyseio-mpenaki-ellinikoy-politismoy-benaki-museum-of-greek-culture-4a96","kind":"restaurant","name":"Μουσείο Μπενάκη Ελληνικού Πολιτισμού | Benaki Museum of Greek Culture","lat":37.97595332142378,"lng":23.740446335275582,"url":"https://maps.app.goo.gl/tPkYqHsHmRpbKSaX9?g_st=ipc","address":"Koumpari 1, Athina 106 74","categoryIds":["attractions"],"categories":["Must-See Attractions"],"distanceKm":0.15514426332132136}],"sameRegion":[],"mentionedGuides":[{"slug":"best-greek-souvenirs-athens-el","title":"Τα Καλύτερα Ελληνικά Σουβενίρ στην Αθήνα: Αυθεντικές Μάρκες, Τοπικά Προϊόντα και Πού να τα Βρείτε"},{"slug":"best-greek-souvenirs-athens","title":"Best Greek Souvenirs to Buy in Athens: Authentic Brands, Local Products and Where to Find Them"},{"slug":"greek-bakeries-brunch-coffee-guide-el","title":"Ελληνική Αρτοποιία, Brunch & Κουλτούρα Καφέ"},{"slug":"greek-bakeries-brunch-coffee-guide","title":"Greek Bakeries, Brunch & Coffee Culture"},{"slug":"luxury-rooftop-restaurants-athens-el","title":"Πολυτελή Rooftop Εστιατόρια και Μπαρ στην Αθήνα"},{"slug":"luxury-rooftop-restaurants-athens","title":"Luxury Rooftop Restaurants and Bars in Athens with Stunning City Views"}],"canonicalSlug":"drakoulis-dry-raw-kolonaki-18db","isCanonicalEntity":true},"__N_SSG":true}