{"pageProps":{"entity":{"id":"coffeeBrunchRestaurants_9057c09060eb","slug":"espresso-house-9057","kind":"restaurant","name":"Espresso house","lat":38.17163745193254,"lng":20.492476064422643,"url":"https://maps.app.goo.gl/yzerSoB1WzcjYnKq5?g_st=ipc","address":"Devosetou 15, Argostoli 281 00","categoryIds":["coffee-brunch"],"categories":["Coffee & Brunch Spots"]},"sameCategory":[{"id":"coffeeBrunchRestaurants_febf410e8642","slug":"costa-costa-beach-bar-febf","kind":"restaurant","name":"Costa Costa Beach Bar","lat":38.15380761963389,"lng":20.4824739703724,"url":"https://maps.app.goo.gl/TgFrHfc8nxYVBh9z7?g_st=ipc","address":"Lassi, Argostoli 281 00","categoryIds":["coffee-brunch"],"categories":["Coffee & Brunch Spots"]},{"id":"coffeeBrunchRestaurants_caa1d894f98a","slug":"kafepoleion-caa1","kind":"restaurant","name":"Kafepoleion","lat":38.14255916452544,"lng":20.54310186456745,"url":"https://maps.app.goo.gl/YKFX8hPovFNGt9pDA?g_st=ipc","address":"Κοκύλια, Kefalonia 281 00","categoryIds":["coffee-brunch"],"categories":["Coffee & Brunch Spots"]},{"id":"coffeeBrunchRestaurants_7849cd86ff9a","slug":"myrtillo-7849","kind":"restaurant","name":"myrtillo","lat":38.33016504186232,"lng":20.54543331787743,"url":"https://maps.app.goo.gl/jceQN1dFVGYrVSaFA?g_st=ipc","address":"Divarata 280 81","categoryIds":["coffee-brunch"],"categories":["Coffee & Brunch Spots"]},{"id":"coffeeBrunchRestaurants_b203c212827d","slug":"remetzo-kafe-b203","kind":"restaurant","name":"Ρεμετζο καφέ","lat":38.14775445639953,"lng":20.7788036615171,"url":"https://maps.app.goo.gl/DJjkbdzn9Sg4yrHY7?g_st=ipc","address":"Metaxa, Kefalonia 280 82","categoryIds":["coffee-brunch"],"categories":["Coffee & Brunch Spots"]},{"id":"coffeeBrunchRestaurants_f69353dde3df","slug":"ammos-beach-bar-restaurant-kefalonia-f693","kind":"restaurant","name":"Ammos Beach Bar & Restaurant | Kefalonia","lat":38.08122535953636,"lng":20.800056619766497,"url":"https://maps.app.goo.gl/SxeeHeaBpXq8VgZe8?g_st=ipc","address":"Κεφαλληνίας, Skala 281 00","categoryIds":["coffee-brunch"],"categories":["Coffee & Brunch Spots"]},{"id":"coffeeBrunchRestaurants_ebff8d600624","slug":"jenkins-lounge-eatery-ebff","kind":"restaurant","name":"Jenkins Lounge Eatery","lat":37.786543893628924,"lng":20.898568985854595,"url":"https://maps.app.goo.gl/1TG8uMAi1MTZQgiY8?g_st=ipc","address":"Psaron 3, Zakinthos 291 00","categoryIds":["coffee-brunch"],"categories":["Coffee & Brunch Spots"]},{"id":"coffeeBrunchRestaurants_4e218b55f113","slug":"madisons-kitchen-bar-4e21","kind":"restaurant","name":"Madisons Kitchen Bar","lat":37.78371523709895,"lng":20.898097278049377,"url":"https://maps.app.goo.gl/Anc3Yu4uRzD8XagR9?g_st=ipc","address":"Lomvardou 36, Zakinthos 291 00","categoryIds":["coffee-brunch"],"categories":["Coffee & Brunch Spots"]},{"id":"coffeeBrunchRestaurants_819a67237a78","slug":"zimis-819a","kind":"restaurant","name":"Zimis","lat":38.83034594976957,"lng":20.704090375704506,"url":"https://maps.app.goo.gl/qftMEppMQDEhweUP7?g_st=ipc","address":"Efstathiou Zakka 12, Lefkada 311 00","categoryIds":["coffee-brunch"],"categories":["Coffee & Brunch Spots"]}],"nearby":[{"id":"cheapEatsRestaurants_2a50f6b61745","slug":"opsarion-fish-bar-2a50","kind":"restaurant","name":"Οψάριον fish bar","lat":38.17459374377572,"lng":20.491243945671638,"url":"https://maps.app.goo.gl/KSYp7smPeLPMNF7y6?g_st=ipc","address":"Drakopoulou 2, Argostoli 281 00","categoryIds":["cheap-eats"],"categories":["Gyros & Cheap Eats"],"distanceKm":0.3459198683434532},{"id":"dessertsRestaurants_1e491648e63f","slug":"gelato-fresco-italiano-1e49","kind":"restaurant","name":"Gelato fresco italiano","lat":38.17749874571835,"lng":20.48897656776002,"url":"https://maps.app.goo.gl/AFtw3E5Sssatu2m37?g_st=ipc","address":"Ρόκκου, Vergoti 4, Argostoli 281 00","categoryIds":["desserts"],"categories":["Dessert Shops"],"distanceKm":0.7199656179145418},{"id":"greekRestaurants_f94267b89fc5","slug":"ionio-f942","kind":"restaurant","name":"ΙΟΝΙΟ","lat":38.16468754960506,"lng":20.482617252800203,"url":"https://maps.app.goo.gl/NTkDnVRWMVWvLbLv7?g_st=ipc","address":"Αργοστόλι 281 00","categoryIds":["greek-restaurants"],"categories":["Greek Restaurants"],"distanceKm":1.1575983013067934},{"id":"greekRestaurants_552dd808e98a","slug":"palia-plaka-552d","kind":"restaurant","name":"Παλιά Πλάκα","lat":38.18548756443184,"lng":20.48462311862845,"url":"https://maps.app.goo.gl/natPFiwtavpA1LPe8?g_st=ipc","address":"Αγνής Μεταξά 2 Agnis, Μεταξά 2, Αργοστόλι 281 00","categoryIds":["greek-restaurants"],"categories":["Greek Restaurants"],"distanceKm":1.6861084790729122},{"id":"coffeeBrunchRestaurants_febf410e8642","slug":"costa-costa-beach-bar-febf","kind":"restaurant","name":"Costa Costa Beach Bar","lat":38.15380761963389,"lng":20.4824739703724,"url":"https://maps.app.goo.gl/TgFrHfc8nxYVBh9z7?g_st=ipc","address":"Lassi, Argostoli 281 00","categoryIds":["coffee-brunch"],"categories":["Coffee & Brunch Spots"],"distanceKm":2.1668725849532735},{"id":"coffeeBrunchRestaurants_caa1d894f98a","slug":"kafepoleion-caa1","kind":"restaurant","name":"Kafepoleion","lat":38.14255916452544,"lng":20.54310186456745,"url":"https://maps.app.goo.gl/YKFX8hPovFNGt9pDA?g_st=ipc","address":"Κοκύλια, Kefalonia 281 00","categoryIds":["coffee-brunch"],"categories":["Coffee & Brunch Spots"],"distanceKm":5.48161520806077},{"id":"greekRestaurants_543e8b3ae4ad","slug":"chersonas-543e","kind":"restaurant","name":"Χερσώνας","lat":38.157317085301656,"lng":20.558923068182263,"url":"https://maps.app.goo.gl/D6QaW5icgiUCH7qn7?g_st=ipc","address":"Τρωιανάτα 281 00","categoryIds":["greek-restaurants"],"categories":["Greek Restaurants"],"distanceKm":6.023476856603866},{"id":"greekRestaurants_70a7d97aa28c","slug":"il-borgo-restaurant-70a7","kind":"restaurant","name":"Il Borgo Restaurant","lat":38.138324170776656,"lng":20.555664585879075,"url":"https://maps.app.goo.gl/QVAWEX3QcThcLdsE7?g_st=ipc","address":"Κάστρο Αγίου Γεωργίου, Τραυλιάτα 281 00","categoryIds":["greek-restaurants"],"categories":["Greek Restaurants"],"distanceKm":6.651886651723842}],"sameRegion":[],"mentionedGuides":[],"canonicalSlug":"espresso-house-9057","isCanonicalEntity":true},"__N_SSG":true}