{"pageProps":{"entity":{"id":"greekRestaurants_af95cfb851a0","slug":"estiatorio-kioskia-af95","kind":"restaurant","name":"Εστιατόριο Κιόσκια","lat":40.61260152561618,"lng":23.099374680703214,"url":"https://maps.app.goo.gl/SBBbiTbf6AekkWeZ6?g_st=ipc","address":"Μαρτύρων 2ας Σεπτέμβρη 40, Χορτιάτης 570 10","categoryIds":["greek-restaurants"],"categories":["Greek Restaurants"]},"sameCategory":[{"id":"greekRestaurants_532b03b35deb","slug":"trygetes-532b","kind":"restaurant","name":"Trygetes","lat":40.609449198477655,"lng":22.99030105913949,"url":"https://maps.app.goo.gl/Rf62EziGTreVjA668?g_st=ipc","address":"17is Noemvriou 12, Pilea 555 34","categoryIds":["greek-restaurants"],"categories":["Greek Restaurants"]},{"id":"greekRestaurants_e5e2b9a4516b","slug":"strovolos-e5e2","kind":"restaurant","name":"Στρόβολος","lat":40.609636107203336,"lng":22.989436108652693,"url":"https://maps.app.goo.gl/yxZrsFbF6G2pXQQK9?g_st=ipc","address":"Μεσολογγίου 17 νοεμβριου, Θεσσαλονίκη 555 35","categoryIds":["greek-restaurants"],"categories":["Greek Restaurants"]},{"id":"greekRestaurants_a67af598b2d1","slug":"to-loukoumi-a67a","kind":"restaurant","name":"To Loukoumi","lat":40.65097171601764,"lng":22.998975430300302,"url":"https://maps.app.goo.gl/T4aEjoreJoEqYGcE7?g_st=ipc","address":"Leof. Papanikolaou 150, Pefka 570 10","categoryIds":["greek-restaurants"],"categories":["Greek Restaurants"]},{"id":"greekRestaurants_d9762e9f6ad6","slug":"to-neon-estiatorio-d976","kind":"restaurant","name":"ΤΟ ΝΕΟΝ εστιατόριο","lat":40.61224067227643,"lng":22.98407750802401,"url":"https://maps.app.goo.gl/fkULAaU3UcrpCHGRA?g_st=ipc","address":"Γρηγορίου Λαμπράκη 205 & Δημ.Τσιαπάνου 25-29, Άνω Τούμπα 543 52","categoryIds":["greek-restaurants"],"categories":["Greek Restaurants"]},{"id":"greekRestaurants_d6840627570a","slug":"lykos-chasapotaverna-d684","kind":"restaurant","name":"Lykos - Χασαποταβέρνα","lat":40.56114058445929,"lng":23.005199497641122,"url":"https://maps.app.goo.gl/H2wjVi3P1kdSmFTX8?g_st=ipc","address":"Χαρ. Θέρμης, Thessaloniki 570 01","categoryIds":["greek-restaurants"],"categories":["Greek Restaurants"]},{"id":"greekRestaurants_87ad943f04be","slug":"mpaloyxis-87ad","kind":"restaurant","name":"ΜΠΑΛΟΥΞΗΣ","lat":40.60469663357637,"lng":22.980860258041304,"url":"https://maps.app.goo.gl/mkwSB515HmQ3h8yA8?g_st=ipc","address":"Δορυλαίου 86, Πυλαία 544 54","categoryIds":["greek-restaurants"],"categories":["Greek Restaurants"]},{"id":"greekRestaurants_d088423c78a1","slug":"sygchrono-kafeneion-o-tzertzeles-d088","kind":"restaurant","name":"Σύγχρονο Καφενείον ο Τζερτζελές","lat":40.617294004272665,"lng":22.977421178943235,"url":"https://maps.app.goo.gl/E8KAZpAFgpwoquHv9?g_st=ipc","address":"Καθηγητού Νικολάου Ανδριώτη 13, Θεσσαλονίκη 543 51","categoryIds":["greek-restaurants"],"categories":["Greek Restaurants"]},{"id":"greekRestaurants_5c376770db26","slug":"kafeneion-to-dallaveri-5c37","kind":"restaurant","name":"Kafeneion To Dallaveri","lat":40.61571484515384,"lng":22.976632129539492,"url":"https://maps.app.goo.gl/6CZnkJNTLRD3MjRz7?g_st=ipc","address":"Diagora 51, Thessaloniki 543 51","categoryIds":["greek-restaurants"],"categories":["Greek Restaurants"]}],"nearby":[{"id":"familyFriendly_b6a37bf1af44","slug":"platanakia-natura-b6a3","kind":"restaurant","name":"Platanakia Natura","lat":40.59354583506236,"lng":23.05309273408505,"url":"https://maps.app.goo.gl/6g3bBu8datKxsCYq7?g_st=ipc","address":"St Paraskevopoulou, Panorama 552 36","categoryIds":["family-friendly"],"categories":["Kid Friendly Locations"],"distanceKm":4.444827534692938},{"id":"municipalities_86440bea9f1c","slug":"pylaia-chortiatis-8644","kind":"municipality","name":"Πυλαία - Χορτιάτης","lat":40.5833,"lng":23.05,"region":"Ανατολική Θεσσαλονίκη","name_en":"Pylaia - Chortiatis","region_en":"East Thessaloniki","distanceKm":5.2909087970941275},{"id":"dessertsRestaurants_3c30b0e5f97f","slug":"trigona-elenidi-3c30","kind":"restaurant","name":"Trigona Elenidi","lat":40.59208635693994,"lng":23.041104741607068,"url":"https://maps.app.goo.gl/4xfcNGGMy4nwoxyR8?g_st=ipc","address":"Leof. Komninon 69, Panorama 552 36","categoryIds":["desserts"],"categories":["Dessert Shops"],"distanceKm":5.422563545737374},{"id":"dessertsRestaurants_2dd2e036af70","slug":"elenidis-2dd2","kind":"restaurant","name":"Elenidis","lat":40.590269244540906,"lng":23.036630664756583,"url":"https://maps.app.goo.gl/L8fJy8x72XPMwgQC6?g_st=ipc","address":"Venizelou 12, Panorama 552 36","categoryIds":["desserts"],"categories":["Dessert Shops"],"distanceKm":5.850350800329107},{"id":"fishTavernasRestaurants_d0c2abf79717","slug":"kritikos-gallery-restaurants-d0c2","kind":"restaurant","name":"Kritikos Gallery & Restaurants","lat":40.58943046352144,"lng":23.037107897488713,"url":"https://maps.app.goo.gl/RdVPPysbg8jmJ1gT7?g_st=ipc","address":"Venizelou 5B, Panorama 552 36","categoryIds":["fish-tavernas"],"categories":["Fish Tavernas"],"distanceKm":5.854368878953586},{"id":"coffeeBrunchRestaurants_79653b358f9a","slug":"dio-con-dio-7965","kind":"restaurant","name":"Dio Con Dio","lat":40.59016290783814,"lng":23.03657930037768,"url":"https://maps.app.goo.gl/SCXFA22cPne9xMiLA?g_st=ipc","address":"Papadopoulou 19, Panorama 552 36","categoryIds":["coffee-brunch"],"categories":["Coffee & Brunch Spots"],"distanceKm":5.859306601091065},{"id":"coffeeBrunchRestaurants_15d66401c4fe","slug":"paradosiako-panorama-15d6","kind":"restaurant","name":"Παραδοσιακό (Πανόραμα)","lat":40.590095905104064,"lng":23.036102401133366,"url":"https://maps.app.goo.gl/TUmt6vrXSEXCXWNj8?g_st=ipc","address":"Papadopoulou 17, Panorama 552 36","categoryIds":["coffee-brunch"],"categories":["Coffee & Brunch Spots"],"distanceKm":5.898920344803554},{"id":"familyFriendly_681712a05721","slug":"ichnilatis-oneiron-ktima-klimentini-6817","kind":"restaurant","name":"Ιχνηλάτης Ονείρων - Κτήμα Κλημεντινη","lat":40.67362926471837,"lng":23.088737171472587,"url":"https://maps.app.goo.gl/zejLUTjQA5bbDHBb6?g_st=ipc","address":"EO Thessalonikis Kavalas, Volvi 572 00","categoryIds":["family-friendly"],"categories":["Kid Friendly Locations"],"distanceKm":6.845070400547378}],"sameRegion":[],"mentionedGuides":[],"canonicalSlug":"estiatorio-kioskia-af95","isCanonicalEntity":true},"__N_SSG":true}