{"pageProps":{"entity":{"id":"greekRestaurants_773d46c778fd","slug":"estiatorio-taverna-o-manolis-773d","kind":"restaurant","name":"Εστιατόριο Ταβέρνα Ο Μανώλης","lat":38.030716089112936,"lng":23.806470122135025,"url":"https://maps.app.goo.gl/E6ZfG324dBPeoKmz5?g_st=ipc","address":"Σάμου 1, Χαλάνδρι 152 33","categoryIds":["greek-restaurants"],"categories":["Greek Restaurants"]},"sameCategory":[{"id":"greekRestaurants_420dc8617ebb","slug":"to-vrasto-420d","kind":"restaurant","name":"Το Βραστό","lat":38.02920880289756,"lng":23.811047379895488,"url":"https://maps.app.goo.gl/GRjH6qkfc2wa5Tcv9?g_st=ipc","address":"Ρόδων 3, Χαλάνδρι 152 33","categoryIds":["greek-restaurants"],"categories":["Greek Restaurants"]},{"id":"greekRestaurants_166b7c278db9","slug":"tzitzikas-kai-mermigkas-166b","kind":"restaurant","name":"Τζίτζικας Και Μέρμηγκας","lat":38.02047878345652,"lng":23.804706604274816,"url":"https://maps.app.goo.gl/8pYJH9GZBYeQD5mk6?g_st=ipc","address":"Αισχύλου 26, Χαλάνδρι 152 34","categoryIds":["greek-restaurants"],"categories":["Greek Restaurants"]},{"id":"greekRestaurants_ecd1114337bb","slug":"taverna-kissos-ecd1","kind":"restaurant","name":"Ταβέρνα Κισσός","lat":38.02828285759166,"lng":23.793071906306483,"url":"https://maps.app.goo.gl/DEUMA4eJH6RLG2DU8","address":"Ρούμελης 28 &, Σπάρτης, Χαλάνδρι 152 33","categoryIds":["greek-restaurants"],"categories":["Greek Restaurants"]},{"id":"greekRestaurants_141b4df624df","slug":"peri-oysias-141b","kind":"restaurant","name":"Περί Ουσίας","lat":38.0199005649911,"lng":23.809145664428573,"url":"https://maps.app.goo.gl/gEFvWf42qxvaJBEX9?g_st=ipc","address":"Θησέως 25, Χαλάνδρι 152 34","categoryIds":["greek-restaurants"],"categories":["Greek Restaurants"]},{"id":"greekRestaurants_96a815ab2fda","slug":"spitjack-golden-hall-96a8","kind":"restaurant","name":"Spitjack Golden Hall","lat":38.034373053538495,"lng":23.793186418589283,"url":"https://maps.app.goo.gl/MjaG7qgQXBbLTT8n7","address":"Λεωφ. Κηφισίας 37A, Μαρούσι 151 23","categoryIds":["greek-restaurants"],"categories":["Greek Restaurants"]},{"id":"greekRestaurants_a120da3cfe10","slug":"mezedopoleio-iordanis-a120","kind":"restaurant","name":"Μεζεδοπωλείο Ιορδάνης","lat":38.020133303757966,"lng":23.80185334902281,"url":"https://maps.app.goo.gl/FYyCghhM4WWKom5n9?g_st=ipc","address":"Αριστοτέλους 42, Χαλάνδρι 152 32","categoryIds":["greek-restaurants"],"categories":["Greek Restaurants"]},{"id":"greekRestaurants_69231f24503b","slug":"mpakalotaverna-6923","kind":"restaurant","name":"Μπακαλοταβέρνα","lat":38.02091962634735,"lng":23.79935272546419,"url":"https://maps.app.goo.gl/D6gW3fsdkz7sh9bg8?g_st=ipc","address":"Θουκυδίδου 6, Χαλάνδρι 152 32","categoryIds":["greek-restaurants"],"categories":["Greek Restaurants"]},{"id":"greekRestaurants_c76d4019c4d8","slug":"mparmpalias-c76d","kind":"restaurant","name":"Μπαρμπαλιάς","lat":38.02244991899446,"lng":23.7965243912459,"url":"https://maps.app.goo.gl/G25mEs6QontzWR8o6?g_st=ipc","address":"Λεωφ. Βασιλέως Γεωργίου B 6, Χαλάνδρι 152 33","categoryIds":["greek-restaurants"],"categories":["Greek Restaurants"]}],"nearby":[{"id":"greekRestaurants_420dc8617ebb","slug":"to-vrasto-420d","kind":"restaurant","name":"Το Βραστό","lat":38.02920880289756,"lng":23.811047379895488,"url":"https://maps.app.goo.gl/GRjH6qkfc2wa5Tcv9?g_st=ipc","address":"Ρόδων 3, Χαλάνδρι 152 33","categoryIds":["greek-restaurants"],"categories":["Greek Restaurants"],"distanceKm":0.4345319540270424},{"id":"cheapEatsRestaurants_4ec639153a0b","slug":"kantina-billy-4ec6","kind":"restaurant","name":"Καντίνα - Billy","lat":38.02609394796825,"lng":23.81064307512727,"url":"https://maps.app.goo.gl/9r8QWiSRkMH7dPqZA?g_st=ipc","address":"Λεωφ. Πεντέλης 68, Χαλάνδρι 152 34","categoryIds":["cheap-eats"],"categories":["Gyros & Cheap Eats"],"distanceKm":0.6306716814640106},{"id":"dessertsRestaurants_4f529b02c261","slug":"zacharoplasteia-konstantinidis-4f52","kind":"restaurant","name":"ΖΑΧΑΡΟΠΛΑΣΤΕΙΑ ΚΩΝΣΤΑΝΤΙΝΙΔΗΣ","lat":38.02641289961005,"lng":23.811254354041353,"url":"https://maps.app.goo.gl/eFBXtmFxkCpQxQLK7?g_st=ipc","address":"Λεωφ. Πεντέλης 72, Αθήνα 115 24","categoryIds":["desserts"],"categories":["Dessert Shops"],"distanceKm":0.6360453203912191},{"id":"dessertsRestaurants_2866616f6c72","slug":"passarella-chalandri-2866","kind":"restaurant","name":"Passarella - Χαλάνδρι","lat":38.02448370470044,"lng":23.80670910273873,"url":"https://maps.app.goo.gl/dryCvKG6qyofyvsP9?g_st=ipc","address":"Λεωφ. Πεντέλης 42 &, Ευριπίδου, Χαλάνδρι 152 34","categoryIds":["desserts"],"categories":["Dessert Shops"],"distanceKm":0.6933255837288679},{"id":"coffeeBrunchRestaurants_fee7b450e2e2","slug":"bored-c-mon-hub-fee7","kind":"restaurant","name":"Bored, C'mon hub","lat":38.02345514252141,"lng":23.803073599949013,"url":"https://maps.app.goo.gl/VKSg4V9NPf89H1ha7?g_st=ipc","address":"Λεωφ. Πεντέλης 15, Χαλάνδρι 152 34","categoryIds":["coffee-brunch"],"categories":["Coffee & Brunch Spots"],"distanceKm":0.8604481845180683},{"id":"coffeeBrunchRestaurants_15371932080b","slug":"willow-cafe-chalandri-1537","kind":"restaurant","name":"Willow Cafe Χαλάνδρι","lat":38.03103124415517,"lng":23.796167188145933,"url":"https://maps.app.goo.gl/KjpKvzNXdWoxzDFA7?g_st=ipc","address":"Ριζαρείου 9, Χαλάνδρι 152 33","categoryIds":["coffee-brunch"],"categories":["Coffee & Brunch Spots"],"distanceKm":0.9030718996988764},{"id":"coffeeBrunchRestaurants_b9882b026b76","slug":"montakioy-maroysi-b988","kind":"restaurant","name":"ΜΟΝΤΑΚΙΟΥ ΜΑΡΟΥΣΙ","lat":38.03797108447277,"lng":23.80161359245891,"url":"https://maps.app.goo.gl/P3WZt5PaHNoTambf6?g_st=ipc","address":"Ρωμανού Μελωδού 1, Μαρούσι 151 25","categoryIds":["coffee-brunch"],"categories":["Coffee & Brunch Spots"],"distanceKm":0.9119824525190284},{"id":"asianRestaurants_879da0a96347","slug":"saipan-kineziko-estiatorio-879d","kind":"restaurant","name":"Saipan Κινέζικο Εστιατόριο","lat":38.02355205934916,"lng":23.800206153183655,"url":"https://maps.app.goo.gl/nbuLEwHeZBiLrKZS8?g_st=ipc","address":"Κώστα Βάρναλη 9, Χαλάνδρι 152 33","categoryIds":["asian"],"categories":["Asian Restaurants"],"distanceKm":0.9672688458005947}],"sameRegion":[],"mentionedGuides":[],"canonicalSlug":"estiatorio-taverna-o-manolis-773d","isCanonicalEntity":true},"__N_SSG":true}