{"pageProps":{"entity":{"id":"familyFriendly_52cd4997ee89","slug":"farma-ampelos-vochaikou-52cd","kind":"restaurant","name":"FARMA AMPELOS VOCHAIKOU","lat":37.932680344972496,"lng":22.771047365230917,"url":"https://maps.app.goo.gl/cQ3vrm4TKeMAyCsq6?g_st=ipc","address":"ΑΓΡΟΤΙΚΗ ΟΔΟΣ, Βοχαϊκό 200 06","categoryIds":["family-friendly"],"categories":["Kid Friendly Locations"]},"sameCategory":[{"id":"familyFriendly_382b225783e0","slug":"athloypoli-382b","kind":"restaurant","name":"Αθλούπολη","lat":37.92596676764985,"lng":22.950761882031436,"url":"https://maps.app.goo.gl/1hz4bXK4e1zKMcW19?g_st=ipc","address":"Θέση Μπαθαρίστρα, Δήμος Κορινθίων 201 00","categoryIds":["family-friendly"],"categories":["Kid Friendly Locations"]},{"id":"familyFriendly_8b9ba7b9f729","slug":"splash-waterpark-isthmos-8b9b","kind":"restaurant","name":"Splash Waterpark Isthmos","lat":37.92495583561113,"lng":22.991604427588854,"url":"https://maps.app.goo.gl/eqCZacM2mh9hh5mi8?g_st=ipc","address":"Ισθμού, Λουτράκι 203 00","categoryIds":["family-friendly"],"categories":["Kid Friendly Locations"]},{"id":"familyFriendly_81af9329fc37","slug":"kentro-eleytheris-ippasias-81af","kind":"restaurant","name":"Κεντρο Ελεύθερης Ιππασίας","lat":38.01371091852879,"lng":22.49660964449245,"url":"https://maps.app.goo.gl/Jk42DbsK7YsoCuVL6?g_st=ipc","address":"Epar.Od. Xilokastrou - Trikalon - Mannas, Ξυλόκαστρο 204 00","categoryIds":["family-friendly"],"categories":["Kid Friendly Locations"]},{"id":"familyFriendly_32cb5d544c31","slug":"area-synest-32cb","kind":"restaurant","name":"Area Synest","lat":38.06576851291907,"lng":22.340295581454182,"url":"https://maps.app.goo.gl/o23ir2rREaRUFiwK9?g_st=ipc","address":"Epar.Od. Agorianis-Koronias, Sinevro 250 10","categoryIds":["family-friendly"],"categories":["Kid Friendly Locations"]},{"id":"familyFriendly_9b2bda8df9e3","slug":"nymfes-9b2b","kind":"restaurant","name":"Νύμφες","lat":37.99541884225497,"lng":22.275355626093795,"url":"https://maps.app.goo.gl/V3SkPjW9XHfNjwvSA?g_st=ipc","address":"Ζαρούχλα - Φενεός, Zarouchla 250 06","categoryIds":["family-friendly"],"categories":["Kid Friendly Locations"]},{"id":"familyFriendly_f5a054e30c6e","slug":"cherryland-ktima-fokaeon-f5a0","kind":"restaurant","name":"CHERRYLAND - ΚΤΗΜΑ ΦΩΚΑΕΩΝ","lat":38.12752130997816,"lng":22.216601874987493,"url":"https://maps.app.goo.gl/Lr7uMbC7sLXRLEP9A?g_st=ipc","address":"Epar.Od. Pountas - Kalavriton, Kernitsa 250 03","categoryIds":["family-friendly"],"categories":["Kid Friendly Locations"]},{"id":"familyFriendly_a59e646924f0","slug":"parko-arkopolis-a59e","kind":"restaurant","name":"Πάρκο ARKOPOLIS","lat":38.04423565223715,"lng":23.533199733095568,"url":"https://maps.app.goo.gl/x7x4Lu9B5vabrAyJ7?g_st=ipc","address":"Μαρίας Κιουρί, Ελευσίνα 192 00","categoryIds":["family-friendly"],"categories":["Kid Friendly Locations"]},{"id":"familyFriendly_7539abe09fd5","slug":"votanikos-kipos-diomidoys-7539","kind":"restaurant","name":"Βοτανικός Κήπος Διομήδους","lat":38.010895961889986,"lng":23.642935426625115,"url":"https://maps.app.goo.gl/WsLFbFUaXSS2rGMR6?g_st=ipc","address":"Ιερά Οδός 403, Χαϊδάρι 124 61","categoryIds":["family-friendly"],"categories":["Kid Friendly Locations"]}],"nearby":[{"id":"greekRestaurants_f0875a0de3a8","slug":"eviva-taverna-f087","kind":"restaurant","name":"Εβίβα Ταβέρνα","lat":37.94826596142861,"lng":22.791019779670105,"url":"https://maps.app.goo.gl/D8Mr8bUZPttfMux47?g_st=ipc","address":"Επαρ.Οδ. Βραχατίου - Νεμέας 255, Βοχαϊκό 200 06","categoryIds":["greek-restaurants"],"categories":["Greek Restaurants"],"distanceKm":2.4639479028987483},{"id":"municipalities_5f8e38dfed51","slug":"sikyonion-5f8e","kind":"municipality","name":"Σικυωνίων","lat":37.95,"lng":22.75,"region":"Κορινθία","name_en":"Sikyonion","region_en":"Corinthia","distanceKm":2.667498547601482},{"id":"greekRestaurants_b760cd0c2463","slug":"chavon-restobar-b760","kind":"restaurant","name":"Chavon Restobar","lat":37.96210160412795,"lng":22.806527700162825,"url":"https://maps.app.goo.gl/gHNgPE2wUtHLY6F1A?g_st=ipc","address":"Parodos Andrea Lazana 101, Βραχάτι 200 06","categoryIds":["greek-restaurants"],"categories":["Greek Restaurants"],"distanceKm":4.514611244609967},{"id":"municipalities_f416e3da4569","slug":"kiato-f416","kind":"municipality","name":"Κιάτο","lat":37.974,"lng":22.751,"region":"Κορινθία","name_en":"Kiato","region_en":"Corinthia","distanceKm":4.91928368215298},{"id":"fishTavernasRestaurants_bedd9566b385","slug":"thealos-thealos-bedd","kind":"restaurant","name":"Θέαλος - Thealos","lat":37.94991846803997,"lng":22.83722013675207,"url":"https://maps.app.goo.gl/Aaq7XhnhCgZUhsH29?g_st=ipc","address":"Unnamed Rd, Kato Assos 200 06","categoryIds":["fish-tavernas"],"categories":["Fish Tavernas"],"distanceKm":6.111261939379686},{"id":"greekRestaurants_7e187d76eed9","slug":"taverna-agiannis-goyrnopoyla-7e18","kind":"restaurant","name":"ΤΑΒΕΡΝΑ ΑΓΙΑΝΝΗΣ ΓΟΥΡΝΟΠΟΥΛΑ","lat":37.99600590320037,"lng":22.763769354956416,"url":"https://maps.app.goo.gl/TAEgeZnnDvDXP5b27?g_st=ipc","address":"Αθηνών 190, Κιάτο 202 00","categoryIds":["greek-restaurants"],"categories":["Greek Restaurants"],"distanceKm":7.070327679729053},{"id":"mustSeeAttractions_6f7525d9828a","slug":"naos-toy-apollona-6f75","kind":"restaurant","name":"Ναός του Απόλλωνα","lat":37.905934819191934,"lng":22.879090197503242,"url":"https://maps.app.goo.gl/8vWipRURHj9oGwSj8?g_st=ipc","address":"Άργους 105, Αρχαία Κόρινθος 200 07","categoryIds":["attractions"],"categories":["Must-See Attractions"],"distanceKm":9.933076240106082},{"id":"mustSeeAttractions_10ed76689ca7","slug":"archaia-korinthos-10ed","kind":"restaurant","name":"Αρχαία Κόρινθος","lat":37.90716292407013,"lng":22.881429703730713,"url":"https://maps.app.goo.gl/Wa4GWgjzXVLMVAyZ7?g_st=ipc","address":"Αρχαία Κόρινθος 200 07","categoryIds":["attractions"],"categories":["Must-See Attractions"],"distanceKm":10.089740306792637}],"sameRegion":[],"mentionedGuides":[],"canonicalSlug":"farma-ampelos-vochaikou-52cd","isCanonicalEntity":true},"__N_SSG":true}