{"pageProps":{"entity":{"id":"cheapEatsRestaurants_11495dfdb881","slug":"fina-kota-kai-souvlaki-1149","kind":"restaurant","name":"Fina Kota kai Souvlaki","lat":40.59910110403599,"lng":22.970582136003614,"url":"https://maps.app.goo.gl/eUYE4q3etTD9FkZs6?g_st=ipc","address":"Al. Papanastasiou 164, Thessaloniki 542 49","categoryIds":["cheap-eats"],"categories":["Gyros & Cheap Eats"]},"sameCategory":[{"id":"cheapEatsRestaurants_9ba4d2c7ce05","slug":"devido-9ba4","kind":"restaurant","name":"Devido","lat":40.6015548155933,"lng":22.97004729221759,"url":"https://maps.app.goo.gl/LhdTXdShbHy87PAv9?g_st=ipc","address":"Nik. Plastira 2, Thessaloniki 542 50","categoryIds":["cheap-eats"],"categories":["Gyros & Cheap Eats"]},{"id":"cheapEatsRestaurants_cbbee327a904","slug":"thanasis-sons-cbbe","kind":"restaurant","name":"Thanasis & Sons","lat":40.60379849059069,"lng":22.96906169951488,"url":"https://maps.app.goo.gl/Yc8gq3PhahDVKDreA?g_st=ipc","address":"Al. Papanastasiou 133, Thessaloniki 542 50","categoryIds":["cheap-eats"],"categories":["Gyros & Cheap Eats"]},{"id":"cheapEatsRestaurants_1eaaf4657a81","slug":"thanasis-sons-1eaa","kind":"restaurant","name":"Thanasis & Sons","lat":40.60379888554604,"lng":22.969062086462387,"url":"https://maps.app.goo.gl/osKm1rqFwwfzqdrLA?g_st=ipc","address":"Al. Papanastasiou 133, Thessaloniki 542 50","categoryIds":["cheap-eats"],"categories":["Gyros & Cheap Eats"]},{"id":"cheapEatsRestaurants_d5f34328ce60","slug":"grn-toympa-d5f3","kind":"restaurant","name":"ΓΡΝ Τούμπα","lat":40.606092536657584,"lng":22.971298180015925,"url":"https://maps.app.goo.gl/xNHbtpHz8gpf4vYR6?g_st=ipc","address":"Michail Chourmouzi 41, Thessaloniki 544 53","categoryIds":["cheap-eats"],"categories":["Gyros & Cheap Eats"]},{"id":"cheapEatsRestaurants_6567e814aa5e","slug":"o-gyros-toy-michali-6567","kind":"restaurant","name":"Ο Γύρος του Μιχάλη","lat":40.60335488153119,"lng":22.961687059004745,"url":"https://maps.app.goo.gl/sNmZpvpUx9Yt5Avj6?g_st=ipc","address":"Makedonias 105, Thessaloniki 542 48","categoryIds":["cheap-eats"],"categories":["Gyros & Cheap Eats"]},{"id":"cheapEatsRestaurants_7eb356f33485","slug":"subito-7eb3","kind":"restaurant","name":"subito","lat":40.6000123876882,"lng":22.959807900547272,"url":"https://maps.app.goo.gl/hJJxUbRut66xbMFs5?g_st=ipc","address":"Delfon 145, Thessaloniki 542 48","categoryIds":["cheap-eats"],"categories":["Gyros & Cheap Eats"]},{"id":"cheapEatsRestaurants_f51539f3f3fe","slug":"kostas-f515","kind":"restaurant","name":"Kostas","lat":40.608571752720515,"lng":22.967969048628863,"url":"https://maps.app.goo.gl/bUnuC1Vh9ysa2VhL6?g_st=ipc","address":"Mark. Mpotsari 120, Thessaloniki 546 43","categoryIds":["cheap-eats"],"categories":["Gyros & Cheap Eats"]},{"id":"cheapEatsRestaurants_9e983ad5e812","slug":"prassas-9e98","kind":"restaurant","name":"Prassas","lat":40.60822104515919,"lng":22.96538292733955,"url":"https://maps.app.goo.gl/cajfpJVBkeREe7FNA?g_st=ipc","address":"Mark. Mpotsari 89, Thessaloniki 546 44","categoryIds":["cheap-eats"],"categories":["Gyros & Cheap Eats"]}],"nearby":[{"id":"fishTavernasRestaurants_e3cad400eebc","slug":"panos-cafe-e3ca","kind":"restaurant","name":"Panos Cafe","lat":40.59910171918994,"lng":22.972711652033485,"url":"https://maps.app.goo.gl/2xVCRJ82JXQ9xNYm7?g_st=ipc","address":"Alkamenous 5, Thessaloniki 542 50","categoryIds":["fish-tavernas"],"categories":["Fish Tavernas"],"distanceKm":0.17979132944411141},{"id":"italianRestaurants_2946916b6ad2","slug":"pizza-plain-2946","kind":"restaurant","name":"Pizza Plain","lat":40.601547606224,"lng":22.970026389723678,"url":"https://maps.app.goo.gl/gJ7QpRFhLKuDpyFc9?g_st=ipc","address":"Nik. Plastira 2, Thessaloniki 542 50","categoryIds":["italian"],"categories":["Italian Restaurants"],"distanceKm":0.2760552250231727},{"id":"cheapEatsRestaurants_9ba4d2c7ce05","slug":"devido-9ba4","kind":"restaurant","name":"Devido","lat":40.6015548155933,"lng":22.97004729221759,"url":"https://maps.app.goo.gl/LhdTXdShbHy87PAv9?g_st=ipc","address":"Nik. Plastira 2, Thessaloniki 542 50","categoryIds":["cheap-eats"],"categories":["Gyros & Cheap Eats"],"distanceKm":0.2765516215466356},{"id":"coffeeBrunchRestaurants_7f4ca735b5ec","slug":"laterna-7f4c","kind":"restaurant","name":"Laterna","lat":40.597256928464596,"lng":22.96766795433404,"url":"https://maps.app.goo.gl/UuEUGrB58srruWFPA?g_st=ipc","address":"Voulgari 64, Thessaloniki 542 49","categoryIds":["coffee-brunch"],"categories":["Coffee & Brunch Spots"],"distanceKm":0.3202933202406663},{"id":"greekRestaurants_4e13929c0cd5","slug":"fytra-4e13","kind":"restaurant","name":"Φύτρα","lat":40.6012681636797,"lng":22.966673149641366,"url":"https://maps.app.goo.gl/GaGbnHHiWn6UF2go6?g_st=ipc","address":"Αδριανουπόλεως 10, Θεσσαλονίκη 542 49","categoryIds":["greek-restaurants"],"categories":["Greek Restaurants"],"distanceKm":0.40863206868353225},{"id":"cheapEatsRestaurants_cbbee327a904","slug":"thanasis-sons-cbbe","kind":"restaurant","name":"Thanasis & Sons","lat":40.60379849059069,"lng":22.96906169951488,"url":"https://maps.app.goo.gl/Yc8gq3PhahDVKDreA?g_st=ipc","address":"Al. Papanastasiou 133, Thessaloniki 542 50","categoryIds":["cheap-eats"],"categories":["Gyros & Cheap Eats"],"distanceKm":0.5378671925402349},{"id":"cheapEatsRestaurants_1eaaf4657a81","slug":"thanasis-sons-1eaa","kind":"restaurant","name":"Thanasis & Sons","lat":40.60379888554604,"lng":22.969062086462387,"url":"https://maps.app.goo.gl/osKm1rqFwwfzqdrLA?g_st=ipc","address":"Al. Papanastasiou 133, Thessaloniki 542 50","categoryIds":["cheap-eats"],"categories":["Gyros & Cheap Eats"],"distanceKm":0.5379020458241698},{"id":"dessertsRestaurants_a176ca58a94e","slug":"il-panino-a176","kind":"restaurant","name":"Il Panino","lat":40.60111282600128,"lng":22.964094400386756,"url":"https://maps.app.goo.gl/xgjKYkQmNmr9oVeU6?g_st=ipc","address":"Leof. Kon/nou Karamanli 154, Thessaloniki 542 48","categoryIds":["desserts"],"categories":["Dessert Shops"],"distanceKm":0.5916567612385057}],"sameRegion":[],"mentionedGuides":[],"canonicalSlug":"fina-kota-kai-souvlaki-1149","isCanonicalEntity":true},"__N_SSG":true}