{"pageProps":{"entity":{"id":"coffeeBrunchRestaurants_ed186b21821d","slug":"grand-cafe-ed18","kind":"restaurant","name":"Grand Cafe","lat":38.01669030501736,"lng":23.65067849733212,"url":"https://maps.app.goo.gl/4ikkZmtmj8GogkUe7?g_st=ipc","address":"Γεωρ. Παπανδρέου 53, Χαϊδάρι 124 62","categoryIds":["coffee-brunch"],"categories":["Coffee & Brunch Spots"]},"sameCategory":[{"id":"coffeeBrunchRestaurants_d00352ea6d8c","slug":"du-pain-boulangerie-patisserie-cafe-chaidari-d003","kind":"restaurant","name":"Du Pain - Boulangerie | Patisserie | Cafe - Χαϊδάρι","lat":38.01212694777047,"lng":23.65373933583571,"url":"https://maps.app.goo.gl/F7BPdSmhWeNtbKZVA?g_st=ipc","address":"Λεωφ. Αθηνών 308, Χαϊδάρι 124 62","categoryIds":["coffee-brunch"],"categories":["Coffee & Brunch Spots"]},{"id":"coffeeBrunchRestaurants_7dd888878942","slug":"botanical-garden-bistrot-7dd8","kind":"restaurant","name":"Botanical Garden Bistrot","lat":38.01082910356087,"lng":23.64241923148242,"url":"https://maps.app.goo.gl/K8biwYq9RLoEXdZZA?g_st=ipc","address":"Βοτανικός Κήπος, Ιερά Οδός 403, Χαϊδάρι 124 61","categoryIds":["coffee-brunch"],"categories":["Coffee & Brunch Spots"]},{"id":"coffeeBrunchRestaurants_21280d2fc2ee","slug":"telescope-cafe-bar-restaurant-2128","kind":"restaurant","name":"Telescope Cafe Bar Restaurant","lat":38.00692418431941,"lng":23.65623593846488,"url":"https://maps.app.goo.gl/qq7xzW7bEsPcyJT1A?g_st=ipc","address":"Φιλικής Εταιρείας, Χαϊδάρι 124 61","categoryIds":["coffee-brunch"],"categories":["Coffee & Brunch Spots"]},{"id":"coffeeBrunchRestaurants_639c2aabee9d","slug":"qahwa-chaidari-639c","kind":"restaurant","name":"Qahwa Chaidari","lat":38.00126380773835,"lng":23.663252642859884,"url":"https://maps.app.goo.gl/vAwUeBwjnVB6oM6A7?g_st=ipc","address":"Στρ. Καραϊσκάκη 12, Χαϊδάρι 124 61","categoryIds":["coffee-brunch"],"categories":["Coffee & Brunch Spots"]},{"id":"coffeeBrunchRestaurants_ebe61501db3c","slug":"anemologio-enallaktiko-kafe-ebe6","kind":"restaurant","name":"Ανεμολόγιο εναλλακτικό καφέ","lat":38.01553415279337,"lng":23.680397259584772,"url":"https://maps.app.goo.gl/CdGAWQcCNoqhMaoLA?g_st=ipc","address":"Πελοπίδα 106, Περιστέρι 121 35","categoryIds":["coffee-brunch"],"categories":["Coffee & Brunch Spots"]},{"id":"coffeeBrunchRestaurants_56346e942815","slug":"qahwa-roastery-5634","kind":"restaurant","name":"Qahwa Roastery","lat":38.00443805181344,"lng":23.67683735104457,"url":"https://maps.app.goo.gl/iwKrvWdDuhAmB8YHA?g_st=ipc","address":"Αγίου Σπυρίδωνος 48, Αιγάλεω 122 43","categoryIds":["coffee-brunch"],"categories":["Coffee & Brunch Spots"]},{"id":"coffeeBrunchRestaurants_44bd3c6a7140","slug":"theoria-tou-house-44bd","kind":"restaurant","name":"Theoria Tou House","lat":37.99483558716702,"lng":23.67242611231958,"url":"https://maps.app.goo.gl/xJYXm4QXBt9wx7wx5?g_st=ipc","address":"Πλ. Δαβάκη 1, Αιγάλεω 122 44","categoryIds":["coffee-brunch"],"categories":["Coffee & Brunch Spots"]},{"id":"coffeeBrunchRestaurants_c560ff32aef8","slug":"sempre-coffee-cocktail-bar-c560","kind":"restaurant","name":"sempre coffee & cocktail bar","lat":38.01143610501892,"lng":23.691242502233425,"url":"https://maps.app.goo.gl/AJY2nLTvRqUqFGG26?g_st=ipc","address":"Σαρανταπόρου 51, Περιστέρι 121 34","categoryIds":["coffee-brunch"],"categories":["Coffee & Brunch Spots"]}],"nearby":[{"id":"mexicanRestaurants_67556fc4ed45","slug":"foinikas-cocina-y-cocteleria-mexicana-6755","kind":"restaurant","name":"Foinikas Cocina Y Cocteleria Mexicana","lat":38.015441217507856,"lng":23.650413232343997,"url":"https://maps.app.goo.gl/opzLk9C1z99QsEwW7?g_st=ipc","address":"Ηρ. Πολυτεχνείου 76, Χαϊδάρι 124 62","categoryIds":["mexican"],"categories":["Mexican Restaurants"],"distanceKm":0.14082277509040875},{"id":"dessertsRestaurants_1765ea0649e8","slug":"zacharoplasteio-andreadakis-dasos-chaidarioy-1765","kind":"restaurant","name":"Ζαχαροπλαστείο Ανδρεαδάκης Δάσος Χαϊδαρίου","lat":38.01441009164151,"lng":23.65246594622769,"url":"https://maps.app.goo.gl/vsbKYJMV6rWGy5Uc8?g_st=ipc","address":"Γεωρ. Παπανδρέου 33, Χαϊδάρι 124 63","categoryIds":["desserts"],"categories":["Dessert Shops"],"distanceKm":0.298004175523887},{"id":"dessertsRestaurants_9c331bddc67e","slug":"du-pain-boulangerie-patisserie-cafe-chaidari-9c33","kind":"restaurant","name":"Du Pain - Boulangerie | Patisserie | Cafe - Χαϊδάρι","lat":38.012154567718234,"lng":23.65374189092998,"url":"https://maps.app.goo.gl/7smLrZDMkEHpHrcw8?g_st=ipc","address":"Λεωφ. Αθηνών 308, Χαϊδάρι 124 62","categoryIds":["desserts"],"categories":["Dessert Shops"],"distanceKm":0.5713077419744186},{"id":"coffeeBrunchRestaurants_d00352ea6d8c","slug":"du-pain-boulangerie-patisserie-cafe-chaidari-d003","kind":"restaurant","name":"Du Pain - Boulangerie | Patisserie | Cafe - Χαϊδάρι","lat":38.01212694777047,"lng":23.65373933583571,"url":"https://maps.app.goo.gl/F7BPdSmhWeNtbKZVA?g_st=ipc","address":"Λεωφ. Αθηνών 308, Χαϊδάρι 124 62","categoryIds":["coffee-brunch"],"categories":["Coffee & Brunch Spots"],"distanceKm":0.5739162174938979},{"id":"familyFriendly_dd451e30d935","slug":"strike-kiddo-dd45","kind":"restaurant","name":"Strike Kiddo","lat":38.01119139287315,"lng":23.650703428601517,"url":"https://maps.app.goo.gl/zpYyze4k5z1xryNd8?g_st=ipc","address":"Λεωφ. Αθηνών 336, Χαϊδάρι 124 62","categoryIds":["family-friendly"],"categories":["Kid Friendly Locations"],"distanceKm":0.6114550333996739},{"id":"greekRestaurants_d0434bb7301e","slug":"ena-ena-d043","kind":"restaurant","name":"Ένα & Ένα","lat":38.008987140141066,"lng":23.65280105299395,"url":"https://maps.app.goo.gl/ndrwbvbypJGEEjum6","address":"Κύπρου 19, Χαϊδάρι 124 61","categoryIds":["greek-restaurants"],"categories":["Greek Restaurants"],"distanceKm":0.8765048919395061},{"id":"familyFriendly_7539abe09fd5","slug":"votanikos-kipos-diomidoys-7539","kind":"restaurant","name":"Βοτανικός Κήπος Διομήδους","lat":38.010895961889986,"lng":23.642935426625115,"url":"https://maps.app.goo.gl/WsLFbFUaXSS2rGMR6?g_st=ipc","address":"Ιερά Οδός 403, Χαϊδάρι 124 61","categoryIds":["family-friendly"],"categories":["Kid Friendly Locations"],"distanceKm":0.9355598427953022},{"id":"coffeeBrunchRestaurants_7dd888878942","slug":"botanical-garden-bistrot-7dd8","kind":"restaurant","name":"Botanical Garden Bistrot","lat":38.01082910356087,"lng":23.64241923148242,"url":"https://maps.app.goo.gl/K8biwYq9RLoEXdZZA?g_st=ipc","address":"Βοτανικός Κήπος, Ιερά Οδός 403, Χαϊδάρι 124 61","categoryIds":["coffee-brunch"],"categories":["Coffee & Brunch Spots"],"distanceKm":0.9738094033258816}],"sameRegion":[],"mentionedGuides":[],"canonicalSlug":"grand-cafe-ed18","isCanonicalEntity":true},"__N_SSG":true}