{"pageProps":{"entity":{"id":"luxuryDiningRestaurants_e93ed529fdfa","slug":"hams-clams-e93e","kind":"restaurant","name":"Hams & Clams","lat":37.93313157813386,"lng":23.64744436080488,"url":"https://maps.app.goo.gl/KsnmFZ1WnGooiyEV7?g_st=ipc","address":"Λιμάνι, Μαρίνα Ζέας, Πειραιάς 185 37","categoryIds":["luxury-dining"],"categories":["Luxury Dining"]},"sameCategory":[{"id":"luxuryDiningRestaurants_e7d40d9dd881","slug":"varoulko-seaside-restaurant-e7d4","kind":"restaurant","name":"Varoulko Seaside Restaurant","lat":37.93728764717136,"lng":23.658501845885716,"url":"https://maps.app.goo.gl/rqEtmfcH3ZARtEsf7?g_st=ipc","address":"Ακτή Κουμουνδούρου 54, Πειραιάς 185 33","categoryIds":["luxury-dining"],"categories":["Luxury Dining"]},{"id":"luxuryDiningRestaurants_223cae9767cf","slug":"nest-rooftop-monte-kastella-223c","kind":"restaurant","name":"ΝΕΣΤ Rooftop - Monte Kastella","lat":37.93966255701075,"lng":23.661584217897186,"url":"https://maps.app.goo.gl/KrWjCjHhBZcKtAsU9?g_st=ipc","address":"Λεωφ. Αλ. Παπαναστασίου 109, Πειραιάς 185 33","categoryIds":["luxury-dining"],"categories":["Luxury Dining"]},{"id":"luxuryDiningRestaurants_ef48010de0b4","slug":"mitsis-n-u-piraeus-port-ef48","kind":"restaurant","name":"Mitsis N'U Piraeus Port","lat":37.946256281878604,"lng":23.642735306655823,"url":"https://maps.app.goo.gl/3DKm52Lh2ApKNN1X8?g_st=ipc","address":"Αριστείδου 16-20, Πειραιάς 185 31","categoryIds":["luxury-dining"],"categories":["Luxury Dining"]},{"id":"luxuryDiningRestaurants_84da05872d04","slug":"delta-restaurant-84da","kind":"restaurant","name":"Delta Restaurant","lat":37.939081506016144,"lng":23.69146940163584,"url":"https://maps.app.goo.gl/GSgBvngfewJdVtkA7?g_st=ipc","address":"Λεωφ. Ανδρέα Συγγρού 364, Αθήνα 176 74","categoryIds":["luxury-dining"],"categories":["Luxury Dining"]},{"id":"luxuryDiningRestaurants_8af90b11228b","slug":"e-o-pan-asian-restaurant-athens-8af9","kind":"restaurant","name":"e&o Pan-Asian Restaurant Athens","lat":37.94077150497406,"lng":23.696879786243304,"url":"https://maps.app.goo.gl/nAwF6RqCeQF6rY2P9?g_st=ipc","address":"Λεωφ. Ανδρέα Συγγρού 385, Παλαιό Φάληρο 175 64","categoryIds":["luxury-dining"],"categories":["Luxury Dining"]},{"id":"luxuryDiningRestaurants_c964012da7dd","slug":"kenko-japanese-restaurant-c964","kind":"restaurant","name":"Kenko Japanese Restaurant","lat":37.947294316233865,"lng":23.71504061514003,"url":"https://maps.app.goo.gl/mKgbMMS1cXaQqrtLA?g_st=ipc","address":"Λεωφ. Ελ. Βενιζέλου 22, Νέα Σμύρνη 171 21","categoryIds":["luxury-dining"],"categories":["Luxury Dining"]},{"id":"luxuryDiningRestaurants_b29116d56a30","slug":"herve-restaurant-b291","kind":"restaurant","name":"Herve Restaurant","lat":37.96670241575443,"lng":23.709370285349806,"url":"https://maps.app.goo.gl/o5KA9u8fZnaZ9XMY6?g_st=ipc","address":"Τριών Ιεραρχών 170, Αθήνα 118 52","categoryIds":["luxury-dining"],"categories":["Luxury Dining"]},{"id":"luxuryDiningRestaurants_449388b6e901","slug":"gallina-athens-4493","kind":"restaurant","name":"Gallina Athens","lat":37.964508186769734,"lng":23.726121733406966,"url":"https://maps.app.goo.gl/zkqCQmDUHjdt7RX4A?g_st=ipc","address":"Μαρκ. Μπότσαρη 49, Αθήνα 117 42","categoryIds":["luxury-dining"],"categories":["Luxury Dining"]}],"nearby":[{"id":"italianRestaurants_5ab192a29154","slug":"pizza-tros-5ab1","kind":"restaurant","name":"Pizza Tros","lat":37.93310764502524,"lng":23.647126189869965,"url":"https://maps.app.goo.gl/R29dtEiZf13f8My98?g_st=ipc","address":"Μαρίνα Ζέας, Πειραιάς 185 36","categoryIds":["italian"],"categories":["Italian Restaurants"],"distanceKm":0.028031047423619296},{"id":"asianRestaurants_7724da0cbe7e","slug":"ten-modern-asian-7724","kind":"restaurant","name":"Ten Modern Asian","lat":37.93291413644206,"lng":23.647263058130683,"url":"https://maps.app.goo.gl/updMqDsRmH6egHAL7?g_st=ipc","address":"Μαρίνα Ζέας, Πειραιάς 185 36","categoryIds":["asian"],"categories":["Asian Restaurants"],"distanceKm":0.028938371861734695},{"id":"italianRestaurants_5214577033fb","slug":"portofino-cucina-italiana-5214","kind":"restaurant","name":"Portofino Cucina Italiana","lat":37.933560056703215,"lng":23.64800969933006,"url":"https://maps.app.goo.gl/V1DfNbY33j2yeRfy7?g_st=ipc","address":"Μαρίνα Ζέας, Πειραιάς 185 36","categoryIds":["italian"],"categories":["Italian Restaurants"],"distanceKm":0.06876292949856602},{"id":"cheapEatsRestaurants_b7111ba66cb7","slug":"mpar-mpee-kioy-freattyda-b711","kind":"restaurant","name":"Μπαρ Μπεε Κιου - Φρεαττύδα","lat":37.93450545499558,"lng":23.64268595079312,"url":"https://maps.app.goo.gl/Ajs6FhmvDN7iM7dV7?g_st=ipc","address":"Λεωφ. Φρεάττυδος 13, Πειραιάς 185 37","categoryIds":["cheap-eats"],"categories":["Gyros & Cheap Eats"],"distanceKm":0.4444041877177664},{"id":"burgersRestaurants_51cd3df73f20","slug":"mpar-mpee-kioy-freattyda-51cd","kind":"restaurant","name":"Μπαρ Μπεε Κιου - Φρεαττύδα","lat":37.93450645446817,"lng":23.642685440187794,"url":"https://maps.app.goo.gl/UkJPpNzXrBGL944RA?g_st=ipc","address":"Λεωφ. Φρεάττυδος 13, Πειραιάς 185 37","categoryIds":["burgers"],"categories":["Burger Spots"],"distanceKm":0.44448445006165743},{"id":"dessertsRestaurants_485012761632","slug":"galaktopoleio-stamoy-peiraia-4850","kind":"restaurant","name":"Γαλακτοπωλείο ΣΤΑΜΟΥ, Πειραιά","lat":37.93559337890928,"lng":23.64309227138255,"url":"https://maps.app.goo.gl/msTiobs8vpLYrcz57?g_st=ipc","address":"Λεωφ. Αφεντούλη 16 &, Πραξιτέλους 243, Πειραιάς 185 36","categoryIds":["desserts"],"categories":["Dessert Shops"],"distanceKm":0.4696973578093531},{"id":"municipalities_3ebd848d109d","slug":"kastella-3ebd","kind":"municipality","name":"Καστέλλα","lat":37.9319,"lng":23.6533,"region":"Πειραιάς","name_en":"Kastella","region_en":"Piraeus","distanceKm":0.5315045981105535},{"id":"cheapEatsRestaurants_8cc8f7ce2a5d","slug":"kali-pita-8cc8","kind":"restaurant","name":"Καλή Πίτα","lat":37.93904235716474,"lng":23.647494180172405,"url":"https://maps.app.goo.gl/5Uc5sfiitWqftH1u6?g_st=ipc","address":"Ακτή Μουτσοπούλου 10, Πειραιάς 185 35","categoryIds":["cheap-eats"],"categories":["Gyros & Cheap Eats"],"distanceKm":0.657263162611856}],"sameRegion":[],"mentionedGuides":[],"canonicalSlug":"hams-clams-e93e","isCanonicalEntity":true},"__N_SSG":true}