{"pageProps":{"entity":{"id":"coffeeBrunchRestaurants_72ee5296056d","slug":"holy-llama-72ee","kind":"restaurant","name":"Holy Llama","lat":37.97397500358649,"lng":23.73312528899751,"url":"https://maps.app.goo.gl/5KzgeBBfEf77x8sL7?g_st=ipc","address":"Nikis, Syntagma 23, Αθήνα 105 57","categoryIds":["coffee-brunch"],"categories":["Coffee & Brunch Spots"]},"sameCategory":[{"id":"coffeeBrunchRestaurants_f0eff25de691","slug":"amandine-s-bagels-f0ef","kind":"restaurant","name":"Amandine's Bagels","lat":37.97477039083452,"lng":23.73321799541619,"url":"https://maps.app.goo.gl/spidgemnNTyMgFML7?g_st=ipc","address":"Νίκης 13, Αθήνα 105 57","categoryIds":["coffee-brunch"],"categories":["Coffee & Brunch Spots"]},{"id":"coffeeBrunchRestaurants_2fddcd2fe039","slug":"neropistolo-2fdd","kind":"restaurant","name":"Neropistolo","lat":37.974517291275795,"lng":23.7322749472112,"url":"https://maps.app.goo.gl/BtaYzYAqPmjvET4H6?g_st=ipc","address":"Βουλής 35, Αθήνα 105 57","categoryIds":["coffee-brunch"],"categories":["Coffee & Brunch Spots"]},{"id":"coffeeBrunchRestaurants_a3e6dda2655d","slug":"tazza-caffe-a3e6","kind":"restaurant","name":"Tazza caffe","lat":37.975499371808404,"lng":23.73172660898901,"url":"https://maps.app.goo.gl/uGLfA2cFXs7RueeS6?g_st=ipc","address":"Πετράκη 5, Αθήνα 105 63","categoryIds":["coffee-brunch"],"categories":["Coffee & Brunch Spots"]},{"id":"coffeeBrunchRestaurants_9c4210ba6277","slug":"72h-artisanal-bakery-eatery-athens-9c42","kind":"restaurant","name":"72H Artisanal Bakery & Eatery Athens","lat":37.97530265670539,"lng":23.731274229624415,"url":"https://maps.app.goo.gl/UcP2CHpDdGDnZnK4A?g_st=ipc","address":"27 Mitropoleos &, Πατρώου 9, Αθήνα 105 57","categoryIds":["coffee-brunch"],"categories":["Coffee & Brunch Spots"]},{"id":"coffeeBrunchRestaurants_29cc04ce6a93","slug":"ergon-bakehouse-athens-29cc","kind":"restaurant","name":"ERGON Bakehouse Athens","lat":37.97528171642416,"lng":23.731226375079583,"url":"https://maps.app.goo.gl/iqrzk1YEu34L4txn7?g_st=ipc","address":"27 Mitropoleos &, Πατρώου St, Αθήνα 105 57","categoryIds":["coffee-brunch"],"categories":["Coffee & Brunch Spots"]},{"id":"coffeeBrunchRestaurants_eb79294668c4","slug":"ermou-18-beyond-the-horizon-eb79","kind":"restaurant","name":"Ermou 18 Beyond the Horizon","lat":37.97612271055357,"lng":23.731891623776487,"url":"https://maps.app.goo.gl/2L1MqjzdZCmDsrCj6?g_st=ipc","address":"Ερμού 18, Αθήνα 105 63","categoryIds":["coffee-brunch"],"categories":["Coffee & Brunch Spots"]},{"id":"coffeeBrunchRestaurants_d761c46075d4","slug":"le-petit-village-d761","kind":"restaurant","name":"Le Petit Village","lat":37.97573184070448,"lng":23.730557151684366,"url":"https://maps.app.goo.gl/yQDokn8qrofNRvbN9?g_st=ipc","address":"Φωκίωνος 2, Αθήνα 105 63","categoryIds":["coffee-brunch"],"categories":["Coffee & Brunch Spots"]},{"id":"coffeeBrunchRestaurants_10f7636fb183","slug":"fillo-10f7","kind":"restaurant","name":"Fillo","lat":37.97664924966537,"lng":23.732881855883917,"url":"https://maps.app.goo.gl/kXhn28aSgrw8SgU47?g_st=ipc","address":"105 62, Βουλής 11, Αθήνα 105 62","categoryIds":["coffee-brunch"],"categories":["Coffee & Brunch Spots"]}],"nearby":[{"id":"vegetarianRestaurants_4c1ab480871b","slug":"holy-llama-4c1a","kind":"restaurant","name":"Holy Llama","lat":37.97396404211014,"lng":23.73311973333826,"url":"https://maps.app.goo.gl/YFcMYw6afMUaqBMC9?g_st=ipc","address":"Nikis, Syntagma 23, Αθήνα 105 57","categoryIds":["vegetarian"],"categories":["Vegetarian Friendly Restaurants"],"distanceKm":0.0013125417543418537},{"id":"vegetarianRestaurants_8f0cf3873ae8","slug":"4-seasons-bio-organic-food-market-8f0c","kind":"restaurant","name":"4 Seasons Bio - Organic Food Market","lat":37.97393047054411,"lng":23.732888082947863,"url":"https://maps.app.goo.gl/VntknhKAe4PaVfpM6?g_st=ipc","address":"Νίκης 30, Αθήνα 105 57","categoryIds":["vegetarian"],"categories":["Vegetarian Friendly Restaurants"],"distanceKm":0.021373573477830653},{"id":"vegetarianRestaurants_8d8ca2489312","slug":"avocado-8d8c","kind":"restaurant","name":"Avocado","lat":37.97391324129181,"lng":23.73289192634984,"url":"https://maps.app.goo.gl/MrghLEMjktpmCFH58?g_st=ipc","address":"Νίκης 30, Αθήνα 105 57","categoryIds":["vegetarian"],"categories":["Vegetarian Friendly Restaurants"],"distanceKm":0.021577253667413532},{"id":"vegetarianRestaurants_43a8a2b5eb46","slug":"winners-vegan-43a8","kind":"restaurant","name":"Winners Vegan","lat":37.97376452131408,"lng":23.73300918304916,"url":"https://maps.app.goo.gl/DFHjTpp5KFC8PQMg6?g_st=ipc","address":"Νίκης 27, Αθήνα 105 57","categoryIds":["vegetarian"],"categories":["Vegetarian Friendly Restaurants"],"distanceKm":0.02552151817282091},{"id":"asianRestaurants_d2dfba8aa86e","slug":"ikigai-japanese-market-d2df","kind":"restaurant","name":"Ikigai Japanese Market","lat":37.9738141066951,"lng":23.732787828654633,"url":"https://maps.app.goo.gl/qkTpkDkptgwCVeF68?g_st=ipc","address":"Σκούφου 15, Αθήνα 105 57","categoryIds":["asian"],"categories":["Asian Restaurants"],"distanceKm":0.03456943880402118},{"id":"asianRestaurants_ddcb57380116","slug":"ekiben-kitchen-ddcb","kind":"restaurant","name":"EKIBEN KITCHEN","lat":37.97373780649657,"lng":23.73268249015655,"url":"https://maps.app.goo.gl/phQR869HE6dZNJGS9?g_st=ipc","address":"Σκούφου 15, Αθήνα 105 57","categoryIds":["asian"],"categories":["Asian Restaurants"],"distanceKm":0.04692657455489425},{"id":"burgersRestaurants_bf81509e8678","slug":"ekiben-kitchen-bf81","kind":"restaurant","name":"EKIBEN KITCHEN","lat":37.97373737994253,"lng":23.732680748460968,"url":"https://maps.app.goo.gl/UYx5LEnNcAUkY8XX8?g_st=ipc","address":"Σκούφου 15, Αθήνα 105 57","categoryIds":["burgers"],"categories":["Burger Spots"],"distanceKm":0.047079527110633373},{"id":"greekRestaurants_3e896dd5b050","slug":"spit-jack-3e89","kind":"restaurant","name":"Spit Jack","lat":37.97409123224814,"lng":23.732567622429254,"url":"https://maps.app.goo.gl/WP3HmHeYBBcXxVPM6","address":"Σκούφου 10, Αθήνα 105 57","categoryIds":["greek-restaurants"],"categories":["Greek Restaurants"],"distanceKm":0.050561267488418785}],"sameRegion":[],"mentionedGuides":[],"canonicalSlug":"holy-llama-4c1a","isCanonicalEntity":false},"__N_SSG":true}