{"pageProps":{"entity":{"id":"cheapEatsRestaurants_72f8dec93abe","slug":"i-volvi-72f8","kind":"restaurant","name":"Η Βόλβη","lat":37.97981742118138,"lng":23.72787228689906,"url":"https://maps.app.goo.gl/x2HbvpDyfiYLua7z6?g_st=ipc","address":"Ευριπίδου 24-26, Αθήνα 105 51","categoryIds":["cheap-eats"],"categories":["Gyros & Cheap Eats"]},"sameCategory":[{"id":"cheapEatsRestaurants_e6b3f1094174","slug":"krispy-by-jackaroo-e6b3","kind":"restaurant","name":"Krispy by Jackaroo","lat":37.97957426393904,"lng":23.728377000107947,"url":"https://maps.app.goo.gl/R1wrCFqhDWYwJViQ7?g_st=ipc","address":"Evripidou 15, Athina 105 60","categoryIds":["cheap-eats"],"categories":["Gyros & Cheap Eats"]},{"id":"cheapEatsRestaurants_eaf8d8c0d190","slug":"bouloukos-kebab-eaf8","kind":"restaurant","name":"Bouloukos Kebab","lat":37.980172161906935,"lng":23.72690266572384,"url":"https://maps.app.goo.gl/eUePB41Ppi2PT7NL7?g_st=ipc","address":"Αθηνάς 53, Αθήνα 105 52","categoryIds":["cheap-eats"],"categories":["Gyros & Cheap Eats"]},{"id":"cheapEatsRestaurants_b7a4db625995","slug":"mozzart-pizza-center-b7a4","kind":"restaurant","name":"Mozzart Pizza Center","lat":37.97910186394194,"lng":23.729304129555086,"url":"https://maps.app.goo.gl/QMAXfCna6DxXHDpcA?g_st=ipc","address":"Chrisospiliotissis 1, Athina 105 60","categoryIds":["cheap-eats"],"categories":["Gyros & Cheap Eats"]},{"id":"cheapEatsRestaurants_753d5449336c","slug":"la-pizzetta-753d","kind":"restaurant","name":"La Pizzetta","lat":37.97847520528142,"lng":23.728112025622647,"url":"https://maps.app.goo.gl/K4gKpgJyy7hobcQQ6?g_st=ipc","address":"Αιόλου 56, Αθήνα 105 60","categoryIds":["cheap-eats"],"categories":["Gyros & Cheap Eats"]},{"id":"cheapEatsRestaurants_0371c77b2517","slug":"tsiknaboom-0371","kind":"restaurant","name":"TsiknaBoom","lat":37.97906604032225,"lng":23.726418827071747,"url":"https://maps.app.goo.gl/DxnAjbtDdfK3oFbr9?g_st=ipc","address":"Παλλάδος 2-4, Αθήνα 105 54","categoryIds":["cheap-eats"],"categories":["Gyros & Cheap Eats"]},{"id":"cheapEatsRestaurants_73b2f6130df6","slug":"groovy-ham-73b2","kind":"restaurant","name":"Groovy Ham","lat":37.978434992498535,"lng":23.728303604469694,"url":"https://maps.app.goo.gl/bFq352ScX4ijnYoH8?g_st=ipc","address":"Μιλτιάδου 22, Αθήνα 105 60","categoryIds":["cheap-eats"],"categories":["Gyros & Cheap Eats"]},{"id":"cheapEatsRestaurants_c89c11621856","slug":"kapsa-c89c","kind":"restaurant","name":"Κάψα","lat":37.9791128198558,"lng":23.729644254058044,"url":"https://maps.app.goo.gl/GnCnbQadKKWk2pSs5?g_st=ipc","address":"Σκουλενίου 4, Αθήνα 105 61","categoryIds":["cheap-eats"],"categories":["Gyros & Cheap Eats"]},{"id":"cheapEatsRestaurants_16ba629709d2","slug":"just-pita-16ba","kind":"restaurant","name":"Just Pita","lat":37.97840949020096,"lng":23.726739666799467,"url":"https://maps.app.goo.gl/hyeDVXAzDsSq1RQz5?g_st=ipc","address":"Αθηνάς 18, Αθήνα 105 51","categoryIds":["cheap-eats"],"categories":["Gyros & Cheap Eats"]}],"nearby":[{"id":"luxuryDiningRestaurants_ad3f43513fe8","slug":"hasapika-central-market-ad3f","kind":"restaurant","name":"Hasapika Central Market","lat":37.98004920672925,"lng":23.72784326093664,"url":"https://maps.app.goo.gl/zfVsdMVE9KLHsZKR7?g_st=ipc","address":"Αριστογείτονος 1, Αθήνα 105 51","categoryIds":["luxury-dining"],"categories":["Luxury Dining"],"distanceKm":0.025898630455580444},{"id":"greekRestaurants_c16ca9f65dbe","slug":"oinomageireio-i-ipeiros-c16c","kind":"restaurant","name":"Οινομαγειρείο Η Ήπειρος","lat":37.980081996854445,"lng":23.728018952835075,"url":"https://maps.app.goo.gl/Ksa1sT3W1xvTwody6","address":"Φιλοποίμενος 4, Αθήνα 105 51","categoryIds":["greek-restaurants"],"categories":["Greek Restaurants"],"distanceKm":0.03210531195862448},{"id":"cheapEatsRestaurants_e6b3f1094174","slug":"krispy-by-jackaroo-e6b3","kind":"restaurant","name":"Krispy by Jackaroo","lat":37.97957426393904,"lng":23.728377000107947,"url":"https://maps.app.goo.gl/R1wrCFqhDWYwJViQ7?g_st=ipc","address":"Evripidou 15, Athina 105 60","categoryIds":["cheap-eats"],"categories":["Gyros & Cheap Eats"],"distanceKm":0.05184519670295221},{"id":"dessertsRestaurants_7f6602abadca","slug":"krinos-7f66","kind":"restaurant","name":"Κρίνος","lat":37.98041054951213,"lng":23.728412779668,"url":"https://maps.app.goo.gl/dP718rebSLuGyq4GA?g_st=ipc","address":"Αιόλου 87, Αθήνα 105 51","categoryIds":["desserts"],"categories":["Dessert Shops"],"distanceKm":0.08120293944301976},{"id":"cheapEatsRestaurants_eaf8d8c0d190","slug":"bouloukos-kebab-eaf8","kind":"restaurant","name":"Bouloukos Kebab","lat":37.980172161906935,"lng":23.72690266572384,"url":"https://maps.app.goo.gl/eUePB41Ppi2PT7NL7?g_st=ipc","address":"Αθηνάς 53, Αθήνα 105 52","categoryIds":["cheap-eats"],"categories":["Gyros & Cheap Eats"],"distanceKm":0.09369222474833128},{"id":"coffeeBrunchRestaurants_0ae149633aed","slug":"folk-0ae1","kind":"restaurant","name":"Folk.","lat":37.97880874771429,"lng":23.72797999271096,"url":"https://maps.app.goo.gl/6T8xDeGdNhWe15Wy8?g_st=ipc","address":"Βύσσης 2, Αθήνα 105 51","categoryIds":["coffee-brunch"],"categories":["Coffee & Brunch Spots"],"distanceKm":0.11255594665687357},{"id":"coffeeBrunchRestaurants_9ae1dd6e7d5a","slug":"psomas-n-mokka-kafekopteio-a-e-e-9ae1","kind":"restaurant","name":"ΨΩΜΑΣ, Ν., \"ΜΟΚΚΑ ΚΑΦΕΚΟΠΤΕΙΟ\" Α.Ε.Ε.","lat":37.98083447984655,"lng":23.727407040678795,"url":"https://maps.app.goo.gl/oAY3rXKoej3BQGy39?g_st=ipc","address":"Αθηνάς 44, Αθήνα 105 51","categoryIds":["coffee-brunch"],"categories":["Coffee & Brunch Spots"],"distanceKm":0.12021863285566375},{"id":"coffeeBrunchRestaurants_ed24a7ddbf8d","slug":"the-makers-ed24","kind":"restaurant","name":"The Makers","lat":37.979293464451835,"lng":23.729075477305056,"url":"https://maps.app.goo.gl/ckVaWVRSL5xpfiAs8?g_st=ipc","address":"Πραξιτέλους 37, Αθήνα 105 60","categoryIds":["coffee-brunch"],"categories":["Coffee & Brunch Spots"],"distanceKm":0.12047992606043294}],"sameRegion":[],"mentionedGuides":[],"canonicalSlug":"i-volvi-72f8","isCanonicalEntity":true},"__N_SSG":true}