{"pageProps":{"entity":{"id":"monasteriesChurches_9012455a363d","slug":"iera-moni-dafnioy-9012","kind":"restaurant","name":"Ιερά Μονή Δαφνίου","lat":38.012995167161115,"lng":23.63601896606369,"url":"https://maps.app.goo.gl/idE6eKcfBqTpZbE78?g_st=ipc","address":"Ιερά Οδός, Χαϊδάρι 124 61","categoryIds":["monasteries-churches"],"categories":["Monasteries & Spiritual Sites"]},"sameCategory":[{"id":"monasteriesChurches_616a7205bceb","slug":"ieros-naos-agioy-nikolaoy-616a","kind":"restaurant","name":"Ιερός Ναός Αγίου Νικολάου","lat":37.93852657714825,"lng":23.640083861716022,"url":"https://maps.app.goo.gl/yhWmXb3651phCnDF8?g_st=ipc","address":"Αγίου Νικολάου 2, Πειραιάς 185 37","categoryIds":["monasteries-churches"],"categories":["Monasteries & Spiritual Sites"]},{"id":"monasteriesChurches_526ec40757ea","slug":"ieros-naos-agias-marinas-thiseioy-526e","kind":"restaurant","name":"Ιερός Ναός Αγίας Μαρίνας Θησείου","lat":37.97369230338061,"lng":23.718995271203244,"url":"https://maps.app.goo.gl/RzkAj7rMQNDfRMKN8?g_st=ipc","address":"Αγίας Μαρίνας 1, Αθήνα 118 51","categoryIds":["monasteries-churches"],"categories":["Monasteries & Spiritual Sites"]},{"id":"monasteriesChurches_ff4d16b5f0b9","slug":"agios-dimitrios-loympardiaris-ff4d","kind":"restaurant","name":"Άγιος Δημήτριος Λουμπαρδιάρης","lat":37.97006358405725,"lng":23.72028596273088,"url":"https://maps.app.goo.gl/Fzr51bKUwjAtydxA7?g_st=ipc","address":"Αθήνα 117 41","categoryIds":["monasteries-churches"],"categories":["Monasteries & Spiritual Sites"]},{"id":"monasteriesChurches_d3d098c448a4","slug":"ieros-naos-agias-eirinis-d3d0","kind":"restaurant","name":"Ιερός Ναός Αγίας Ειρήνης","lat":37.977134855411386,"lng":23.727779375021544,"url":"https://maps.app.goo.gl/JehgGspdoWfwue8w5?g_st=ipc","address":"Αιόλου 36, Αθήνα 105 60","categoryIds":["monasteries-churches"],"categories":["Monasteries & Spiritual Sites"]},{"id":"monasteriesChurches_33b82b7e9f7b","slug":"ieros-panepistimiakos-naos-eisodion-tis-theotokoy-kapnikarea-33b8","kind":"restaurant","name":"Ιερός Πανεπιστημιακός Ναός Εισοδίων της Θεοτόκου (Καπνικαρέα)","lat":37.97637980025147,"lng":23.72861650689245,"url":"https://maps.app.goo.gl/7LkLpxAa7L7V3fr8A?g_st=ipc","address":"Πλ. Καπνικαρέας 3, Αθήνα 105 63","categoryIds":["monasteries-churches"],"categories":["Monasteries & Spiritual Sites"]},{"id":"monasteriesChurches_3b14e4e4fde2","slug":"ieros-naos-agias-sofias-akropoleos-3b14","kind":"restaurant","name":"Ιερός Ναός Αγίας Σοφίας Ακροπόλεως","lat":37.96969305070506,"lng":23.72539590621987,"url":"https://maps.app.goo.gl/GdJWue7opw56LmEv9?g_st=ipc","address":"Διονυσίου Αρεοπαγίτου 45, Αθήνα 117 42","categoryIds":["monasteries-churches"],"categories":["Monasteries & Spiritual Sites"]},{"id":"monasteriesChurches_37c0d5b10bef","slug":"ieros-mitropolitikos-naos-eyaggelismoy-tis-theotokoy-37c0","kind":"restaurant","name":"Ιερός Μητροπολιτικός Ναός Ευαγγελισμού της Θεοτόκου","lat":37.975376487881356,"lng":23.72984816695813,"url":"https://maps.app.goo.gl/MUAqskRD72AoRTQJA?g_st=ipc","address":"E056 105, Αθήνα 118 54","categoryIds":["monasteries-churches"],"categories":["Monasteries & Spiritual Sites"]},{"id":"monasteriesChurches_8533fc9b9b94","slug":"ieros-naos-agion-anargyron-kolokynthi-metochion-panagioy-tafoy-8533","kind":"restaurant","name":"Ιερός Ναός Αγίων Αναργύρων Κολοκύνθη - Μετόχιον Παναγίου Τάφου","lat":37.97293435768165,"lng":23.728208879310362,"url":"https://maps.app.goo.gl/nKcEJuoZ25jXrQqeA?g_st=ipc","address":"Ερεχθέως 18, Αθήνα 105 56","categoryIds":["monasteries-churches"],"categories":["Monasteries & Spiritual Sites"]}],"nearby":[{"id":"mustSeeAttractions_211504525918","slug":"iera-moni-dafnioy-2115","kind":"restaurant","name":"Ιερά Μονή Δαφνίου","lat":38.012987406661985,"lng":23.63601735879107,"url":"https://maps.app.goo.gl/wutdpyatwyXBUYRR6?g_st=ipc","address":"Ιερά Οδός, Χαϊδάρι 124 61","categoryIds":["attractions"],"categories":["Must-See Attractions"],"distanceKm":0.0008743409349173861},{"id":"coffeeBrunchRestaurants_7dd888878942","slug":"botanical-garden-bistrot-7dd8","kind":"restaurant","name":"Botanical Garden Bistrot","lat":38.01082910356087,"lng":23.64241923148242,"url":"https://maps.app.goo.gl/K8biwYq9RLoEXdZZA?g_st=ipc","address":"Βοτανικός Κήπος, Ιερά Οδός 403, Χαϊδάρι 124 61","categoryIds":["coffee-brunch"],"categories":["Coffee & Brunch Spots"],"distanceKm":0.6102589668508889},{"id":"familyFriendly_7539abe09fd5","slug":"votanikos-kipos-diomidoys-7539","kind":"restaurant","name":"Βοτανικός Κήπος Διομήδους","lat":38.010895961889986,"lng":23.642935426625115,"url":"https://maps.app.goo.gl/WsLFbFUaXSS2rGMR6?g_st=ipc","address":"Ιερά Οδός 403, Χαϊδάρι 124 61","categoryIds":["family-friendly"],"categories":["Kid Friendly Locations"],"distanceKm":0.6493456094734174},{"id":"mexicanRestaurants_67556fc4ed45","slug":"foinikas-cocina-y-cocteleria-mexicana-6755","kind":"restaurant","name":"Foinikas Cocina Y Cocteleria Mexicana","lat":38.015441217507856,"lng":23.650413232343997,"url":"https://maps.app.goo.gl/opzLk9C1z99QsEwW7?g_st=ipc","address":"Ηρ. Πολυτεχνείου 76, Χαϊδάρι 124 62","categoryIds":["mexican"],"categories":["Mexican Restaurants"],"distanceKm":1.2900203227273181},{"id":"familyFriendly_dd451e30d935","slug":"strike-kiddo-dd45","kind":"restaurant","name":"Strike Kiddo","lat":38.01119139287315,"lng":23.650703428601517,"url":"https://maps.app.goo.gl/zpYyze4k5z1xryNd8?g_st=ipc","address":"Λεωφ. Αθηνών 336, Χαϊδάρι 124 62","categoryIds":["family-friendly"],"categories":["Kid Friendly Locations"],"distanceKm":1.3020227151323485},{"id":"coffeeBrunchRestaurants_ed186b21821d","slug":"grand-cafe-ed18","kind":"restaurant","name":"Grand Cafe","lat":38.01669030501736,"lng":23.65067849733212,"url":"https://maps.app.goo.gl/4ikkZmtmj8GogkUe7?g_st=ipc","address":"Γεωρ. Παπανδρέου 53, Χαϊδάρι 124 62","categoryIds":["coffee-brunch"],"categories":["Coffee & Brunch Spots"],"distanceKm":1.3483763054548656},{"id":"dessertsRestaurants_1765ea0649e8","slug":"zacharoplasteio-andreadakis-dasos-chaidarioy-1765","kind":"restaurant","name":"Ζαχαροπλαστείο Ανδρεαδάκης Δάσος Χαϊδαρίου","lat":38.01441009164151,"lng":23.65246594622769,"url":"https://maps.app.goo.gl/vsbKYJMV6rWGy5Uc8?g_st=ipc","address":"Γεωρ. Παπανδρέου 33, Χαϊδάρι 124 63","categoryIds":["desserts"],"categories":["Dessert Shops"],"distanceKm":1.4494254752372968},{"id":"greekRestaurants_d0434bb7301e","slug":"ena-ena-d043","kind":"restaurant","name":"Ένα & Ένα","lat":38.008987140141066,"lng":23.65280105299395,"url":"https://maps.app.goo.gl/ndrwbvbypJGEEjum6","address":"Κύπρου 19, Χαϊδάρι 124 61","categoryIds":["greek-restaurants"],"categories":["Greek Restaurants"],"distanceKm":1.5363353936872}],"sameRegion":[],"mentionedGuides":[],"canonicalSlug":"iera-moni-dafnioy-2115","isCanonicalEntity":false},"__N_SSG":true}