{"pageProps":{"entity":{"id":"municipalities_51bdb5710c4f","slug":"ithaki-51bd","kind":"municipality","name":"Ιθάκη","lat":38.3667,"lng":20.7167,"region":"Ιόνιο","name_en":"Ithaki","region_en":"Ionian Islands"},"sameCategory":[],"nearby":[{"id":"mustSeeAttractions_5b0540533ca6","slug":"melissani-cave-5b05","kind":"restaurant","name":"Melissani Cave","lat":38.25698727901152,"lng":20.6235483284677,"url":"https://maps.app.goo.gl/DamgwWTndmBhKj5W9?g_st=ipc","address":"Σάμη 280 80","categoryIds":["attractions"],"categories":["Must-See Attractions"],"distanceKm":14.658854386979417},{"id":"greekRestaurants_40f2adbc511d","slug":"taverna-kafe-mpar-giorgos-40f2","kind":"restaurant","name":"Ταβέρνα Καφέ- Μπαρ Γιώργος","lat":38.3320186369205,"lng":20.546779123756146,"url":"https://maps.app.goo.gl/Sbn9UvprX6ZZEx9CA?g_st=ipc","address":"Διβαράτα 280 81","categoryIds":["greek-restaurants"],"categories":["Greek Restaurants"],"distanceKm":15.311336159125293},{"id":"greekRestaurants_10b7a0bbe499","slug":"alexandros-restaurant-grill-10b7","kind":"restaurant","name":"Alexandros Restaurant Grill","lat":38.331731624117374,"lng":20.546359556985937,"url":"https://maps.app.goo.gl/KNa3UfEKhAQwUwCPA?g_st=ipc","address":"Myrtos, Διβαράτα 280 81","categoryIds":["greek-restaurants"],"categories":["Greek Restaurants"],"distanceKm":15.354826305835575},{"id":"coffeeBrunchRestaurants_7849cd86ff9a","slug":"myrtillo-7849","kind":"restaurant","name":"myrtillo","lat":38.33016504186232,"lng":20.54543331787743,"url":"https://maps.app.goo.gl/jceQN1dFVGYrVSaFA?g_st=ipc","address":"Divarata 280 81","categoryIds":["coffee-brunch"],"categories":["Coffee & Brunch Spots"],"distanceKm":15.477941012008664},{"id":"greekRestaurants_74a64e97d094","slug":"alati-all-day-bar-restaurant-74a6","kind":"restaurant","name":"Alati All-Day Bar & Restaurant","lat":38.43970476008307,"lng":20.536535224973786,"url":"https://maps.app.goo.gl/qijnd11tiKx6sFE87?g_st=ipc","address":"Κεφαλονιά Παραλία Αλατιές, 280 84","categoryIds":["greek-restaurants"],"categories":["Greek Restaurants"],"distanceKm":17.673924694071385},{"id":"fishTavernasRestaurants_2ef1060ceab9","slug":"kalyva-tou-psara-2ef1","kind":"restaurant","name":"Kalyva tou Psara","lat":38.30990002692816,"lng":20.4759773849458,"url":"https://maps.app.goo.gl/usLMqjcjtFy6fTWd6?g_st=ipc","address":"Unnamed Rd, Zola 281 00","categoryIds":["fish-tavernas"],"categories":["Fish Tavernas"],"distanceKm":21.924527222297886},{"id":"greekRestaurants_391bc89b168d","slug":"stou-tsagkari-391b","kind":"restaurant","name":"Stou Tsagkari","lat":38.310551214172484,"lng":20.46925238713338,"url":"https://maps.app.goo.gl/eMh53CU5SjwcPttA6?g_st=ipc","address":"Zola 1, Ζολά 281 00","categoryIds":["greek-restaurants"],"categories":["Greek Restaurants"],"distanceKm":22.46650884160013},{"id":"greekRestaurants_d9a082ec8fd8","slug":"mpotsolos-d9a0","kind":"restaurant","name":"Mpotsolos","lat":38.170637722639974,"lng":20.58441082443811,"url":"https://maps.app.goo.gl/Eit7JoAgmh3wrcFz6?g_st=ipc","address":"Αγίου Γερασίμου, Αργοστόλι 281 00","categoryIds":["greek-restaurants"],"categories":["Greek Restaurants"],"distanceKm":24.671182279641435}],"sameRegion":[{"id":"municipalities_1d2e36065111","slug":"leykada-1d2e","kind":"municipality","name":"Λευκάδα","lat":38.83,"lng":20.71,"region":"Ιόνιο","name_en":"Lefkada","region_en":"Ionian Islands"},{"id":"municipalities_3976b9119f68","slug":"palaiokastritsa-3976","kind":"municipality","name":"Παλαιοκαστρίτσα","lat":39.6778,"lng":19.7139,"aliases":["Παλαιοκαστριτσα","Palaiokastritsa"],"region":"Ιόνιο","name_en":"Paleokastritsa","region_en":"Ionian Islands"},{"id":"municipalities_761b6508fb52","slug":"paxoi-761b","kind":"municipality","name":"Παξοί","lat":39.1969,"lng":20.1863,"region":"Ιόνιο","name_en":"Paxoi","region_en":"Ionian Islands"},{"id":"municipalities_b8a2e587a20e","slug":"kefalonia-b8a2","kind":"municipality","name":"Κεφαλονιά","lat":38.175,"lng":20.569,"region":"Ιόνιο","name_en":"Kefalonia","region_en":"Ionian Islands"},{"id":"municipalities_baf5b688aa1e","slug":"zakynthos-baf5","kind":"municipality","name":"Ζάκυνθος","lat":37.787,"lng":20.899,"aliases":["Zakynthos","Zante","Ζακύνθη","Ζακύνθια","Ζακυνθος","Ζακυνθο"],"region":"Ιόνιο","name_en":"Zakynthos","region_en":"Ionian Islands"},{"id":"municipalities_c2a6f966632a","slug":"kerkyra-c2a6","kind":"municipality","name":"Κέρκυρα","lat":39.6243,"lng":19.9217,"aliases":["Kerkira","Corcyra","Κερκύρα","Κερκύρη","Κερκυρα","Kerkyra","Corfou"],"region":"Ιόνιο","name_en":"Corfu","region_en":"Ionian Islands"}],"mentionedGuides":[],"canonicalSlug":"ithaki-51bd","isCanonicalEntity":true},"__N_SSG":true}