{"pageProps":{"entity":{"id":"coffeeBrunchRestaurants_1dd5e3fc998c","slug":"kafe-nai-1dd5","kind":"restaurant","name":"καφέ-ναι","lat":37.59217889938765,"lng":25.17817299063689,"url":"https://maps.app.goo.gl/fceHF61HD8ctgCdK7?g_st=ipc","address":"Unnamed Road, Volakas 842 00","categoryIds":["coffee-brunch"],"categories":["Coffee & Brunch Spots"]},"sameCategory":[{"id":"coffeeBrunchRestaurants_d86c8a19693a","slug":"kloyki-klouki-d86c","kind":"restaurant","name":"Κλούκι (Klouki)","lat":37.58260089712488,"lng":25.191149960754956,"url":"https://maps.app.goo.gl/GBkSRUkYZhjgkkFo9?g_st=ipc","address":"Φαλατάδος 842 00","categoryIds":["coffee-brunch"],"categories":["Coffee & Brunch Spots"]},{"id":"coffeeBrunchRestaurants_75655a70677b","slug":"krok-mesie-all-day-bistrot-proino-brunch-sto-chorio-7565","kind":"restaurant","name":"Κροκ Μεσιέ | All day Bistrot {Πρωινό & Brunch στο χωριό}","lat":37.58939959185263,"lng":25.160526432646503,"url":"https://maps.app.goo.gl/PWyPVsJkGM6y8EdR9?g_st=ipc","address":"Epar.Od. Tripotamou-Kallonis, Krokos 842 00","categoryIds":["coffee-brunch"],"categories":["Coffee & Brunch Spots"]},{"id":"coffeeBrunchRestaurants_9d6d468c274d","slug":"mikro-tinos-9d6d","kind":"restaurant","name":"Mikro Tinos","lat":37.53905011947504,"lng":25.162412761350158,"url":"https://maps.app.goo.gl/2bBZEK7Z5id58XNP8?g_st=ipc","address":"Evaggelistrias 42, Tinos 842 00","categoryIds":["coffee-brunch"],"categories":["Coffee & Brunch Spots"]},{"id":"coffeeBrunchRestaurants_7f2ed8602049","slug":"moxa-espresso-bar-7f2e","kind":"restaurant","name":"Moxa Espresso Bar","lat":37.53892047512739,"lng":25.161704068402724,"url":"https://maps.app.goo.gl/WEWXxoC44GxvXT9t9?g_st=ipc","address":"ΝΙΚΗΦΟΡΟΥ ΛΥΤΡΑ 10, Tinos 842 00","categoryIds":["coffee-brunch"],"categories":["Coffee & Brunch Spots"]},{"id":"coffeeBrunchRestaurants_e5ec2340781f","slug":"cantina-analogue-bohemian-wine-gallery-tinos-e5ec","kind":"restaurant","name":"Cantina Analogue Bohemian WIne Gallery Tinos","lat":37.53889977873259,"lng":25.160674453389994,"url":"https://maps.app.goo.gl/zgVordiqFYChj8ee9?g_st=ipc","address":"Καρολου, Vitali 5, Tinos 842 00","categoryIds":["coffee-brunch"],"categories":["Coffee & Brunch Spots"]},{"id":"coffeeBrunchRestaurants_efaa1eb785fb","slug":"antilalos-efaa","kind":"restaurant","name":"Antilalos","lat":37.53878225540917,"lng":25.160792308573363,"url":"https://maps.app.goo.gl/JZWV3eGAAkm1yYKZ9?g_st=ipc","address":"Αφεντούλη, Paxamadi και, Tinos 842 00","categoryIds":["coffee-brunch"],"categories":["Coffee & Brunch Spots"]},{"id":"coffeeBrunchRestaurants_c8a38ea13a91","slug":"the-roosters-tinos-c8a3","kind":"restaurant","name":"The Roosters Tinos","lat":37.53564368153088,"lng":25.16363638828339,"url":"https://maps.app.goo.gl/GthTcgeC9P8iYKHF6?g_st=ipc","address":"Ακτή Γ. Δρόσου 0, Tinos 842 00","categoryIds":["coffee-brunch"],"categories":["Coffee & Brunch Spots"]},{"id":"coffeeBrunchRestaurants_5f5634aa7ab6","slug":"mayou-all-day-bar-5f56","kind":"restaurant","name":"Mayou all day bar","lat":37.6225070567129,"lng":25.05248500203228,"url":"https://maps.app.goo.gl/MQWdjK1DGr9YXoey5?g_st=ipc","address":"Isternia, Tinos 842 01, Tinos Island 842 01","categoryIds":["coffee-brunch"],"categories":["Coffee & Brunch Spots"]}],"nearby":[{"id":"coffeeBrunchRestaurants_d86c8a19693a","slug":"kloyki-klouki-d86c","kind":"restaurant","name":"Κλούκι (Klouki)","lat":37.58260089712488,"lng":25.191149960754956,"url":"https://maps.app.goo.gl/GBkSRUkYZhjgkkFo9?g_st=ipc","address":"Φαλατάδος 842 00","categoryIds":["coffee-brunch"],"categories":["Coffee & Brunch Spots"],"distanceKm":1.562609574565631},{"id":"coffeeBrunchRestaurants_75655a70677b","slug":"krok-mesie-all-day-bistrot-proino-brunch-sto-chorio-7565","kind":"restaurant","name":"Κροκ Μεσιέ | All day Bistrot {Πρωινό & Brunch στο χωριό}","lat":37.58939959185263,"lng":25.160526432646503,"url":"https://maps.app.goo.gl/PWyPVsJkGM6y8EdR9?g_st=ipc","address":"Epar.Od. Tripotamou-Kallonis, Krokos 842 00","categoryIds":["coffee-brunch"],"categories":["Coffee & Brunch Spots"],"distanceKm":1.5852453730420895},{"id":"greekRestaurants_5f9836018bd2","slug":"majorana-tinos-5f98","kind":"restaurant","name":"Majorana Tinos","lat":37.60853974046837,"lng":25.163273293292903,"url":"https://maps.app.goo.gl/e55FM2zsVXQpSNvD6?g_st=ipc","address":"Οδός Αγάπης 1, Τήνος 842 00","categoryIds":["greek-restaurants"],"categories":["Greek Restaurants"],"distanceKm":2.243358311355115},{"id":"greekRestaurants_edeac11ea4d1","slug":"amiseli-edea","kind":"restaurant","name":"Αμισέλι","lat":37.57655586774317,"lng":25.195728111727593,"url":"https://maps.app.goo.gl/CTunTWCctmqFu2mZ6?g_st=ipc","address":"Unnamed Road, Στενή 842 00","categoryIds":["greek-restaurants"],"categories":["Greek Restaurants"],"distanceKm":2.326110345234003},{"id":"greekRestaurants_9b03e2c7dda1","slug":"tereza-9b03","kind":"restaurant","name":"Τερέζα","lat":37.58336832133397,"lng":25.202195929124645,"url":"https://maps.app.goo.gl/zNss9ojqUKW1DC9s6?g_st=ipc","address":"Μυρσινη 842 00","categoryIds":["greek-restaurants"],"categories":["Greek Restaurants"],"distanceKm":2.3324582378578893},{"id":"greekRestaurants_9fd04aa91df9","slug":"katoi-sto-smardakito-9fd0","kind":"restaurant","name":"Κατώι στο Σμαρδάκιτο","lat":37.58545068761989,"lng":25.14517970131365,"url":"https://maps.app.goo.gl/uYvTXyHmVcZNJNpY7?g_st=ipc","address":"Σμαρδάκιτο 842 00","categoryIds":["greek-restaurants"],"categories":["Greek Restaurants"],"distanceKm":3.0018233395363962},{"id":"greekRestaurants_947625a45be1","slug":"choreytra-9476","kind":"restaurant","name":"Χορεύτρα","lat":37.57812719431085,"lng":25.148363122123474,"url":"https://maps.app.goo.gl/WmyveBjvkGgoho4z9?g_st=ipc","address":"Κάμπος 842 00","categoryIds":["greek-restaurants"],"categories":["Greek Restaurants"],"distanceKm":3.0563140923994845},{"id":"greekRestaurants_838d0d66a841","slug":"svoura-tinos-838d","kind":"restaurant","name":"Svoura Tinos","lat":37.601268553117535,"lng":25.144221464428426,"url":"https://maps.app.goo.gl/V4vVEqRbyhJ55CDHA?g_st=ipc","address":"Οδός Κώμης, Κώμη 842 00","categoryIds":["greek-restaurants"],"categories":["Greek Restaurants"],"distanceKm":3.1573593938566007}],"sameRegion":[],"mentionedGuides":[],"canonicalSlug":"kafe-nai-1dd5","isCanonicalEntity":true},"__N_SSG":true}