{"pageProps":{"entity":{"id":"italianRestaurants_cdb970122a35","slug":"kasmir-cdb9","kind":"restaurant","name":"Kasmir","lat":38.900597180204656,"lng":21.771398412012726,"url":"https://maps.app.goo.gl/tGER5rSkLzH68JTw8?g_st=ipc","address":"Mesabelia, Korischades 361 00","categoryIds":["italian"],"categories":["Italian Restaurants"]},"sameCategory":[{"id":"italianRestaurants_13db7f7dfac4","slug":"loulis-taste-project-13db","kind":"restaurant","name":"Loulis Taste Project","lat":38.83362395321285,"lng":20.707875524974906,"url":"https://maps.app.goo.gl/tNzSrPjrJVJbBhbr6?g_st=ipc","address":"Loulis Taste Project","categoryIds":["italian"],"categories":["Italian Restaurants"]},{"id":"italianRestaurants_f83f25bf777f","slug":"nonna-rossa-f83f","kind":"restaurant","name":"Nonna Rossa","lat":39.64111484868426,"lng":22.41428751769153,"url":"https://maps.app.goo.gl/ETYecXBUFzQCRmS47?g_st=ipc","address":"Skilosofou 9, Larisa 412 21","categoryIds":["italian"],"categories":["Italian Restaurants"]},{"id":"italianRestaurants_c53ee4efcd79","slug":"pasta-la-vista-kala-nera-c53e","kind":"restaurant","name":"Pasta La Vista KALA NERA","lat":39.3056996345145,"lng":23.120100052879696,"url":"https://maps.app.goo.gl/tYaU41CZfgnnQu8V7","address":"Kala Nera 370 10","categoryIds":["italian"],"categories":["Italian Restaurants"]},{"id":"italianRestaurants_9f740af053b2","slug":"filomila-9f74","kind":"restaurant","name":"Filomila","lat":39.28501094493868,"lng":20.39762732442374,"url":"https://maps.app.goo.gl/q6frpMcS63aQ6eSu5?g_st=ipc","address":"Filomila","categoryIds":["italian"],"categories":["Italian Restaurants"]},{"id":"italianRestaurants_0856ecb11f91","slug":"la-cucina-di-maria-0856","kind":"restaurant","name":"La Cucina di Maria","lat":39.16258431460264,"lng":23.488686516582533,"url":"https://maps.app.goo.gl/MBu7u1d7kC6PuBVm8?g_st=ipc","address":"Πλατεία Τριών Ιεραρχών, Skiathos 370 02","categoryIds":["italian"],"categories":["Italian Restaurants"]},{"id":"italianRestaurants_221ef1307bb3","slug":"lupo-trattoria-221e","kind":"restaurant","name":"Lupo Trattoria","lat":38.46311896550072,"lng":23.590229926533073,"url":"https://maps.app.goo.gl/DESesA1yAU2maSDx7?g_st=ipc","address":"Βουδούρη 6, Χαλκίδα 341 00","categoryIds":["italian"],"categories":["Italian Restaurants"]},{"id":"italianRestaurants_0d133bb8af27","slug":"itria-cucina-italiana-restaurant-0d13","kind":"restaurant","name":"ITRIA Cucina Italiana Restaurant","lat":37.567386909343334,"lng":22.797290266729004,"url":"https://maps.app.goo.gl/HHmGQxRgnuihmTyY7?g_st=ipc","address":"Boumpoulinas 81, Nafplio 211 00","categoryIds":["italian"],"categories":["Italian Restaurants"]},{"id":"italianRestaurants_62cf2e5c270d","slug":"la-gratella-62cf","kind":"restaurant","name":"La Gratella","lat":37.56708420040735,"lng":22.796775177187325,"url":"https://maps.app.goo.gl/wA9xzqnbmvvq1Bqo8?g_st=ipc","address":"Vasilissis Olgas, Nafplio 211 00","categoryIds":["italian"],"categories":["Italian Restaurants"]}],"nearby":[{"id":"familyFriendly_ea50207bb21c","slug":"saloon-park-ea50","kind":"restaurant","name":"Saloon Park","lat":38.90092130813555,"lng":21.772793181199432,"url":"https://maps.app.goo.gl/LrjoDSvaukPFS7Bc7?g_st=ipc","address":"3ο χιλ Καρπενησίου Προυσσου, Karpenisi 361 00","categoryIds":["family-friendly"],"categories":["Kid Friendly Locations"],"distanceKm":0.12596367677207712},{"id":"coffeeBrunchRestaurants_0e2616bd7fc7","slug":"saloon-park-0e26","kind":"restaurant","name":"Saloon Park","lat":38.90092398449493,"lng":21.77279442117925,"url":"https://maps.app.goo.gl/ou4ZLrrH5JymyBSH7?g_st=ipc","address":"3ο χιλ Καρπενησίου Προυσσου, Karpenisi 361 00","categoryIds":["coffee-brunch"],"categories":["Coffee & Brunch Spots"],"distanceKm":0.12615189790114825},{"id":"greekRestaurants_00acd58871fd","slug":"parko-kefalovryso-00ac","kind":"restaurant","name":"Πάρκο Κεφαλόβρυσο","lat":38.89684310507032,"lng":21.782192032592697,"url":"https://maps.app.goo.gl/UMhtP2NgQ48sj1Ey8?g_st=ipc","address":"2ο χλμ. Καρπενησίου-Προυσού, Καρπενήσι 361 00","categoryIds":["greek-restaurants"],"categories":["Greek Restaurants"],"distanceKm":1.0230939564778883},{"id":"coffeeBrunchRestaurants_1257c9be30ac","slug":"villaggio-cafe-meze-1257","kind":"restaurant","name":"Villaggio café - mezé","lat":38.903233129898815,"lng":21.759044154104334,"url":"https://maps.app.goo.gl/TYafQiUuDWknuAyTA?g_st=ipc","address":"ΚΟΡΥΣΧΑΔΕΣ 1, Karpenisi 361 00","categoryIds":["coffee-brunch"],"categories":["Coffee & Brunch Spots"],"distanceKm":1.1085197071306547},{"id":"municipalities_1d4b51456d77","slug":"karpenisi-1d4b","kind":"municipality","name":"Καρπενήσι","lat":38.9167,"lng":21.7833,"region":"Στερεά Ελλάδα","name_en":"Karpenisi","region_en":"Central Greece","distanceKm":2.065565555389314},{"id":"municipalities_d6c7bd09305e","slug":"karpenisi-d6c7","kind":"municipality","name":"Καρπενήσι","lat":38.912,"lng":21.797,"region":"Ορεινοί Προορισμοί","name_en":"Karpenisi","region_en":"Mountain Destinations","distanceKm":2.5524746829645486},{"id":"dessertsRestaurants_29d96cbe3da8","slug":"glykoplasteio-29d9","kind":"restaurant","name":"Glykoplasteío","lat":38.91264896054346,"lng":21.80246572954374,"url":"https://maps.app.goo.gl/c3y6StatonhrUYj26?g_st=ipc","address":"1ο χιλιόμετρο Εθνικής Οδού Καρπενησίου Λαμίας, Καρπενήσι, Karpenisi 361 00","categoryIds":["desserts"],"categories":["Dessert Shops"],"distanceKm":3.003721583067908},{"id":"coffeeBrunchRestaurants_7763ea7d7b5d","slug":"the-paradosiakon-traditional-7763","kind":"restaurant","name":"The Paradosiakón (Traditional)","lat":38.912425769319995,"lng":21.803412059232368,"url":"https://maps.app.goo.gl/ZSCvQWpooUkkCF4K7?g_st=ipc","address":"Eolou 1, Karpenisi 361 00","categoryIds":["coffee-brunch"],"categories":["Coffee & Brunch Spots"],"distanceKm":3.0664993849246924}],"sameRegion":[],"mentionedGuides":[],"canonicalSlug":"kasmir-cdb9","isCanonicalEntity":true},"__N_SSG":true}