{"pageProps":{"entity":{"id":"greekRestaurants_4c45a183d4c2","slug":"kelari-4c45","kind":"restaurant","name":"Κελάρι","lat":38.03175556375287,"lng":22.10930942954511,"url":"https://maps.app.goo.gl/JGLvLQeBc1WEWSz87?g_st=ipc","address":"Lochia Kapota 19, Kalavrita 250 01","categoryIds":["greek-restaurants"],"categories":["Greek Restaurants"]},"sameCategory":[{"id":"greekRestaurants_4c4401a7e8ee","slug":"oi-moyries-4c44","kind":"restaurant","name":"Οι Μουριές","lat":37.896633092738924,"lng":22.12341346377816,"url":"https://maps.app.goo.gl/42bbkghREKadwJ7d7?g_st=ipc","address":"Epar.Od. Kalavriton-Filias 12, Klitoria 250 07","categoryIds":["greek-restaurants"],"categories":["Greek Restaurants"]},{"id":"greekRestaurants_3eb1dd9f3c34","slug":"taverna-aggeliki-3eb1","kind":"restaurant","name":"Ταβέρνα Αγγελική","lat":38.06658415392425,"lng":22.338919570518915,"url":"https://maps.app.goo.gl/WLaC7Mj54zxdUu1s6?g_st=ipc","address":"Σινεβρό 250 10","categoryIds":["greek-restaurants"],"categories":["Greek Restaurants"]},{"id":"greekRestaurants_c2f3bf63f9d6","slug":"trikrina-c2f3","kind":"restaurant","name":"Τρίκρηνα","lat":37.908133647835946,"lng":22.32453249327104,"url":"https://maps.app.goo.gl/eeiwiRoH3oKaZhjc6?g_st=ipc","address":"Unnamed Road,, Φενεός 200 14","categoryIds":["greek-restaurants"],"categories":["Greek Restaurants"]},{"id":"greekRestaurants_eebc58d0b57c","slug":"to-chani-toy-chania-eebc","kind":"restaurant","name":"Το Χάνι του Χανιά","lat":37.989969507417065,"lng":22.466125395415034,"url":"https://maps.app.goo.gl/dDmXsZAdKbWgFjjT6?g_st=ipc","address":"Άνω Τρίκαλα, 204 00","categoryIds":["greek-restaurants"],"categories":["Greek Restaurants"]},{"id":"greekRestaurants_65157136702c","slug":"psitosynantisi-6515","kind":"restaurant","name":"ΨΗΤΟσυνάντηση","lat":37.99548753109514,"lng":22.468480126219713,"url":"https://maps.app.goo.gl/5CaRxHJhbSNeKFiP7?g_st=ipc","address":"Επαρ.Οδ. Ξυλόκαστρου - Τρικάλων - Μάννας, Μέση Συνοικία Τρικάλων 204 00","categoryIds":["greek-restaurants"],"categories":["Greek Restaurants"]},{"id":"greekRestaurants_0ed04ce88e4f","slug":"opos-palia-0ed0","kind":"restaurant","name":"Όπως Παλιά","lat":37.99779308645516,"lng":22.469905216572432,"url":"https://maps.app.goo.gl/2NRqYruuAnhXjJdA6?g_st=ipc","address":"Μέση Συνοικία Τρικάλων 204 00","categoryIds":["greek-restaurants"],"categories":["Greek Restaurants"]},{"id":"greekRestaurants_835a2fadf39b","slug":"oti-kalo-trikala-korinthias-835a","kind":"restaurant","name":"Ότι Καλό Τρίκαλα Κορινθίας","lat":38.00119259116245,"lng":22.476512941008874,"url":"https://maps.app.goo.gl/aMf3djkW1SnkD1iHA?g_st=ipc","address":"Μεσαία Συνοικία, Άνω Τρίκαλα 204 00","categoryIds":["greek-restaurants"],"categories":["Greek Restaurants"]},{"id":"greekRestaurants_6e1edbbc32a8","slug":"pinakoti-taverna-karagiorgas-giorgos-trikala-6e1e","kind":"restaurant","name":"ΠΙΝΑΚΩΤΗ - ΤΑΒΕΡΝΑ - ΚΑΡΑΓΙΩΡΓΑΣ ΓΙΩΡΓΟΣ - ΤΡΙΚΑΛΑ","lat":38.004187278321304,"lng":22.477741138877853,"url":"https://maps.app.goo.gl/8P84uhf2Yr8DKThH6?g_st=ipc","address":"Μεσαία Τρίκαλα Κορινθίας, Τρίκαλα Κορινθίας 204 00","categoryIds":["greek-restaurants"],"categories":["Greek Restaurants"]}],"nearby":[{"id":"municipalities_b6d325cfd313","slug":"kalavryta-b6d3","kind":"municipality","name":"Καλάβρυτα","lat":38.0333,"lng":22.1167,"aliases":["Καλαβρυτα"],"region":"Πελοπόννησος","name_en":"Kalavryta","region_en":"Peloponnese","distanceKm":0.6696890040251299},{"id":"wineriesVineyards_84ebef8f5b21","slug":"ktima-mega-spilaio-84eb","kind":"restaurant","name":"Κτήμα Μέγα Σπήλαιο","lat":38.112838077733514,"lng":22.169404735261367,"url":"https://maps.app.goo.gl/qGAsm3q6PmBPN3TK6?g_st=ipc","address":"Επαρ.Οδ. Πούντας - Καλαβρύτων, Egialia 250 01","categoryIds":["wineries-vineyards"],"categories":["Wineries & Vineyards"],"distanceKm":10.438424382484866},{"id":"familyFriendly_f5a054e30c6e","slug":"cherryland-ktima-fokaeon-f5a0","kind":"restaurant","name":"CHERRYLAND - ΚΤΗΜΑ ΦΩΚΑΕΩΝ","lat":38.12752130997816,"lng":22.216601874987493,"url":"https://maps.app.goo.gl/Lr7uMbC7sLXRLEP9A?g_st=ipc","address":"Epar.Od. Pountas - Kalavriton, Kernitsa 250 03","categoryIds":["family-friendly"],"categories":["Kid Friendly Locations"],"distanceKm":14.19808943591653},{"id":"greekRestaurants_4c4401a7e8ee","slug":"oi-moyries-4c44","kind":"restaurant","name":"Οι Μουριές","lat":37.896633092738924,"lng":22.12341346377816,"url":"https://maps.app.goo.gl/42bbkghREKadwJ7d7?g_st=ipc","address":"Epar.Od. Kalavriton-Filias 12, Klitoria 250 07","categoryIds":["greek-restaurants"],"categories":["Greek Restaurants"],"distanceKm":15.075722085208408},{"id":"familyFriendly_9b2bda8df9e3","slug":"nymfes-9b2b","kind":"restaurant","name":"Νύμφες","lat":37.99541884225497,"lng":22.275355626093795,"url":"https://maps.app.goo.gl/V3SkPjW9XHfNjwvSA?g_st=ipc","address":"Ζαρούχλα - Φενεός, Zarouchla 250 06","categoryIds":["family-friendly"],"categories":["Kid Friendly Locations"],"distanceKm":15.097442481242702},{"id":"wineriesVineyards_f80526daec5c","slug":"oinopoieio-tetramythos-f805","kind":"restaurant","name":"Οινοποιείο Τετράμυθος","lat":38.13861434975287,"lng":22.235631269922283,"url":"https://maps.app.goo.gl/n9FxLvDHw2tR949F6?g_st=ipc","address":"8ο ΧΛΜ ΕΠΑΡΧΙΑΚΗΣ ΟΔΟΥ, Επαρ.Οδ. Πούντας - Καλαβρύτων, Άνω Διακοπτό 250 03","categoryIds":["wineries-vineyards"],"categories":["Wineries & Vineyards"],"distanceKm":16.2301041281041},{"id":"greekRestaurants_3eb1dd9f3c34","slug":"taverna-aggeliki-3eb1","kind":"restaurant","name":"Ταβέρνα Αγγελική","lat":38.06658415392425,"lng":22.338919570518915,"url":"https://maps.app.goo.gl/WLaC7Mj54zxdUu1s6?g_st=ipc","address":"Σινεβρό 250 10","categoryIds":["greek-restaurants"],"categories":["Greek Restaurants"],"distanceKm":20.475171362660202},{"id":"familyFriendly_32cb5d544c31","slug":"area-synest-32cb","kind":"restaurant","name":"Area Synest","lat":38.06576851291907,"lng":22.340295581454182,"url":"https://maps.app.goo.gl/o23ir2rREaRUFiwK9?g_st=ipc","address":"Epar.Od. Agorianis-Koronias, Sinevro 250 10","categoryIds":["family-friendly"],"categories":["Kid Friendly Locations"],"distanceKm":20.57674571074659}],"sameRegion":[],"mentionedGuides":[],"canonicalSlug":"kelari-4c45","isCanonicalEntity":true},"__N_SSG":true}