{"pageProps":{"entity":{"id":"fishTavernasRestaurants_46da75bbca86","slug":"kitro-beach-bar-46da","kind":"restaurant","name":"KITRO beach bar","lat":36.929308748219135,"lng":22.141911839670122,"url":"https://maps.app.goo.gl/UZ9gptAC7Z6jkYbL6?g_st=ipc","address":"Kitries 240 16","categoryIds":["fish-tavernas"],"categories":["Fish Tavernas"]},"sameCategory":[{"id":"fishTavernasRestaurants_665f7217dc6b","slug":"black-pirate-665f","kind":"restaurant","name":"Black Pirate","lat":36.690856383249425,"lng":22.389756995558262,"url":"https://maps.app.goo.gl/heQpgB74pYJ6gzkA7?g_st=ipc","address":"Νέο Οίτυλο 230 62","categoryIds":["fish-tavernas"],"categories":["Fish Tavernas"]},{"id":"fishTavernasRestaurants_2a678cfe2dc0","slug":"saga-fish-restaurant-2a67","kind":"restaurant","name":"SAGA FISH RESTAURANT","lat":36.75609227671703,"lng":22.56974766830783,"url":"https://maps.app.goo.gl/pjwBsRKTeWC7U2RX6?g_st=ipc","address":"ΤΖΑΝΝΗ ΤΖΑΝΕΤΑΚΗ, Githio 232 00","categoryIds":["fish-tavernas"],"categories":["Fish Tavernas"]},{"id":"fishTavernasRestaurants_772314841aeb","slug":"tripia-sayionara-tavern-7723","kind":"restaurant","name":"Tripia Sayionara Tavern","lat":37.51747745166334,"lng":22.85839744503769,"url":"https://maps.app.goo.gl/EEU9XawrL4yhTEhm7?g_st=ipc","address":"εισοδος απο παραλια, Elevtheriou Veniavelou 4, Tolo 210 56","categoryIds":["fish-tavernas"],"categories":["Fish Tavernas"]},{"id":"fishTavernasRestaurants_d190706d0f4c","slug":"techne-restaurant-social-d190","kind":"restaurant","name":"Téchnē Restaurant & Social","lat":37.3499478063,"lng":23.461255663187938,"url":"https://maps.app.goo.gl/LkcL3YyhTtP2AGh39?g_st=ipc","address":"Epar.Od. Mandrakiou-Molou, Idra 180 40","categoryIds":["fish-tavernas"],"categories":["Fish Tavernas"]},{"id":"fishTavernasRestaurants_23eb511b3910","slug":"sunset-restaurant-23eb","kind":"restaurant","name":"Sunset Restaurant","lat":37.35168822648852,"lng":23.46274301702218,"url":"https://maps.app.goo.gl/24WnQ3Q4oomRkZm38?g_st=ipc","address":"Eparxiaki odos Hydra, 180 40","categoryIds":["fish-tavernas"],"categories":["Fish Tavernas"]},{"id":"fishTavernasRestaurants_83ba819e5d0a","slug":"psaropoula-83ba","kind":"restaurant","name":"Psaropoula","lat":37.349711329596715,"lng":23.46495669234671,"url":"https://maps.app.goo.gl/iEjEefYGNPNwNDDy6?g_st=ipc","address":"Miaouli 454, Idra 180 40","categoryIds":["fish-tavernas"],"categories":["Fish Tavernas"]},{"id":"fishTavernasRestaurants_a1376fc53fb5","slug":"omilos-restaurant-bar-a137","kind":"restaurant","name":"Omilos Restaurant Bar","lat":37.35145736724594,"lng":23.46444594181709,"url":"https://maps.app.goo.gl/WChcxQZZeaRjrCgLA?g_st=ipc","address":"Epar.Od. Mandrakiou-Molou, Idra 180 40","categoryIds":["fish-tavernas"],"categories":["Fish Tavernas"]},{"id":"fishTavernasRestaurants_08b5ab011888","slug":"almyriki-08b5","kind":"restaurant","name":"ΑΛΜΥΡΙΚΙ","lat":37.852743518617515,"lng":23.00215185401227,"url":"https://maps.app.goo.gl/hdAPtt1dSNxNigaPA?g_st=ipc","address":"R2X3+G5, Epar.Od. Moni Taxiarchon - Kato Almiri, Kato Almiri 201 00","categoryIds":["fish-tavernas"],"categories":["Fish Tavernas"]}],"nearby":[{"id":"greekRestaurants_4b292579b6c1","slug":"kastraki-4b29","kind":"restaurant","name":"Καστράκι","lat":36.99814863061726,"lng":22.16327783385712,"url":"https://maps.app.goo.gl/ruMr5U1HpLAsRyMj8?g_st=ipc","address":"Verga, Καλαμάτα 241 00","categoryIds":["greek-restaurants"],"categories":["Greek Restaurants"],"distanceKm":7.886515302677121},{"id":"municipalities_916c7fc5dbd0","slug":"kardamyli-916c","kind":"municipality","name":"Καρδαμύλη","lat":36.887,"lng":22.231,"region":"Μάνη","name_en":"Kardamyli","region_en":"Mani","distanceKm":9.212705343945231},{"id":"greekRestaurants_bea663c90687","slug":"old-kardamili-traditional-restaurant-bea6","kind":"restaurant","name":"Old Kardamili Traditional Restaurant","lat":36.89060323769192,"lng":22.234603142422902,"url":"https://maps.app.goo.gl/6q92ZmmxYbRjcPAK7?g_st=ipc","address":"Καρδαμύλη 240 22","categoryIds":["greek-restaurants"],"categories":["Greek Restaurants"],"distanceKm":9.297266714407183},{"id":"greekRestaurants_b6d91074b1e0","slug":"to-chagiati-b6d9","kind":"restaurant","name":"Το Χαγιάτι","lat":37.02551903300677,"lng":22.1045265688528,"url":"https://maps.app.goo.gl/ULLkprr1KA3431Kr5?g_st=ipc","address":"Χρυσοστόμου Σμύρνης 14, Καλαμάτα 241 00","categoryIds":["greek-restaurants"],"categories":["Greek Restaurants"],"distanceKm":11.201695758824453},{"id":"municipalities_27bb87995f2c","slug":"kalamata-27bb","kind":"municipality","name":"Καλαμάτα","lat":37.0389,"lng":22.1142,"aliases":["Kalamata","Καλαματα"],"region":"Μεσσηνία","name_en":"Kalamata","region_en":"Messinia","distanceKm":12.432098626857826},{"id":"greekRestaurants_d642ef20da89","slug":"taverna-stoy-kosta-vasileiadis-d642","kind":"restaurant","name":"Ταβέρνα ...Στου Κώστα (Βασιλειάδης)","lat":37.03271251663096,"lng":22.08556254235988,"url":"https://maps.app.goo.gl/kFDrXkX44UQVsEuj6?g_st=ipc","address":"Μπουρνιάς 241 00","categoryIds":["greek-restaurants"],"categories":["Greek Restaurants"],"distanceKm":12.540194271360175},{"id":"greekRestaurants_b977f4338c5f","slug":"i-goyrnopoyla-b977","kind":"restaurant","name":"Η Γουρνοπούλα","lat":37.04086694947287,"lng":22.10214692733091,"url":"https://maps.app.goo.gl/t4ZM2LzPoSJAP4xr7?g_st=ipc","address":"Αγίου Δημητρίου 3, Μπουρνιάς 241 00","categoryIds":["greek-restaurants"],"categories":["Greek Restaurants"],"distanceKm":12.897737543239659},{"id":"cheapEatsRestaurants_4a509c86a037","slug":"souvlakia-o-tzimis-4a50","kind":"restaurant","name":"Souvlakia o Tzimis","lat":37.04342911583992,"lng":22.113254908943482,"url":"https://maps.app.goo.gl/VEjvVPTR3XkkoZxW8?g_st=ipc","address":"Mpenaki 1, Kalamata 241 00","categoryIds":["cheap-eats"],"categories":["Gyros & Cheap Eats"],"distanceKm":12.942360978646414}],"sameRegion":[],"mentionedGuides":[],"canonicalSlug":"kitro-beach-bar-46da","isCanonicalEntity":true},"__N_SSG":true}