{"pageProps":{"entity":{"id":"greekRestaurants_b101b37c957d","slug":"ladokolla-apo-to-kordelio-sto-charmankioi-b101","kind":"restaurant","name":"Λαδόκολλα - Από το Κορδελιό στο Χαρμάνκιοϊ","lat":40.66651626452892,"lng":22.8973438821838,"url":"https://maps.app.goo.gl/CWnRci4QKtgu8y7y6?g_st=ipc","address":"Μεγ. Αλεξάνδρου 31, Ελευθέριο Κορδελιό 563 34","categoryIds":["greek-restaurants"],"categories":["Greek Restaurants"]},"sameCategory":[{"id":"greekRestaurants_726e02b8b685","slug":"anama-726e","kind":"restaurant","name":"Anama","lat":40.67309178488354,"lng":22.90614317972579,"url":"https://maps.app.goo.gl/Bt17EdhYtg5pRDnb8?g_st=ipc","address":"Κολοκοτρώνη 10, Εύοσμος 562 24","categoryIds":["greek-restaurants"],"categories":["Greek Restaurants"]},{"id":"greekRestaurants_1519d05a3bce","slug":"mantemi-casual-dining-1519","kind":"restaurant","name":"ΜΑΝΤΕΜΙ | Casual Dining","lat":40.67409229961713,"lng":22.905893700060766,"url":"https://maps.app.goo.gl/A7GLofJnsBowRAkj8?g_st=ipc","address":"Meandrou 79, Evosmos 562 24","categoryIds":["greek-restaurants"],"categories":["Greek Restaurants"]},{"id":"greekRestaurants_7f8b3d2ad28e","slug":"backxes-7f8b","kind":"restaurant","name":"Backξες","lat":40.66851175512014,"lng":22.912875049998018,"url":"https://maps.app.goo.gl/4QcvwjevNtMp66VDA?g_st=ipc","address":"Καρατασου, Τσάμη - Καρατάσου 7, Θεσσαλονίκη 562 24","categoryIds":["greek-restaurants"],"categories":["Greek Restaurants"]},{"id":"greekRestaurants_489dcbab3d02","slug":"troyfa-mezedopoleio-489d","kind":"restaurant","name":"Τρούφα Μεζεδοπωλείο","lat":40.673704664191845,"lng":22.915531200227242,"url":"https://maps.app.goo.gl/NQbg2QuYmJZjW8Ha6?g_st=ipc","address":"Olimpiados 101, Evosmos 562 24","categoryIds":["greek-restaurants"],"categories":["Greek Restaurants"]},{"id":"greekRestaurants_91be864c5607","slug":"to-traino-91be","kind":"restaurant","name":"Το Τραίνο","lat":40.67703057575148,"lng":22.918208800232915,"url":"https://maps.app.goo.gl/vzgBa3uY1wT8n7z49?g_st=ipc","address":"Eth. Antistaseos 102, Evosmos 562 24","categoryIds":["greek-restaurants"],"categories":["Greek Restaurants"]},{"id":"greekRestaurants_335a73f8c28f","slug":"to-dilavo-335a","kind":"restaurant","name":"Το Δίλαβο","lat":40.67696648177201,"lng":22.91974503350985,"url":"https://maps.app.goo.gl/WbYog3HDi7k69z6Y6?g_st=ipc","address":"Αντώνη Τρίτση 98, Εύοσμος 562 24","categoryIds":["greek-restaurants"],"categories":["Greek Restaurants"]},{"id":"greekRestaurants_a8a1bbc57cf3","slug":"mezedopoleio-sto-dentro-a8a1","kind":"restaurant","name":"Μεζεδοπωλείο στο δέντρο","lat":40.673779680558496,"lng":22.92834851143696,"url":"https://maps.app.goo.gl/94LTg5t1pACd8qHWA?g_st=ipc","address":"Στρ. Μακρυγιάννη 39, Σταυρούπολη 564 31","categoryIds":["greek-restaurants"],"categories":["Greek Restaurants"]},{"id":"greekRestaurants_35929975107f","slug":"tandur-meze-bar-3592","kind":"restaurant","name":"Tandur meze-bar","lat":40.65350641836204,"lng":22.93893939189117,"url":"https://maps.app.goo.gl/i8gDRLqa1MtexdZ17?g_st=ipc","address":"Αγίου Γεωργίου 42, Νεάπολη 567 27","categoryIds":["greek-restaurants"],"categories":["Greek Restaurants"]}],"nearby":[{"id":"cheapEatsRestaurants_260862299166","slug":"dia-cheiros-aretoy-2608","kind":"restaurant","name":"Δια Χειρός Αρέτου","lat":40.66705307967295,"lng":22.898083719400002,"url":"https://maps.app.goo.gl/Ce9N11e1dVKsZ2t17?g_st=ipc","address":"Kon/nou Karamanli 37, Eleftherio Kordelio 563 34","categoryIds":["cheap-eats"],"categories":["Gyros & Cheap Eats"],"distanceKm":0.08635261807903856},{"id":"italianRestaurants_78702cadc159","slug":"pizzicato-osteria-7870","kind":"restaurant","name":"Pizzicato Osteria","lat":40.669954093386394,"lng":22.89587107388144,"url":"https://maps.app.goo.gl/FjcCcP1uvC3Gxrju5?g_st=ipc","address":"Eth. Antistaseos 79, Eleftherio Kordelio 563 34","categoryIds":["italian"],"categories":["Italian Restaurants"],"distanceKm":0.4019450012982192},{"id":"municipalities_fd387f77da75","slug":"eleytherio-kordelio-fd38","kind":"municipality","name":"Ελευθέριο - Κορδελιό","lat":40.6717,"lng":22.8936,"region":"Δυτική Θεσσαλονίκη","name_en":"Eleftherio - Kordelio","region_en":"West Thessaloniki","distanceKm":0.6572260265697435},{"id":"cheapEatsRestaurants_f921d077e63d","slug":"psitopoleio-nikos-f921","kind":"restaurant","name":"Ψητοπωλείο \"ΝΙΚΟΣ\"","lat":40.66963563529277,"lng":22.908013940571315,"url":"https://maps.app.goo.gl/LAQoYu8du3ZFbwSR7?g_st=ipc","address":"Meg. Alexandrou 56, Evosmos 562 24","categoryIds":["cheap-eats"],"categories":["Gyros & Cheap Eats"],"distanceKm":0.9644554228148071},{"id":"italianRestaurants_5c52a29bf906","slug":"raffaele-pizza-pasta-5c52","kind":"restaurant","name":"Raffaele Pizza & Pasta","lat":40.66835766189394,"lng":22.909237229764354,"url":"https://maps.app.goo.gl/aQ6nFJz5CrVrnaNv6","address":"P. Mela 8, Evosmos 562 24","categoryIds":["italian"],"categories":["Italian Restaurants"],"distanceKm":1.0237913136160048},{"id":"greekRestaurants_726e02b8b685","slug":"anama-726e","kind":"restaurant","name":"Anama","lat":40.67309178488354,"lng":22.90614317972579,"url":"https://maps.app.goo.gl/Bt17EdhYtg5pRDnb8?g_st=ipc","address":"Κολοκοτρώνη 10, Εύοσμος 562 24","categoryIds":["greek-restaurants"],"categories":["Greek Restaurants"],"distanceKm":1.0418004196408555},{"id":"greekRestaurants_1519d05a3bce","slug":"mantemi-casual-dining-1519","kind":"restaurant","name":"ΜΑΝΤΕΜΙ | Casual Dining","lat":40.67409229961713,"lng":22.905893700060766,"url":"https://maps.app.goo.gl/A7GLofJnsBowRAkj8?g_st=ipc","address":"Meandrou 79, Evosmos 562 24","categoryIds":["greek-restaurants"],"categories":["Greek Restaurants"],"distanceKm":1.1088812176337712},{"id":"coffeeBrunchRestaurants_5f036d7db680","slug":"model-urban-style-bar-5f03","kind":"restaurant","name":"Model Urban Style Bar","lat":40.66742278574293,"lng":22.91124275092617,"url":"https://maps.app.goo.gl/kRz7a3AxwDHMinRU6?g_st=ipc","address":"P. Mela 26, Evosmos 562 24","categoryIds":["coffee-brunch"],"categories":["Coffee & Brunch Spots"],"distanceKm":1.1765908776971903}],"sameRegion":[],"mentionedGuides":[],"canonicalSlug":"ladokolla-apo-to-kordelio-sto-charmankioi-b101","isCanonicalEntity":true},"__N_SSG":true}