{"pageProps":{"entity":{"id":"municipalities_1d2e36065111","slug":"leykada-1d2e","kind":"municipality","name":"Λευκάδα","lat":38.83,"lng":20.71,"region":"Ιόνιο","name_en":"Lefkada","region_en":"Ionian Islands"},"sameCategory":[],"nearby":[{"id":"dessertsRestaurants_c1858394016b","slug":"fresco-gelato-artigianale-c185","kind":"restaurant","name":"Fresco gelato artigianale","lat":38.833202680203854,"lng":20.707021375147267,"url":"https://maps.app.goo.gl/ewEbAmjuJdZBCseQ7?g_st=ipc","address":"Ioannou Mela 69, Lefkada 311 00","categoryIds":["desserts"],"categories":["Dessert Shops"],"distanceKm":0.4397625329807087},{"id":"italianRestaurants_13db7f7dfac4","slug":"loulis-taste-project-13db","kind":"restaurant","name":"Loulis Taste Project","lat":38.83362395321285,"lng":20.707875524974906,"url":"https://maps.app.goo.gl/tNzSrPjrJVJbBhbr6?g_st=ipc","address":"Loulis Taste Project","categoryIds":["italian"],"categories":["Italian Restaurants"],"distanceKm":0.4429953231433703},{"id":"luxuryDiningRestaurants_8b20ccb20498","slug":"mastelo-restaurant-bar-8b20","kind":"restaurant","name":"Mastelo Restaurant & Bar","lat":38.83239517619771,"lng":20.705692089105533,"url":"https://maps.app.goo.gl/3X5uukpGejXWctER8?g_st=ipc","address":"Mitropoleos 11, Lefkada 311 00","categoryIds":["luxury-dining"],"categories":["Luxury Dining"],"distanceKm":0.45844936347557996},{"id":"coffeeBrunchRestaurants_819a67237a78","slug":"zimis-819a","kind":"restaurant","name":"Zimis","lat":38.83034594976957,"lng":20.704090375704506,"url":"https://maps.app.goo.gl/qftMEppMQDEhweUP7?g_st=ipc","address":"Efstathiou Zakka 12, Lefkada 311 00","categoryIds":["coffee-brunch"],"categories":["Coffee & Brunch Spots"],"distanceKm":0.5133451787518903},{"id":"greekRestaurants_1d1502fabe5a","slug":"margarita-restaurant-1d15","kind":"restaurant","name":"Margarita Restaurant","lat":38.83487688240494,"lng":20.711768051704645,"url":"https://maps.app.goo.gl/4VvcV8grfdUFnb8k8?g_st=ipc","address":"Dimitrioy golemi, Λευκάδα 311 00","categoryIds":["greek-restaurants"],"categories":["Greek Restaurants"],"distanceKm":0.563494909521223},{"id":"rooftopLoungesRestaurants_fbedc289379a","slug":"taratsa-open-fbed","kind":"restaurant","name":"Taratsa Open","lat":38.83493516503128,"lng":20.711610210825643,"url":"https://maps.app.goo.gl/gucKqbib1YPXfXRd8?g_st=ipc","address":"EO Amfilochias Lefkadas, Lefkada 311 00","categoryIds":["rooftop-lounges"],"categories":["Rooftop Lounges"],"distanceKm":0.5662124802456339},{"id":"luxuryDiningRestaurants_7ec403367977","slug":"restaurant-thymari-7ec4","kind":"restaurant","name":"Restaurant Thymari","lat":38.835357324233975,"lng":20.708797217981044,"url":"https://maps.app.goo.gl/8TWdBgQzLn6EaTaWA?g_st=ipc","address":"Πηνελόπης 19, Lefkada 311 00","categoryIds":["luxury-dining"],"categories":["Luxury Dining"],"distanceKm":0.6047489853278467},{"id":"greekRestaurants_0ef8cfb2d853","slug":"kolokythas-oikogeneiaki-taverna-0ef8","kind":"restaurant","name":"ΚΟΛΟΚΥΘΑΣ Οικογενειακή Ταβέρνα","lat":38.79965914314924,"lng":20.740469326628666,"url":"https://maps.app.goo.gl/DdneXWByi7dQmATLA?g_st=ipc","address":"Πλαγια αιτολοκαρνανιας Πλαγιά, Πλαγιά 300 02","categoryIds":["greek-restaurants"],"categories":["Greek Restaurants"],"distanceKm":4.283820828776613}],"sameRegion":[{"id":"municipalities_3976b9119f68","slug":"palaiokastritsa-3976","kind":"municipality","name":"Παλαιοκαστρίτσα","lat":39.6778,"lng":19.7139,"aliases":["Παλαιοκαστριτσα","Palaiokastritsa"],"region":"Ιόνιο","name_en":"Paleokastritsa","region_en":"Ionian Islands"},{"id":"municipalities_51bdb5710c4f","slug":"ithaki-51bd","kind":"municipality","name":"Ιθάκη","lat":38.3667,"lng":20.7167,"region":"Ιόνιο","name_en":"Ithaki","region_en":"Ionian Islands"},{"id":"municipalities_761b6508fb52","slug":"paxoi-761b","kind":"municipality","name":"Παξοί","lat":39.1969,"lng":20.1863,"region":"Ιόνιο","name_en":"Paxoi","region_en":"Ionian Islands"},{"id":"municipalities_b8a2e587a20e","slug":"kefalonia-b8a2","kind":"municipality","name":"Κεφαλονιά","lat":38.175,"lng":20.569,"region":"Ιόνιο","name_en":"Kefalonia","region_en":"Ionian Islands"},{"id":"municipalities_baf5b688aa1e","slug":"zakynthos-baf5","kind":"municipality","name":"Ζάκυνθος","lat":37.787,"lng":20.899,"aliases":["Zakynthos","Zante","Ζακύνθη","Ζακύνθια","Ζακυνθος","Ζακυνθο"],"region":"Ιόνιο","name_en":"Zakynthos","region_en":"Ionian Islands"},{"id":"municipalities_c2a6f966632a","slug":"kerkyra-c2a6","kind":"municipality","name":"Κέρκυρα","lat":39.6243,"lng":19.9217,"aliases":["Kerkira","Corcyra","Κερκύρα","Κερκύρη","Κερκυρα","Kerkyra","Corfou"],"region":"Ιόνιο","name_en":"Corfu","region_en":"Ionian Islands"}],"mentionedGuides":[{"slug":"choose-perfect-greek-island-el","title":"Πώς να Επιλέξετε το Τέλειο Ελληνικό Νησί για το Ταξίδι σας"}],"canonicalSlug":"leykada-1d2e","isCanonicalEntity":true},"__N_SSG":true}