{"pageProps":{"entity":{"id":"greekRestaurants_6dfb86c3c849","slug":"lontza-tis-geitonias-6dfb","kind":"restaurant","name":"Λόντζα της Γειτονιάς","lat":37.98528728518512,"lng":23.737900936097155,"url":"https://maps.app.goo.gl/KuXHrJwbKRvdajxz5","address":"Χαρ. Τρικούπη 76, Αθήνα 106 80","categoryIds":["greek-restaurants"],"categories":["Greek Restaurants"]},"sameCategory":[{"id":"greekRestaurants_3eb28aec894c","slug":"ayli-geysi-poleion-3eb2","kind":"restaurant","name":"Αυλη Γευση-πωλείον","lat":37.98655857103421,"lng":23.737630934967044,"url":"https://maps.app.goo.gl/BGHehjaYVZctQ5Mv6","address":"Μεθώνης 43, Αθήνα 106 81","categoryIds":["greek-restaurants"],"categories":["Greek Restaurants"]},{"id":"greekRestaurants_be06a546e935","slug":"giantes-be06","kind":"restaurant","name":"Γιάντες","lat":37.98561482975353,"lng":23.735926375159003,"url":"https://maps.app.goo.gl/LuGL5j7KgtCFWxmA8","address":"Βαλτετσίου 44, Αθήνα 106 81","categoryIds":["greek-restaurants"],"categories":["Greek Restaurants"]},{"id":"greekRestaurants_82fedd8f5eb8","slug":"aylak-politiki-kouzina-82fe","kind":"restaurant","name":"Aylak Politiki Kouzina","lat":37.986296240543886,"lng":23.73577500465613,"url":"https://maps.app.goo.gl/8H5UM5CTNGhY6tCz8","address":"Εμμανουήλ Μπενάκη 73, Αθήνα 106 81","categoryIds":["greek-restaurants"],"categories":["Greek Restaurants"]},{"id":"greekRestaurants_399d4f103d60","slug":"pakoymel-399d","kind":"restaurant","name":"Pακουμελ","lat":37.98611213872367,"lng":23.7356153825947,"url":"https://maps.app.goo.gl/ES9bhy4RguonMm8G8","address":"Εμμανουήλ Μπενάκη 71, Αθήνα 106 81","categoryIds":["greek-restaurants"],"categories":["Greek Restaurants"]},{"id":"greekRestaurants_0cec67514103","slug":"ama-lachei-0cec","kind":"restaurant","name":"Άμα Λάχει","lat":37.9881200037971,"lng":23.737007621122938,"url":"https://maps.app.goo.gl/94C3hp4xbRp1fKYt7","address":"Καλλιδρομίου 69, Αθήνα 106 83","categoryIds":["greek-restaurants"],"categories":["Greek Restaurants"]},{"id":"greekRestaurants_5d1d35aa177d","slug":"gioysoyroym-5d1d","kind":"restaurant","name":"Γιουσουρούμ","lat":37.98634442442922,"lng":23.733413179378076,"url":"https://maps.app.goo.gl/jh9iV3W2AMUY6Pev5","address":"Σουλτάνη 11, Αθήνα 106 82","categoryIds":["greek-restaurants"],"categories":["Greek Restaurants"]},{"id":"greekRestaurants_eec032d0bea1","slug":"atitamos-eec0","kind":"restaurant","name":"Ατίταμος","lat":37.98622715652684,"lng":23.73236663557607,"url":"https://maps.app.goo.gl/VfeckYbAHrSRw3Qo8","address":"Καποδιστρίου 2, Αθήνα 106 83","categoryIds":["greek-restaurants"],"categories":["Greek Restaurants"]},{"id":"greekRestaurants_56884a3a4523","slug":"i-kriti-pl-kaniggos-5688","kind":"restaurant","name":"Η Κρήτη, πλ. Κανιγγος","lat":37.985209028957776,"lng":23.730887169410018,"url":"https://maps.app.goo.gl/QasSnVbzBbfxtArw5","address":"Βερανζέρου 5, Αθήνα 106 77","categoryIds":["greek-restaurants"],"categories":["Greek Restaurants"]}],"nearby":[{"id":"dessertsRestaurants_be636dabd487","slug":"afoi-asimakopoyloi-be63","kind":"restaurant","name":"Αφοι Ασημακόπουλοι","lat":37.98543510745225,"lng":23.738217370820664,"url":"https://maps.app.goo.gl/zhMqHSFRswEjySMi9?g_st=ipc","address":"Χαρ. Τρικούπη 82, Αθήνα 106 80","categoryIds":["desserts"],"categories":["Dessert Shops"],"distanceKm":0.03223764033702869},{"id":"coffeeBrunchRestaurants_6ecc469a1225","slug":"the-black-salami-microbakery-6ecc","kind":"restaurant","name":"The Black Salami Microbakery","lat":37.98610295066266,"lng":23.73813379013077,"url":"https://maps.app.goo.gl/HJ9cCZfV3LeKP7U3A?g_st=ipc","address":"Ζωοδόχου Πηγής 71, Αθήνα 106 81","categoryIds":["coffee-brunch"],"categories":["Coffee & Brunch Spots"],"distanceKm":0.09296537142688839},{"id":"vegetarianRestaurants_20df7d290d02","slug":"vicky-s-saj-20df","kind":"restaurant","name":"Vicky’s saj","lat":37.984555575680844,"lng":23.737197350556286,"url":"https://maps.app.goo.gl/GQheLZNx169PbGDK9?g_st=ipc","address":"Αραχώβης 29, Αθήνα 106 80","categoryIds":["vegetarian"],"categories":["Vegetarian Friendly Restaurants"],"distanceKm":0.10208888023628429},{"id":"dessertsRestaurants_50c92ff86d1d","slug":"portatif-factory-50c9","kind":"restaurant","name":"Πορτατίφ - Factory","lat":37.98547841789868,"lng":23.739345621810312,"url":"https://maps.app.goo.gl/Q5VYitKyncAmC1Wn8?g_st=ipc","address":"Μαυρομιχάλη 81, Αθήνα 114 72","categoryIds":["desserts"],"categories":["Dessert Shops"],"distanceKm":0.12838398642743523},{"id":"cheapEatsRestaurants_c56025371d6e","slug":"hayat-c560","kind":"restaurant","name":"Hayat","lat":37.98451943968109,"lng":23.73920441819002,"url":"https://maps.app.goo.gl/mqY78SsShBqeen4Q9?g_st=ipc","address":"Ιπποκράτους 78, Αθήνα 106 80","categoryIds":["cheap-eats"],"categories":["Gyros & Cheap Eats"],"distanceKm":0.1426191190376559},{"id":"greekRestaurants_3eb28aec894c","slug":"ayli-geysi-poleion-3eb2","kind":"restaurant","name":"Αυλη Γευση-πωλείον","lat":37.98655857103421,"lng":23.737630934967044,"url":"https://maps.app.goo.gl/BGHehjaYVZctQ5Mv6","address":"Μεθώνης 43, Αθήνα 106 81","categoryIds":["greek-restaurants"],"categories":["Greek Restaurants"],"distanceKm":0.1433273498542674},{"id":"luxuryDiningRestaurants_2f3a275d221f","slug":"giantes-2f3a","kind":"restaurant","name":"Γιάντες","lat":37.985496291273606,"lng":23.735937070358016,"url":"https://maps.app.goo.gl/wmG4jDbuv8SWkb2K8?g_st=ipc","address":"Βαλτετσίου 44, Αθήνα 106 81","categoryIds":["luxury-dining"],"categories":["Luxury Dining"],"distanceKm":0.173675665729183},{"id":"greekRestaurants_be06a546e935","slug":"giantes-be06","kind":"restaurant","name":"Γιάντες","lat":37.98561482975353,"lng":23.735926375159003,"url":"https://maps.app.goo.gl/LuGL5j7KgtCFWxmA8","address":"Βαλτετσίου 44, Αθήνα 106 81","categoryIds":["greek-restaurants"],"categories":["Greek Restaurants"],"distanceKm":0.17684206339880024}],"sameRegion":[],"mentionedGuides":[],"canonicalSlug":"lontza-tis-geitonias-6dfb","isCanonicalEntity":true},"__N_SSG":true}