{"pageProps":{"entity":{"id":"italianRestaurants_13c0dc268b15","slug":"lost-athens-13c0","kind":"restaurant","name":"Lost Athens","lat":37.970670759829304,"lng":23.746680147108094,"url":"https://maps.app.goo.gl/Y9CFJNjG4R2hx4hB6?g_st=ipc","address":"Αρχελάου 7, Αθήνα 116 35","categoryIds":["italian"],"categories":["Italian Restaurants"]},"sameCategory":[{"id":"italianRestaurants_05ab7052947d","slug":"tre-sorelle-pizza-05ab","kind":"restaurant","name":"Tre Sorelle Pizza","lat":37.971668400347134,"lng":23.745923794431828,"url":"https://maps.app.goo.gl/dt7Xajoo364aPHjy7?g_st=ipc","address":"Αρχελάου 19, Αθήνα 116 35","categoryIds":["italian"],"categories":["Italian Restaurants"]},{"id":"italianRestaurants_67b7b653e959","slug":"cupola-67b7","kind":"restaurant","name":"Cupola","lat":37.97044661658537,"lng":23.742232273257617,"url":"https://maps.app.goo.gl/mFVjH2gTLzicYaVJA?g_st=ipc","address":"Ευφοριωνος 13, Αθήνα 116 35","categoryIds":["italian"],"categories":["Italian Restaurants"]},{"id":"italianRestaurants_858265b3f822","slug":"cosa-nostra-fresca-pasta-pagrati-8582","kind":"restaurant","name":"Cosa Nostra Fresca Pasta Pagrati","lat":37.96783594678004,"lng":23.743332676630974,"url":"https://maps.app.goo.gl/CdMX5E6yxNBbvoYs8?g_st=ipc","address":"Αρχιμήδους 8, Αθήνα 116 35","categoryIds":["italian"],"categories":["Italian Restaurants"]},{"id":"italianRestaurants_2ca02a129667","slug":"luma-2ca0","kind":"restaurant","name":"Luma","lat":37.967195735298965,"lng":23.74306872996665,"url":"https://maps.app.goo.gl/csSJRksdwNoDcqqE7?g_st=ipc","address":"Φερεκύδου 2, Αθήνα 116 35","categoryIds":["italian"],"categories":["Italian Restaurants"]},{"id":"italianRestaurants_77b67be1fb4f","slug":"mario-luigi-77b6","kind":"restaurant","name":"Mario & Luigi","lat":37.966012366342085,"lng":23.746366511353546,"url":"https://maps.app.goo.gl/xKjHZ2p6PcwHNd7G8?g_st=ipc","address":"Ευφράνορος 35, Αθήνα 116 35","categoryIds":["italian"],"categories":["Italian Restaurants"]},{"id":"italianRestaurants_2b0b4658687c","slug":"agave-athens-2b0b","kind":"restaurant","name":"agave athens","lat":37.9657831829776,"lng":23.746184137622457,"url":"https://maps.app.goo.gl/uUSmZ457DPu3bX9J6?g_st=ipc","address":"Ευφράνορος 40, Αθήνα 116 35","categoryIds":["italian"],"categories":["Italian Restaurants"]},{"id":"italianRestaurants_eb6dad79ff00","slug":"colibri-eb6d","kind":"restaurant","name":"Colibri","lat":37.96629536354424,"lng":23.742907448127177,"url":"https://maps.app.goo.gl/p6S1BxZ6W3VgwiR46?g_st=ipc","address":"Εμπεδοκλέους 15, Αθήνα 116 35","categoryIds":["italian"],"categories":["Italian Restaurants"]},{"id":"italianRestaurants_0a253e52c51e","slug":"gorlomi-0a25","kind":"restaurant","name":"Gorlomi","lat":37.97728908184003,"lng":23.74514067416134,"url":"https://maps.app.goo.gl/XB7Fy2Zdva4f5Hrv6?g_st=ipc","address":"Πλουτάρχου 9, Αθήνα 106 75","categoryIds":["italian"],"categories":["Italian Restaurants"]}],"nearby":[{"id":"burgersRestaurants_7ee34e05dcb7","slug":"x11-burgers-7ee3","kind":"restaurant","name":"X11 Burgers","lat":37.97115113774925,"lng":23.746564304670212,"url":"https://maps.app.goo.gl/kMJu1ePUZJzGwAJdA?g_st=ipc","address":"Αρχελάου 14, Αθήνα 116 35","categoryIds":["burgers"],"categories":["Burger Spots"],"distanceKm":0.05437221831042497},{"id":"burgersRestaurants_a48e075150a2","slug":"greasy-spoon-athens-a48e","kind":"restaurant","name":"Greasy Spoon Athens","lat":37.971165228067136,"lng":23.74653583168114,"url":"https://maps.app.goo.gl/jy3gfbvNXVipSkrJA?g_st=ic","address":"Archelaou 14, Athina 116 35","categoryIds":["burgers"],"categories":["Burger Spots"],"distanceKm":0.056418887019622097},{"id":"cheapEatsRestaurants_78307b191873","slug":"piggy-popoylo-7830","kind":"restaurant","name":"Piggy - Πόπουλο","lat":37.97132961125026,"lng":23.74642727932896,"url":"https://maps.app.goo.gl/cPZpCzgEKX45Ej6G8?g_st=ipc","address":"Αρχελάου 16, Αθήνα 116 35","categoryIds":["cheap-eats"],"categories":["Gyros & Cheap Eats"],"distanceKm":0.07654073912123242},{"id":"dessertsRestaurants_0ee58cfa385e","slug":"antonis-selekos-conceptual-desserts-0ee5","kind":"restaurant","name":"Antonis Selekos Conceptual Desserts","lat":37.9704115845213,"lng":23.747853371766638,"url":"https://maps.app.goo.gl/63mGgggS1JuTSJJf6?g_st=ipc","address":"Εριφύλης 2, Αθήνα 116 34","categoryIds":["desserts"],"categories":["Dessert Shops"],"distanceKm":0.10680409737512586},{"id":"italianRestaurants_05ab7052947d","slug":"tre-sorelle-pizza-05ab","kind":"restaurant","name":"Tre Sorelle Pizza","lat":37.971668400347134,"lng":23.745923794431828,"url":"https://maps.app.goo.gl/dt7Xajoo364aPHjy7?g_st=ipc","address":"Αρχελάου 19, Αθήνα 116 35","categoryIds":["italian"],"categories":["Italian Restaurants"],"distanceKm":0.12923503824788482},{"id":"coffeeBrunchRestaurants_512abfbcd215","slug":"monokeros-bakery-512a","kind":"restaurant","name":"Monokeros Bakery","lat":37.96998792256903,"lng":23.745206716967704,"url":"https://maps.app.goo.gl/vPfqSycBZPnB31CG6?g_st=ipc","address":"Φαίδρου 4, Αθήνα 116 35","categoryIds":["coffee-brunch"],"categories":["Coffee & Brunch Spots"],"distanceKm":0.14982299809266686},{"id":"coffeeBrunchRestaurants_6e5370c63d00","slug":"moden-6e53","kind":"restaurant","name":"Moden","lat":37.971223973274974,"lng":23.748242971172175,"url":"https://maps.app.goo.gl/LCSd8nHPjaUEMAGx8?g_st=ipc","address":"Αμασείας 6 &, Πρατίνου 53, Αθήνα 116 34","categoryIds":["coffee-brunch"],"categories":["Coffee & Brunch Spots"],"distanceKm":0.15017052857742744},{"id":"vegetarianRestaurants_2f95eefcadc8","slug":"the-vegan-vandal-2f95","kind":"restaurant","name":"The Vegan Vandal","lat":37.971917764819835,"lng":23.745569639926703,"url":"https://maps.app.goo.gl/i8rVwiqPkua751nQ7?g_st=ipc","address":"Αμύντα 15, Αθήνα 116 35","categoryIds":["vegetarian"],"categories":["Vegetarian Friendly Restaurants"],"distanceKm":0.16941838654177}],"sameRegion":[],"mentionedGuides":[{"slug":"tap-water-safe-greece-el","title":"Είναι Ασφαλές να Πίνετε Νερό Βρύσης στην Ελλάδα;"},{"slug":"tap-water-safe-greece","title":"Is Tap Water Safe to Drink in Greece?"},{"slug":"traveling-to-greece-on-a-budget-el","title":"Ταξιδι στην Ελλαδα με μικρο budget"},{"slug":"traveling-to-greece-on-a-budget","title":"Traveling to Greece on a Budget"}],"canonicalSlug":"lost-athens-13c0","isCanonicalEntity":true},"__N_SSG":true}