{"pageProps":{"entity":{"id":"coffeeBrunchRestaurants_783d400ee7da","slug":"lyra-and-friends-783d","kind":"restaurant","name":"Lyra and friends","lat":35.58763583749891,"lng":27.06911664685815,"url":"https://maps.app.goo.gl/PKB7mWwJ4UmNHnbT8?g_st=ipc","address":"Beach, Lefkos 857 00","categoryIds":["coffee-brunch"],"categories":["Coffee & Brunch Spots"]},"sameCategory":[{"id":"coffeeBrunchRestaurants_c810e7744123","slug":"hermanos-c810","kind":"restaurant","name":"Hermanos","lat":35.50685735423936,"lng":27.21125864185446,"url":"https://maps.app.goo.gl/VM4D4LHe7KtZRNhD7?g_st=ipc","address":"Karlathos, Karpathos 857 00","categoryIds":["coffee-brunch"],"categories":["Coffee & Brunch Spots"]},{"id":"coffeeBrunchRestaurants_2662cc712b45","slug":"lambrinos-2662","kind":"restaurant","name":"Lambrinos","lat":35.50838000876403,"lng":27.215982914873237,"url":"https://maps.app.goo.gl/dt7qJTSnp7FR8RJV9?g_st=ipc","address":"Unnamed Road, Karpathos 857 00","categoryIds":["coffee-brunch"],"categories":["Coffee & Brunch Spots"]},{"id":"coffeeBrunchRestaurants_21dac0392c36","slug":"surf-beach-snack-bar-kouremenos-21da","kind":"restaurant","name":"Surf Beach - Snack Bar Kouremenos","lat":35.20624912822425,"lng":26.26983256244183,"url":"https://maps.app.goo.gl/gJZYAD9gs6uvp4U49?g_st=ipc","address":"Ιτανίων, Kouremenos 723 00","categoryIds":["coffee-brunch"],"categories":["Coffee & Brunch Spots"]},{"id":"coffeeBrunchRestaurants_32952e6ac25c","slug":"cafe-kafe-konstantinos-mich-katsamboxakis-3295","kind":"restaurant","name":"Café Kafé (Konstantinos Mich. Katsamboxakis)","lat":35.20722771587482,"lng":26.10675728610521,"url":"https://maps.app.goo.gl/xoXNN9GSVDDfAxxk9?g_st=ipc","address":"Kon/nou Karamanli 6, Sitia 723 00","categoryIds":["coffee-brunch"],"categories":["Coffee & Brunch Spots"]},{"id":"coffeeBrunchRestaurants_1c66ab81c701","slug":"cavo-bianco-1c66","kind":"restaurant","name":"Cavo Bianco","lat":35.02143360163328,"lng":26.015024448599853,"url":"https://maps.app.goo.gl/ybTzaZNb6KvEBPUb8?g_st=ipc","address":"Dragon's Way, Ierapetra 720 59","categoryIds":["coffee-brunch"],"categories":["Coffee & Brunch Spots"]},{"id":"coffeeBrunchRestaurants_64018e74309c","slug":"meltemi-6401","kind":"restaurant","name":"Meltemi","lat":36.545359250189506,"lng":26.352356416685993,"url":"https://maps.app.goo.gl/nFrvN47758pZXWzT8?g_st=ipc","address":"Astypalaia 859 00","categoryIds":["coffee-brunch"],"categories":["Coffee & Brunch Spots"]},{"id":"coffeeBrunchRestaurants_a3547d8efbea","slug":"kolokytha-a354","kind":"restaurant","name":"Kolokytha","lat":36.54726990012019,"lng":26.353646413648903,"url":"https://maps.app.goo.gl/6FaxgMCjdWj9EPA48?g_st=ipc","address":"Unnamed Rd, Astipalea 859 00","categoryIds":["coffee-brunch"],"categories":["Coffee & Brunch Spots"]},{"id":"coffeeBrunchRestaurants_81babb19d554","slug":"anax-brunch-all-day-bar-81ba","kind":"restaurant","name":"Anax - Brunch & All day bar","lat":36.54881053562097,"lng":26.352767048461835,"url":"https://maps.app.goo.gl/Fog59qRdXL1VwbPKA?g_st=ipc","address":"Island, Astipalea 859 00","categoryIds":["coffee-brunch"],"categories":["Coffee & Brunch Spots"]}],"nearby":[{"id":"greekRestaurants_9926e0db11c5","slug":"ellovos-restaurant-9926","kind":"restaurant","name":"Ellovos Restaurant","lat":35.59799182040847,"lng":27.094699276778915,"url":"https://maps.app.goo.gl/vTVNPBEasCEJPLST8?g_st=ipc","address":"Unnamed Road, Λευκός 857 00","categoryIds":["greek-restaurants"],"categories":["Greek Restaurants"],"distanceKm":2.5839756511541387},{"id":"greekRestaurants_fbf93bbc598f","slug":"folia-fbf9","kind":"restaurant","name":"Φωλιά","lat":35.63804287314117,"lng":27.141889679852532,"url":"https://maps.app.goo.gl/fxKJmzzqw6u7bpMy5?g_st=ipc","address":"Επαρ.Οδ. Απέριου-Σπόας, Σπόα 857 00","categoryIds":["greek-restaurants"],"categories":["Greek Restaurants"],"distanceKm":8.6425343131211},{"id":"greekRestaurants_28e0ce32387f","slug":"sofia-taverna-28e0","kind":"restaurant","name":"Σοφία Ταβέρνα","lat":35.5866358036244,"lng":27.17682185502704,"url":"https://maps.app.goo.gl/jUrzGcTeUJDT7mLK6?g_st=ipc","address":"Κυρά Παναγία 857 00","categoryIds":["greek-restaurants"],"categories":["Greek Restaurants"],"distanceKm":9.740115801234149},{"id":"greekRestaurants_4e06e56c5685","slug":"to-perasma-family-restaurant-4e06","kind":"restaurant","name":"To Perasma Family Restaurant","lat":35.511795659441425,"lng":27.202184483725418,"url":"https://maps.app.goo.gl/XNjLZLx16LGnYtdF8?g_st=ipc","address":"Unnamed Road, Κάρπαθος 857 00","categoryIds":["greek-restaurants"],"categories":["Greek Restaurants"],"distanceKm":14.698415283832292},{"id":"fishTavernasRestaurants_d009f344ecc4","slug":"thalassa-d009","kind":"restaurant","name":"Thalassa","lat":35.511927785488425,"lng":27.202335161311264,"url":"https://maps.app.goo.gl/g4myc8br4L4gAcNGA?g_st=ipc","address":"Unnamed Road, Karpathos 857 00","categoryIds":["fish-tavernas"],"categories":["Fish Tavernas"],"distanceKm":14.701156239908642},{"id":"burgersRestaurants_f679841198d1","slug":"panburger-f679","kind":"restaurant","name":"PANBURGER","lat":35.508363631854614,"lng":27.212474239373883,"url":"https://maps.app.goo.gl/Xvc6UCxi2LxHq36TA?g_st=ipc","address":"Karpathos 857 00","categoryIds":["burgers"],"categories":["Burger Spots"],"distanceKm":15.681611702301721},{"id":"burgersRestaurants_a09dc77f6aff","slug":"panburger-a09d","kind":"restaurant","name":"PANBURGER","lat":35.50835121764677,"lng":27.212476234633463,"url":"https://maps.app.goo.gl/Xvc6UCxi2LxHq36TA?g_st=ipc","address":"Karpathos 857 00","categoryIds":["burgers"],"categories":["Burger Spots"],"distanceKm":15.682537787685751},{"id":"coffeeBrunchRestaurants_c810e7744123","slug":"hermanos-c810","kind":"restaurant","name":"Hermanos","lat":35.50685735423936,"lng":27.21125864185446,"url":"https://maps.app.goo.gl/VM4D4LHe7KtZRNhD7?g_st=ipc","address":"Karlathos, Karpathos 857 00","categoryIds":["coffee-brunch"],"categories":["Coffee & Brunch Spots"],"distanceKm":15.68617859901997}],"sameRegion":[],"mentionedGuides":[],"canonicalSlug":"lyra-and-friends-783d","isCanonicalEntity":true},"__N_SSG":true}