{"pageProps":{"entity":{"id":"italianRestaurants_77b67be1fb4f","slug":"mario-luigi-77b6","kind":"restaurant","name":"Mario & Luigi","lat":37.966012366342085,"lng":23.746366511353546,"url":"https://maps.app.goo.gl/xKjHZ2p6PcwHNd7G8?g_st=ipc","address":"Ευφράνορος 35, Αθήνα 116 35","categoryIds":["italian"],"categories":["Italian Restaurants"]},"sameCategory":[{"id":"italianRestaurants_2b0b4658687c","slug":"agave-athens-2b0b","kind":"restaurant","name":"agave athens","lat":37.9657831829776,"lng":23.746184137622457,"url":"https://maps.app.goo.gl/uUSmZ457DPu3bX9J6?g_st=ipc","address":"Ευφράνορος 40, Αθήνα 116 35","categoryIds":["italian"],"categories":["Italian Restaurants"]},{"id":"italianRestaurants_eb6dad79ff00","slug":"colibri-eb6d","kind":"restaurant","name":"Colibri","lat":37.96629536354424,"lng":23.742907448127177,"url":"https://maps.app.goo.gl/p6S1BxZ6W3VgwiR46?g_st=ipc","address":"Εμπεδοκλέους 15, Αθήνα 116 35","categoryIds":["italian"],"categories":["Italian Restaurants"]},{"id":"italianRestaurants_2ca02a129667","slug":"luma-2ca0","kind":"restaurant","name":"Luma","lat":37.967195735298965,"lng":23.74306872996665,"url":"https://maps.app.goo.gl/csSJRksdwNoDcqqE7?g_st=ipc","address":"Φερεκύδου 2, Αθήνα 116 35","categoryIds":["italian"],"categories":["Italian Restaurants"]},{"id":"italianRestaurants_858265b3f822","slug":"cosa-nostra-fresca-pasta-pagrati-8582","kind":"restaurant","name":"Cosa Nostra Fresca Pasta Pagrati","lat":37.96783594678004,"lng":23.743332676630974,"url":"https://maps.app.goo.gl/CdMX5E6yxNBbvoYs8?g_st=ipc","address":"Αρχιμήδους 8, Αθήνα 116 35","categoryIds":["italian"],"categories":["Italian Restaurants"]},{"id":"italianRestaurants_13c0dc268b15","slug":"lost-athens-13c0","kind":"restaurant","name":"Lost Athens","lat":37.970670759829304,"lng":23.746680147108094,"url":"https://maps.app.goo.gl/Y9CFJNjG4R2hx4hB6?g_st=ipc","address":"Αρχελάου 7, Αθήνα 116 35","categoryIds":["italian"],"categories":["Italian Restaurants"]},{"id":"italianRestaurants_67b7b653e959","slug":"cupola-67b7","kind":"restaurant","name":"Cupola","lat":37.97044661658537,"lng":23.742232273257617,"url":"https://maps.app.goo.gl/mFVjH2gTLzicYaVJA?g_st=ipc","address":"Ευφοριωνος 13, Αθήνα 116 35","categoryIds":["italian"],"categories":["Italian Restaurants"]},{"id":"italianRestaurants_05ab7052947d","slug":"tre-sorelle-pizza-05ab","kind":"restaurant","name":"Tre Sorelle Pizza","lat":37.971668400347134,"lng":23.745923794431828,"url":"https://maps.app.goo.gl/dt7Xajoo364aPHjy7?g_st=ipc","address":"Αρχελάου 19, Αθήνα 116 35","categoryIds":["italian"],"categories":["Italian Restaurants"]},{"id":"italianRestaurants_98c72b583c4b","slug":"nonna-edda-98c7","kind":"restaurant","name":"Nonna Edda","lat":37.968437805608076,"lng":23.757681215549333,"url":"https://maps.app.goo.gl/QWSrhfiNkAJznHfQA?g_st=ipc","address":"Λεωφ. Εθ. Αντιστάσεως 62, Καισαριανή 161 21","categoryIds":["italian"],"categories":["Italian Restaurants"]}],"nearby":[{"id":"dessertsRestaurants_e497a22f982a","slug":"mario-luigi-e497","kind":"restaurant","name":"Mario & Luigi","lat":37.96604463058155,"lng":23.746371855606792,"url":"https://maps.app.goo.gl/rjbBWs56GxATknGu9?g_st=ipc","address":"Ευφράνορος 35, Αθήνα 116 35","categoryIds":["desserts"],"categories":["Dessert Shops"],"distanceKm":0.003618080045343402},{"id":"italianRestaurants_2b0b4658687c","slug":"agave-athens-2b0b","kind":"restaurant","name":"agave athens","lat":37.9657831829776,"lng":23.746184137622457,"url":"https://maps.app.goo.gl/uUSmZ457DPu3bX9J6?g_st=ipc","address":"Ευφράνορος 40, Αθήνα 116 35","categoryIds":["italian"],"categories":["Italian Restaurants"],"distanceKm":0.030083826246568728},{"id":"burgersRestaurants_2488bfd093b0","slug":"raw-street-burger-2488","kind":"restaurant","name":"RAW Street Burger","lat":37.96608078812892,"lng":23.747084457131937,"url":"https://maps.app.goo.gl/WsNpm6Ti1nzJiYwd7?g_st=ipc","address":"Υμηττού 130, Αθήνα 116 34","categoryIds":["burgers"],"categories":["Burger Spots"],"distanceKm":0.06339571798006577},{"id":"dessertsRestaurants_7eaf4eddf047","slug":"loukoumania-pagrati-loykoymades-7eaf","kind":"restaurant","name":"Loukoumania Pagrati - Λουκουμάδες","lat":37.96735501275489,"lng":23.74736088525619,"url":"https://maps.app.goo.gl/T1YQTDedH6uY5vzR7?g_st=ipc","address":"Φρύνης 4, Αθήνα 116 34","categoryIds":["desserts"],"categories":["Dessert Shops"],"distanceKm":0.1728804213388074},{"id":"dessertsRestaurants_713ba3364411","slug":"galaktopoleio-stamoy-713b","kind":"restaurant","name":"Γαλακτοπωλείο ΣΤΑΜΟΥ","lat":37.967778119825944,"lng":23.746488114142206,"url":"https://maps.app.goo.gl/PA8d53NRErbRQVzk6?g_st=ipc","address":"Ευτυχίδου 28-30, Αθήνα 116 35","categoryIds":["desserts"],"categories":["Dessert Shops"],"distanceKm":0.19663199591439343},{"id":"coffeeBrunchRestaurants_f1796bb2ea7c","slug":"plegma-coffee-living-f179","kind":"restaurant","name":"Plegma Coffee & Living","lat":37.96746994485961,"lng":23.74467734312101,"url":"https://maps.app.goo.gl/CJbmBuxNwPN6MCH98?g_st=ipc","address":"Plegma Coffee & Living","categoryIds":["coffee-brunch"],"categories":["Coffee & Brunch Spots"],"distanceKm":0.2195339098814731},{"id":"cheapEatsRestaurants_eaa51e908f69","slug":"to-pikantiko-eaa5","kind":"restaurant","name":"Το Πικάντικο","lat":37.967862602711925,"lng":23.74738582728181,"url":"https://maps.app.goo.gl/s2djMEVxUXSybams9?g_st=ipc","address":"Ευτυχίδου 23, Αθήνα 116 34","categoryIds":["cheap-eats"],"categories":["Gyros & Cheap Eats"],"distanceKm":0.22430356235228777},{"id":"burgersRestaurants_e6f63be043f2","slug":"mpear-e6f6","kind":"restaurant","name":"MPEAR","lat":37.96749991846514,"lng":23.744555997873523,"url":"https://maps.app.goo.gl/7youU9MYZn4rqr2E8?g_st=ic","address":"Ευφράνορος 8, Athina 116 35","categoryIds":["burgers"],"categories":["Burger Spots"],"distanceKm":0.22923801747878328}],"sameRegion":[],"mentionedGuides":[],"canonicalSlug":"mario-luigi-77b6","isCanonicalEntity":true},"__N_SSG":true}