{"pageProps":{"entity":{"id":"municipalities_2bf842811a54","slug":"metsovo-2bf8","kind":"municipality","name":"Μετσόβο","lat":39.77,"lng":21.18,"region":"Ήπειρος","name_en":"Metsovo","region_en":"Epirus"},"sameCategory":[],"nearby":[{"id":"municipalities_d7318da3e580","slug":"metsovo-d731","kind":"municipality","name":"Μέτσοβο","lat":39.7703,"lng":21.1825,"aliases":["Μετσοβο"],"region":"Ήπειρος","name_en":"Metsovo","region_en":"Epirus","distanceKm":0.2162541122596703},{"id":"greekRestaurants_0765f66fde9c","slug":"to-koytoyki-toy-nikola-0765","kind":"restaurant","name":"Το Κουτούκι του Νικόλα","lat":39.771642404674424,"lng":21.182737734785334,"url":"https://maps.app.goo.gl/rmdJZN2MRYsrSWWi7?g_st=ipc","address":"Τοσίτσα 6, Μέτσοβο 442 00","categoryIds":["greek-restaurants"],"categories":["Greek Restaurants"],"distanceKm":0.2968166436480786},{"id":"coffeeBrunchRestaurants_cd5c3a883c61","slug":"to-mantani-anthochori-cd5c","kind":"restaurant","name":"Το Μαντάνι Ανθοχώρι","lat":39.736473800129,"lng":21.128099892927416,"url":"https://maps.app.goo.gl/hhweii9Uj8Q5zzg69?g_st=ipc","address":"Ανθοχώρι 442 00","categoryIds":["coffee-brunch"],"categories":["Coffee & Brunch Spots"],"distanceKm":5.795062636109256},{"id":"mustSeeAttractions_c9dd48bbc2ef","slug":"pindos-national-park-c9dd","kind":"restaurant","name":"Pindos National Park","lat":39.94128033875326,"lng":20.950852335589502,"url":"https://maps.app.goo.gl/MwFRaHm4xMSpQ3w87?g_st=ipc","address":"WXR2+G8 Tymphaea","categoryIds":["attractions"],"categories":["Must-See Attractions"],"distanceKm":27.3006616923018},{"id":"familyFriendly_f1559b4827bb","slug":"sarakatsaniki-stani-f155","kind":"restaurant","name":"Σαρακατσάνικη Στάνη","lat":39.93486554028431,"lng":20.916784074474684,"url":"https://maps.app.goo.gl/hz7v5UJ8xo3K6aLE7?g_st=ic","address":"Γυφτόκαμπος Σκαμνέλι, Skamnelli 440 10","categoryIds":["family-friendly"],"categories":["Kid Friendly Locations"],"distanceKm":28.998837531477307},{"id":"municipalities_01ab94a963a7","slug":"ioannina-01ab","kind":"municipality","name":"Ιωάννινα","lat":39.6675,"lng":20.85,"aliases":["Ioannina","Janina","Ιωάννινα","Γιάννινα","Ιωαννινα","Γιαννενα","Γιάννενα"],"region":"Ήπειρος","name_en":"Ioannina","region_en":"Epirus","distanceKm":30.439241857727264},{"id":"municipalities_9f6af8365720","slug":"grevena-9f6a","kind":"municipality","name":"Γρεβενά","lat":39.9833,"lng":21.4333,"region":"Δυτική Μακεδονία","name_en":"Grevena","region_en":"Western Macedonia","distanceKm":32.08968155388374},{"id":"greekRestaurants_ce05e10df439","slug":"paradosiaki-taverna-niavis-ce05","kind":"restaurant","name":"Παραδοσιακή Ταβέρνα «Νιαβής»","lat":39.53051553053187,"lng":21.44604031294683,"url":"https://maps.app.goo.gl/VNjfxWHa2gV5L7d77?g_st=ipc","address":"Νεραϊδοχωρίου, Τρίκαλα 421 00","categoryIds":["greek-restaurants"],"categories":["Greek Restaurants"],"distanceKm":35.04166744030677}],"sameRegion":[{"id":"municipalities_01ab94a963a7","slug":"ioannina-01ab","kind":"municipality","name":"Ιωάννινα","lat":39.6675,"lng":20.85,"aliases":["Ioannina","Janina","Ιωάννινα","Γιάννινα","Ιωαννινα","Γιαννενα","Γιάννενα"],"region":"Ήπειρος","name_en":"Ioannina","region_en":"Epirus"},{"id":"municipalities_4044fe56cffd","slug":"parga-4044","kind":"municipality","name":"Πάργα","lat":39.2856,"lng":20.4014,"aliases":["Παργα"],"region":"Ήπειρος","name_en":"Parga","region_en":"Epirus"},{"id":"municipalities_531c931f5f7f","slug":"nikopoli-531c","kind":"municipality","name":"Νικόπολη","lat":39.003,"lng":20.716,"region":"Ήπειρος","name_en":"Nikopolis","region_en":"Epirus"},{"id":"municipalities_5b04c25765e9","slug":"zagori-5b04","kind":"municipality","name":"Ζαγόρι","lat":39.9,"lng":20.8,"region":"Ήπειρος","name_en":"Zagori","region_en":"Epirus"},{"id":"municipalities_6249e4ce05d5","slug":"arta-6249","kind":"municipality","name":"Άρτα","lat":39.16,"lng":20.985,"region":"Ήπειρος","name_en":"Arta","region_en":"Epirus"},{"id":"municipalities_6d3e0429ac44","slug":"zagorochoria-6d3e","kind":"municipality","name":"Ζαγοροχώρια","lat":39.9167,"lng":20.7333,"region":"Ήπειρος","name_en":"Zagorochoria","region_en":"Epirus"},{"id":"municipalities_6d7c9163781b","slug":"filiates-6d7c","kind":"municipality","name":"Φιλιάτες","lat":39.601,"lng":20.309,"region":"Ήπειρος","name_en":"Filiates","region_en":"Epirus"},{"id":"municipalities_7196d20fb090","slug":"igoymenitsa-7196","kind":"municipality","name":"Ηγουμενίτσα","lat":39.5036,"lng":20.2669,"region":"Ήπειρος","name_en":"Igoumenitsa","region_en":"Epirus"}],"mentionedGuides":[],"canonicalSlug":"metsovo-2bf8","isCanonicalEntity":true},"__N_SSG":true}