{"pageProps":{"entity":{"id":"mustSeeAttractions_f427acd3fd5b","slug":"minoan-palace-of-phaistos-f427","kind":"restaurant","name":"Minoan Palace of Phaistos","lat":35.05129549151393,"lng":24.81458473558241,"url":"https://maps.app.goo.gl/qCcEvj915iPr2zD37?g_st=ipc","address":"Άγιος Ιωάννης, Kamilari 702 00","categoryIds":["attractions"],"categories":["Must-See Attractions"]},"sameCategory":[{"id":"mustSeeAttractions_da0706993263","slug":"arkadi-monastery-da07","kind":"restaurant","name":"Arkadi Monastery","lat":35.30989822185389,"lng":24.629043901550116,"url":"https://maps.app.goo.gl/sig6rYbJ8UK4ZqaX7?g_st=ipc","address":"Arkadi 741 50","categoryIds":["attractions"],"categories":["Must-See Attractions"]},{"id":"mustSeeAttractions_32e162886e33","slug":"knossos-palace-32e1","kind":"restaurant","name":"Knossos Palace","lat":35.29796093261648,"lng":25.162788626146504,"url":"https://maps.app.goo.gl/rAusZkVNEW96qAfY9?g_st=ipc","address":"Knossos 714 09","categoryIds":["attractions"],"categories":["Must-See Attractions"]},{"id":"mustSeeAttractions_87fa659eb90c","slug":"balos-beach-87fa","kind":"restaurant","name":"Balos Beach","lat":35.57925124423901,"lng":23.588718436351613,"url":"https://maps.app.goo.gl/f8pqZqUtkRrXFShb8?g_st=ipc","address":"Kissamos 734 00","categoryIds":["attractions"],"categories":["Must-See Attractions"]},{"id":"mustSeeAttractions_fcaf48a77b52","slug":"akrotiri-fcaf","kind":"restaurant","name":"Akrotiri","lat":36.351796236748676,"lng":25.403447201033227,"url":"https://maps.app.goo.gl/wBKcGui1HWeMLpjPA?g_st=ipc","address":"Fira 847 00","categoryIds":["attractions"],"categories":["Must-See Attractions"]},{"id":"mustSeeAttractions_3720c0633a0c","slug":"holy-monastery-of-the-virgin-mary-chozoviotissa-3720","kind":"restaurant","name":"Holy Monastery of the Virgin Mary Chozoviotissa","lat":36.834565267585596,"lng":25.909512235575725,"url":"https://maps.app.goo.gl/v6AEM7JEAUPMzrvP7?g_st=ipc","address":"Amorgos 840 08","categoryIds":["attractions"],"categories":["Must-See Attractions"]},{"id":"mustSeeAttractions_a300a861d115","slug":"temple-of-apollo-portara-a300","kind":"restaurant","name":"Temple of Apollo (Portara)","lat":37.110129464281634,"lng":25.372467767266336,"url":"https://maps.app.goo.gl/baiRLz2tmYaTbVkt8?g_st=ipc","address":"Naxos 843 00","categoryIds":["attractions"],"categories":["Must-See Attractions"]},{"id":"mustSeeAttractions_00d499d24fcf","slug":"kastropoliteia-monemvasias-00d4","kind":"restaurant","name":"Καστροπολιτεία Μονεμβασιάς","lat":36.687484458767585,"lng":23.0558013260312,"url":"https://maps.app.goo.gl/a1RARGnxhykKakN29?g_st=ipc","address":"Monemvasia 230 70","categoryIds":["attractions"],"categories":["Must-See Attractions"]},{"id":"mustSeeAttractions_b10cf3afde5d","slug":"cape-tainaron-lighthouse-b10c","kind":"restaurant","name":"Cape Tainaron Lighthouse","lat":36.38632728796919,"lng":22.482904269212387,"url":"https://maps.app.goo.gl/qXxKEnky6NL6j8mX7?g_st=ipc","address":"Ανατολική Μάνη Ακρωτήριο Ταιναρο Anatoliki Mani, 230 71","categoryIds":["attractions"],"categories":["Must-See Attractions"]}],"nearby":[{"id":"municipalities_a229663fa0f9","slug":"faistos-a229","kind":"municipality","name":"Φαιστός","lat":35.05,"lng":24.88,"region":"Νότια Κρήτη","name_en":"Phaistos","region_en":"South Crete","distanceKm":5.956437135387964},{"id":"municipalities_a0cd23d8e321","slug":"matala-a0cd","kind":"municipality","name":"Μάταλα","lat":34.9953,"lng":24.7496,"region":"Κρήτη","name_en":"Matala","region_en":"Crete","distanceKm":8.589811129932084},{"id":"wineriesVineyards_677336f8e41e","slug":"zacharioudakis-winery-6773","kind":"restaurant","name":"Zacharioudakis Winery","lat":35.077704088524044,"lng":24.941456893238932,"url":"https://maps.app.goo.gl/3MnhGaPvjLYbnZLf9?g_st=ipc","address":"Πλούτη 704 00","categoryIds":["wineries-vineyards"],"categories":["Wineries & Vineyards"],"distanceKm":11.914639325264043},{"id":"municipalities_7e06ecfbbc32","slug":"gortyna-7e06","kind":"municipality","name":"Γόρτυνα","lat":35.05,"lng":24.95,"aliases":["Gortyna","Gortina"],"region":"Νότια Κρήτη","name_en":"Gortyna","region_en":"South Crete","distanceKm":12.327575437450593},{"id":"wineriesVineyards_9cc28a86a508","slug":"diamantakis-winery-9cc2","kind":"restaurant","name":"Diamantakis Winery","lat":35.2119508828581,"lng":24.992812450943003,"url":"https://maps.app.goo.gl/bkHHKGBiuNPqDqhr9?g_st=ipc","address":"Kato Asites 700 13","categoryIds":["wineries-vineyards"],"categories":["Wineries & Vineyards"],"distanceKm":24.120893940846102},{"id":"wineriesVineyards_e898beacf16d","slug":"silva-daskalaki-winery-biodynamic-farming-e898","kind":"restaurant","name":"Silva Daskalaki Winery \"Biodynamic Farming\"","lat":35.208912270144424,"lng":25.03603983983806,"url":"https://maps.app.goo.gl/gpuUdyMFAFSDGWhB9?g_st=ipc","address":"Σίβα Ηρακλείου Κρήτης, Siva 700 11","categoryIds":["wineries-vineyards"],"categories":["Wineries & Vineyards"],"distanceKm":26.697476037192217},{"id":"municipalities_88475eea1332","slug":"anogeia-8847","kind":"municipality","name":"Ανώγεια","lat":35.294,"lng":24.884,"region":"Κεντρική Κρήτη","name_en":"Anogeia","region_en":"Central Crete","distanceKm":27.71522239200543},{"id":"wineriesVineyards_ed7776ab576e","slug":"douloufakis-winery-ed77","kind":"restaurant","name":"Douloufakis Winery","lat":35.21501780162754,"lng":25.04946643361547,"url":"https://maps.app.goo.gl/zMTfnAQij9XWewT4A?g_st=ipc","address":"Dafnes 700 11","categoryIds":["wineries-vineyards"],"categories":["Wineries & Vineyards"],"distanceKm":28.06511539607947}],"sameRegion":[],"mentionedGuides":[],"canonicalSlug":"minoan-palace-of-phaistos-f427","isCanonicalEntity":true},"__N_SSG":true}