{"pageProps":{"entity":{"id":"greekRestaurants_51d0de5678c5","slug":"mnemes-farm-51d0","kind":"restaurant","name":"Mnēmes Farm","lat":39.995744895148555,"lng":23.586019155143934,"url":"https://maps.app.goo.gl/Yr8SQnhBoShFTSkP6?g_st=ipc","address":"Εκτός Οικισμού Πευκοχωρίου, Πευκοχώρι 630 85","categoryIds":["greek-restaurants"],"categories":["Greek Restaurants"]},"sameCategory":[{"id":"greekRestaurants_1d153d1c9158","slug":"canela-restaurant-by-blue-carpet-1d15","kind":"restaurant","name":"Canela Restaurant by Blue Carpet","lat":39.993683609742966,"lng":23.60103609139866,"url":"https://maps.app.goo.gl/iBL9Hhx7josAfHZq6?g_st=ipc","address":"Παραλία, Πευκοχώρι 630 85","categoryIds":["greek-restaurants"],"categories":["Greek Restaurants"]},{"id":"greekRestaurants_2beb8ff39579","slug":"archontiko-agia-paraskeyi-2beb","kind":"restaurant","name":"Αρχοντικό Αγία Παρασκευή","lat":39.95369257965996,"lng":23.606491610468332,"url":"https://maps.app.goo.gl/Sg6pdLqPaLdxMQsT7?g_st=ipc","address":"Unnamed Road, Αγ. Παρασκευή 630 85","categoryIds":["greek-restaurants"],"categories":["Greek Restaurants"]},{"id":"greekRestaurants_3369a941ef57","slug":"taverna-giannikos-3369","kind":"restaurant","name":"Ταβέρνα Γιαννίκος","lat":39.94177003077369,"lng":23.66270542049451,"url":"https://maps.app.goo.gl/o6uWLuYRQYRTiAPA9?g_st=ipc","address":"Παλιούρι 630 85","categoryIds":["greek-restaurants"],"categories":["Greek Restaurants"]},{"id":"greekRestaurants_33e109e116ef","slug":"i-plateia-tis-anthoylas-33e1","kind":"restaurant","name":"Η Πλατεία της Ανθούλας","lat":40.03314783613042,"lng":23.477056436374422,"url":"https://maps.app.goo.gl/MZZAF1dJsdusePjd6?g_st=ipc","address":"Main road, Κρυοπηγή 630 77","categoryIds":["greek-restaurants"],"categories":["Greek Restaurants"]},{"id":"greekRestaurants_37aeec286967","slug":"o-zachos-37ae","kind":"restaurant","name":"Ο Ζάχος","lat":40.01217335149507,"lng":23.447184477767923,"url":"https://maps.app.goo.gl/zwVdQG5iLtPWd8BUA?g_st=ipc","address":"0, Κασσανδρηνό 630 77","categoryIds":["greek-restaurants"],"categories":["Greek Restaurants"]},{"id":"greekRestaurants_5f291c18ffbb","slug":"dias-restaurant-5f29","kind":"restaurant","name":"Dias Restaurant","lat":40.06967513248834,"lng":23.453446118410188,"url":"https://maps.app.goo.gl/CuNAkyg2DXjQVmd46?g_st=ipc","address":"Καλλιθέα Κασσανδρεια, Κασσανδρεία 630 77","categoryIds":["greek-restaurants"],"categories":["Greek Restaurants"]},{"id":"greekRestaurants_85a9c3158d92","slug":"stoy-thanasi-85a9","kind":"restaurant","name":"Στου Θανάση","lat":39.97151226037513,"lng":23.40064685012255,"url":"https://maps.app.goo.gl/M587jr7jBknUvhmQ9?g_st=ipc","address":"Unnamed Road, Καλάνδρα 630 77","categoryIds":["greek-restaurants"],"categories":["Greek Restaurants"]},{"id":"greekRestaurants_9f92ac7d9fa1","slug":"kardamo-9f92","kind":"restaurant","name":"Kardamo","lat":40.097556175200374,"lng":23.437132587550042,"url":"https://maps.app.goo.gl/ePoWRBDG86ratDjz8?g_st=ipc","address":"Άφυτος 630 77","categoryIds":["greek-restaurants"],"categories":["Greek Restaurants"]}],"nearby":[{"id":"coffeeBrunchRestaurants_1ac37112f669","slug":"achinos-tuti-beach-halkidiki-1ac3","kind":"restaurant","name":"Achinos Tuti Beach Halkidiki","lat":39.999483989821414,"lng":23.582157727223603,"url":"https://maps.app.goo.gl/diBbGVkfHMvFE7VE7?g_st=ipc","address":"Nisos Beach, Chaniotis 630 85","categoryIds":["coffee-brunch"],"categories":["Coffee & Brunch Spots"],"distanceKm":0.530148615080862},{"id":"dessertsRestaurants_4d9f43af452c","slug":"patisserie-achlatis-4d9f","kind":"restaurant","name":"patisserie Achlatis","lat":40.0008948533071,"lng":23.574509488353804,"url":"https://maps.app.goo.gl/LLNEhXXp3PJCCKgu7?g_st=ipc","address":"Chaniotis 630 85","categoryIds":["desserts"],"categories":["Dessert Shops"],"distanceKm":1.135408053477776},{"id":"cheapEatsRestaurants_e78668bce22c","slug":"garry-s-e786","kind":"restaurant","name":"Garry's","lat":40.000628811076744,"lng":23.573772244228277,"url":"https://maps.app.goo.gl/AswmP29i78TmQa9F9?g_st=ipc","address":"plateia, Chaniotis 630 85","categoryIds":["cheap-eats"],"categories":["Gyros & Cheap Eats"],"distanceKm":1.176110120632909},{"id":"fishTavernasRestaurants_b8de6ed27934","slug":"mamalouka-beach-bar-b8de","kind":"restaurant","name":"Mamalouka Beach Bar","lat":39.99397320123866,"lng":23.600495836465395,"url":"https://maps.app.goo.gl/jLfeA7GVxX2adg1N7?g_st=ipc","address":"Unnamed Road, Kassandra 630 85","categoryIds":["fish-tavernas"],"categories":["Fish Tavernas"],"distanceKm":1.2488564838744263},{"id":"coffeeBrunchRestaurants_03429eb3012a","slug":"mamalouka-beach-bar-0342","kind":"restaurant","name":"Mamalouka Beach Bar","lat":39.99397355305258,"lng":23.600497598852627,"url":"https://maps.app.goo.gl/PoTnpjRujbpdssuq7?g_st=ipc","address":"Unnamed Road, Kassandra 630 85","categoryIds":["coffee-brunch"],"categories":["Coffee & Brunch Spots"],"distanceKm":1.2489985634200316},{"id":"greekRestaurants_1d153d1c9158","slug":"canela-restaurant-by-blue-carpet-1d15","kind":"restaurant","name":"Canela Restaurant by Blue Carpet","lat":39.993683609742966,"lng":23.60103609139866,"url":"https://maps.app.goo.gl/iBL9Hhx7josAfHZq6?g_st=ipc","address":"Παραλία, Πευκοχώρι 630 85","categoryIds":["greek-restaurants"],"categories":["Greek Restaurants"],"distanceKm":1.2996167489255395},{"id":"coffeeBrunchRestaurants_0fe0a5c9639e","slug":"canela-restaurant-by-blue-carpet-0fe0","kind":"restaurant","name":"Canela Restaurant by Blue Carpet","lat":39.99355871861254,"lng":23.60104135467034,"url":"https://maps.app.goo.gl/aPnsSZ9vtDLsCtCKA?g_st=ipc","address":"Παραλία, Pefkochori 630 85","categoryIds":["coffee-brunch"],"categories":["Coffee & Brunch Spots"],"distanceKm":1.3025793331295763},{"id":"coffeeBrunchRestaurants_65ba92d0cd82","slug":"golden-beach-near-paliouri-65ba","kind":"restaurant","name":"Golden Beach Near Paliouri","lat":40.00000157623716,"lng":23.566669631082956,"url":"https://maps.app.goo.gl/BuoQtJYMzAyirA8L6?g_st=ipc","address":"Pallini 630 85","categoryIds":["coffee-brunch"],"categories":["Coffee & Brunch Spots"],"distanceKm":1.7148635484324684}],"sameRegion":[],"mentionedGuides":[],"canonicalSlug":"mnemes-farm-51d0","isCanonicalEntity":true},"__N_SSG":true}