{"pageProps":{"entity":{"id":"greekRestaurants_f52198928cda","slug":"mystikos-kipos-f521","kind":"restaurant","name":"Μυστικός Κήπος","lat":38.02018220795105,"lng":23.798366893276665,"url":"https://maps.app.goo.gl/RvfsJX8RaCUstXSa6?g_st=ipc","address":"Καραολη Δημήτριου 21, Χαλάνδρι 152 32","categoryIds":["greek-restaurants"],"categories":["Greek Restaurants"]},"sameCategory":[{"id":"greekRestaurants_69231f24503b","slug":"mpakalotaverna-6923","kind":"restaurant","name":"Μπακαλοταβέρνα","lat":38.02091962634735,"lng":23.79935272546419,"url":"https://maps.app.goo.gl/D6gW3fsdkz7sh9bg8?g_st=ipc","address":"Θουκυδίδου 6, Χαλάνδρι 152 32","categoryIds":["greek-restaurants"],"categories":["Greek Restaurants"]},{"id":"greekRestaurants_42b778a801b1","slug":"psomi-alati-42b7","kind":"restaurant","name":"ΨΩΜΙ & ΑΛΑΤΙ","lat":38.02138760980619,"lng":23.797709722137604,"url":"https://maps.app.goo.gl/3yMZtJ6XHLXuktHM7?g_st=ipc","address":"Πλ. Ελευθερωτών 8, Χαλάνδρι 152 32","categoryIds":["greek-restaurants"],"categories":["Greek Restaurants"]},{"id":"greekRestaurants_6657f75f25c7","slug":"trypia-dekara-6657","kind":"restaurant","name":"Τρύπια Δεκάρα","lat":38.020535111511364,"lng":23.799981150995844,"url":"https://maps.app.goo.gl/aTApNBNRqHkEo3CH8?g_st=ipc","address":"Θεμιστοκλέους 6, Χαλάνδρι 152 32","categoryIds":["greek-restaurants"],"categories":["Greek Restaurants"]},{"id":"greekRestaurants_c76d4019c4d8","slug":"mparmpalias-c76d","kind":"restaurant","name":"Μπαρμπαλιάς","lat":38.02244991899446,"lng":23.7965243912459,"url":"https://maps.app.goo.gl/G25mEs6QontzWR8o6?g_st=ipc","address":"Λεωφ. Βασιλέως Γεωργίου B 6, Χαλάνδρι 152 33","categoryIds":["greek-restaurants"],"categories":["Greek Restaurants"]},{"id":"greekRestaurants_a120da3cfe10","slug":"mezedopoleio-iordanis-a120","kind":"restaurant","name":"Μεζεδοπωλείο Ιορδάνης","lat":38.020133303757966,"lng":23.80185334902281,"url":"https://maps.app.goo.gl/FYyCghhM4WWKom5n9?g_st=ipc","address":"Αριστοτέλους 42, Χαλάνδρι 152 32","categoryIds":["greek-restaurants"],"categories":["Greek Restaurants"]},{"id":"greekRestaurants_166b7c278db9","slug":"tzitzikas-kai-mermigkas-166b","kind":"restaurant","name":"Τζίτζικας Και Μέρμηγκας","lat":38.02047878345652,"lng":23.804706604274816,"url":"https://maps.app.goo.gl/8pYJH9GZBYeQD5mk6?g_st=ipc","address":"Αισχύλου 26, Χαλάνδρι 152 34","categoryIds":["greek-restaurants"],"categories":["Greek Restaurants"]},{"id":"greekRestaurants_332aa0a30f34","slug":"to-koytoyki-332a","kind":"restaurant","name":"Το Κουτούκι","lat":38.01916385299786,"lng":23.80500366441751,"url":"https://maps.app.goo.gl/SuZCLAfs8GjCTcWG6?g_st=ipc","address":"Υψηλάντου 5, Χαλάνδρι 152 32","categoryIds":["greek-restaurants"],"categories":["Greek Restaurants"]},{"id":"greekRestaurants_d69b3b0c43b8","slug":"kitsoylas-d69b","kind":"restaurant","name":"Κίτσουλας","lat":38.016425119808176,"lng":23.79174907985474,"url":"https://maps.app.goo.gl/BU8FgqdqottuQizc9?g_st=ipc","address":"Φιλικής Εταιρείας 25Γ, Χαλάνδρι 152 32","categoryIds":["greek-restaurants"],"categories":["Greek Restaurants"]}],"nearby":[{"id":"italianRestaurants_449a551f4dc8","slug":"come-a-casa-449a","kind":"restaurant","name":"Come A Casa","lat":38.020170312119056,"lng":23.798225694950606,"url":"https://maps.app.goo.gl/Go53VnWKyGjFvBK38?g_st=ipc","address":"Καραολη Δημήτριου 17, Χαλάνδρι 152 32","categoryIds":["italian"],"categories":["Italian Restaurants"],"distanceKm":0.012439316466330485},{"id":"dessertsRestaurants_babd3d2ca062","slug":"evita-loves-cakes-babd","kind":"restaurant","name":"Evita Loves Cakes","lat":38.0200138607173,"lng":23.79854862190682,"url":"https://maps.app.goo.gl/uPYrT5Fyo6EZTYdv7?g_st=ipc","address":"Καραολη Δημήτριου 23A, Χαλάνδρι 152 32","categoryIds":["desserts"],"categories":["Dessert Shops"],"distanceKm":0.024573064485143518},{"id":"vegetarianRestaurants_a667646c43d0","slug":"pink-elephant-a667","kind":"restaurant","name":"Pink Elephant","lat":38.02048886312005,"lng":23.79851470032454,"url":"https://maps.app.goo.gl/JBEM9qi3Gh27zDWa9?g_st=ipc","address":"Sokratous 4Α, Chalandri 152 32","categoryIds":["vegetarian"],"categories":["Vegetarian Friendly Restaurants"],"distanceKm":0.03647396224804528},{"id":"coffeeBrunchRestaurants_c494cdae0eac","slug":"penny-lane-comfort-food-c494","kind":"restaurant","name":"Penny Lane Comfort Food","lat":38.02034857308637,"lng":23.798833782982413,"url":"https://maps.app.goo.gl/pHD9NuQvxt5E3ECz5?g_st=ipc","address":"Θουκυδίδου 12, Χαλάνδρι 152 32","categoryIds":["coffee-brunch"],"categories":["Coffee & Brunch Spots"],"distanceKm":0.04488796539551265},{"id":"mexicanRestaurants_6c5519ffe304","slug":"picasso-athens-6c55","kind":"restaurant","name":"Picasso Athens","lat":38.019815508215686,"lng":23.798687453855152,"url":"https://maps.app.goo.gl/J7mbR7We3G9gTLqS6?g_st=ipc","address":"Καραολη Δημήτριου 22, Χαλάνδρι 152 32","categoryIds":["mexican"],"categories":["Mexican Restaurants"],"distanceKm":0.049509004985906026},{"id":"coffeeBrunchRestaurants_e07c2fe046a1","slug":"koulouri-lab-e07c","kind":"restaurant","name":"Koulouri Lab","lat":38.02001411382259,"lng":23.797606580273964,"url":"https://maps.app.goo.gl/PenVFxTnARKzLw62A?g_st=ipc","address":"Ανδρέα Παπανδρέου 36, Αθήνα 152 32","categoryIds":["coffee-brunch"],"categories":["Coffee & Brunch Spots"],"distanceKm":0.06917552482177354},{"id":"italianRestaurants_0499cd7a1aa6","slug":"totonno-pizzeria-0499","kind":"restaurant","name":"Totonno Pizzeria","lat":38.0207813740758,"lng":23.7979881651798,"url":"https://maps.app.goo.gl/nUn81XsFVAHwxcV18?g_st=ipc","address":"Καλογρέζης 1, Χαλάνδρι 152 32","categoryIds":["italian"],"categories":["Italian Restaurants"],"distanceKm":0.07442735917805657},{"id":"dessertsRestaurants_8bed364f6d2d","slug":"solo-gelato-chalandri-8bed","kind":"restaurant","name":"Solo Gelato Chalandri","lat":38.01968693370907,"lng":23.79741986314135,"url":"https://maps.app.goo.gl/VbYTpPhNsegGr8sa6?g_st=ipc","address":"Ανδρέα Παπανδρέου 44, Χαλάνδρι 152 32","categoryIds":["desserts"],"categories":["Dessert Shops"],"distanceKm":0.09957458096669426}],"sameRegion":[],"mentionedGuides":[],"canonicalSlug":"mystikos-kipos-f521","isCanonicalEntity":true},"__N_SSG":true}