{"pageProps":{"entity":{"id":"coffeeBrunchRestaurants_2fddcd2fe039","slug":"neropistolo-2fdd","kind":"restaurant","name":"Neropistolo","lat":37.974517291275795,"lng":23.7322749472112,"url":"https://maps.app.goo.gl/BtaYzYAqPmjvET4H6?g_st=ipc","address":"Βουλής 35, Αθήνα 105 57","categoryIds":["coffee-brunch"],"categories":["Coffee & Brunch Spots"]},"sameCategory":[{"id":"coffeeBrunchRestaurants_f0eff25de691","slug":"amandine-s-bagels-f0ef","kind":"restaurant","name":"Amandine's Bagels","lat":37.97477039083452,"lng":23.73321799541619,"url":"https://maps.app.goo.gl/spidgemnNTyMgFML7?g_st=ipc","address":"Νίκης 13, Αθήνα 105 57","categoryIds":["coffee-brunch"],"categories":["Coffee & Brunch Spots"]},{"id":"coffeeBrunchRestaurants_72ee5296056d","slug":"holy-llama-72ee","kind":"restaurant","name":"Holy Llama","lat":37.97397500358649,"lng":23.73312528899751,"url":"https://maps.app.goo.gl/5KzgeBBfEf77x8sL7?g_st=ipc","address":"Nikis, Syntagma 23, Αθήνα 105 57","categoryIds":["coffee-brunch"],"categories":["Coffee & Brunch Spots"]},{"id":"coffeeBrunchRestaurants_a3e6dda2655d","slug":"tazza-caffe-a3e6","kind":"restaurant","name":"Tazza caffe","lat":37.975499371808404,"lng":23.73172660898901,"url":"https://maps.app.goo.gl/uGLfA2cFXs7RueeS6?g_st=ipc","address":"Πετράκη 5, Αθήνα 105 63","categoryIds":["coffee-brunch"],"categories":["Coffee & Brunch Spots"]},{"id":"coffeeBrunchRestaurants_9c4210ba6277","slug":"72h-artisanal-bakery-eatery-athens-9c42","kind":"restaurant","name":"72H Artisanal Bakery & Eatery Athens","lat":37.97530265670539,"lng":23.731274229624415,"url":"https://maps.app.goo.gl/UcP2CHpDdGDnZnK4A?g_st=ipc","address":"27 Mitropoleos &, Πατρώου 9, Αθήνα 105 57","categoryIds":["coffee-brunch"],"categories":["Coffee & Brunch Spots"]},{"id":"coffeeBrunchRestaurants_29cc04ce6a93","slug":"ergon-bakehouse-athens-29cc","kind":"restaurant","name":"ERGON Bakehouse Athens","lat":37.97528171642416,"lng":23.731226375079583,"url":"https://maps.app.goo.gl/iqrzk1YEu34L4txn7?g_st=ipc","address":"27 Mitropoleos &, Πατρώου St, Αθήνα 105 57","categoryIds":["coffee-brunch"],"categories":["Coffee & Brunch Spots"]},{"id":"coffeeBrunchRestaurants_eb79294668c4","slug":"ermou-18-beyond-the-horizon-eb79","kind":"restaurant","name":"Ermou 18 Beyond the Horizon","lat":37.97612271055357,"lng":23.731891623776487,"url":"https://maps.app.goo.gl/2L1MqjzdZCmDsrCj6?g_st=ipc","address":"Ερμού 18, Αθήνα 105 63","categoryIds":["coffee-brunch"],"categories":["Coffee & Brunch Spots"]},{"id":"coffeeBrunchRestaurants_d761c46075d4","slug":"le-petit-village-d761","kind":"restaurant","name":"Le Petit Village","lat":37.97573184070448,"lng":23.730557151684366,"url":"https://maps.app.goo.gl/yQDokn8qrofNRvbN9?g_st=ipc","address":"Φωκίωνος 2, Αθήνα 105 63","categoryIds":["coffee-brunch"],"categories":["Coffee & Brunch Spots"]},{"id":"coffeeBrunchRestaurants_af73cfd62392","slug":"the-zillers-pastry-bar-af73","kind":"restaurant","name":"The Zillers Pastry Bar","lat":37.97475815330705,"lng":23.729657937121086,"url":"https://maps.app.goo.gl/F16LXUX65PanPNx76?g_st=ipc","address":"Παλαιολόγου Μπενιζέλου 6, Αθήνα 105 56","categoryIds":["coffee-brunch"],"categories":["Coffee & Brunch Spots"]}],"nearby":[{"id":"vegetarianRestaurants_b15388cdd5d4","slug":"wild-souls-athens-voulis-b153","kind":"restaurant","name":"Wild Souls Athens Voulis","lat":37.97449199299614,"lng":23.73213651821812,"url":"https://maps.app.goo.gl/ynTY6phLf8WCv9oj7?g_st=ipc","address":"Βουλής 36, Αθήνα 105 57","categoryIds":["vegetarian"],"categories":["Vegetarian Friendly Restaurants"],"distanceKm":0.012455565767530785},{"id":"burgersRestaurants_49b08b8052e0","slug":"birdman-49b0","kind":"restaurant","name":"Birdman","lat":37.97462442043903,"lng":23.73232607660368,"url":"https://maps.app.goo.gl/hqjbsZtLtS6aPvv9A?g_st=ipc","address":"Βουλής 35, Αθήνα 105 57","categoryIds":["burgers"],"categories":["Burger Spots"],"distanceKm":0.01272737954063052},{"id":"luxuryDiningRestaurants_47da98e7fa4e","slug":"sushimou-47da","kind":"restaurant","name":"Sushimou","lat":37.97442627061418,"lng":23.73246036031784,"url":"https://maps.app.goo.gl/N41tm7Rat4DFSsAU7?g_st=ipc","address":"Σκούφου 6, Αθήνα 105 57","categoryIds":["luxury-dining"],"categories":["Luxury Dining"],"distanceKm":0.01914589021172135},{"id":"asianRestaurants_0d95e4345c8a","slug":"sushimou-0d95","kind":"restaurant","name":"Sushimou","lat":37.97442757213257,"lng":23.73246192997683,"url":"https://maps.app.goo.gl/1y3Cs2ks6GF4C85F6?g_st=ipc","address":"Σκούφου 6, Αθήνα 105 57","categoryIds":["asian"],"categories":["Asian Restaurants"],"distanceKm":0.019187173076861713},{"id":"italianRestaurants_4213a3098622","slug":"ami-italian-bistrot-4213","kind":"restaurant","name":"Ami Italian Bistrot","lat":37.97469248298705,"lng":23.732316050865755,"url":"https://maps.app.goo.gl/ddcDFfjhHBSTkLzH8?g_st=ipc","address":"Βουλής, Απόλλωνος &, Αθήνα 105 57","categoryIds":["italian"],"categories":["Italian Restaurants"],"distanceKm":0.019810799131823813},{"id":"asianRestaurants_7b8b9814562d","slug":"pink-flamingo-dim-sum-7b8b","kind":"restaurant","name":"Pink Flamingo Dim Sum","lat":37.97460809363569,"lng":23.732494338257986,"url":"https://maps.app.goo.gl/fYsHDCdPt7Ag7nwx7?g_st=ipc","address":"Σκούφου 2-4, Αθήνα 105 57","categoryIds":["asian"],"categories":["Asian Restaurants"],"distanceKm":0.021719805195962533},{"id":"burgersRestaurants_fed9fc98ba72","slug":"lobby-athens-fed9","kind":"restaurant","name":"Lobby Athens","lat":37.97480226330857,"lng":23.732216902854162,"url":"https://maps.app.goo.gl/McpvxRFgv3HSY4VF6?g_st=ipc","address":"Βουλής 30, Αθήνα 105 57","categoryIds":["burgers"],"categories":["Burger Spots"],"distanceKm":0.03209329348511196},{"id":"asianRestaurants_e28b11d8898b","slug":"nolan-e28b","kind":"restaurant","name":"Nolan","lat":37.97479795746223,"lng":23.732371775380916,"url":"https://maps.app.goo.gl/X3KiMCEXwDEoAj3N6?g_st=ipc","address":"Βουλής 31 - 33, Αθήνα 105 57","categoryIds":["asian"],"categories":["Asian Restaurants"],"distanceKm":0.03234214337285931}],"sameRegion":[],"mentionedGuides":[],"canonicalSlug":"neropistolo-2fdd","isCanonicalEntity":true},"__N_SSG":true}