{"pageProps":{"entity":{"id":"cheapEatsRestaurants_b6d7f55c61d9","slug":"ohmami-street-food-thessaloniki-b6d7","kind":"restaurant","name":"Ohmami - Street Food / Thessaloniki","lat":40.63556315760708,"lng":22.947563243318125,"url":"https://maps.app.goo.gl/SWEWMLbzJrveMUjT7?g_st=ipc","address":"Patriarchoi Dionisii E 1, Thessaloniki 546 31","categoryIds":["cheap-eats"],"categories":["Gyros & Cheap Eats"]},"sameCategory":[{"id":"cheapEatsRestaurants_8af2c5ab8db1","slug":"paperbag-street-food-8af2","kind":"restaurant","name":"PAPERBAG || street food","lat":40.634629758562504,"lng":22.948314502108076,"url":"https://maps.app.goo.gl/EppjR6X5bpodm5MR7?g_st=ipc","address":"Achiropiitou 2, Thessaloniki 546 35","categoryIds":["cheap-eats"],"categories":["Gyros & Cheap Eats"]},{"id":"cheapEatsRestaurants_963344db5c1c","slug":"mimis-9633","kind":"restaurant","name":"Mimis","lat":40.63706330748784,"lng":22.950306559309492,"url":"https://maps.app.goo.gl/m8WS13tHpdvSyxE99?g_st=ipc","address":"Ag. Dimitriou 126, Thessaloniki 546 35","categoryIds":["cheap-eats"],"categories":["Gyros & Cheap Eats"]},{"id":"cheapEatsRestaurants_f0f66d3f1d3f","slug":"hot-dog-land-f0f6","kind":"restaurant","name":"HOT DOG Land","lat":40.63820917018459,"lng":22.947895316027907,"url":"https://maps.app.goo.gl/Y7VQCwH5JjChrXDb9?g_st=ipc","address":"Ag. Dimitriou 100, Thessaloniki 546 31","categoryIds":["cheap-eats"],"categories":["Gyros & Cheap Eats"]},{"id":"cheapEatsRestaurants_6f8bdca7e315","slug":"aigli-24h-crepe-toast-coffee-bougatsa-6f8b","kind":"restaurant","name":"\"AIGLI\" 24h CREPE-toast-coffee-BOUGATSA","lat":40.638115571761915,"lng":22.948717629555613,"url":"https://maps.app.goo.gl/LWSzARXmcX6GhcQdA?g_st=ipc","address":"Ag. Dimitriou 89, Thessaloniki 546 33","categoryIds":["cheap-eats"],"categories":["Gyros & Cheap Eats"]},{"id":"cheapEatsRestaurants_0768eebe37ba","slug":"o-gyros-tis-aristoteloys-0768","kind":"restaurant","name":"Ο Γύρος της Αριστοτέλους","lat":40.63507047582695,"lng":22.94368729541851,"url":"https://maps.app.goo.gl/j8pVp1d58tFR3FKR6?g_st=ipc","address":"Aristotélous 24, Thessaloniki 546 23","categoryIds":["cheap-eats"],"categories":["Gyros & Cheap Eats"]},{"id":"cheapEatsRestaurants_89af7e3d3903","slug":"dakee-spot-89af","kind":"restaurant","name":"Dakee spot","lat":40.6322179094533,"lng":22.947351485022043,"url":"https://maps.app.goo.gl/rccueDiq6UHSWjB86?g_st=ipc","address":"P. Mela 48, Thessaloniki 546 22","categoryIds":["cheap-eats"],"categories":["Gyros & Cheap Eats"]},{"id":"cheapEatsRestaurants_949277637a55","slug":"grill-105-street-9492","kind":"restaurant","name":"Grill 105 Street","lat":40.63849961526695,"lng":22.950253004997894,"url":"https://maps.app.goo.gl/ZgMdxKzTjuAureyV8?g_st=ic","address":"Kassandrou 105, Thessaloniki 546 33","categoryIds":["cheap-eats"],"categories":["Gyros & Cheap Eats"]},{"id":"cheapEatsRestaurants_bd4c36f00e26","slug":"balboa-thessaloniki-bd4c","kind":"restaurant","name":"Balboa Thessaloniki","lat":40.631903473697065,"lng":22.947513989325277,"url":"https://maps.app.goo.gl/oFPYJzUU4rgqitwB7?g_st=ipc","address":"P. Mela 42, Thessaloniki 546 22","categoryIds":["cheap-eats"],"categories":["Gyros & Cheap Eats"]}],"nearby":[{"id":"burgersRestaurants_c3d0c3efec16","slug":"ohmami-street-food-thessaloniki-c3d0","kind":"restaurant","name":"Ohmami - Street Food / Thessaloniki","lat":40.63556199320903,"lng":22.947562092920837,"url":"https://maps.app.goo.gl/NzN9wf8WYr2rjWbd7","address":"Patriarchoi Dionisii E 1, Thessaloniki 546 31","categoryIds":["burgers"],"categories":["Burger Spots"],"distanceKm":0.00016182395002115494},{"id":"greekRestaurants_13c994d14935","slug":"taverna-oyzeri-kosmas-13c9","kind":"restaurant","name":"Ταβέρνα - Ουζερί Κοσμάς","lat":40.635727203567235,"lng":22.94715477968318,"url":"https://maps.app.goo.gl/9edjcaLLqs3ZFkL47?g_st=ipc","address":"Πλάτωνος 15, Θεσσαλονίκη 546 31","categoryIds":["greek-restaurants"],"categories":["Greek Restaurants"],"distanceKm":0.03899630576672497},{"id":"coffeeBrunchRestaurants_3e6cfb10198f","slug":"shed-3e6c","kind":"restaurant","name":"shed","lat":40.63516182787635,"lng":22.9483681936243,"url":"https://maps.app.goo.gl/bczd7kAPu1ihwt9fA?g_st=ipc","address":"Patriarchoi Dionisii E 11, Thessaloniki 546 35","categoryIds":["coffee-brunch"],"categories":["Coffee & Brunch Spots"],"distanceKm":0.08127170305572826},{"id":"coffeeBrunchRestaurants_e22044bf3986","slug":"hue-roastery-e220","kind":"restaurant","name":"Hue Roastery","lat":40.63626725764962,"lng":22.94719442659408,"url":"https://maps.app.goo.gl/PGp8KLsttADm6bE79?g_st=ipc","address":"Filippou 38, Thessaloniki 546 31","categoryIds":["coffee-brunch"],"categories":["Coffee & Brunch Spots"],"distanceKm":0.08425101685023334},{"id":"cheapEatsRestaurants_8af2c5ab8db1","slug":"paperbag-street-food-8af2","kind":"restaurant","name":"PAPERBAG || street food","lat":40.634629758562504,"lng":22.948314502108076,"url":"https://maps.app.goo.gl/EppjR6X5bpodm5MR7?g_st=ipc","address":"Achiropiitou 2, Thessaloniki 546 35","categoryIds":["cheap-eats"],"categories":["Gyros & Cheap Eats"],"distanceKm":0.12161791283997414},{"id":"coffeeBrunchRestaurants_1ba6faa5ef16","slug":"naked-1ba6","kind":"restaurant","name":"NAKED","lat":40.6351156138034,"lng":22.949358819047884,"url":"https://maps.app.goo.gl/tVt4qfxaTjfyP7oG8?g_st=ipc","address":"Filippou 62, Thessaloniki 546 35","categoryIds":["coffee-brunch"],"categories":["Coffee & Brunch Spots"],"distanceKm":0.1594783523719403},{"id":"fishTavernasRestaurants_ec7fddf4df43","slug":"mourga-ec7f","kind":"restaurant","name":"Mourga","lat":40.635412338789585,"lng":22.94963013274726,"url":"https://maps.app.goo.gl/u7q8zzuEjPhJ53mR7?g_st=ipc","address":"Christopoulou 12, Thessaloniki 546 35","categoryIds":["fish-tavernas"],"categories":["Fish Tavernas"],"distanceKm":0.17521326365752674},{"id":"rooftopLoungesRestaurants_28b6f524a86b","slug":"bey-hamam-28b6","kind":"restaurant","name":"Bey Hamam","lat":40.635414762374545,"lng":22.945319011313067,"url":"https://maps.app.goo.gl/962RzcGYY41GffHm7?g_st=ipc","address":"Εγνατία, Mitropolitou Gennadiou 34, Thessaloniki 546 25","categoryIds":["rooftop-lounges"],"categories":["Rooftop Lounges"],"distanceKm":0.19009094070828578}],"sameRegion":[],"mentionedGuides":[{"slug":"greek-bakeries-brunch-coffee-guide-el","title":"Ελληνική Αρτοποιία, Brunch & Κουλτούρα Καφέ"},{"slug":"greek-bakeries-brunch-coffee-guide","title":"Greek Bakeries, Brunch & Coffee Culture"},{"slug":"tap-water-safe-greece-el","title":"Είναι Ασφαλές να Πίνετε Νερό Βρύσης στην Ελλάδα;"},{"slug":"tap-water-safe-greece","title":"Is Tap Water Safe to Drink in Greece?"},{"slug":"traveling-to-greece-on-a-budget-el","title":"Ταξιδι στην Ελλαδα με μικρο budget"},{"slug":"traveling-to-greece-on-a-budget","title":"Traveling to Greece on a Budget"}],"canonicalSlug":"ohmami-street-food-thessaloniki-b6d7","isCanonicalEntity":true},"__N_SSG":true}