{"pageProps":{"entity":{"id":"rooftopLoungesRestaurants_f8aeb4ce5c33","slug":"olympias-athinas-f8ae","kind":"restaurant","name":"Olympias Athinas","lat":37.98091887904227,"lng":23.72707749971783,"url":"https://maps.app.goo.gl/GanjxfuK53HVBugq8?g_st=ipc","address":"Αθηνάς 57, Αθήνα 105 51","categoryIds":["rooftop-lounges"],"categories":["Rooftop Lounges"]},"sameCategory":[{"id":"rooftopLoungesRestaurants_98e5b8f356b1","slug":"great-bear-rooftop-98e5","kind":"restaurant","name":"Great bear rooftop","lat":37.98095279009833,"lng":23.72523132911118,"url":"https://maps.app.goo.gl/zzGZ1B4cTEW9zwY37?g_st=ipc","address":"Πλ. Θεάτρου 18, Αθήνα 105 52","categoryIds":["rooftop-lounges"],"categories":["Rooftop Lounges"]},{"id":"rooftopLoungesRestaurants_e13e9020f860","slug":"horostasio-e13e","kind":"restaurant","name":"Horostasio","lat":37.979148709346994,"lng":23.729708422545425,"url":"https://maps.app.goo.gl/z4BDM28nzQm5DRAz5?g_st=ipc","address":"Σκουλενίου 2B, Αθήνα 105 61","categoryIds":["rooftop-lounges"],"categories":["Rooftop Lounges"]},{"id":"rooftopLoungesRestaurants_618102314dfe","slug":"momix-bar-athens-6181","kind":"restaurant","name":"MoMix Bar Athens","lat":37.97873103162127,"lng":23.723898549953017,"url":"https://maps.app.goo.gl/sokqQJABVgjaTNcT9?g_st=ipc","address":"Αγ. Αναργύρων 21, Αθήνα 105 54","categoryIds":["rooftop-lounges"],"categories":["Rooftop Lounges"]},{"id":"rooftopLoungesRestaurants_bda24dde9bba","slug":"titania-hotel-athens-bda2","kind":"restaurant","name":"Titania Hotel Athens","lat":37.98298183652686,"lng":23.731011710839574,"url":"https://maps.app.goo.gl/xqLuVZ72UNxG6j6w5?g_st=ipc","address":"Πανεπιστημίου 52, Αθήνα 106 78","categoryIds":["rooftop-lounges"],"categories":["Rooftop Lounges"]},{"id":"rooftopLoungesRestaurants_24e545264e5c","slug":"ms-24e5","kind":"restaurant","name":"MS","lat":37.97691417323162,"lng":23.726058429208038,"url":"https://maps.app.goo.gl/bs3sf3hsdSxC6Beo9?g_st=ipc","address":"Athinas 1 &, Ερμού, Αθήνα 105 54","categoryIds":["rooftop-lounges"],"categories":["Rooftop Lounges"]},{"id":"rooftopLoungesRestaurants_18ce337fd426","slug":"a-for-athens-18ce","kind":"restaurant","name":"A for Athens","lat":37.97687634031922,"lng":23.725767271545557,"url":"https://maps.app.goo.gl/Vq5qVpsf9STrBATY9?g_st=ipc","address":"Μιαούλη 2-4, Αθήνα 105 54","categoryIds":["rooftop-lounges"],"categories":["Rooftop Lounges"]},{"id":"rooftopLoungesRestaurants_304d8926bc1b","slug":"hyper-astro-bar-304d","kind":"restaurant","name":"Hyper Astro Bar","lat":37.97675012881044,"lng":23.726361870755426,"url":"https://maps.app.goo.gl/fGYKpxkmiHEMsHYe9?g_st=ipc","address":"Ερμού 78, & Αθηνάς 2, Αθήνα 105 51","categoryIds":["rooftop-lounges"],"categories":["Rooftop Lounges"]},{"id":"rooftopLoungesRestaurants_d2b2d3a1881c","slug":"luv-n-roll-house-tattoo-piercing-studio-athens-d2b2","kind":"restaurant","name":"LUV N ROLL HOUSE Tattoo & Piercing Studio | Athens","lat":37.977424235887426,"lng":23.72409772692034,"url":"https://maps.app.goo.gl/wef8tXnuzgY2o9iBA?g_st=ipc","address":"Καραϊσκάκη 14, Αθήνα 105 54","categoryIds":["rooftop-lounges"],"categories":["Rooftop Lounges"]}],"nearby":[{"id":"coffeeBrunchRestaurants_9ae1dd6e7d5a","slug":"psomas-n-mokka-kafekopteio-a-e-e-9ae1","kind":"restaurant","name":"ΨΩΜΑΣ, Ν., \"ΜΟΚΚΑ ΚΑΦΕΚΟΠΤΕΙΟ\" Α.Ε.Ε.","lat":37.98083447984655,"lng":23.727407040678795,"url":"https://maps.app.goo.gl/oAY3rXKoej3BQGy39?g_st=ipc","address":"Αθηνάς 44, Αθήνα 105 51","categoryIds":["coffee-brunch"],"categories":["Coffee & Brunch Spots"],"distanceKm":0.0303692539035985},{"id":"cheapEatsRestaurants_eaf8d8c0d190","slug":"bouloukos-kebab-eaf8","kind":"restaurant","name":"Bouloukos Kebab","lat":37.980172161906935,"lng":23.72690266572384,"url":"https://maps.app.goo.gl/eUePB41Ppi2PT7NL7?g_st=ipc","address":"Αθηνάς 53, Αθήνα 105 52","categoryIds":["cheap-eats"],"categories":["Gyros & Cheap Eats"],"distanceKm":0.08443330449692209},{"id":"greekRestaurants_9d442e3cec12","slug":"diporto-9d44","kind":"restaurant","name":"Δίπορτο","lat":37.9807615601589,"lng":23.725828141444957,"url":"https://maps.app.goo.gl/5PAR192kZJY8s4Hs8","address":"Sokratous 9 &, Θεάτρου 2, Αθήνα 105 52","categoryIds":["greek-restaurants"],"categories":["Greek Restaurants"],"distanceKm":0.11088934159025887},{"id":"luxuryDiningRestaurants_ad3f43513fe8","slug":"hasapika-central-market-ad3f","kind":"restaurant","name":"Hasapika Central Market","lat":37.98004920672925,"lng":23.72784326093664,"url":"https://maps.app.goo.gl/zfVsdMVE9KLHsZKR7?g_st=ipc","address":"Αριστογείτονος 1, Αθήνα 105 51","categoryIds":["luxury-dining"],"categories":["Luxury Dining"],"distanceKm":0.11771174760774791},{"id":"greekRestaurants_c16ca9f65dbe","slug":"oinomageireio-i-ipeiros-c16c","kind":"restaurant","name":"Οινομαγειρείο Η Ήπειρος","lat":37.980081996854445,"lng":23.728018952835075,"url":"https://maps.app.goo.gl/Ksa1sT3W1xvTwody6","address":"Φιλοποίμενος 4, Αθήνα 105 51","categoryIds":["greek-restaurants"],"categories":["Greek Restaurants"],"distanceKm":0.12437157475744148},{"id":"dessertsRestaurants_7f6602abadca","slug":"krinos-7f66","kind":"restaurant","name":"Κρίνος","lat":37.98041054951213,"lng":23.728412779668,"url":"https://maps.app.goo.gl/dP718rebSLuGyq4GA?g_st=ipc","address":"Αιόλου 87, Αθήνα 105 51","categoryIds":["desserts"],"categories":["Dessert Shops"],"distanceKm":0.12996679747288353},{"id":"vegetarianRestaurants_d9013916b890","slug":"dosa-house-d901","kind":"restaurant","name":"DOSA HOUSE","lat":37.98064310554285,"lng":23.725600541419325,"url":"https://maps.app.goo.gl/tYKvBnpT4mY8nvB58?g_st=ipc","address":"Θεάτρου 3, Αθήνα 105 52","categoryIds":["vegetarian"],"categories":["Vegetarian Friendly Restaurants"],"distanceKm":0.13303155672307804},{"id":"greekRestaurants_321ca0fca170","slug":"tis-theatroy-to-steki-321c","kind":"restaurant","name":"Της Θεάτρου το στέκι","lat":37.98069925682147,"lng":23.725498847688122,"url":"https://maps.app.goo.gl/7FMPKRwpazujA2C27","address":"Θεάτρου 7, Αθήνα 105 52","categoryIds":["greek-restaurants"],"categories":["Greek Restaurants"],"distanceKm":0.14050070978757187}],"sameRegion":[],"mentionedGuides":[],"canonicalSlug":"olympias-athinas-f8ae","isCanonicalEntity":true},"__N_SSG":true}