{"pageProps":{"entity":{"id":"dessertsRestaurants_07fcae20c5c0","slug":"osten-07fc","kind":"restaurant","name":"OSTEN","lat":40.55792217779551,"lng":23.01007689548662,"url":"https://maps.app.goo.gl/vtyePWkmH3e9Cxi2A?g_st=ipc","address":"4χλμ, Χαρ. Θέρμης, Thessaloniki 570 01","categoryIds":["desserts"],"categories":["Dessert Shops"]},"sameCategory":[{"id":"dessertsRestaurants_96b542039411","slug":"trigona-panoramatos-drossa-proin-giannis-96b5","kind":"restaurant","name":"Τρίγωνα Πανοράματος Δροσσά (πρώην Γιάννης)","lat":40.549930484948774,"lng":23.019231796608217,"url":"https://maps.app.goo.gl/iU3xLN5pQr3ggcxF9?g_st=ipc","address":"Tavaki 24, Thermi 570 01","categoryIds":["desserts"],"categories":["Dessert Shops"]},{"id":"dessertsRestaurants_ab7dd444d3fa","slug":"nick-alexoudas-ab7d","kind":"restaurant","name":"NICK ALEXOUDAS","lat":40.547044888222544,"lng":23.01874068673441,"url":"https://maps.app.goo.gl/SVoXU7LGnn3dArUNA?g_st=ipc","address":"Agiou Nikolaou 2, Thermi 570 01","categoryIds":["desserts"],"categories":["Dessert Shops"]},{"id":"dessertsRestaurants_f4e918b1bdf0","slug":"cinnabon-f4e9","kind":"restaurant","name":"Cinnabon","lat":40.55623010232396,"lng":22.993413011236047,"url":"https://maps.app.goo.gl/NCWBKtbPRQENGDWW7?g_st=ipc","address":"11ο Χμ, A/D Thessalonikis Neon Moudanion, 570 01","categoryIds":["desserts"],"categories":["Dessert Shops"]},{"id":"dessertsRestaurants_8fbacc0c06a7","slug":"terkenlis-8fba","kind":"restaurant","name":"Terkenlis","lat":40.55633315795377,"lng":22.993299667914595,"url":"https://maps.app.goo.gl/jz8nuACpM2Fnauw9A?g_st=ipc","address":"11ο χλμ, ΘΕΣΣΑΛΟΝΙΚΗΣ-ΜΟΥΔΑΝΙΩΝ, 555 35","categoryIds":["desserts"],"categories":["Dessert Shops"]},{"id":"dessertsRestaurants_04457d12c48e","slug":"yammy-donuts-0445","kind":"restaurant","name":"Yammy Donuts","lat":40.54588944546194,"lng":23.02111857717177,"url":"https://maps.app.goo.gl/BFRCZLpVmbK8YGZm9?g_st=ipc","address":"Tsaldari 5, Thermi 570 01","categoryIds":["desserts"],"categories":["Dessert Shops"]},{"id":"dessertsRestaurants_f1a37d27fc1f","slug":"pink-dot-cafe-f1a3","kind":"restaurant","name":"Pink Dot Cafe","lat":40.548405696052406,"lng":22.981865507905024,"url":"https://maps.app.goo.gl/gMytqU2WoyrUyoov8?g_st=ipc","address":"Leof. Georgikis Scholis 84, Pilea 570 01","categoryIds":["desserts"],"categories":["Dessert Shops"]},{"id":"dessertsRestaurants_ade0c81c0696","slug":"terkenlis-sa-ade0","kind":"restaurant","name":"Terkenlis SA","lat":40.53095135339602,"lng":23.040855842977592,"url":"https://maps.app.goo.gl/akE1bVgaSKcamD5a9?g_st=ipc","address":"EO Thessalonikis Poligirou, Thermi 570 01","categoryIds":["desserts"],"categories":["Dessert Shops"]},{"id":"dessertsRestaurants_2dd2e036af70","slug":"elenidis-2dd2","kind":"restaurant","name":"Elenidis","lat":40.590269244540906,"lng":23.036630664756583,"url":"https://maps.app.goo.gl/L8fJy8x72XPMwgQC6?g_st=ipc","address":"Venizelou 12, Panorama 552 36","categoryIds":["desserts"],"categories":["Dessert Shops"]}],"nearby":[{"id":"burgersRestaurants_d5586ce24d0b","slug":"osten-d558","kind":"restaurant","name":"OSTEN","lat":40.55792173583846,"lng":23.01007604885629,"url":"https://maps.app.goo.gl/JrNCtkPthNJns9L16?g_st=ipc","address":"4χλμ, Χαρ. Θέρμης, Thessaloniki 570 01","categoryIds":["burgers"],"categories":["Burger Spots"],"distanceKm":0.0000867795339556727},{"id":"familyFriendly_5db5a10042ec","slug":"les-raquettes-tennis-club-5db5","kind":"restaurant","name":"Les Raquettes Tennis Club","lat":40.55611851243244,"lng":23.00759531084474,"url":"https://maps.app.goo.gl/Uz7ZprsZow6RFsYs7?g_st=ipc","address":"Σοφοκλέους, Thermi 570 01","categoryIds":["family-friendly"],"categories":["Kid Friendly Locations"],"distanceKm":0.29013072632998366},{"id":"italianRestaurants_6cb6cc585c70","slug":"brothers-in-law-smash-n-pasta-thermi-6cb6","kind":"restaurant","name":"Brothers in Law Smash 'n' Pasta Thermi","lat":40.55612517346044,"lng":23.012690343386318,"url":"https://maps.app.goo.gl/eGCLTTn1odF58Myt5?g_st=ipc","address":"5 χλμ, Χαρ. Θέρμης 1ο χλμ, Thermi 570 01","categoryIds":["italian"],"categories":["Italian Restaurants"],"distanceKm":0.2977823553858006},{"id":"burgersRestaurants_21be773739d0","slug":"brothers-in-law-smash-n-pasta-thermi-21be","kind":"restaurant","name":"Brothers in Law Smash 'n' Pasta Thermi","lat":40.5561230976469,"lng":23.012690012150046,"url":"https://maps.app.goo.gl/tDetHtpfpgzNvuNC7?g_st=ipc","address":"5 χλμ, Χαρ. Θέρμης 1ο χλμ, Thermi 570 01","categoryIds":["burgers"],"categories":["Burger Spots"],"distanceKm":0.29791655520510624},{"id":"greekRestaurants_d6840627570a","slug":"lykos-chasapotaverna-d684","kind":"restaurant","name":"Lykos - Χασαποταβέρνα","lat":40.56114058445929,"lng":23.005199497641122,"url":"https://maps.app.goo.gl/H2wjVi3P1kdSmFTX8?g_st=ipc","address":"Χαρ. Θέρμης, Thessaloniki 570 01","categoryIds":["greek-restaurants"],"categories":["Greek Restaurants"],"distanceKm":0.5457500909372852},{"id":"italianRestaurants_2c8b66244f29","slug":"tonino-esperienza-italiana-2c8b","kind":"restaurant","name":"Tonino Esperienza Italiana","lat":40.56132998598623,"lng":23.004796368106923,"url":"https://maps.app.goo.gl/bZQiMSEwbhVFBxUd8?g_st=ipc","address":"Χαρ. Θέρμης, Thermi 570 01","categoryIds":["italian"],"categories":["Italian Restaurants"],"distanceKm":0.5853067176720784},{"id":"coffeeBrunchRestaurants_b47f6bd0d6ab","slug":"bahamas-urban-brunch-bar-b47f","kind":"restaurant","name":"Bahamas Urban |Brunch| Bar","lat":40.55455255928708,"lng":23.018985570943435,"url":"https://maps.app.goo.gl/MseUiktgczouvbdp7?g_st=ipc","address":"Thermis-Panoramatos Rd 7, Thermi 570 01","categoryIds":["coffee-brunch"],"categories":["Coffee & Brunch Spots"],"distanceKm":0.8407343779070082},{"id":"dessertsRestaurants_96b542039411","slug":"trigona-panoramatos-drossa-proin-giannis-96b5","kind":"restaurant","name":"Τρίγωνα Πανοράματος Δροσσά (πρώην Γιάννης)","lat":40.549930484948774,"lng":23.019231796608217,"url":"https://maps.app.goo.gl/iU3xLN5pQr3ggcxF9?g_st=ipc","address":"Tavaki 24, Thermi 570 01","categoryIds":["desserts"],"categories":["Dessert Shops"],"distanceKm":1.1780938346881669}],"sameRegion":[],"mentionedGuides":[],"canonicalSlug":"osten-07fc","isCanonicalEntity":true},"__N_SSG":true}