{"pageProps":{"entity":{"id":"italianRestaurants_c7fad2a2b587","slug":"parco-pizza-c7fa","kind":"restaurant","name":"PARCO PIZZA","lat":38.04774854674856,"lng":23.728958951505486,"url":"https://maps.app.goo.gl/UiJhpTwk6oBuPXFx9?g_st=ipc","address":"Λεωφ. Δημοκρατίας 9, Καματερό 134 51","categoryIds":["italian"],"categories":["Italian Restaurants"]},"sameCategory":[{"id":"italianRestaurants_ae6165c67299","slug":"pastabar-ae61","kind":"restaurant","name":"pastabar","lat":38.03729506274719,"lng":23.739505873670616,"url":"https://maps.app.goo.gl/bRqX3YLuyGMaGs896?g_st=ipc","address":"Λεωφ. Δεκελείας 136, Νέα Φιλαδέλφεια Αττικής 143 41","categoryIds":["italian"],"categories":["Italian Restaurants"]},{"id":"italianRestaurants_f98d171cbc3e","slug":"la-greca-ilion-f98d","kind":"restaurant","name":"La Greca Ίλιον","lat":38.033370068810264,"lng":23.70123370557317,"url":"https://maps.app.goo.gl/Btmva8rtUGkuoUtX6?g_st=ipc","address":"Έκτορος 140, Ίλιον 131 23","categoryIds":["italian"],"categories":["Italian Restaurants"]},{"id":"italianRestaurants_d84ce5fee7c0","slug":"piazza-d-amore-d84c","kind":"restaurant","name":"Piazza D'Amore","lat":38.046873886500826,"lng":23.765946699532154,"url":"https://maps.app.goo.gl/m24wKNSPTHZaNPpA9?g_st=ipc","address":"28ης Οκτωβρίου 8, Ηράκλειο 141 21","categoryIds":["italian"],"categories":["Italian Restaurants"]},{"id":"italianRestaurants_9ad90cbc1718","slug":"goloso-cucina-e-pizza-italiana-9ad9","kind":"restaurant","name":"Goloso Cucina e Pizza Italiana","lat":38.034154813582916,"lng":23.69590782983928,"url":"https://maps.app.goo.gl/pg641ieu7sSBX3fa7","address":"Petroupoleos 68-70, Petroupoli 131 23","categoryIds":["italian"],"categories":["Italian Restaurants"]},{"id":"italianRestaurants_9807c76fa027","slug":"kamikaze-9807","kind":"restaurant","name":"KAMIKAZE","lat":38.0243124367211,"lng":23.753568534514113,"url":"https://maps.app.goo.gl/nGW44VsbXXjFk6eF7?g_st=ipc","address":"Ναρκίσσου 34-36, Γαλάτσι 111 46","categoryIds":["italian"],"categories":["Italian Restaurants"]},{"id":"italianRestaurants_c18420cfda0e","slug":"pizzamore-c184","kind":"restaurant","name":"Pizzamore","lat":38.01171283477954,"lng":23.755383909223237,"url":"https://maps.app.goo.gl/kYHyarXW2TAM2VEr9?g_st=ipc","address":"Πρωτοπαπαδάκη 20, Γαλάτσι 111 47","categoryIds":["italian"],"categories":["Italian Restaurants"]},{"id":"italianRestaurants_764eadc47084","slug":"pizza-days-ano-liosion-764e","kind":"restaurant","name":"Pizza Days - Άνω Λιοσίων","lat":38.08738762293733,"lng":23.705019354443774,"url":"https://maps.app.goo.gl/j8oAF5aTcAufPq229?g_st=ipc","address":"Πηνειού 38, Άνω Λιόσια 133 41","categoryIds":["italian"],"categories":["Italian Restaurants"]},{"id":"italianRestaurants_a2a46beb60d1","slug":"mamas-pizza-a2a4","kind":"restaurant","name":"mamas pizza","lat":38.00286067766126,"lng":23.729687108811326,"url":"https://maps.app.goo.gl/GBCYCeq3F77e7FqH8?g_st=ipc","address":"Φυλής 197, Αθήνα 112 52","categoryIds":["italian"],"categories":["Italian Restaurants"]}],"nearby":[{"id":"cheapEatsRestaurants_84f34ec821dd","slug":"o-stefanos-soyvlakia-84f3","kind":"restaurant","name":"Ο ΣΤΕΦΑΝΟΣ ΣΟΥΒΛΑΚΙΑ","lat":38.045163297484955,"lng":23.729228755056532,"url":"https://maps.app.goo.gl/Uog41UVXEyuZaDfdA?g_st=ipc","address":"Δεληγιάννη 71, Άγιοι Ανάργυροι 135 62","categoryIds":["cheap-eats"],"categories":["Gyros & Cheap Eats"],"distanceKm":0.2884358391439884},{"id":"familyFriendly_ee34f2b0b4d6","slug":"luna-park-aidonakia-s-a-ee34","kind":"restaurant","name":"Luna Park Aidonakia S.A.","lat":38.04298329114164,"lng":23.72412165922102,"url":"https://maps.app.goo.gl/7i1TWYeF8ZyU3Vq47?g_st=ipc","address":"Leof. Dimokratias, Agii Anargiri 131 22","categoryIds":["family-friendly"],"categories":["Kid Friendly Locations"],"distanceKm":0.6783782943163782},{"id":"familyFriendly_901096bfa3e5","slug":"mitropolitiko-parko-antonis-tritsis-9010","kind":"restaurant","name":"Μητροπολιτικό Πάρκο Αντώνης Τρίτσης","lat":38.04448272470426,"lng":23.721863541204524,"url":"https://maps.app.goo.gl/ruiCqSWVCT4XLQ6T7?g_st=ipc","address":"Σπύρου Μουστακλή 23, Ίλιον 131 22","categoryIds":["family-friendly"],"categories":["Kid Friendly Locations"],"distanceKm":0.719667897771103},{"id":"municipalities_88064bcfc221","slug":"kamatero-8806","kind":"municipality","name":"Καματερό","lat":38.05,"lng":23.72,"region":"Δυτικά Προάστια","name_en":"Kamatero","region_en":"Western Suburbs","distanceKm":0.8234633189403541},{"id":"municipalities_2d28cc1df46e","slug":"agioi-anargyroi-2d28","kind":"municipality","name":"Άγιοι Ανάργυροι","lat":38.04,"lng":23.73,"region":"Δυτικά Προάστια","name_en":"Agioi Anargyroi","region_en":"Western Suburbs","distanceKm":0.866408703219142},{"id":"greekRestaurants_9c1516b8d16d","slug":"mister-loykidelis-9c15","kind":"restaurant","name":"Μίστερ Λουκιδέλης","lat":38.03885909725717,"lng":23.736070793481,"url":"https://maps.app.goo.gl/CMKSzphqRyS8ewpNA","address":"Γεωρ. Παπανδρέου 81, Νέα Φιλαδέλφεια Αττικής 143 41","categoryIds":["greek-restaurants"],"categories":["Greek Restaurants"],"distanceKm":1.1683002854789974},{"id":"greekRestaurants_32d9fbbeb9ef","slug":"to-karagatsi-32d9","kind":"restaurant","name":"Το Καραγάτσι","lat":38.039818289814335,"lng":23.738940522044075,"url":"https://maps.app.goo.gl/8aQhSfNrT1Z9qqEm7","address":"Αγίου Ιωάννου 1, Νέα Φιλαδέλφεια Αττικής 143 42","categoryIds":["greek-restaurants"],"categories":["Greek Restaurants"],"distanceKm":1.2416172756742594},{"id":"greekRestaurants_977106c0152b","slug":"familokal-fagadiko-9771","kind":"restaurant","name":"Φαμιλόκαλ Φαγάδικο","lat":38.045110031748486,"lng":23.742897004373283,"url":"https://maps.app.goo.gl/cQhPg66yiWYq8LYP6","address":"Στρατάρχου Αλεξάνδρου Παπάγου 12, Νέα Φιλαδέλφεια Αττικής 143 42","categoryIds":["greek-restaurants"],"categories":["Greek Restaurants"],"distanceKm":1.255285043902459}],"sameRegion":[],"mentionedGuides":[],"canonicalSlug":"parco-pizza-c7fa","isCanonicalEntity":true},"__N_SSG":true}