{"pageProps":{"entity":{"id":"italianRestaurants_fbd799de8573","slug":"parlo-restaurant-fbd7","kind":"restaurant","name":"Parlo Restaurant","lat":37.99920315769846,"lng":23.772042235397578,"url":"https://maps.app.goo.gl/x9LunWYHnZkLF3B68?g_st=ipc","address":"Αδριανείου 25Α, Αθήνα 115 25","categoryIds":["italian"],"categories":["Italian Restaurants"]},"sameCategory":[{"id":"italianRestaurants_239ca6b05a02","slug":"tale-koyale-239c","kind":"restaurant","name":"ΤΑΛΕ ΚΟΥΑΛΕ","lat":37.998832186045824,"lng":23.771946797243086,"url":"https://maps.app.goo.gl/yxs9qh1QSGqVTa1R6?g_st=ipc","address":"Αδριανείου 20, Αθήνα 115 25","categoryIds":["italian"],"categories":["Italian Restaurants"]},{"id":"italianRestaurants_823bd134291f","slug":"barolo-athens-823b","kind":"restaurant","name":"Barolo Athens","lat":38.00586689220605,"lng":23.766484829557008,"url":"https://maps.app.goo.gl/q6hjeusYdDxNxDkB9","address":"Davaki 1, Psichiko 154 52","categoryIds":["italian"],"categories":["Italian Restaurants"]},{"id":"italianRestaurants_11b5c7ddc2cb","slug":"lolita-s-athens-11b5","kind":"restaurant","name":"Lolita's Athens","lat":38.00900399306317,"lng":23.779848762939032,"url":"https://maps.app.goo.gl/yBBC5XtbjE87q2fEA?g_st=ipc","address":"Λεωφ. Κηφισίας 340, Νέο Ψυχικό 154 51","categoryIds":["italian"],"categories":["Italian Restaurants"]},{"id":"italianRestaurants_ec803e4a09b8","slug":"etien-pizza-bar-ec80","kind":"restaurant","name":"Etien Pizza Bar","lat":38.00546047638011,"lng":23.78575711022555,"url":"https://maps.app.goo.gl/fXUuPjTevur2Va5m8?g_st=ipc","address":"25ης Μαρτίου 28, Νέο Ψυχικό 154 51","categoryIds":["italian"],"categories":["Italian Restaurants"]},{"id":"italianRestaurants_db8c50049699","slug":"pizzaiolo-db8c","kind":"restaurant","name":"pizzaiolo","lat":38.00035069734868,"lng":23.79281060180485,"url":"https://maps.app.goo.gl/KW1onnVwQCy1jQXk7?g_st=ipc","address":"Ασπασίας 63, Χολαργός 155 61","categoryIds":["italian"],"categories":["Italian Restaurants"]},{"id":"italianRestaurants_c18420cfda0e","slug":"pizzamore-c184","kind":"restaurant","name":"Pizzamore","lat":38.01171283477954,"lng":23.755383909223237,"url":"https://maps.app.goo.gl/kYHyarXW2TAM2VEr9?g_st=ipc","address":"Πρωτοπαπαδάκη 20, Γαλάτσι 111 47","categoryIds":["italian"],"categories":["Italian Restaurants"]},{"id":"italianRestaurants_6c7a694e9681","slug":"kentrina-6c7a","kind":"restaurant","name":"Kentrina","lat":38.013966629254554,"lng":23.786077267676728,"url":"https://maps.app.goo.gl/3jtSyfSCsogG92777?g_st=ipc","address":"Likourgou, Chalandri 152 31","categoryIds":["italian"],"categories":["Italian Restaurants"]},{"id":"italianRestaurants_9ab88b8b6007","slug":"innamorata-9ab8","kind":"restaurant","name":"Innamorata","lat":38.01461502802222,"lng":23.785308731358,"url":"https://maps.app.goo.gl/6pHzTzWoidEixrLw8?g_st=ipc","address":"Likourgou 5Α, Chalandri 152 31","categoryIds":["italian"],"categories":["Italian Restaurants"]}],"nearby":[{"id":"italianRestaurants_239ca6b05a02","slug":"tale-koyale-239c","kind":"restaurant","name":"ΤΑΛΕ ΚΟΥΑΛΕ","lat":37.998832186045824,"lng":23.771946797243086,"url":"https://maps.app.goo.gl/yxs9qh1QSGqVTa1R6?g_st=ipc","address":"Αδριανείου 20, Αθήνα 115 25","categoryIds":["italian"],"categories":["Italian Restaurants"],"distanceKm":0.0420893148240756},{"id":"dessertsRestaurants_69d8bc325b59","slug":"the-sweet-spot-69d8","kind":"restaurant","name":"The Sweet Spot","lat":38.000116106882906,"lng":23.77349448800709,"url":"https://maps.app.goo.gl/CH4eLFxcoxyVn5pM9?g_st=ipc","address":"Αδριανείου 46, Αθήνα 115 25","categoryIds":["desserts"],"categories":["Dessert Shops"],"distanceKm":0.16278262720938275},{"id":"asianRestaurants_49017a334068","slug":"the-sushi-bar-4901","kind":"restaurant","name":"The Sushi Bar","lat":37.99837454773829,"lng":23.77552075939677,"url":"https://maps.app.goo.gl/US8MP4C24AbbzMtL9","address":"Geor. Vlachou 38, Athina 115 25","categoryIds":["asian"],"categories":["Asian Restaurants"],"distanceKm":0.3184244976784088},{"id":"burgersRestaurants_2bbfe567ce4d","slug":"taz-smash-burger-2bbf","kind":"restaurant","name":"Taz Smash Burger","lat":37.9974813634221,"lng":23.768005845039937,"url":"https://maps.app.goo.gl/Ms7N2dUnnPDHDSW29?g_st=ipc","address":"Περικλή Σταύρου 3, Αθήνα 115 24","categoryIds":["burgers"],"categories":["Burger Spots"],"distanceKm":0.4021815558880368},{"id":"cheapEatsRestaurants_1dedf7a650a7","slug":"pita-pan-psychiko-1ded","kind":"restaurant","name":"Πίτα Παν Ψυχικό","lat":38.000864793942334,"lng":23.776520342405362,"url":"https://maps.app.goo.gl/ZXh8jCZFq67QiKQq7?g_st=ipc","address":"Αγγέλου Σικελιανού 28, Νέο Ψυχικό 154 51","categoryIds":["cheap-eats"],"categories":["Gyros & Cheap Eats"],"distanceKm":0.4337090805682704},{"id":"dessertsRestaurants_44539c96154c","slug":"katamaya-sweet-savory-4453","kind":"restaurant","name":"Katamaya Sweet & Savory","lat":38.001728655646296,"lng":23.776605222448108,"url":"https://maps.app.goo.gl/d4khgseTBK8h5W1MA?g_st=ipc","address":"Δημ. Βασιλείου 20, Ψυχικό 154 51","categoryIds":["desserts"],"categories":["Dessert Shops"],"distanceKm":0.48858639363777095},{"id":"familyFriendly_3f48a5ea582b","slug":"gymboree-play-music-neo-psychiko-3f48","kind":"restaurant","name":"Gymboree Play & Music ΝΕΟ Ψυχικό","lat":38.00040956605857,"lng":23.77746842451767,"url":"https://maps.app.goo.gl/YhbenTKqVr5zHZrSA?g_st=ipc","address":"Γρ. Ξενόπουλου 3Α, Νέο Ψυχικό 154 51","categoryIds":["family-friendly"],"categories":["Kid Friendly Locations"],"distanceKm":0.4940209136503069},{"id":"mexicanRestaurants_2a24bc59bf5a","slug":"casa-mexicana-2a24","kind":"restaurant","name":"Casa Mexicana","lat":38.00238200041886,"lng":23.77636430613833,"url":"https://maps.app.goo.gl/hZssyRcz7Rfft2mi6?g_st=ipc","address":"Δημ. Βασιλείου 16, Νέο Ψυχικό 154 51","categoryIds":["mexican"],"categories":["Mexican Restaurants"],"distanceKm":0.5180361993859542}],"sameRegion":[],"mentionedGuides":[],"canonicalSlug":"parlo-restaurant-fbd7","isCanonicalEntity":true},"__N_SSG":true}