{"pageProps":{"entity":{"id":"fishTavernasRestaurants_d069945d0fb2","slug":"pelicanos-d069","kind":"restaurant","name":"Pelicanos","lat":36.94422039775623,"lng":24.751254852785607,"url":"https://maps.app.goo.gl/xbF6ZRisum4Kfmgz5?g_st=ipc","address":"beach, Faros 840 03","categoryIds":["fish-tavernas"],"categories":["Fish Tavernas"]},"sameCategory":[{"id":"fishTavernasRestaurants_0067c5728086","slug":"alyelo-bar-restaurant-0067","kind":"restaurant","name":"Alyelo Bar Restaurant","lat":36.944070932851574,"lng":24.75112565793777,"url":"https://maps.app.goo.gl/R8Jg72P8QchmsSubA?g_st=ipc","address":"Φάρος 840 03","categoryIds":["fish-tavernas"],"categories":["Fish Tavernas"]},{"id":"fishTavernasRestaurants_4864e8e3be1a","slug":"angie-seaside-restaurant-4864","kind":"restaurant","name":"ANGIE seaside restaurant","lat":36.944136259291675,"lng":24.751012764820505,"url":"https://maps.app.goo.gl/bGogp723rTJwR3cx7?g_st=ipc","address":"Φαρος, Faros 840 03","categoryIds":["fish-tavernas"],"categories":["Fish Tavernas"]},{"id":"fishTavernasRestaurants_4baa7d7d1366","slug":"omega3-4baa","kind":"restaurant","name":"Omega3","lat":36.932052168795934,"lng":24.731352405475214,"url":"https://maps.app.goo.gl/jioScJGAm2izK6a49?g_st=ipc","address":"Πλατύς Γιαλός 840 03","categoryIds":["fish-tavernas"],"categories":["Fish Tavernas"]},{"id":"fishTavernasRestaurants_c2965cc0335d","slug":"maiolica-sifnos-c296","kind":"restaurant","name":"Maiòlica Sifnos","lat":36.93201088219794,"lng":24.731152746803176,"url":"https://maps.app.goo.gl/RsiuxKtR7W21BNnb8?g_st=ipc","address":"Πλατύς Γιαλός 840 03","categoryIds":["fish-tavernas"],"categories":["Fish Tavernas"]},{"id":"fishTavernasRestaurants_4051f6c5c5f1","slug":"yalos-sifnos-4051","kind":"restaurant","name":"Yalos Sifnos","lat":36.93198313076824,"lng":24.73092559432301,"url":"https://maps.app.goo.gl/hct1BV2oGe6F3cM97?g_st=ipc","address":"Πλατύς Γιαλός 840 03","categoryIds":["fish-tavernas"],"categories":["Fish Tavernas"]},{"id":"fishTavernasRestaurants_ce3871da46c4","slug":"captain-george-ce38","kind":"restaurant","name":"Captain George","lat":36.972680765040145,"lng":24.746232108057637,"url":"https://maps.app.goo.gl/XvLMJtYJDb2Y3mQR7?g_st=ipc","address":"Κάστρο 840 03","categoryIds":["fish-tavernas"],"categories":["Fish Tavernas"]},{"id":"fishTavernasRestaurants_8969975257d9","slug":"kalis-seafood-restaurant-8969","kind":"restaurant","name":"Kalis Seafood Restaurant","lat":37.142642900528166,"lng":24.514223256740497,"url":"https://maps.app.goo.gl/tQ8KG4SFF8YgjTwr9?g_st=ipc","address":"Λιβάδι 840 05","categoryIds":["fish-tavernas"],"categories":["Fish Tavernas"]},{"id":"fishTavernasRestaurants_027f6761e133","slug":"apoplous-greek-restaurant-027f","kind":"restaurant","name":"Apoplous Greek Restaurant","lat":36.99681929753503,"lng":25.136496141109756,"url":"https://maps.app.goo.gl/Akkg1SwxQNzQ7Qxb7?g_st=ipc","address":"Αλυκη Παρος, Aliki 844 00","categoryIds":["fish-tavernas"],"categories":["Fish Tavernas"]}],"nearby":[{"id":"fishTavernasRestaurants_0067c5728086","slug":"alyelo-bar-restaurant-0067","kind":"restaurant","name":"Alyelo Bar Restaurant","lat":36.944070932851574,"lng":24.75112565793777,"url":"https://maps.app.goo.gl/R8Jg72P8QchmsSubA?g_st=ipc","address":"Φάρος 840 03","categoryIds":["fish-tavernas"],"categories":["Fish Tavernas"],"distanceKm":0.020199997008554512},{"id":"fishTavernasRestaurants_4864e8e3be1a","slug":"angie-seaside-restaurant-4864","kind":"restaurant","name":"ANGIE seaside restaurant","lat":36.944136259291675,"lng":24.751012764820505,"url":"https://maps.app.goo.gl/bGogp723rTJwR3cx7?g_st=ipc","address":"Φαρος, Faros 840 03","categoryIds":["fish-tavernas"],"categories":["Fish Tavernas"],"distanceKm":0.023460423561120953},{"id":"coffeeBrunchRestaurants_bd7fc0151f49","slug":"fasolu-restaurant-beach-bar-bd7f","kind":"restaurant","name":"Fasolu Restaurant - Beach Bar","lat":36.941116049216255,"lng":24.753293392899685,"url":"https://maps.app.goo.gl/Lb3CYfu5rPNFtURu7?g_st=ipc","address":"Fassolou Beach, 840 03","categoryIds":["coffee-brunch"],"categories":["Coffee & Brunch Spots"],"distanceKm":0.3898412996723771},{"id":"greekRestaurants_556ba6aea8bf","slug":"to-steki-556b","kind":"restaurant","name":"Το Στέκι","lat":36.932144891987825,"lng":24.732143733490126,"url":"https://maps.app.goo.gl/V9M4s1KNBNRDerWW8?g_st=ipc","address":"Πλατύς Γυαλός, Σίφνος 840 03","categoryIds":["greek-restaurants"],"categories":["Greek Restaurants"],"distanceKm":2.1651629320638355},{"id":"fishTavernasRestaurants_4baa7d7d1366","slug":"omega3-4baa","kind":"restaurant","name":"Omega3","lat":36.932052168795934,"lng":24.731352405475214,"url":"https://maps.app.goo.gl/jioScJGAm2izK6a49?g_st=ipc","address":"Πλατύς Γιαλός 840 03","categoryIds":["fish-tavernas"],"categories":["Fish Tavernas"],"distanceKm":2.227013945774619},{"id":"luxuryDiningRestaurants_5a94207b2974","slug":"maiolica-sifnos-5a94","kind":"restaurant","name":"Maiòlica Sifnos","lat":36.9320107600118,"lng":24.73115373110344,"url":"https://maps.app.goo.gl/B9Sap96yo6EiNoxB7?g_st=ipc","address":"Πλατύς Γιαλός 840 03","categoryIds":["luxury-dining"],"categories":["Luxury Dining"],"distanceKm":2.2438478104032713},{"id":"fishTavernasRestaurants_c2965cc0335d","slug":"maiolica-sifnos-c296","kind":"restaurant","name":"Maiòlica Sifnos","lat":36.93201088219794,"lng":24.731152746803176,"url":"https://maps.app.goo.gl/RsiuxKtR7W21BNnb8?g_st=ipc","address":"Πλατύς Γιαλός 840 03","categoryIds":["fish-tavernas"],"categories":["Fish Tavernas"],"distanceKm":2.2439092406854253},{"id":"fishTavernasRestaurants_4051f6c5c5f1","slug":"yalos-sifnos-4051","kind":"restaurant","name":"Yalos Sifnos","lat":36.93198313076824,"lng":24.73092559432301,"url":"https://maps.app.goo.gl/hct1BV2oGe6F3cM97?g_st=ipc","address":"Πλατύς Γιαλός 840 03","categoryIds":["fish-tavernas"],"categories":["Fish Tavernas"],"distanceKm":2.261871684143364}],"sameRegion":[],"mentionedGuides":[],"canonicalSlug":"pelicanos-d069","isCanonicalEntity":true},"__N_SSG":true}