{"pageProps":{"entity":{"id":"cheapEatsRestaurants_e141c683e929","slug":"psitopoleio-o-ymittos-e141","kind":"restaurant","name":"ΨΗΤΟΠΩΛΕΙΟ Ο ΥΜΗΤΤΟΣ","lat":37.9376577150226,"lng":23.756325000053742,"url":"https://maps.app.goo.gl/jevMqjqUqMVWPizM7?g_st=ipc","address":"Λεωφ. Ειρήνης 12, Ηλιούπολη 163 45","categoryIds":["cheap-eats"],"categories":["Gyros & Cheap Eats"]},"sameCategory":[{"id":"cheapEatsRestaurants_53e2baa7ddae","slug":"o-giorgos-ilioypoli-53e2","kind":"restaurant","name":"Ο Γιώργος (Ηλιούπολη)","lat":37.93157343086467,"lng":23.756713794378285,"url":"https://maps.app.goo.gl/ZHk6UviE5DhKfmAcA?g_st=ipc","address":"Πλ. Εθ. Αντιστάσεως 8, Ηλιούπολη 163 42","categoryIds":["cheap-eats"],"categories":["Gyros & Cheap Eats"]},{"id":"cheapEatsRestaurants_53eb96e06f78","slug":"zampelis-soyvlaki-53eb","kind":"restaurant","name":"ΖΑΜΠΕΛΗΣ Σουβλάκι","lat":37.942278449963005,"lng":23.7489165228981,"url":"https://maps.app.goo.gl/mBFJVYTZsF1kBbtk7?g_st=ipc","address":"Λεωφ. Μαρίνου Αντύπα 42, Ηλιούπολη 163 46","categoryIds":["cheap-eats"],"categories":["Gyros & Cheap Eats"]},{"id":"cheapEatsRestaurants_6c0cf407b78a","slug":"psychiatreio-6c0c","kind":"restaurant","name":"Ψυχιατρείο","lat":37.941456168126024,"lng":23.74643601644418,"url":"https://maps.app.goo.gl/crPg8bmbS6pB7CL9A?g_st=ipc","address":"Αγίου Κωνσταντίνου 16, Ηλιούπολη 163 46","categoryIds":["cheap-eats"],"categories":["Gyros & Cheap Eats"]},{"id":"cheapEatsRestaurants_a6f267f71448","slug":"psitopoleio-o-kostas-a6f2","kind":"restaurant","name":"Ψητοπωλείο Ο Κώστας","lat":37.94774148940973,"lng":23.74608370924349,"url":"https://maps.app.goo.gl/8n9ne3gHR6APgQwh6?g_st=ipc","address":"Ηλιουπόλεως 157, Υμηττός 172 36","categoryIds":["cheap-eats"],"categories":["Gyros & Cheap Eats"]},{"id":"cheapEatsRestaurants_11e58e7bd1c7","slug":"pita-pan-11e5","kind":"restaurant","name":"Pita Pan","lat":37.93966105014638,"lng":23.74003701406881,"url":"https://maps.app.goo.gl/ub6T2bWkrrx9QZt69?g_st=ipc","address":"Παρ. Λεωφ. Βουλιαγμένης 276, Αγ. Δημήτριος Αττικής 173 43","categoryIds":["cheap-eats"],"categories":["Gyros & Cheap Eats"]},{"id":"cheapEatsRestaurants_b9d0dc3d0a7f","slug":"mayropipero-b9d0","kind":"restaurant","name":"Μαυροπίπερο","lat":37.939871957691295,"lng":23.73599315534295,"url":"https://maps.app.goo.gl/kLQRksA1KxobJdFA6?g_st=ipc","address":"Στρατάρχου Αλεξάνδρου Παπάγου 41, Αγ. Δημήτριος Αττικής 173 43","categoryIds":["cheap-eats"],"categories":["Gyros & Cheap Eats"]},{"id":"cheapEatsRestaurants_08d52517e6fc","slug":"mparmpa-mitsos-vyronas-08d5","kind":"restaurant","name":"Μπάρμπα Μήτσος Βύρωνας","lat":37.95390974598432,"lng":23.759679171308928,"url":"https://maps.app.goo.gl/1eSEWa3g6EhnDAvb6?g_st=ipc","address":"Επταλόφου 88, Βύρωνας 162 33","categoryIds":["cheap-eats"],"categories":["Gyros & Cheap Eats"]},{"id":"cheapEatsRestaurants_55ef34aff14a","slug":"aigyptios-55ef","kind":"restaurant","name":"ΑΙΓΥΠΤΙΟΣ","lat":37.919220373285064,"lng":23.75457772556386,"url":"https://maps.app.goo.gl/kKDBtgyh24ez28CR7?g_st=ipc","address":"Θράκης 58, Ηλιούπολη 163 41","categoryIds":["cheap-eats"],"categories":["Gyros & Cheap Eats"]}],"nearby":[{"id":"greekRestaurants_b996975f2765","slug":"to-koyzoylo-kritikes-geyseis-b996","kind":"restaurant","name":"Το Κουζουλό-Κρητικές Γεύσεις","lat":37.93790456342302,"lng":23.756307120209538,"url":"https://maps.app.goo.gl/92JS6PzrgTe3Moyv6","address":"Λεωφ. Ειρήνης 10, Ηλιούπολη 163 45","categoryIds":["greek-restaurants"],"categories":["Greek Restaurants"],"distanceKm":0.027493040352132018},{"id":"asianRestaurants_36f4a8956e8a","slug":"oma-sushi-bar-36f4","kind":"restaurant","name":"Oma Sushi Bar","lat":37.94009382367438,"lng":23.754689791765557,"url":"https://maps.app.goo.gl/sQ4YgJ2S6xgEEqCf7?g_st=ipc","address":"Ανδρέα Παπανδρέου 22, Ηλιούπολη 163 45","categoryIds":["asian"],"categories":["Asian Restaurants"],"distanceKm":0.30649855907626056},{"id":"dessertsRestaurants_87a8c1a7fdc0","slug":"l-arte-del-gelato-87a8","kind":"restaurant","name":"L'Arte del Gelato","lat":37.9335716460019,"lng":23.757250383926916,"url":"https://maps.app.goo.gl/d44Jasgx3fqMB2996?g_st=ipc","address":"Λεωφ. Ελ. Βενιζέλου 135, Ηλιούπολη 163 45","categoryIds":["desserts"],"categories":["Dessert Shops"],"distanceKm":0.46154125298154886},{"id":"coffeeBrunchRestaurants_04323df5602c","slug":"moments-cafe-0432","kind":"restaurant","name":"Moments cafe","lat":37.94145822074275,"lng":23.750459312660134,"url":"https://maps.app.goo.gl/6q9NBBvgffKvbrnG7?g_st=ipc","address":"Αγγέλου Σικελιανού 65, Ηλιούπολη 163 45","categoryIds":["coffee-brunch"],"categories":["Coffee & Brunch Spots"],"distanceKm":0.6657225815798361},{"id":"cheapEatsRestaurants_53e2baa7ddae","slug":"o-giorgos-ilioypoli-53e2","kind":"restaurant","name":"Ο Γιώργος (Ηλιούπολη)","lat":37.93157343086467,"lng":23.756713794378285,"url":"https://maps.app.goo.gl/ZHk6UviE5DhKfmAcA?g_st=ipc","address":"Πλ. Εθ. Αντιστάσεως 8, Ηλιούπολη 163 42","categoryIds":["cheap-eats"],"categories":["Gyros & Cheap Eats"],"distanceKm":0.6774002427340166},{"id":"dessertsRestaurants_851176573aad","slug":"zacharoplasteio-anastasia-8511","kind":"restaurant","name":"Ζαχαροπλαστείο ΑΝΑΣΤΑΣΙΑ","lat":37.936737596940006,"lng":23.764139852020705,"url":"https://maps.app.goo.gl/ckE6feeSmvZNEMur9?g_st=ipc","address":"Νεύτωνος 23, Ηλιούπολη 163 43","categoryIds":["desserts"],"categories":["Dessert Shops"],"distanceKm":0.6929400212118354},{"id":"dessertsRestaurants_7c5a207d8534","slug":"galaktopoleio-stamoy-7c5a","kind":"restaurant","name":"Γαλακτοπωλείο ΣΤΑΜΟΥ","lat":37.93137189453027,"lng":23.754775535968022,"url":"https://maps.app.goo.gl/o9wp2AdrozqHihcN7?g_st=ipc","address":"Λεωφ. Σοφοκλή Βενιζέλου 96, Ηλιούπολη 163 41","categoryIds":["desserts"],"categories":["Dessert Shops"],"distanceKm":0.7120385878606137},{"id":"cheapEatsRestaurants_53eb96e06f78","slug":"zampelis-soyvlaki-53eb","kind":"restaurant","name":"ΖΑΜΠΕΛΗΣ Σουβλάκι","lat":37.942278449963005,"lng":23.7489165228981,"url":"https://maps.app.goo.gl/mBFJVYTZsF1kBbtk7?g_st=ipc","address":"Λεωφ. Μαρίνου Αντύπα 42, Ηλιούπολη 163 46","categoryIds":["cheap-eats"],"categories":["Gyros & Cheap Eats"],"distanceKm":0.8282995705705882}],"sameRegion":[],"mentionedGuides":[],"canonicalSlug":"psitopoleio-o-ymittos-e141","isCanonicalEntity":true},"__N_SSG":true}