{"pageProps":{"entity":{"id":"greekRestaurants_fe1298439f3b","slug":"pyroliki-fe12","kind":"restaurant","name":"Πυρολίκι","lat":37.98138914645396,"lng":23.713920948942256,"url":"https://maps.app.goo.gl/VoibgN4wKpaNpoSG7","address":"Μεγ. Αλεξάνδρου 117, Αθήνα 104 35","categoryIds":["greek-restaurants"],"categories":["Greek Restaurants"]},"sameCategory":[{"id":"greekRestaurants_91881b4e9587","slug":"seramiko-9188","kind":"restaurant","name":"Σεράμικο","lat":37.98162530293091,"lng":23.71443381634983,"url":"https://maps.app.goo.gl/o8XfcUJ1JPyFTfao8","address":"Μεγ. Αλεξάνδρου 109-111, Αθήνα 104 35","categoryIds":["greek-restaurants"],"categories":["Greek Restaurants"]},{"id":"greekRestaurants_1b0710fd0635","slug":"loyis-kafeneio-1b07","kind":"restaurant","name":"Λούης καφενείο","lat":37.98085946462118,"lng":23.71532632472864,"url":"https://maps.app.goo.gl/HykcqWbVLkwR9HqJ7","address":"Λεωνίδου 87, Αθήνα 104 35","categoryIds":["greek-restaurants"],"categories":["Greek Restaurants"]},{"id":"greekRestaurants_7e068071958f","slug":"rafiki-7e06","kind":"restaurant","name":"Ραφίκι","lat":37.98338715429696,"lng":23.71184940799049,"url":"https://maps.app.goo.gl/awtPeTxoWYGakCkX9","address":"Πέλλης 22, Αθήνα 104 47","categoryIds":["greek-restaurants"],"categories":["Greek Restaurants"]},{"id":"greekRestaurants_79d853816a19","slug":"rakor-79d8","kind":"restaurant","name":"Rakor","lat":37.98047740550758,"lng":23.717062587155947,"url":"https://maps.app.goo.gl/eVrzxTMuCzQvAE596","address":"Πλαταιών 10, Αθήνα 104 35","categoryIds":["greek-restaurants"],"categories":["Greek Restaurants"]},{"id":"greekRestaurants_9611782bc12d","slug":"o-thessalos-9611","kind":"restaurant","name":"Ο Θεσσαλός","lat":37.98471994306453,"lng":23.712346428545427,"url":"https://maps.app.goo.gl/nM83keU2k42E2kxJ6","address":"Μελενίκου 2, Αθήνα 104 47","categoryIds":["greek-restaurants"],"categories":["Greek Restaurants"]},{"id":"greekRestaurants_6dad5c0e5b55","slug":"to-aygo-toy-kokkora-6dad","kind":"restaurant","name":"Το Αυγό Του Κόκκορα","lat":37.98270365301358,"lng":23.719206888648312,"url":"https://maps.app.goo.gl/iKbPmGsQDpnYazKs9","address":"Λεωνίδου 46, Αθήνα 104 36","categoryIds":["greek-restaurants"],"categories":["Greek Restaurants"]},{"id":"greekRestaurants_c6cbcafef8ce","slug":"to-palaio-kafeneio-c6cb","kind":"restaurant","name":"Το παλαιό καφενείο","lat":37.984456056477114,"lng":23.70991900524202,"url":"https://maps.app.goo.gl/giNLK8YBTxmzzF9PA","address":"Κορυτσάς 48, Αθήνα 104 47","categoryIds":["greek-restaurants"],"categories":["Greek Restaurants"]},{"id":"greekRestaurants_e9caa161f872","slug":"to-steki-toy-ilia-e9ca","kind":"restaurant","name":"Το Στέκι του Ηλία","lat":37.977110249497095,"lng":23.715901670048872,"url":"https://maps.app.goo.gl/wSbCCiegqHvWj8KcA","address":"Θεσσαλονίκης 7, Αθήνα 118 51","categoryIds":["greek-restaurants"],"categories":["Greek Restaurants"]}],"nearby":[{"id":"greekRestaurants_91881b4e9587","slug":"seramiko-9188","kind":"restaurant","name":"Σεράμικο","lat":37.98162530293091,"lng":23.71443381634983,"url":"https://maps.app.goo.gl/o8XfcUJ1JPyFTfao8","address":"Μεγ. Αλεξάνδρου 109-111, Αθήνα 104 35","categoryIds":["greek-restaurants"],"categories":["Greek Restaurants"],"distanceKm":0.05205840288366466},{"id":"greekRestaurants_1b0710fd0635","slug":"loyis-kafeneio-1b07","kind":"restaurant","name":"Λούης καφενείο","lat":37.98085946462118,"lng":23.71532632472864,"url":"https://maps.app.goo.gl/HykcqWbVLkwR9HqJ7","address":"Λεωνίδου 87, Αθήνα 104 35","categoryIds":["greek-restaurants"],"categories":["Greek Restaurants"],"distanceKm":0.13653190195797},{"id":"coffeeBrunchRestaurants_23781ddd1e06","slug":"10am-apotheke-2378","kind":"restaurant","name":"10AM apotheke","lat":37.98117919525422,"lng":23.71209439007436,"url":"https://maps.app.goo.gl/a8MxDmC9cjFhDaGA8?g_st=ic","address":"Konstantinoupoleos Ave. 82, Athina 104 35","categoryIds":["coffee-brunch"],"categories":["Coffee & Brunch Spots"],"distanceKm":0.161782298632807},{"id":"cheapEatsRestaurants_a74d191853cb","slug":"wolfie-s-iera-odos-a74d","kind":"restaurant","name":"Wolfie’s Iera Odos","lat":37.98005072086818,"lng":23.713098576163578,"url":"https://maps.app.goo.gl/WroCvakHc4brPbjt7?g_st=ipc","address":"Ιερά Οδός 37, Αθήνα 118 54","categoryIds":["cheap-eats"],"categories":["Gyros & Cheap Eats"],"distanceKm":0.16536139447089146},{"id":"luxuryDiningRestaurants_c1adda39b182","slug":"sta-kala-kathoymena-c1ad","kind":"restaurant","name":"Στα Καλά Καθούμενα","lat":37.97981343858823,"lng":23.713855292153,"url":"https://maps.app.goo.gl/kdwd63rguvb581o36?g_st=ipc","address":"Ιερά Οδός 25-27-29, Ιερά Οδός 29, Αθήνα 118 54","categoryIds":["luxury-dining"],"categories":["Luxury Dining"],"distanceKm":0.1753051952277129},{"id":"vegetarianRestaurants_5038de25697a","slug":"los-v-vegan-vegetarian-restaurant-5038","kind":"restaurant","name":"Los V - Vegan & Vegetarian Restaurant","lat":37.98154957793841,"lng":23.71604712211994,"url":"https://maps.app.goo.gl/ZWkqdkixRwwqeKq8A?g_st=ipc","address":"Πλαταιών 37, Αθήνα 104 35","categoryIds":["vegetarian"],"categories":["Vegetarian Friendly Restaurants"],"distanceKm":0.18720023476500727},{"id":"burgersRestaurants_6bb98587ed95","slug":"four-hands-6bb9","kind":"restaurant","name":"Four Hands","lat":37.98010264048048,"lng":23.71572330295299,"url":"https://maps.app.goo.gl/ppbxAjV7hVEDbZiV7?g_st=ipc","address":"Κεραμεικού 111, Αθήνα 104 35","categoryIds":["burgers"],"categories":["Burger Spots"],"distanceKm":0.21311562770325065},{"id":"cheapEatsRestaurants_9273dc402e3b","slug":"piccola-9273","kind":"restaurant","name":"Piccola","lat":37.980127892484575,"lng":23.715865229557284,"url":"https://maps.app.goo.gl/MuZFA3dXT4LnZFtL7?g_st=ipc","address":"Keramikou 111, Athina 104 35","categoryIds":["cheap-eats"],"categories":["Gyros & Cheap Eats"],"distanceKm":0.2206978874058474}],"sameRegion":[],"mentionedGuides":[],"canonicalSlug":"pyroliki-fe12","isCanonicalEntity":true},"__N_SSG":true}