{"pageProps":{"entity":{"id":"dessertsRestaurants_a081a0be0db3","slug":"so-in-d-cjdh-a081","kind":"restaurant","name":"So in d cjdh","lat":37.4444390329241,"lng":24.943371459609835,"url":"https://maps.app.goo.gl/kDu69AUHWaiUN8MD9?g_st=ipc","address":"Γεωρ. Γεννηματά, Ερμούπολη 841 00","categoryIds":["desserts"],"categories":["Dessert Shops"]},"sameCategory":[{"id":"dessertsRestaurants_047955347234","slug":"django-gelato-syros-0479","kind":"restaurant","name":"Django Gelato Syros","lat":37.44450627617555,"lng":24.944030796272305,"url":"https://maps.app.goo.gl/n5hxCbxJp7iEtRnS8?g_st=ipc","address":"Εμμανουήλ Ροΐδη 10, Ερμούπολη 841 00","categoryIds":["desserts"],"categories":["Dessert Shops"]},{"id":"dessertsRestaurants_4f049383a360","slug":"athymaritis-4f04","kind":"restaurant","name":"Αθυμαρίτης","lat":37.44304285674758,"lng":24.942058155197838,"url":"https://maps.app.goo.gl/QqZKei5CzCtJaWFv7?g_st=ipc","address":"ΚΕΑΣ, Επτανήσου 2, ΚΑΙ 841 00","categoryIds":["desserts"],"categories":["Dessert Shops"]},{"id":"dessertsRestaurants_059711f45839","slug":"mesklies-zacharoplasteio-tinos-0597","kind":"restaurant","name":"Μεσκλιές ζαχαροπλαστείο Τήνος","lat":37.53782261822991,"lng":25.160738844151368,"url":"https://maps.app.goo.gl/F9giWnJkDkh2tKMi8?g_st=ipc","address":"Επαρ.Οδ. Τήνου-Καλλονής 1876, Τήνος 842 00","categoryIds":["desserts"],"categories":["Dessert Shops"]},{"id":"dessertsRestaurants_7426a192dfcd","slug":"sol-bake-coffee-project-tinos-7426","kind":"restaurant","name":"Sol Bake & Coffee Project Tinos","lat":37.53735450561746,"lng":25.16338897699387,"url":"https://maps.app.goo.gl/pfudAWa8vWhrYMxA8?g_st=ipc","address":"Drosou, Tinos 842 00","categoryIds":["desserts"],"categories":["Dessert Shops"]},{"id":"dessertsRestaurants_757fe603b972","slug":"to-kentrikon-757f","kind":"restaurant","name":"Το Κεντρικόν","lat":37.63921354793122,"lng":25.04200584233484,"url":"https://maps.app.goo.gl/MoMdkmCiYwwuTbUi7?g_st=ipc","address":"Unnamed Road, Πύργος 842 01","categoryIds":["desserts"],"categories":["Dessert Shops"]},{"id":"dessertsRestaurants_fbeaff5bdac1","slug":"dopio-gelato-mykonos-fbea","kind":"restaurant","name":"Dopio Gelato Mykonos","lat":37.44519875814453,"lng":25.327173016826194,"url":"https://maps.app.goo.gl/Sp8BxDU518brNxns5?g_st=ipc","address":"Dopio Gelato Mykonos","categoryIds":["desserts"],"categories":["Dessert Shops"]},{"id":"dessertsRestaurants_0d1a14ec5981","slug":"i-scream-homemade-ice-cream-cafe-0d1a","kind":"restaurant","name":"I SCREAM homemade ice cream-cafe","lat":37.443153733966156,"lng":25.32768461351495,"url":"https://maps.app.goo.gl/figeZhjJhW1w1WGh6?g_st=ipc","address":"20 Street Fabrica Sq, Xenias, Mikonos 846 00","categoryIds":["desserts"],"categories":["Dessert Shops"]},{"id":"dessertsRestaurants_84cc29a238aa","slug":"kyklamino-patisserie-84cc","kind":"restaurant","name":"Kyklamino Patisserie","lat":37.44220457179905,"lng":25.335568445326103,"url":"https://maps.app.goo.gl/dBRJbrtLhCesFwGn6?g_st=ic","address":"Mykonos 846 00","categoryIds":["desserts"],"categories":["Dessert Shops"]}],"nearby":[{"id":"coffeeBrunchRestaurants_4d25f45b5203","slug":"armadillo-coffee-brewery-4d25","kind":"restaurant","name":"Armadillo coffee brewery","lat":37.44456566950848,"lng":24.94393269848808,"url":"https://maps.app.goo.gl/1CcqyVuzhyYwut3Y7?g_st=ipc","address":"Emmanouil Roidi 9, Ermoupoli 841 00","categoryIds":["coffee-brunch"],"categories":["Coffee & Brunch Spots"],"distanceKm":0.05150961175487283},{"id":"municipalities_10c41fed1584","slug":"syros-10c4","kind":"municipality","name":"Σύρος","lat":37.4442,"lng":24.9428,"aliases":["Syros","Siros","Σύρα","Συρος","Συρο"],"region":"Κυκλάδες","name_en":"Syros","region_en":"Cyclades","distanceKm":0.0570232702480218},{"id":"greekRestaurants_146807342037","slug":"ithaki-toy-ai-1468","kind":"restaurant","name":"Ιθάκη του Αή","lat":37.44420854822272,"lng":24.943948745039016,"url":"https://maps.app.goo.gl/KDXT6jt1hACmxQyQ9?g_st=ipc","address":"Κλώνος &, Κυπαρίσσου 1Α, Ερμούπολη 841 00","categoryIds":["greek-restaurants"],"categories":["Greek Restaurants"],"distanceKm":0.05704548696983694},{"id":"dessertsRestaurants_047955347234","slug":"django-gelato-syros-0479","kind":"restaurant","name":"Django Gelato Syros","lat":37.44450627617555,"lng":24.944030796272305,"url":"https://maps.app.goo.gl/n5hxCbxJp7iEtRnS8?g_st=ipc","address":"Εμμανουήλ Ροΐδη 10, Ερμούπολη 841 00","categoryIds":["desserts"],"categories":["Dessert Shops"],"distanceKm":0.05868611311472449},{"id":"greekRestaurants_1696c19253da","slug":"seminario-restaurant-1696","kind":"restaurant","name":"SEMINARIO RESTAURANT","lat":37.44429164128135,"lng":24.944085469492308,"url":"https://maps.app.goo.gl/nJKupgtgjMPeqH9s9?g_st=ipc","address":"Κυπαρίσσου 7, Ερμούπολη 841 00","categoryIds":["greek-restaurants"],"categories":["Greek Restaurants"],"distanceKm":0.06513039802822615},{"id":"vegetarianRestaurants_01ab7c5f61ba","slug":"seminario-01ab","kind":"restaurant","name":"SEMINARIO","lat":37.4442691864213,"lng":24.94407924993465,"url":"https://maps.app.goo.gl/67qtbde9XNL2VBgVA?g_st=ipc","address":"Kiparissou 7, Ermoupoli 841 00","categoryIds":["vegetarian"],"categories":["Vegetarian Friendly Restaurants"],"distanceKm":0.06527730966154872},{"id":"coffeeBrunchRestaurants_9e14262d126e","slug":"artisti-prozymi-9e14","kind":"restaurant","name":"Artisti Προζύμι","lat":37.44450469447684,"lng":24.94200878171083,"url":"https://maps.app.goo.gl/zBtgvSEn5xc7LXJYA?g_st=ipc","address":"Ermoupoli 841 00","categoryIds":["coffee-brunch"],"categories":["Coffee & Brunch Spots"],"distanceKm":0.12052187140857619},{"id":"coffeeBrunchRestaurants_5149b6e62713","slug":"nuru-casual-dine-bar-5149","kind":"restaurant","name":"NURU Casual Dine Bar","lat":37.44349077641299,"lng":24.94447380869693,"url":"https://maps.app.goo.gl/MAU2ryGQrQMcWyvh7?g_st=ipc","address":"Coast Petrou Ralli, Ermoupoli 841 00","categoryIds":["coffee-brunch"],"categories":["Coffee & Brunch Spots"],"distanceKm":0.14348798716107602}],"sameRegion":[],"mentionedGuides":[],"canonicalSlug":"so-in-d-cjdh-a081","isCanonicalEntity":true},"__N_SSG":true}