{"pageProps":{"entity":{"id":"burgersRestaurants_0f3559803382","slug":"street-burger-0f35","kind":"restaurant","name":"Street Burger","lat":37.907177869982185,"lng":23.732883953097378,"url":"https://maps.app.goo.gl/hySSSjtTD5s23KKdA?g_st=ipc","address":"Λεωφ. Αλίμου 56, Άλιμος 174 55","categoryIds":["burgers"],"categories":["Burger Spots"]},"sameCategory":[{"id":"burgersRestaurants_797126963f1f","slug":"amam-estiatorio-glyfada-7971","kind":"restaurant","name":"ΑΜΑΜ - ΕΣΤΙΑΤΟΡΙΟ - ΓΛΥΦΑΔΑ","lat":37.895880681449796,"lng":23.761095559330744,"url":"https://maps.app.goo.gl/fAsTx4mwCTHC78t86?g_st=ipc","address":"Γεωρ. Γεννηματά 11, Γλυφάδα 165 62","categoryIds":["burgers"],"categories":["Burger Spots"]},{"id":"burgersRestaurants_9c2f22b0606b","slug":"hashtag-burger-9c2f","kind":"restaurant","name":"Hashtag#Burger","lat":37.89371001882756,"lng":23.763217485797266,"url":"https://maps.app.goo.gl/BsuHdbYYc8dsSTwn8?g_st=ipc","address":"Γεωρ. Γεννηματά 26, Γλυφάδα 165 62","categoryIds":["burgers"],"categories":["Burger Spots"]},{"id":"burgersRestaurants_e2eccf34c175","slug":"hanky-panky-palaio-faliro-e2ec","kind":"restaurant","name":"Hanky Panky Palaio Faliro","lat":37.93089466239992,"lng":23.703396088291395,"url":"https://maps.app.goo.gl/psmqWjAqwrakd1ww7?g_st=ipc","address":"Πλ. Νταβάρη 2, Παλαιό Φάληρο 175 64","categoryIds":["burgers"],"categories":["Burger Spots"]},{"id":"burgersRestaurants_c05eb7f13ddf","slug":"psychiatreio-c05e","kind":"restaurant","name":"Ψυχιατρείο","lat":37.941454787946455,"lng":23.74643002685345,"url":"https://maps.app.goo.gl/nvzgc7zjFUEkgZMN8?g_st=ipc","address":"Αγίου Κωνσταντίνου 16, Ηλιούπολη 163 46","categoryIds":["burgers"],"categories":["Burger Spots"]},{"id":"burgersRestaurants_5acf17248b99","slug":"ryotei-118-5acf","kind":"restaurant","name":"Ryōtei 118","lat":37.879368551864765,"lng":23.76330532043917,"url":"https://maps.app.goo.gl/4KM3cF4mGHbENQpa6?g_st=ipc","address":"Δημ. Γούναρη 118, Γλυφάδα 166 74","categoryIds":["burgers"],"categories":["Burger Spots"]},{"id":"burgersRestaurants_ba4a0b5f3045","slug":"ryotei118-ba4a","kind":"restaurant","name":"Ryōtei118","lat":37.87936856839685,"lng":23.763367179515893,"url":"https://maps.app.goo.gl/jQiZ1pYw63j3q8zG9","address":"Dim. Gounari 118, Glifada 166 74","categoryIds":["burgers"],"categories":["Burger Spots"]},{"id":"burgersRestaurants_04aae23bfaf8","slug":"ryotei118-04aa","kind":"restaurant","name":"Ryōtei118","lat":37.87936597686111,"lng":23.763366153792095,"url":"https://maps.app.goo.gl/h4ktRtKS7BsVfu9u9?g_st=ic","address":"Dim. Gounari 118, Glifada 166 74","categoryIds":["burgers"],"categories":["Burger Spots"]},{"id":"burgersRestaurants_b47d84823c91","slug":"the-burger-joint-b47d","kind":"restaurant","name":"The Burger Joint","lat":37.942262724437896,"lng":23.71398429679752,"url":"https://maps.app.goo.gl/4gyyrfZJhxvHeHNj8?g_st=ipc","address":"Λεωφ. Ελ. Βενιζέλου 93, Νέα Σμύρνη 171 22","categoryIds":["burgers"],"categories":["Burger Spots"]}],"nearby":[{"id":"familyFriendly_b7e14b13fc56","slug":"paramythoypoli-ellinikoy-argyroypolis-b7e1","kind":"restaurant","name":"Παραμυθούπολη Ελληνικού Αργυρούπολης","lat":37.90960009979719,"lng":23.737312819815322,"url":"https://maps.app.goo.gl/MGgTCv28KmDG4VgK8?g_st=ipc","address":"Αλ. Παπαναστασίου, Αργυρούπολη 164 52","categoryIds":["family-friendly"],"categories":["Kid Friendly Locations"],"distanceKm":0.47277695492627025},{"id":"municipalities_4ce899ab5232","slug":"argyroypoli-4ce8","kind":"municipality","name":"Αργυρούπολη","lat":37.905,"lng":23.738,"region":"Νότια Προάστια","name_en":"Argyroupoli","region_en":"Southern Suburbs","distanceKm":0.5100165818228852},{"id":"municipalities_e380923f57a8","slug":"alimos-e380","kind":"municipality","name":"Άλιμος","lat":37.9105,"lng":23.7239,"region":"Νότια Προάστια","name_en":"Alimos","region_en":"Southern Suburbs","distanceKm":0.8704491702877826},{"id":"dessertsRestaurants_0682819026f8","slug":"katsioylis-artopoieio-0682","kind":"restaurant","name":"Κατσιούλης αρτοποιείο","lat":37.90633812907658,"lng":23.743452517791024,"url":"https://maps.app.goo.gl/4juH7NkhLbAnB7vd7?g_st=ipc","address":"Τιτάνων 4, Ελληνικό 167 77","categoryIds":["desserts"],"categories":["Dessert Shops"],"distanceKm":0.9319131482511603},{"id":"familyFriendly_09f0644c9732","slug":"lofos-politismoy-09f0","kind":"restaurant","name":"Λόφος πολιτισμού","lat":37.91111626951665,"lng":23.722999637224824,"url":"https://maps.app.goo.gl/MWLNyH93oknhhPcz9?g_st=ipc","address":"Άλιμος 174 55","categoryIds":["family-friendly"],"categories":["Kid Friendly Locations"],"distanceKm":0.9714704893765617},{"id":"coffeeBrunchRestaurants_a61757d67613","slug":"diakopes-kafe-mpar-a617","kind":"restaurant","name":"ΔΙΑΚΟΠΕΣ καφέ-μπαρ","lat":37.915984200989875,"lng":23.73311841263129,"url":"https://maps.app.goo.gl/NHUYpdxhhi6EStZD7?g_st=ipc","address":"Λεωφ. Ιωνίας 125, Άλιμος 174 56","categoryIds":["coffee-brunch"],"categories":["Coffee & Brunch Spots"],"distanceKm":0.9794353323880179},{"id":"familyFriendly_ae632d4e248a","slug":"protypo-oikogeneiako-parko-ae63","kind":"restaurant","name":"Πρότυπο Οικογενειακό Πάρκο","lat":37.904103805227116,"lng":23.74422997348302,"url":"https://maps.app.goo.gl/kUkHYYpwWmY27cqm9?g_st=ipc","address":"Δραγατσανίου, Ελληνικό 167 77","categoryIds":["family-friendly"],"categories":["Kid Friendly Locations"],"distanceKm":1.0525006777638493},{"id":"cheapEatsRestaurants_c226e99422f7","slug":"montagu-c226","kind":"restaurant","name":"Montagu","lat":37.90768059040179,"lng":23.745954563287732,"url":"https://maps.app.goo.gl/5VP4Qk8ng1M1pARWA?g_st=ipc","address":"Παρ. Λεωφ. Βουλιαγμένης 66, Αργυρούπολη 164 52","categoryIds":["cheap-eats"],"categories":["Gyros & Cheap Eats"],"distanceKm":1.148089305243929}],"sameRegion":[],"mentionedGuides":[],"canonicalSlug":"street-burger-0f35","isCanonicalEntity":true},"__N_SSG":true}