{"pageProps":{"entity":{"id":"greekRestaurants_383ecd48feeb","slug":"taverna-parthenon-383e","kind":"restaurant","name":"Taverna Parthenon","lat":35.740676874043125,"lng":27.173051859916296,"url":"https://maps.app.goo.gl/HtArNGuwhu5Fggqw5?g_st=ipc","address":"Όλυμπος 857 00","categoryIds":["greek-restaurants"],"categories":["Greek Restaurants"]},"sameCategory":[{"id":"greekRestaurants_7677d65516af","slug":"taverna-olympos-7677","kind":"restaurant","name":"Taverna Olympos","lat":35.7393931429838,"lng":27.173927270519656,"url":"https://maps.app.goo.gl/kp6UyKBReeeXMq2i7?g_st=ipc","address":"Unnamed Road, Όλυμπος 857 00","categoryIds":["greek-restaurants"],"categories":["Greek Restaurants"]},{"id":"greekRestaurants_fbf93bbc598f","slug":"folia-fbf9","kind":"restaurant","name":"Φωλιά","lat":35.63804287314117,"lng":27.141889679852532,"url":"https://maps.app.goo.gl/fxKJmzzqw6u7bpMy5?g_st=ipc","address":"Επαρ.Οδ. Απέριου-Σπόας, Σπόα 857 00","categoryIds":["greek-restaurants"],"categories":["Greek Restaurants"]},{"id":"greekRestaurants_28e0ce32387f","slug":"sofia-taverna-28e0","kind":"restaurant","name":"Σοφία Ταβέρνα","lat":35.5866358036244,"lng":27.17682185502704,"url":"https://maps.app.goo.gl/jUrzGcTeUJDT7mLK6?g_st=ipc","address":"Κυρά Παναγία 857 00","categoryIds":["greek-restaurants"],"categories":["Greek Restaurants"]},{"id":"greekRestaurants_9926e0db11c5","slug":"ellovos-restaurant-9926","kind":"restaurant","name":"Ellovos Restaurant","lat":35.59799182040847,"lng":27.094699276778915,"url":"https://maps.app.goo.gl/vTVNPBEasCEJPLST8?g_st=ipc","address":"Unnamed Road, Λευκός 857 00","categoryIds":["greek-restaurants"],"categories":["Greek Restaurants"]},{"id":"greekRestaurants_4e06e56c5685","slug":"to-perasma-family-restaurant-4e06","kind":"restaurant","name":"To Perasma Family Restaurant","lat":35.511795659441425,"lng":27.202184483725418,"url":"https://maps.app.goo.gl/XNjLZLx16LGnYtdF8?g_st=ipc","address":"Unnamed Road, Κάρπαθος 857 00","categoryIds":["greek-restaurants"],"categories":["Greek Restaurants"]},{"id":"greekRestaurants_6b0bd6f22342","slug":"la-veranda-restaurant-6b0b","kind":"restaurant","name":"La Veranda Restaurant","lat":35.50819846298718,"lng":27.215527806049977,"url":"https://maps.app.goo.gl/jsarFZcA63GRBidP8?g_st=ipc","address":"Unnamed Road, Κάρπαθος 857 00","categoryIds":["greek-restaurants"],"categories":["Greek Restaurants"]},{"id":"greekRestaurants_e3e798a7e287","slug":"to-limeri-toy-listi-e3e7","kind":"restaurant","name":"Το Λημέρι του Ληστή","lat":36.099407956222365,"lng":27.847469925314794,"url":"https://maps.app.goo.gl/WJ3azBZ7cYjda5GQ7?g_st=ipc","address":"Επαρ.Οδ. Απολακκιάς-Προφύλιας, Προφίλια 851 09","categoryIds":["greek-restaurants"],"categories":["Greek Restaurants"]},{"id":"greekRestaurants_8df912cf9d5d","slug":"sergio-s-old-times-restaurant-8df9","kind":"restaurant","name":"Sergio's Old Times Restaurant","lat":36.02217841916997,"lng":27.923644393349136,"url":"https://maps.app.goo.gl/WcoB83v33EWF8Thz8?g_st=ipc","address":"Επαρ.Οδ. Πυλώνας-Κατταβιάς 10, Γεννάδι 851 09","categoryIds":["greek-restaurants"],"categories":["Greek Restaurants"]}],"nearby":[{"id":"greekRestaurants_7677d65516af","slug":"taverna-olympos-7677","kind":"restaurant","name":"Taverna Olympos","lat":35.7393931429838,"lng":27.173927270519656,"url":"https://maps.app.goo.gl/kp6UyKBReeeXMq2i7?g_st=ipc","address":"Unnamed Road, Όλυμπος 857 00","categoryIds":["greek-restaurants"],"categories":["Greek Restaurants"],"distanceKm":0.16315164042529057},{"id":"greekRestaurants_fbf93bbc598f","slug":"folia-fbf9","kind":"restaurant","name":"Φωλιά","lat":35.63804287314117,"lng":27.141889679852532,"url":"https://maps.app.goo.gl/fxKJmzzqw6u7bpMy5?g_st=ipc","address":"Επαρ.Οδ. Απέριου-Σπόας, Σπόα 857 00","categoryIds":["greek-restaurants"],"categories":["Greek Restaurants"],"distanceKm":11.75426473547196},{"id":"greekRestaurants_28e0ce32387f","slug":"sofia-taverna-28e0","kind":"restaurant","name":"Σοφία Ταβέρνα","lat":35.5866358036244,"lng":27.17682185502704,"url":"https://maps.app.goo.gl/jUrzGcTeUJDT7mLK6?g_st=ipc","address":"Κυρά Παναγία 857 00","categoryIds":["greek-restaurants"],"categories":["Greek Restaurants"],"distanceKm":17.131971264481624},{"id":"greekRestaurants_9926e0db11c5","slug":"ellovos-restaurant-9926","kind":"restaurant","name":"Ellovos Restaurant","lat":35.59799182040847,"lng":27.094699276778915,"url":"https://maps.app.goo.gl/vTVNPBEasCEJPLST8?g_st=ipc","address":"Unnamed Road, Λευκός 857 00","categoryIds":["greek-restaurants"],"categories":["Greek Restaurants"],"distanceKm":17.37303289052586},{"id":"coffeeBrunchRestaurants_783d400ee7da","slug":"lyra-and-friends-783d","kind":"restaurant","name":"Lyra and friends","lat":35.58763583749891,"lng":27.06911664685815,"url":"https://maps.app.goo.gl/PKB7mWwJ4UmNHnbT8?g_st=ipc","address":"Beach, Lefkos 857 00","categoryIds":["coffee-brunch"],"categories":["Coffee & Brunch Spots"],"distanceKm":19.43590586157383},{"id":"fishTavernasRestaurants_d009f344ecc4","slug":"thalassa-d009","kind":"restaurant","name":"Thalassa","lat":35.511927785488425,"lng":27.202335161311264,"url":"https://maps.app.goo.gl/g4myc8br4L4gAcNGA?g_st=ipc","address":"Unnamed Road, Karpathos 857 00","categoryIds":["fish-tavernas"],"categories":["Fish Tavernas"],"distanceKm":25.573068469027795},{"id":"greekRestaurants_4e06e56c5685","slug":"to-perasma-family-restaurant-4e06","kind":"restaurant","name":"To Perasma Family Restaurant","lat":35.511795659441425,"lng":27.202184483725418,"url":"https://maps.app.goo.gl/XNjLZLx16LGnYtdF8?g_st=ipc","address":"Unnamed Road, Κάρπαθος 857 00","categoryIds":["greek-restaurants"],"categories":["Greek Restaurants"],"distanceKm":25.586276502581125},{"id":"burgersRestaurants_f679841198d1","slug":"panburger-f679","kind":"restaurant","name":"PANBURGER","lat":35.508363631854614,"lng":27.212474239373883,"url":"https://maps.app.goo.gl/Xvc6UCxi2LxHq36TA?g_st=ipc","address":"Karpathos 857 00","categoryIds":["burgers"],"categories":["Burger Spots"],"distanceKm":26.076642664263673}],"sameRegion":[],"mentionedGuides":[{"slug":"acropolis-complete-guide-el","title":"Επίσκεψη στην Ακρόπολη & το Μουσείο Ακρόπολης"},{"slug":"acropolis-complete-guide","title":"Visiting the Acropolis & Acropolis Museum"}],"canonicalSlug":"taverna-parthenon-383e","isCanonicalEntity":true},"__N_SSG":true}