{"pageProps":{"entity":{"id":"greekRestaurants_bcfe0c24d0b9","slug":"taverna-flomari-bcfe","kind":"restaurant","name":"Taverna Flomari","lat":39.9883429210675,"lng":25.15508018878464,"url":"https://maps.app.goo.gl/wJXUERDBm4i5UHSQ9?g_st=ipc","address":"Gomati Beach, Λήμνος 814 01","categoryIds":["greek-restaurants"],"categories":["Greek Restaurants"]},"sameCategory":[{"id":"greekRestaurants_5899d919db96","slug":"taverna-man-tella-5899","kind":"restaurant","name":"Ταβέρνα Μαν-Τέλλα","lat":39.939715902807876,"lng":25.14007617212637,"url":"https://maps.app.goo.gl/h7jXmADnqFj6jdww8?g_st=ipc","address":"Σαρδές 814 00","categoryIds":["greek-restaurants"],"categories":["Greek Restaurants"]},{"id":"greekRestaurants_207ce585e372","slug":"ennoia-po-chs-207c","kind":"restaurant","name":"Έννοια Πο'χς","lat":39.91619952692809,"lng":25.26615920965088,"url":"https://maps.app.goo.gl/Vo6exv2Lo4vvZm3q6?g_st=ipc","address":"Λύχνα 814 01","categoryIds":["greek-restaurants"],"categories":["Greek Restaurants"]},{"id":"greekRestaurants_6eb435657203","slug":"o-meraklis-6eb4","kind":"restaurant","name":"Ο Μερακλής","lat":39.867735919635514,"lng":25.173635790362066,"url":"https://maps.app.goo.gl/Aytx8mWcw3gfndXg8?g_st=ipc","address":"Τσιμάνδρια 814 00","categoryIds":["greek-restaurants"],"categories":["Greek Restaurants"]},{"id":"greekRestaurants_0d79ffe3d8c0","slug":"taverna-andreas-0d79","kind":"restaurant","name":"Ταβέρνα Αndreas","lat":39.86355491006773,"lng":25.323066847103735,"url":"https://maps.app.goo.gl/FVABP5vjSdC5ptdh7?g_st=ipc","address":"Unnamed Road, Καμίνια 814 01","categoryIds":["greek-restaurants"],"categories":["Greek Restaurants"]},{"id":"greekRestaurants_8eab656c1491","slug":"i-eleni-8eab","kind":"restaurant","name":"Η Ελένη","lat":39.981893765467724,"lng":25.40667892238782,"url":"https://maps.app.goo.gl/DULQ8y35UGJe91Vp9?g_st=ipc","address":"Παναγία 814 01","categoryIds":["greek-restaurants"],"categories":["Greek Restaurants"]},{"id":"greekRestaurants_a414563c8db5","slug":"agios-charalampos-taverna-a414","kind":"restaurant","name":"Άγιος Χαράλαμπος Ταβέρνα","lat":40.01545133045331,"lng":25.41273378484273,"url":"https://maps.app.goo.gl/vEMTZ2YkAnNc2a7e7?g_st=ipc","address":"Λημνος, Πλάκα 814 01","categoryIds":["greek-restaurants"],"categories":["Greek Restaurants"]},{"id":"greekRestaurants_3438688d0deb","slug":"5-steps-in-the-sand-3438","kind":"restaurant","name":"5 steps in the sand","lat":40.034692799637156,"lng":23.996066587885828,"url":"https://maps.app.goo.gl/CNXaqqzThUxV4Jjr5?g_st=ipc","address":"Unnamed Rd, Σιθωνία 630 72","categoryIds":["greek-restaurants"],"categories":["Greek Restaurants"]},{"id":"greekRestaurants_b3c17d231447","slug":"mellia-restaurant-b3c1","kind":"restaurant","name":"Melliá Restaurant","lat":40.19208860749863,"lng":23.80767095185341,"url":"https://maps.app.goo.gl/1uxCAvJPume7NxnN7?g_st=ipc","address":"Βουρβουρού 630 78","categoryIds":["greek-restaurants"],"categories":["Greek Restaurants"]}],"nearby":[{"id":"fishTavernasRestaurants_038ab4889bb3","slug":"taverna-flomari-038a","kind":"restaurant","name":"Taverna Flomari","lat":39.98832919487252,"lng":25.155079152226218,"url":"https://maps.app.goo.gl/G6hKXeSWoodnwXMF6?g_st=ipc","address":"Gomati Beach, Limnos 814 01","categoryIds":["fish-tavernas"],"categories":["Fish Tavernas"],"distanceKm":0.0015288358607021672},{"id":"greekRestaurants_5899d919db96","slug":"taverna-man-tella-5899","kind":"restaurant","name":"Ταβέρνα Μαν-Τέλλα","lat":39.939715902807876,"lng":25.14007617212637,"url":"https://maps.app.goo.gl/h7jXmADnqFj6jdww8?g_st=ipc","address":"Σαρδές 814 00","categoryIds":["greek-restaurants"],"categories":["Greek Restaurants"],"distanceKm":5.556222772444439},{"id":"fishTavernasRestaurants_3f01da32250d","slug":"barbounaki-lemnos-3f01","kind":"restaurant","name":"Barbounaki | Lemnos","lat":39.922645057066866,"lng":25.071051886904925,"url":"https://maps.app.goo.gl/Y8MNEpBKf9pJKHNg8?g_st=ipc","address":"Λημνος, Αγιος Ιωαννης, Kaspakas 814 00","categoryIds":["fish-tavernas"],"categories":["Fish Tavernas"],"distanceKm":10.230555441184599},{"id":"municipalities_89f092af4fdd","slug":"limnos-89f0","kind":"municipality","name":"Λήμνος","lat":39.911,"lng":25.236,"region":"Βόρειο Αιγαίο","name_en":"Lemnos","region_en":"North Aegean","distanceKm":11.024640415322805},{"id":"fishTavernasRestaurants_782c004f6a18","slug":"glykanisos-782c","kind":"restaurant","name":"Glykanisos","lat":39.89189656070638,"lng":25.20287613011476,"url":"https://maps.app.goo.gl/tCAL6L44HZbqrniJ6?g_st=ipc","address":"Unnamed Road, Limnos 814 00","categoryIds":["fish-tavernas"],"categories":["Fish Tavernas"],"distanceKm":11.47239701401058},{"id":"fishTavernasRestaurants_872df0d46026","slug":"tavern-restaurant-giannakaros-872d","kind":"restaurant","name":"Tavern Restaurant GIANNAKAROS","lat":39.94049535145995,"lng":25.283557993247516,"url":"https://maps.app.goo.gl/Y8y6JAFkf3x52TAJA?g_st=ipc","address":"ΛΙΜΑΝΑΚΙ, Kotsinas 814 01","categoryIds":["fish-tavernas"],"categories":["Fish Tavernas"],"distanceKm":12.173645365257341},{"id":"greekRestaurants_207ce585e372","slug":"ennoia-po-chs-207c","kind":"restaurant","name":"Έννοια Πο'χς","lat":39.91619952692809,"lng":25.26615920965088,"url":"https://maps.app.goo.gl/Vo6exv2Lo4vvZm3q6?g_st=ipc","address":"Λύχνα 814 01","categoryIds":["greek-restaurants"],"categories":["Greek Restaurants"],"distanceKm":12.40974427383374},{"id":"greekRestaurants_6eb435657203","slug":"o-meraklis-6eb4","kind":"restaurant","name":"Ο Μερακλής","lat":39.867735919635514,"lng":25.173635790362066,"url":"https://maps.app.goo.gl/Aytx8mWcw3gfndXg8?g_st=ipc","address":"Τσιμάνδρια 814 00","categoryIds":["greek-restaurants"],"categories":["Greek Restaurants"],"distanceKm":13.50390118782798}],"sameRegion":[],"mentionedGuides":[],"canonicalSlug":"taverna-flomari-bcfe","isCanonicalEntity":true},"__N_SSG":true}