{"pageProps":{"entity":{"id":"greekRestaurants_63896ef45064","slug":"taverna-axiotissa-6389","kind":"restaurant","name":"Taverna Axiotissa","lat":37.00531817331461,"lng":25.39495449152434,"url":"https://maps.app.goo.gl/TfCQXtRYj4ztLf7s8?g_st=ipc","address":"Νάξος 843 00","categoryIds":["greek-restaurants"],"categories":["Greek Restaurants"]},"sameCategory":[{"id":"greekRestaurants_1f1aa19a1160","slug":"yazoo-summer-bliss-1f1a","kind":"restaurant","name":"Yazoo Summer Bliss","lat":37.05947332168921,"lng":25.35827570673648,"url":"https://maps.app.goo.gl/NhU86ckth6hj5Sat7?g_st=ipc","address":"Beach, Πλάκα 843 00","categoryIds":["greek-restaurants"],"categories":["Greek Restaurants"]},{"id":"greekRestaurants_e19d898df0e1","slug":"taverna-paradeisos-naxos-e19d","kind":"restaurant","name":"Ταβέρνα Παράδεισος | Νάξος","lat":37.06269869849226,"lng":25.355485426360563,"url":"https://maps.app.goo.gl/snSuBibKoHzbKRP3A?g_st=ipc","address":"Μαραγκας 843 00","categoryIds":["greek-restaurants"],"categories":["Greek Restaurants"]},{"id":"greekRestaurants_7b51b9a8d590","slug":"taverna-o-giannoylis-7b51","kind":"restaurant","name":"Ταβέρνα Ο Γιαννούλης","lat":37.07476079820257,"lng":25.35214595404142,"url":"https://maps.app.goo.gl/jk1SQcCbpGGpyJxP8?g_st=ipc","address":"Unnamed Road, Αγ. Προκόπιος 843 00","categoryIds":["greek-restaurants"],"categories":["Greek Restaurants"]},{"id":"greekRestaurants_bf6e5357d26f","slug":"paradosiaki-taverna-i-pigi-naxos-ano-potamia-bf6e","kind":"restaurant","name":"Παραδοσιακή Ταβέρνα Η Πηγή, Νάξος, Ανω Ποταμιά","lat":37.07025549625695,"lng":25.44969173381983,"url":"https://maps.app.goo.gl/zHdqa3ibYKAfwYCp6?g_st=ipc","address":"Άνω Ποταμιά 843 00","categoryIds":["greek-restaurants"],"categories":["Greek Restaurants"]},{"id":"greekRestaurants_782ef9c750c1","slug":"o-vasilis-782e","kind":"restaurant","name":"Ο Βασίλης","lat":37.0889554380196,"lng":25.43811428187733,"url":"https://maps.app.goo.gl/Bois49ffMzowZbcd7?g_st=ipc","address":"Μελανές 843 00","categoryIds":["greek-restaurants"],"categories":["Greek Restaurants"]},{"id":"greekRestaurants_694ee1d214aa","slug":"paravas-traditional-tavern-souvlaki-694e","kind":"restaurant","name":"PARAVAS Traditional Tavern & Souvlaki","lat":37.06316256125292,"lng":25.482406792920514,"url":"https://maps.app.goo.gl/fmFJ2qDuDCSYVraUA?g_st=ipc","address":"Χαλκείο 843 02","categoryIds":["greek-restaurants"],"categories":["Greek Restaurants"]},{"id":"greekRestaurants_1c5a5710b282","slug":"amvrosia-1c5a","kind":"restaurant","name":"Αμβροσία","lat":37.05198027328874,"lng":25.498122685244876,"url":"https://maps.app.goo.gl/hServvR8erYFDEW79?g_st=ipc","address":"Επαρ.Οδ. Δαμαριώνα-Δανακού, Φιλότι 843 02","categoryIds":["greek-restaurants"],"categories":["Greek Restaurants"]},{"id":"greekRestaurants_533382eda428","slug":"to-elliniko-restaurant-5333","kind":"restaurant","name":"To Elliniko Restaurant","lat":37.10045212673621,"lng":25.377603556843287,"url":"https://maps.app.goo.gl/Xqt8tsmindBjCsXV8?g_st=ipc","address":"Ιωάννου Παπαρηγοπούλου, Νάξος 843 00","categoryIds":["greek-restaurants"],"categories":["Greek Restaurants"]}],"nearby":[{"id":"cheapEatsRestaurants_492ec545e3cb","slug":"fbi-food-truck-492e","kind":"restaurant","name":"FBI Food Truck","lat":36.98018032275085,"lng":25.38911877245444,"url":"https://maps.app.goo.gl/tVknNoCtf1VeNxVy7?g_st=ipc","address":"X9JQ+3J, Naxos 843 02","categoryIds":["cheap-eats"],"categories":["Gyros & Cheap Eats"],"distanceKm":2.8428456487811697},{"id":"coffeeBrunchRestaurants_a4f088033efd","slug":"petrino-beach-restaurant-a4f0","kind":"restaurant","name":"Petrino Beach Restaurant","lat":37.05234820744201,"lng":25.368775961363156,"url":"https://maps.app.goo.gl/zpHeyfTFhxTR1uEU8?g_st=ipc","address":"Μαραγκας 843 00","categoryIds":["coffee-brunch"],"categories":["Coffee & Brunch Spots"],"distanceKm":5.72259638769926},{"id":"italianRestaurants_338afaa92d9f","slug":"caya-italian-cuisine-cocktail-bar-338a","kind":"restaurant","name":"Caya Italian Cuisine Cocktail Bar","lat":37.05775350559496,"lng":25.360162570769955,"url":"https://maps.app.goo.gl/aQBfn7JeavM87SvT6?g_st=ipc","address":"Πλάκα Ναξος Κυκλάδες, 843 00","categoryIds":["italian"],"categories":["Italian Restaurants"],"distanceKm":6.597981909822951},{"id":"coffeeBrunchRestaurants_3c0e0ba19c1e","slug":"cedar-naxos-3c0e","kind":"restaurant","name":"Cedar Naxos","lat":37.05894909734054,"lng":25.359010791260953,"url":"https://maps.app.goo.gl/sMRnKogU1qsVLy5N7?g_st=ipc","address":"Plaka beach island, Cyclades, Town 84300, 843 00","categoryIds":["coffee-brunch"],"categories":["Coffee & Brunch Spots"],"distanceKm":6.763365761380774},{"id":"mexicanRestaurants_983dcb8a2e0a","slug":"picasso-on-the-beach-naxos-983d","kind":"restaurant","name":"Picasso on the beach - Naxos","lat":37.05943119973437,"lng":25.358989286042366,"url":"https://maps.app.goo.gl/dyPRjYQnHRARiSJ79?g_st=ipc","address":"Beach, Plaka, Ag. Anna 843 00","categoryIds":["mexican"],"categories":["Mexican Restaurants"],"distanceKm":6.811569846455961},{"id":"coffeeBrunchRestaurants_06b43145276e","slug":"yazoo-summer-bliss-06b4","kind":"restaurant","name":"Yazoo Summer Bliss","lat":37.05936629317493,"lng":25.358292075823126,"url":"https://maps.app.goo.gl/6st7M6E2gAiTKTuK7?g_st=ipc","address":"Beach, Plaka 843 00","categoryIds":["coffee-brunch"],"categories":["Coffee & Brunch Spots"],"distanceKm":6.834448137482607},{"id":"greekRestaurants_1f1aa19a1160","slug":"yazoo-summer-bliss-1f1a","kind":"restaurant","name":"Yazoo Summer Bliss","lat":37.05947332168921,"lng":25.35827570673648,"url":"https://maps.app.goo.gl/NhU86ckth6hj5Sat7?g_st=ipc","address":"Beach, Πλάκα 843 00","categoryIds":["greek-restaurants"],"categories":["Greek Restaurants"],"distanceKm":6.845605523770064},{"id":"greekRestaurants_e19d898df0e1","slug":"taverna-paradeisos-naxos-e19d","kind":"restaurant","name":"Ταβέρνα Παράδεισος | Νάξος","lat":37.06269869849226,"lng":25.355485426360563,"url":"https://maps.app.goo.gl/snSuBibKoHzbKRP3A?g_st=ipc","address":"Μαραγκας 843 00","categoryIds":["greek-restaurants"],"categories":["Greek Restaurants"],"distanceKm":7.279008716840258}],"sameRegion":[],"mentionedGuides":[],"canonicalSlug":"taverna-axiotissa-6389","isCanonicalEntity":true},"__N_SSG":true}