{"pageProps":{"entity":{"id":"cheapEatsRestaurants_d643220ae6b0","slug":"thess-bao-d643","kind":"restaurant","name":"Thess Bao","lat":40.633724315611715,"lng":22.93899137586201,"url":"https://maps.app.goo.gl/eQJvB2FMkUEghr9y7?g_st=ipc","address":"Kalapothaki 3, Thessaloniki 546 45","categoryIds":["cheap-eats"],"categories":["Gyros & Cheap Eats"]},"sameCategory":[{"id":"cheapEatsRestaurants_7d5766fbf936","slug":"sesoula-street-food-7d57","kind":"restaurant","name":"SESOULA Street Food","lat":40.63477422793839,"lng":22.937577409662797,"url":"https://maps.app.goo.gl/831RBk3hM78pZN1a8?g_st=ipc","address":"Mitropoleos 6, Thessaloniki 546 25","categoryIds":["cheap-eats"],"categories":["Gyros & Cheap Eats"]},{"id":"cheapEatsRestaurants_e169e8264e7b","slug":"sesoula-street-food-e169","kind":"restaurant","name":"SESOULA Street Food","lat":40.63477525409266,"lng":22.93757742955132,"url":"https://maps.app.goo.gl/haKrAci9tVQtSodQ6?g_st=ipc","address":"Mitropoleos 6, Thessaloniki 546 25","categoryIds":["cheap-eats"],"categories":["Gyros & Cheap Eats"]},{"id":"cheapEatsRestaurants_12570c882da7","slug":"kalofagas-psitopoleio-1257","kind":"restaurant","name":"Καλοφαγάς Ψητοπωλείο","lat":40.635544989771915,"lng":22.937363400408646,"url":"https://maps.app.goo.gl/N2y5cFSV48wgtN7g7?g_st=ipc","address":"Politechniou 24, Thessaloniki 546 25","categoryIds":["cheap-eats"],"categories":["Gyros & Cheap Eats"]},{"id":"cheapEatsRestaurants_309d89ee38a5","slug":"laikon-309d","kind":"restaurant","name":"Laikon","lat":40.63567516803373,"lng":22.93753817677912,"url":"https://maps.app.goo.gl/jXzXhjGZbZTLHvnd9?g_st=ipc","address":"Politechniou 24, Thessaloniki 546 25","categoryIds":["cheap-eats"],"categories":["Gyros & Cheap Eats"]},{"id":"cheapEatsRestaurants_5ddb8d5c463a","slug":"kyrios-mpampatsikos-5ddb","kind":"restaurant","name":"Κύριος Μπαμπάτσικος","lat":40.63461122232153,"lng":22.941727966275263,"url":"https://maps.app.goo.gl/dBrKhYFMn7bdAAyAA?g_st=ipc","address":"Vasileos Irakleiou 33, Thessaloniki 546 24","categoryIds":["cheap-eats"],"categories":["Gyros & Cheap Eats"]},{"id":"cheapEatsRestaurants_d0809c48801b","slug":"22-soyvlakia-d080","kind":"restaurant","name":"22 Σουβλάκια","lat":40.632325575157445,"lng":22.941533229878075,"url":"https://maps.app.goo.gl/dAaaqBN4npr7HBBU7?g_st=ipc","address":"Aristotelous Sq 8, Thessaloniki 546 23","categoryIds":["cheap-eats"],"categories":["Gyros & Cheap Eats"]},{"id":"cheapEatsRestaurants_e9c2d48343e0","slug":"bombidia-bombs-e9c2","kind":"restaurant","name":"Bombídia - Bombs","lat":40.63441434318281,"lng":22.94206825187552,"url":"https://maps.app.goo.gl/a5enHSGzpNb2rYAJ7?g_st=ipc","address":"Vasileos Irakleiou 35, 37, Thessaloniki 546 24","categoryIds":["cheap-eats"],"categories":["Gyros & Cheap Eats"]},{"id":"cheapEatsRestaurants_3ea6371d1865","slug":"ochsenkopf-german-delicatessen-3ea6","kind":"restaurant","name":"Ochsenkopf German Delicatessen","lat":40.634945471087235,"lng":22.941783687986916,"url":"https://maps.app.goo.gl/B68oxS5kPucvmKVy7?g_st=ipc","address":"Αγορά Μοδιανο, Thessaloniki 546 24","categoryIds":["cheap-eats"],"categories":["Gyros & Cheap Eats"]}],"nearby":[{"id":"burgersRestaurants_d54ba5e0c0be","slug":"pax-d54b","kind":"restaurant","name":"Pax","lat":40.63378366371667,"lng":22.938802932281405,"url":"https://maps.app.goo.gl/WZscxBG8wSCngxdz8?g_st=ipc","address":"Eleftheriou Venizelou &, Kalapothaki 8, Thessaloniki 546 24","categoryIds":["burgers"],"categories":["Burger Spots"],"distanceKm":0.017216677882609076},{"id":"greekRestaurants_c2e6150deb88","slug":"voukakrato-c2e6","kind":"restaurant","name":"Voukakrato","lat":40.63349594522131,"lng":22.938988829539237,"url":"https://maps.app.goo.gl/cB9vpTY1obWtd2Ck7?g_st=ipc","address":"Kalapothaki 6, Thessaloniki 546 24","categoryIds":["greek-restaurants"],"categories":["Greek Restaurants"],"distanceKm":0.025394537866049602},{"id":"asianRestaurants_169207d89dbd","slug":"sushi-city-1692","kind":"restaurant","name":"Sushi City","lat":40.633479553417104,"lng":22.939350429758118,"url":"https://maps.app.goo.gl/zBAUew3tfQKdJ3yX9","address":"Kalapothaki 7, Thessaloniki 546 45","categoryIds":["asian"],"categories":["Asian Restaurants"],"distanceKm":0.04072757672666931},{"id":"luxuryDiningRestaurants_f9b8342ce4d0","slug":"7-thalasses-f9b8","kind":"restaurant","name":"7 Thalasses","lat":40.633353589714964,"lng":22.939202548189815,"url":"https://maps.app.goo.gl/fPcaWDwx3ave8G8F6?g_st=ipc","address":"Kalapothaki 10, Thessaloniki 546 24","categoryIds":["luxury-dining"],"categories":["Luxury Dining"],"distanceKm":0.04490951980920669},{"id":"fishTavernasRestaurants_d0a79fe35429","slug":"7-thalasses-d0a7","kind":"restaurant","name":"7 Thalasses","lat":40.63335235155445,"lng":22.93920259335502,"url":"https://maps.app.goo.gl/Y7xSN6vCv7jLy7oPA?g_st=ipc","address":"Kalapothaki 10, Thessaloniki 546 24","categoryIds":["fish-tavernas"],"categories":["Fish Tavernas"],"distanceKm":0.045037436242532716},{"id":"luxuryDiningRestaurants_c78b5455a7bc","slug":"grada-nuevo-c78b","kind":"restaurant","name":"Grada nuevo","lat":40.633267680962305,"lng":22.939391543461607,"url":"https://maps.app.goo.gl/9fapz5w3wurryrPX7?g_st=ipc","address":"Kalapothaki 14, Thessaloniki 546 24","categoryIds":["luxury-dining"],"categories":["Luxury Dining"],"distanceKm":0.06097892255039181},{"id":"fishTavernasRestaurants_922d6e12caee","slug":"grada-nuevo-922d","kind":"restaurant","name":"Grada nuevo","lat":40.63326503370027,"lng":22.939389299837984,"url":"https://maps.app.goo.gl/rQ6F7EFgSPvzE7iK6?g_st=ipc","address":"Kalapothaki 14, Thessaloniki 546 24","categoryIds":["fish-tavernas"],"categories":["Fish Tavernas"],"distanceKm":0.06112002792789663},{"id":"coffeeBrunchRestaurants_eb01fc18d144","slug":"mangiare-gastro-pizza-pasta-bar-eb01","kind":"restaurant","name":"Mangiare Gastro Pizza Pasta Bar","lat":40.63353783457787,"lng":22.939678053388604,"url":"https://maps.app.goo.gl/aWDb6qE5HF6MmFreA?g_st=ipc","address":"Mitropoleos 20, Thessaloniki 546 24","categoryIds":["coffee-brunch"],"categories":["Coffee & Brunch Spots"],"distanceKm":0.06154345883848465}],"sameRegion":[],"mentionedGuides":[],"canonicalSlug":"thess-bao-d643","isCanonicalEntity":true},"__N_SSG":true}