{"pageProps":{"entity":{"id":"municipalities_f523a4be73e1","slug":"thiva-f523","kind":"municipality","name":"Θήβα","lat":38.325,"lng":23.318,"region":"Στερεά Ελλάδα","name_en":"Thebes","region_en":"Central Greece"},"sameCategory":[],"nearby":[{"id":"monasteriesChurches_cc372f92fa85","slug":"iera-moni-metamorfosis-toy-sotiros-sagmata-cc37","kind":"restaurant","name":"Ιερά Μονή Μεταμόρφωσης του Σωτήρος Σαγματά","lat":38.39980588021136,"lng":23.41131936609796,"url":"https://maps.app.goo.gl/KeZKmvHFWMwZTYpr7?g_st=ipc","address":"Ύπατο 322 00","categoryIds":["monasteries-churches"],"categories":["Monasteries & Spiritual Sites"],"distanceKm":11.635702447332282},{"id":"monasteriesChurches_907048b5d580","slug":"iera-moni-genethlioy-tis-theotokoy-pelagias-9070","kind":"restaurant","name":"Ιερά Μονή Γενεθλίου της Θεοτόκου (Πελαγίας)","lat":38.459809569498496,"lng":23.266627094278455,"url":"https://maps.app.goo.gl/Xi5o5EhFW72ridKs8?g_st=ipc","address":"Ιερά Μονή Γενεθλίου της Θεοτόκου - Πελαγίας, Κόκκινο 320 01","categoryIds":["monasteries-churches"],"categories":["Monasteries & Spiritual Sites"],"distanceKm":15.64448806117522},{"id":"greekRestaurants_ad3a4104d172","slug":"taverna-lestori-ad3a","kind":"restaurant","name":"Ταβέρνα Λεστόρι","lat":38.16672026950688,"lng":23.331475593266063,"url":"https://maps.app.goo.gl/ua2rbjj6TsXM4Ua49?g_st=ipc","address":"Ι. Σακελλαρίου 59, Βίλια 190 12","categoryIds":["greek-restaurants"],"categories":["Greek Restaurants"],"distanceKm":17.63920183758906},{"id":"wineriesVineyards_91ab76f741da","slug":"ktima-moyson-muses-estate-91ab","kind":"restaurant","name":"Κτήμα Μουσών / Muses Estate","lat":38.310939635727244,"lng":23.111723523497265,"url":"https://maps.app.goo.gl/s6vXZTgfmnzvhcm38?g_st=ipc","address":"Άσκρη 320 02","categoryIds":["wineries-vineyards"],"categories":["Wineries & Vineyards"],"distanceKm":18.06365848734707},{"id":"municipalities_a7ebe9625d32","slug":"aliartos-a7eb","kind":"municipality","name":"Αλίαρτος","lat":38.3833,"lng":23.1,"region":"Στερεά Ελλάδα","name_en":"Aliartos","region_en":"Central Greece","distanceKm":20.084143594636014},{"id":"mustSeeAttractions_e5512cd254da","slug":"skydive-athens-e551","kind":"restaurant","name":"Skydive Athens","lat":38.45479327540192,"lng":23.137313881202427,"url":"https://maps.app.goo.gl/uSXp93uUxm32U2Ms6?g_st=ipc","address":"Kopaida Airfield, Kastro Viotias 323 00","categoryIds":["attractions"],"categories":["Must-See Attractions"],"distanceKm":21.360757862669246},{"id":"fishTavernasRestaurants_1ff7d4a34160","slug":"vrachos-1ff7","kind":"restaurant","name":"Βράχος","lat":38.4643775006023,"lng":23.588227655624095,"url":"https://maps.app.goo.gl/dCAASevZrACGwEgU7?g_st=ipc","address":"Αρχιεπισκόπου Μακαρίου 13, Ξηρόβρυση 341 00","categoryIds":["fish-tavernas"],"categories":["Fish Tavernas"],"distanceKm":28.192136818484087},{"id":"municipalities_55021c83f2f3","slug":"mandra-eidyllia-5502","kind":"municipality","name":"Μάνδρα - Ειδυλλία","lat":38.0833,"lng":23.4167,"region":"Δυτική Αττική","name_en":"Mandra - Eidyllia","region_en":"West Attica","distanceKm":28.22563657491263}],"sameRegion":[{"id":"municipalities_1d4b51456d77","slug":"karpenisi-1d4b","kind":"municipality","name":"Καρπενήσι","lat":38.9167,"lng":21.7833,"region":"Στερεά Ελλάδα","name_en":"Karpenisi","region_en":"Central Greece"},{"id":"municipalities_2a5550d7f6f9","slug":"kamena-voyrla-2a55","kind":"municipality","name":"Καμένα Βούρλα","lat":38.7833,"lng":22.7833,"region":"Στερεά Ελλάδα","name_en":"Kamena Vourla","region_en":"Central Greece"},{"id":"municipalities_30068cb262bd","slug":"istiaia-3006","kind":"municipality","name":"Ιστιαία","lat":38.95,"lng":23.15,"aliases":["Ιστιαίων"],"region":"Στερεά Ελλάδα","name_en":"Istiaia","region_en":"Central Greece"},{"id":"municipalities_658c27b3c4d6","slug":"galaxeidi-658c","kind":"municipality","name":"Γαλαξείδι","lat":38.3769,"lng":22.3889,"aliases":["Γαλαξειδι","Galaxeidi"],"region":"Στερεά Ελλάδα","name_en":"Galaxidi","region_en":"Central Greece"},{"id":"municipalities_6af6e7b2b379","slug":"eretria-6af6","kind":"municipality","name":"Ερέτρια","lat":38.39,"lng":23.8,"region":"Στερεά Ελλάδα","name_en":"Eretria","region_en":"Central Greece"},{"id":"municipalities_a3f2108a0447","slug":"livadeia-a3f2","kind":"municipality","name":"Λιβαδειά","lat":38.435,"lng":22.875,"aliases":["Livadia"],"region":"Στερεά Ελλάδα","name_en":"Livadeia","region_en":"Central Greece"},{"id":"municipalities_a7ebe9625d32","slug":"aliartos-a7eb","kind":"municipality","name":"Αλίαρτος","lat":38.3833,"lng":23.1,"region":"Στερεά Ελλάδα","name_en":"Aliartos","region_en":"Central Greece"},{"id":"municipalities_b881ef8f885c","slug":"atalanti-b881","kind":"municipality","name":"Αταλάντη","lat":38.65,"lng":23.0833,"region":"Στερεά Ελλάδα","name_en":"Atalanti","region_en":"Central Greece"}],"mentionedGuides":[],"canonicalSlug":"thiva-f523","isCanonicalEntity":true},"__N_SSG":true}