{"pageProps":{"entity":{"id":"greekRestaurants_7a0990462c96","slug":"to-steki-toy-ilia-7a09","kind":"restaurant","name":"Το Στέκι Του Ηλία","lat":37.97686050854808,"lng":23.718458701649066,"url":"https://maps.app.goo.gl/1XoTtwx2q6EitZZi8","address":"Επταχάλκου 5, Αθήνα 118 51","categoryIds":["greek-restaurants"],"categories":["Greek Restaurants"]},"sameCategory":[{"id":"greekRestaurants_ab98629e5118","slug":"cinapos-ab98","kind":"restaurant","name":"Cinapos","lat":37.975037080566636,"lng":23.71898004749624,"url":"https://maps.app.goo.gl/Ryj3tMNNp7RWvUcs6","address":"Ηρακλειδών 10, Αθήνα 118 51","categoryIds":["greek-restaurants"],"categories":["Greek Restaurants"]},{"id":"greekRestaurants_e9caa161f872","slug":"to-steki-toy-ilia-e9ca","kind":"restaurant","name":"Το Στέκι του Ηλία","lat":37.977110249497095,"lng":23.715901670048872,"url":"https://maps.app.goo.gl/wSbCCiegqHvWj8KcA","address":"Θεσσαλονίκης 7, Αθήνα 118 51","categoryIds":["greek-restaurants"],"categories":["Greek Restaurants"]},{"id":"greekRestaurants_72a09df578ee","slug":"a-little-taste-of-home-restaurant-72a0","kind":"restaurant","name":"A Little Taste of Home Restaurant","lat":37.976779798219894,"lng":23.722967824354946,"url":"https://maps.app.goo.gl/GmHsbFa1YEmR2kef9","address":"Άστιγγος 8, Αθήνα 105 55","categoryIds":["greek-restaurants"],"categories":["Greek Restaurants"]},{"id":"greekRestaurants_79d853816a19","slug":"rakor-79d8","kind":"restaurant","name":"Rakor","lat":37.98047740550758,"lng":23.717062587155947,"url":"https://maps.app.goo.gl/eVrzxTMuCzQvAE596","address":"Πλαταιών 10, Αθήνα 104 35","categoryIds":["greek-restaurants"],"categories":["Greek Restaurants"]},{"id":"greekRestaurants_ccfa82da91ec","slug":"cafe-avissinia-ccfa","kind":"restaurant","name":"Cafe Avissinia","lat":37.97665935435758,"lng":23.723658874040776,"url":"https://maps.app.goo.gl/vKinr3WBQjy8EYru8","address":"Κυνέτου 7, Αθήνα 105 55","categoryIds":["greek-restaurants"],"categories":["Greek Restaurants"]},{"id":"greekRestaurants_e684531e1c90","slug":"to-kyklamino-e684","kind":"restaurant","name":"Το Κυκλάμινο","lat":37.976681511235476,"lng":23.724107441529995,"url":"https://maps.app.goo.gl/9UGJoEFr8WGupZtP9","address":"Πλ. Αβησσυνίας 3, Αθήνα 105 55","categoryIds":["greek-restaurants"],"categories":["Greek Restaurants"]},{"id":"greekRestaurants_01412cd104e7","slug":"bandiera-0141","kind":"restaurant","name":"Bandiera","lat":37.978324295237165,"lng":23.723850317882693,"url":"https://maps.app.goo.gl/Qi3TiLypHkh8kAfv8","address":"Τάκη 19, Αθήνα 105 54","categoryIds":["greek-restaurants"],"categories":["Greek Restaurants"]},{"id":"greekRestaurants_0c30703c94b5","slug":"krasopoylio-toy-kokkora-0c30","kind":"restaurant","name":"Κρασοπουλιο του Κοκκορα","lat":37.97774968772063,"lng":23.724156040305374,"url":"https://maps.app.goo.gl/FdPM4DDLKYaXnaei6","address":"Αισώπου 4, Αθήνα 105 54","categoryIds":["greek-restaurants"],"categories":["Greek Restaurants"]}],"nearby":[{"id":"mustSeeAttractions_31e331c60661","slug":"kerameikos-archaeological-site-31e3","kind":"restaurant","name":"Kerameikos Archaeological Site","lat":37.97803082106626,"lng":23.717271800112048,"url":"https://maps.app.goo.gl/21oaLw9mApwFReVy7?g_st=ipc","address":"Ermou 148, Athina 105 53","categoryIds":["attractions"],"categories":["Must-See Attractions"],"distanceKm":0.16660469819624796},{"id":"greekRestaurants_ab98629e5118","slug":"cinapos-ab98","kind":"restaurant","name":"Cinapos","lat":37.975037080566636,"lng":23.71898004749624,"url":"https://maps.app.goo.gl/Ryj3tMNNp7RWvUcs6","address":"Ηρακλειδών 10, Αθήνα 118 51","categoryIds":["greek-restaurants"],"categories":["Greek Restaurants"],"distanceKm":0.20784168328607996},{"id":"coffeeBrunchRestaurants_97adfd0567d5","slug":"the-underdog-flagship-store-thissio-97ad","kind":"restaurant","name":"The Underdog® Flagship Store Thissio","lat":37.97497137545366,"lng":23.719135012325086,"url":"https://maps.app.goo.gl/LEHRwEwwo2yTd8KD9?g_st=ipc","address":"Ηρακλειδών 8, Αθήνα 118 51","categoryIds":["coffee-brunch"],"categories":["Coffee & Brunch Spots"],"distanceKm":0.21826619566180175},{"id":"greekRestaurants_e9caa161f872","slug":"to-steki-toy-ilia-e9ca","kind":"restaurant","name":"Το Στέκι του Ηλία","lat":37.977110249497095,"lng":23.715901670048872,"url":"https://maps.app.goo.gl/wSbCCiegqHvWj8KcA","address":"Θεσσαλονίκης 7, Αθήνα 118 51","categoryIds":["greek-restaurants"],"categories":["Greek Restaurants"],"distanceKm":0.22583840906674765},{"id":"mustSeeAttractions_6f694258a5ea","slug":"thiseio-6f69","kind":"restaurant","name":"Θησείο","lat":37.97501242037082,"lng":23.717080869886306,"url":"https://maps.app.goo.gl/i7GUzZ6ceEZCukDC6?g_st=ipc","address":"Αθήνα 118 51","categoryIds":["attractions"],"categories":["Must-See Attractions"],"distanceKm":0.23835815566348934},{"id":"cheapEatsRestaurants_9ef22bd13da7","slug":"gyristroyla-9ef2","kind":"restaurant","name":"Γυριστρούλα","lat":37.97711548768267,"lng":23.72128560665997,"url":"https://maps.app.goo.gl/rUqbZBRjNZ4twFu59?g_st=ipc","address":"Square (across from \"Thissio\" ISAP station, Αγίων Ασωμάτων 9, Αθήνα 105 54","categoryIds":["cheap-eats"],"categories":["Gyros & Cheap Eats"],"distanceKm":0.24939588430739693},{"id":"coffeeBrunchRestaurants_2452f7594f0b","slug":"minu-2452","kind":"restaurant","name":"Minu","lat":37.97817591370217,"lng":23.721282309779998,"url":"https://maps.app.goo.gl/1aZiacmQUVysdZ976?g_st=ipc","address":"Σαρρή 50, Αθήνα 105 53","categoryIds":["coffee-brunch"],"categories":["Coffee & Brunch Spots"],"distanceKm":0.2874792149187527},{"id":"mustSeeAttractions_f836a18a6282","slug":"naos-toy-ifaistoy-f836","kind":"restaurant","name":"Ναός του Ηφαίστου","lat":37.9755941105574,"lng":23.721451459878914,"url":"https://maps.app.goo.gl/auHh3GwXgN8RTikx6?g_st=ipc","address":"Αθήνα 105 55","categoryIds":["attractions"],"categories":["Must-See Attractions"],"distanceKm":0.29772572457433205}],"sameRegion":[],"mentionedGuides":[],"canonicalSlug":"to-steki-toy-ilia-7a09","isCanonicalEntity":true},"__N_SSG":true}