{"pageProps":{"entity":{"id":"municipalities_79c2791cab2a","slug":"vari-79c2","kind":"municipality","name":"Βάρη","lat":37.8333,"lng":23.7917,"region":"Νότια Προάστια","name_en":"Vari","region_en":"Southern Suburbs"},"sameCategory":[],"nearby":[{"id":"greekRestaurants_d87acafe326d","slug":"ta-vlachika-d87a","kind":"restaurant","name":"Ta Vlachika","lat":37.834890045838,"lng":23.791941775154488,"url":"https://maps.app.goo.gl/VC2HFhV1wgWoJ7Ev7","address":"Leoforos Evelpidon, Πρεβέζης, Βάρη 166 72","categoryIds":["greek-restaurants"],"categories":["Greek Restaurants"],"distanceKm":0.1780754132277492},{"id":"greekRestaurants_2f171b46e48c","slug":"taverna-tsolias-2f17","kind":"restaurant","name":"Ταβέρνα Τσολιάς","lat":37.834865053335534,"lng":23.79315959403436,"url":"https://maps.app.goo.gl/Pp2npdeDX3kaQbgD6","address":"Λεωφ. Βάρης 45, Βάρη 166 72","categoryIds":["greek-restaurants"],"categories":["Greek Restaurants"],"distanceKm":0.21613839651211342},{"id":"italianRestaurants_1195b260712d","slug":"napul-e-italian-comfort-food-wine-1195","kind":"restaurant","name":"Napul'è Italian Comfort Food & Wine","lat":37.8271502092117,"lng":23.80408943661563,"url":"https://maps.app.goo.gl/7yzTG7SodJm8Ubug6?g_st=ipc","address":"Βασ. Κωνσταντίνου 43, Βάρη 166 72","categoryIds":["italian"],"categories":["Italian Restaurants"],"distanceKm":1.285142418244112},{"id":"familyFriendly_37e90b2f8c07","slug":"happy-play-park-37e9","kind":"restaurant","name":"Happy Play Park","lat":37.83676394128604,"lng":23.807828606428487,"url":"https://maps.app.goo.gl/RA9ywQvUBdabkNk1A?g_st=ic","address":"Varis Koropiou Ave 27, Vari 166 72","categoryIds":["family-friendly"],"categories":["Kid Friendly Locations"],"distanceKm":1.467844108097485},{"id":"cheapEatsRestaurants_b59c9010c8a4","slug":"zachos-b59c","kind":"restaurant","name":"Ζάχος","lat":37.821251970598816,"lng":23.80344271241433,"url":"https://maps.app.goo.gl/DsP5tZnJxShfNf3H9?g_st=ipc","address":"Βασ. Κωνσταντίνου 94, Βάρη 166 72","categoryIds":["cheap-eats"],"categories":["Gyros & Cheap Eats"],"distanceKm":1.6906864250962086},{"id":"municipalities_a5772562f784","slug":"voyla-a577","kind":"municipality","name":"Βούλα","lat":37.8427,"lng":23.7763,"aliases":["Voula","Voyla","Βουλα"],"region":"Νότια Προάστια","name_en":"Voula","region_en":"Southern Suburbs","distanceKm":1.709212048271179},{"id":"luxuryDiningRestaurants_c1ae11688e19","slug":"drakoulis-dry-raw-butcheries-voula-c1ae","kind":"restaurant","name":"Drakoulis Dry & Raw - Butcheries Voula","lat":37.837831960071576,"lng":23.769665916102717,"url":"https://maps.app.goo.gl/uMQc68wzQ6KRLhmv6?g_st=ipc","address":"Λεωφ. Βασιλέως Παύλου 103, Βούλα 166 73","categoryIds":["luxury-dining"],"categories":["Luxury Dining"],"distanceKm":1.9995516596912564},{"id":"coffeeBrunchRestaurants_8123cddfff42","slug":"rey-pablo-8123","kind":"restaurant","name":"Rey Pablo","lat":37.83850094604755,"lng":23.768770335582047,"url":"https://maps.app.goo.gl/x4TKdGZ4P6i8FcrE6?g_st=ipc","address":"91, Λεωφ. Βασιλέως Παύλου 89, Βούλα 166 73","categoryIds":["coffee-brunch"],"categories":["Coffee & Brunch Spots"],"distanceKm":2.0950500318627605}],"sameRegion":[{"id":"municipalities_093f8da9eef7","slug":"nea-smyrni-093f","kind":"municipality","name":"Νέα Σμύρνη","lat":37.9456,"lng":23.7142,"aliases":["Nea Smyrni","Nea Smirni","Νεα Σμυρνη","Nea Smyrne"],"region":"Νότια Προάστια","name_en":"Nea Smyrni","region_en":"Southern Suburbs"},{"id":"municipalities_2413d46e54f8","slug":"ymittos-2413","kind":"municipality","name":"Υμηττός","lat":37.9506,"lng":23.7511,"aliases":["Ymittos","Hymettos","Υμηττος"],"region":"Νότια Προάστια","name_en":"Ymittos","region_en":"Southern Suburbs"},{"id":"municipalities_3d9dbd89e718","slug":"glyfada-3d9d","kind":"municipality","name":"Γλυφάδα","lat":37.8782,"lng":23.743,"aliases":["Glyfada","Gliphada","Γλυφαδα","Glifada"],"region":"Νότια Προάστια","name_en":"Glyfada","region_en":"Southern Suburbs"},{"id":"municipalities_4714f1907ab8","slug":"elliniko-4714","kind":"municipality","name":"Ελληνικό","lat":37.892,"lng":23.743,"region":"Νότια Προάστια","name_en":"Elliniko","region_en":"Southern Suburbs"},{"id":"municipalities_4ce899ab5232","slug":"argyroypoli-4ce8","kind":"municipality","name":"Αργυρούπολη","lat":37.905,"lng":23.738,"region":"Νότια Προάστια","name_en":"Argyroupoli","region_en":"Southern Suburbs"},{"id":"municipalities_54bb39e9ab94","slug":"dafni-54bb","kind":"municipality","name":"Δάφνη","lat":37.95,"lng":23.732,"aliases":["Dafni","Daphni","Δαφνη","Daphne"],"region":"Νότια Προάστια","name_en":"Dafni","region_en":"Southern Suburbs"},{"id":"municipalities_89aa8cc05ac2","slug":"palaio-faliro-89aa","kind":"municipality","name":"Παλαιό Φάληρο","lat":37.9286,"lng":23.701,"region":"Νότια Προάστια","name_en":"Palaio Faliro","region_en":"Southern Suburbs"},{"id":"municipalities_9a7f68490e58","slug":"vyronas-9a7f","kind":"municipality","name":"Βύρωνας","lat":37.9667,"lng":23.7667,"aliases":["Vyronas","Vyrona","Βυρωνας","Vironas","Byron"],"region":"Νότια Προάστια","name_en":"Vyronas","region_en":"Southern Suburbs"}],"mentionedGuides":[],"canonicalSlug":"vari-79c2","isCanonicalEntity":true},"__N_SSG":true}