{"pageProps":{"entity":{"id":"cheapEatsRestaurants_5f9d5dd343a6","slug":"ypoyrgeio-geyseon-soyvlaki-psita-5f9d","kind":"restaurant","name":"ΥΠΟΥΡΓΕΙΟ ΓΕΥΣΕΩΝ-Σουβλάκι,Ψητά","lat":38.04303394507047,"lng":23.771779772357615,"url":"https://maps.app.goo.gl/LCrvDRPpRco2nVuF9?g_st=ipc","address":"Φιλοθέης 67, Ηράκλειο 141 21","categoryIds":["cheap-eats"],"categories":["Gyros & Cheap Eats"]},"sameCategory":[{"id":"cheapEatsRestaurants_f3077615404b","slug":"kantina-o-alekos-f307","kind":"restaurant","name":"Καντίνα \"ο Αλεκος\"","lat":38.04208740467577,"lng":23.77486464859004,"url":"https://maps.app.goo.gl/4oCtgVQEesHACQsu8?g_st=ipc","address":"Μαρίνου Αντύπα 47, Ηράκλειο 141 21","categoryIds":["cheap-eats"],"categories":["Gyros & Cheap Eats"]},{"id":"cheapEatsRestaurants_59fb21ba5f98","slug":"hobos-street-grill-59fb","kind":"restaurant","name":"Hobos Street Grill","lat":38.04249747641086,"lng":23.753515339761147,"url":"https://maps.app.goo.gl/YHJtEHPvQRVXwD3F7?g_st=ipc","address":"Λεωφ. Ηρακλείου 254, Νέα Ιωνία 142 31","categoryIds":["cheap-eats"],"categories":["Gyros & Cheap Eats"]},{"id":"cheapEatsRestaurants_58791178b56b","slug":"draminos-5879","kind":"restaurant","name":"Δραμινός","lat":38.03491475648599,"lng":23.754928540856955,"url":"https://maps.app.goo.gl/uhi56PKbCSVGMvqf8?g_st=ipc","address":"Σινώπης 62, Νέα Ιωνία 142 33","categoryIds":["cheap-eats"],"categories":["Gyros & Cheap Eats"]},{"id":"cheapEatsRestaurants_a0695ebe74bb","slug":"to-teleion-a069","kind":"restaurant","name":"Το Τέλειον","lat":38.05891347949006,"lng":23.77665689156842,"url":"https://maps.app.goo.gl/Q3YXwLTyLfeVdVYX6?g_st=ipc","address":"Λεωφ. Πλαπούτα 20, Ηράκλειο 141 22","categoryIds":["cheap-eats"],"categories":["Gyros & Cheap Eats"]},{"id":"cheapEatsRestaurants_dac5582833c7","slug":"taliban-street-food-dac5","kind":"restaurant","name":"Taliban Street Food","lat":38.06195061055415,"lng":23.783033784917546,"url":"https://maps.app.goo.gl/4yeaKT2EdHHJPxdj7?g_st=ipc","address":"Λεωφ. Αμαρουσίου 29, Λυκόβρυση 141 23","categoryIds":["cheap-eats"],"categories":["Gyros & Cheap Eats"]},{"id":"cheapEatsRestaurants_f41f24c34bd1","slug":"o-christaras-f41f","kind":"restaurant","name":"Ο Χρηστάρας","lat":38.06513658858884,"lng":23.770452923606605,"url":"https://maps.app.goo.gl/73hetj8YZUmHBV4M7?g_st=ipc","address":"κ, Δεξαμενής, Θεοτοκοπούλου και, Μεταμόρφωση 144 52","categoryIds":["cheap-eats"],"categories":["Gyros & Cheap Eats"]},{"id":"cheapEatsRestaurants_28c94df5ce5f","slug":"krepilateion-28c9","kind":"restaurant","name":"ΚΡΕΠΗΛΑΤΕΙΟΝ","lat":38.037837677741585,"lng":23.799467140725334,"url":"https://maps.app.goo.gl/CSqgCp2SZrPwcWdC6?g_st=ipc","address":"Λεωφ. Κηφισίας 59, Μαρούσι 151 25","categoryIds":["cheap-eats"],"categories":["Gyros & Cheap Eats"]},{"id":"cheapEatsRestaurants_7b6d49968714","slug":"nikos-o-kalavrytinos-7b6d","kind":"restaurant","name":"Νίκος ο Καλαβρυτινός","lat":38.024001161887576,"lng":23.75301292455858,"url":"https://maps.app.goo.gl/cmE54PPQGsdzvzgz5?g_st=ipc","address":"Εκάβης 63, Γαλάτσι 111 46","categoryIds":["cheap-eats"],"categories":["Gyros & Cheap Eats"]}],"nearby":[{"id":"greekRestaurants_50237de1ecfb","slug":"ypoyrgeio-geyseon-soyvlaki-psita-5023","kind":"restaurant","name":"Υπουργειο Γευσεων-Σουβλάκι,Ψητά","lat":38.04316278537493,"lng":23.771802491018153,"url":"https://maps.app.goo.gl/gabhXTSdqFXWdAw17","address":"Φιλοθέης 67, Ηράκλειο 141 21","categoryIds":["greek-restaurants"],"categories":["Greek Restaurants"],"distanceKm":0.01446386938995717},{"id":"luxuryDiningRestaurants_bbebf7e68168","slug":"moo-casa-steak-lobster-bbeb","kind":"restaurant","name":"MOO CASA steak & lobster","lat":38.04344953562119,"lng":23.772025529553066,"url":"https://maps.app.goo.gl/HwBgLRsMdgFuqNJTA?g_st=ipc","address":"Marinou Antipa 66, Iraklio 141 21","categoryIds":["luxury-dining"],"categories":["Luxury Dining"],"distanceKm":0.050977168167353884},{"id":"luxuryDiningRestaurants_8a047703e0fb","slug":"afropsaro-8a04","kind":"restaurant","name":"Αφρόψαρο","lat":38.04349613246651,"lng":23.771888846159882,"url":"https://maps.app.goo.gl/g7jbxhgYDYFvpnKX6?g_st=ipc","address":"Μαρίνου Αντύπα 62-66, Ηράκλειο 141 21","categoryIds":["luxury-dining"],"categories":["Luxury Dining"],"distanceKm":0.05227298237690587},{"id":"cheapEatsRestaurants_f3077615404b","slug":"kantina-o-alekos-f307","kind":"restaurant","name":"Καντίνα \"ο Αλεκος\"","lat":38.04208740467577,"lng":23.77486464859004,"url":"https://maps.app.goo.gl/4oCtgVQEesHACQsu8?g_st=ipc","address":"Μαρίνου Αντύπα 47, Ηράκλειο 141 21","categoryIds":["cheap-eats"],"categories":["Gyros & Cheap Eats"],"distanceKm":0.28992740189279814},{"id":"burgersRestaurants_5f190c7a3636","slug":"jazz-burger-bar-neo-irakleio-5f19","kind":"restaurant","name":"Jazz Burger Bar Νέο Ηρακλειο","lat":38.04095577978939,"lng":23.776308324847815,"url":"https://maps.app.goo.gl/hv2UknNHtTHVpeFG6?g_st=ipc","address":"Μαρίνου Αντύπα 59, Ηράκλειο 141 21","categoryIds":["burgers"],"categories":["Burger Spots"],"distanceKm":0.45899022996446764},{"id":"burgersRestaurants_23f9084c3497","slug":"jazz-burger-bar-neo-irakleio-23f9","kind":"restaurant","name":"Jazz Burger Bar Νέο Ηρακλειο","lat":38.04095396558123,"lng":23.776308567252247,"url":"https://maps.app.goo.gl/K4k635ezwzDGdDJB9?g_st=ic","address":"Marinou Antipa 59, Iraklio 141 21","categoryIds":["burgers"],"categories":["Burger Spots"],"distanceKm":0.45911016735840426},{"id":"italianRestaurants_d84ce5fee7c0","slug":"piazza-d-amore-d84c","kind":"restaurant","name":"Piazza D'Amore","lat":38.046873886500826,"lng":23.765946699532154,"url":"https://maps.app.goo.gl/m24wKNSPTHZaNPpA9?g_st=ipc","address":"28ης Οκτωβρίου 8, Ηράκλειο 141 21","categoryIds":["italian"],"categories":["Italian Restaurants"],"distanceKm":0.6657528816210787},{"id":"dessertsRestaurants_f7f9c93c456d","slug":"zacharoplasteio-ta-gioylia-f7f9","kind":"restaurant","name":"Ζαχαροπλαστείο Τα Γιούλια","lat":38.04173959626081,"lng":23.76335652551234,"url":"https://maps.app.goo.gl/7AogHoPypPVPFN8p7?g_st=ipc","address":"Αλέκου Παναγούλη 74, Νέα Ιωνία 141 21","categoryIds":["desserts"],"categories":["Dessert Shops"],"distanceKm":0.7515514827432196}],"sameRegion":[],"mentionedGuides":[],"canonicalSlug":"ypoyrgeio-geyseon-soyvlaki-psita-5023","isCanonicalEntity":false},"__N_SSG":true}