{"pageProps":{"payload":{"area":{"id":"municipalities_093f8da9eef7","name":"Νέα Σμύρνη","nameEn":"Nea Smyrni","region":"Νότια Προάστια","regionEn":"Southern Suburbs","lat":37.9456,"lng":23.7142,"urlSlug":"nea-smyrni","aliases":["Νέα Σμύρνη","Nea Smyrni","Νέα Σμύρνη Southern Suburbs","Nea Smyrni Southern Suburbs","Nea Smirni","Νεα Σμυρνη","Nea Smyrne","nea-smyrni-093f","nea-smyrni"]},"category":null,"entities":[{"entity":{"id":"coffeeBrunchRestaurants_7990f39b9894","slug":"32-avenue-7990","kind":"restaurant","name":"32 Avenue","lat":37.946383947038974,"lng":23.714065407386308,"url":"https://maps.app.goo.gl/miSnLuSyrb5xJ1dB9?g_st=ipc","address":"2ας Μαΐου 32, Νέα Σμύρνη 171 21","categoryIds":["coffee-brunch"],"categories":["Coffee & Brunch Spots"]},"distanceKm":0.08796624523061924},{"entity":{"id":"italianRestaurants_da11e2c73563","slug":"cavaliere-ristorante-concettuale-da11","kind":"restaurant","name":"Cavaliere Ristorante Concettuale","lat":37.944619471140975,"lng":23.71414682617668,"url":"https://maps.app.goo.gl/WcUWRBUhr7SBrvaw8?g_st=ipc","address":"Λεωφ. Ελ. Βενιζέλου 42, Νέα Σμύρνη 171 22","categoryIds":["italian"],"categories":["Italian Restaurants"]},"distanceKm":0.10912949107056986},{"entity":{"id":"asianRestaurants_8c0b6c732554","slug":"black-lotus-vietnamese-restaurant-8c0b","kind":"restaurant","name":"Black Lotus Vietnamese Restaurant","lat":37.945120193663136,"lng":23.715750543219272,"url":"https://maps.app.goo.gl/ALPiHRy5LRfWNWfU7?g_st=ipc","address":"Ικονίου 11, Νέα Σμύρνη 171 23","categoryIds":["asian"],"categories":["Asian Restaurants"]},"distanceKm":0.14605709794832428},{"entity":{"id":"asianRestaurants_ea18f7423739","slug":"streetwok-ea18","kind":"restaurant","name":"StreetWok","lat":37.94661589274436,"lng":23.715316438751927,"url":"https://maps.app.goo.gl/Wb2pGeyp5yUdVqfd9?g_st=ipc","address":"Λεωφ. Ελ. Βενιζέλου 37, Νέα Σμύρνη 171 23","categoryIds":["asian"],"categories":["Asian Restaurants"]},"distanceKm":0.14948019335933196},{"entity":{"id":"cheapEatsRestaurants_7394b13b3b55","slug":"streetwok-7394","kind":"restaurant","name":"StreetWok","lat":37.946624662039575,"lng":23.715316548626998,"url":"https://maps.app.goo.gl/AdbA3EtRXtuwNQxM9?g_st=ipc","address":"Λεωφ. Ελ. Βενιζέλου 37, Νέα Σμύρνη 171 23","categoryIds":["cheap-eats"],"categories":["Gyros & Cheap Eats"]},"distanceKm":0.15022470958279807},{"entity":{"id":"mexicanRestaurants_e73bac78f16d","slug":"pueblo-chido-nea-smyrni-e73b","kind":"restaurant","name":"Pueblo Chido, Nea Smyrni","lat":37.94714091435742,"lng":23.714986542388107,"url":"https://maps.app.goo.gl/MWC6uaDUm2HJ8Ved9?g_st=ipc","address":"Pueblo Chido, Nea Smyrni","categoryIds":["mexican"],"categories":["Mexican Restaurants"]},"distanceKm":0.1847019565870105},{"entity":{"id":"vegetarianRestaurants_83a2e8e8f0cf","slug":"amigos-83a2","kind":"restaurant","name":"Amigos","lat":37.944997225203664,"lng":23.712218480792846,"url":"https://maps.app.goo.gl/WmqorR4WUEup986y6?g_st=ipc","address":"Μεγ. Αλεξάνδρου 70, Νέα Σμύρνη 171 22","categoryIds":["vegetarian"],"categories":["Vegetarian Friendly Restaurants"]},"distanceKm":0.18623494946752667},{"entity":{"id":"mexicanRestaurants_e022afb77fe2","slug":"amigos-e022","kind":"restaurant","name":"Amigos","lat":37.94499454255761,"lng":23.71221746209658,"url":"https://maps.app.goo.gl/BHdiVv9h7dD8bkiu6?g_st=ipc","address":"Μεγ. Αλεξάνδρου 70, Νέα Σμύρνη 171 22","categoryIds":["mexican"],"categories":["Mexican Restaurants"]},"distanceKm":0.18642581304699457},{"entity":{"id":"coffeeBrunchRestaurants_bcef1a0d2ebe","slug":"aroma-plateias-bcef","kind":"restaurant","name":"Άρωμα πλατείας","lat":37.947245777072794,"lng":23.713361220767048,"url":"https://maps.app.goo.gl/6mPMQRmSeP8pK4Cu6?g_st=ipc","address":"25ης Μαρτίου 19, Νέα Σμύρνη 171 21","categoryIds":["coffee-brunch"],"categories":["Coffee & Brunch Spots"]},"distanceKm":0.19722914110744394},{"entity":{"id":"dessertsRestaurants_90551d221579","slug":"zuccherino-9055","kind":"restaurant","name":"Zuccherino","lat":37.94670677191045,"lng":23.712370393556583,"url":"https://maps.app.goo.gl/AvtpV9edEhsRgr9r5?g_st=ipc","address":"2ας Μαΐου 12, Νέα Σμύρνη 171 21","categoryIds":["desserts"],"categories":["Dessert Shops"]},"distanceKm":0.20219866014339302},{"entity":{"id":"asianRestaurants_6ef4181fa78e","slug":"kenko-japanese-restaurant-6ef4","kind":"restaurant","name":"Kenko Japanese Restaurant","lat":37.94729381865282,"lng":23.715042181127906,"url":"https://maps.app.goo.gl/XHTSnCRdEDq5dRxc7?g_st=ipc","address":"Λεωφ. Ελ. Βενιζέλου 22, Νέα Σμύρνη 171 21","categoryIds":["asian"],"categories":["Asian Restaurants"]},"distanceKm":0.2023042831230499},{"entity":{"id":"luxuryDiningRestaurants_c964012da7dd","slug":"kenko-japanese-restaurant-c964","kind":"restaurant","name":"Kenko Japanese Restaurant","lat":37.947294316233865,"lng":23.71504061514003,"url":"https://maps.app.goo.gl/mKgbMMS1cXaQqrtLA?g_st=ipc","address":"Λεωφ. Ελ. Βενιζέλου 22, Νέα Σμύρνη 171 21","categoryIds":["luxury-dining"],"categories":["Luxury Dining"]},"distanceKm":0.2023057224060251},{"entity":{"id":"coffeeBrunchRestaurants_01d039eed44f","slug":"flaked-croissanterie-nea-smyrni-01d0","kind":"restaurant","name":"Flaked Croissanterie Nea Smyrni","lat":37.94664941791958,"lng":23.71226377005945,"url":"https://maps.app.goo.gl/XhDMxWuwRuMVcghH9?g_st=ipc","address":"2ας Μαΐου 10, Νέα Σμύρνη 171 21","categoryIds":["coffee-brunch"],"categories":["Coffee & Brunch Spots"]},"distanceKm":0.2060160763844281},{"entity":{"id":"italianRestaurants_3441b54b92cd","slug":"vissente-italian-comfort-food-3441","kind":"restaurant","name":"Vissente - Italian comfort food","lat":37.94750349815223,"lng":23.714501612675416,"url":"https://maps.app.goo.gl/UadeCSeXLWu8p8wK6?g_st=ipc","address":"Πλ. Αθανασίου Καρύλλου 9, Νέα Σμύρνη 171 21","categoryIds":["italian"],"categories":["Italian Restaurants"]},"distanceKm":0.21330527393077944},{"entity":{"id":"cheapEatsRestaurants_fb98feb8ab24","slug":"soyvlakia-o-leyteris-fb98","kind":"restaurant","name":"Σουβλάκια ο Λευτέρης","lat":37.947152588163014,"lng":23.712051232496496,"url":"https://maps.app.goo.gl/MTQDk9is4pkL1vPt9?g_st=ipc","address":"Ειρήνης 2, Νέα Σμύρνη 171 21","categoryIds":["cheap-eats"],"categories":["Gyros & Cheap Eats"]},"distanceKm":0.25555061661284123},{"entity":{"id":"dessertsRestaurants_8de488078304","slug":"crepa-crepa-8de4","kind":"restaurant","name":"Crepa crepa","lat":37.94728978565515,"lng":23.712096506964457,"url":"https://maps.app.goo.gl/vmeSVgQbRFAe8fe19?g_st=ipc","address":"Ειρήνης 2, Νέα Σμύρνη 171 21","categoryIds":["desserts"],"categories":["Dessert Shops"]},"distanceKm":0.26329829042489694},{"entity":{"id":"burgersRestaurants_af2bce83bf0a","slug":"mpar-mpee-kioy-af2b","kind":"restaurant","name":"Μπαρ Μπεε Κιου","lat":37.947758433049515,"lng":23.715813044078192,"url":"https://maps.app.goo.gl/4dN2cUdHdLqSEgRQA?g_st=ipc","address":"Λεωφ. Ελ. Βενιζέλου 18, Νέα Σμύρνη 171 23","categoryIds":["burgers"],"categories":["Burger Spots"]},"distanceKm":0.2785841795448587},{"entity":{"id":"coffeeBrunchRestaurants_2673b2efe834","slug":"fred-2673","kind":"restaurant","name":"Fred","lat":37.94562369764514,"lng":23.71066649818301,"url":"https://maps.app.goo.gl/HMmCPXK9BhvDtR538?g_st=ipc","address":"Κων/νου Παλαιολόγου 24, Νέα Σμύρνη 171 21","categoryIds":["coffee-brunch"],"categories":["Coffee & Brunch Spots"]},"distanceKm":0.3098560030737096},{"entity":{"id":"vegetarianRestaurants_de7324c496a6","slug":"fakafel-de73","kind":"restaurant","name":"Φakafel","lat":37.945977379116876,"lng":23.71063148252821,"url":"https://maps.app.goo.gl/r5AXr2ToKxBqZpAv9?g_st=ipc","address":"Φakafel","categoryIds":["vegetarian"],"categories":["Vegetarian Friendly Restaurants"]},"distanceKm":0.31571560127974924},{"entity":{"id":"coffeeBrunchRestaurants_0aaa1d7425c8","slug":"o-nikos-0aaa","kind":"restaurant","name":"\"ο Νίκος\"","lat":37.94446727754758,"lng":23.71036042368455,"url":"https://maps.app.goo.gl/Hjscsj6jJP8Ehtjz8?g_st=ipc","address":"Κων/νου Παλαιολόγου 36, Νέα Σμύρνη 171 22","categoryIds":["coffee-brunch"],"categories":["Coffee & Brunch Spots"]},"distanceKm":0.3594744881229948},{"entity":{"id":"burgersRestaurants_b47d84823c91","slug":"the-burger-joint-b47d","kind":"restaurant","name":"The Burger Joint","lat":37.942262724437896,"lng":23.71398429679752,"url":"https://maps.app.goo.gl/4gyyrfZJhxvHeHNj8?g_st=ipc","address":"Λεωφ. Ελ. Βενιζέλου 93, Νέα Σμύρνη 171 22","categoryIds":["burgers"],"categories":["Burger Spots"]},"distanceKm":0.3715698616095506},{"entity":{"id":"greekRestaurants_eecb2ebbfdc2","slug":"gitema-eecb","kind":"restaurant","name":"Γήτεμα","lat":37.94107986247284,"lng":23.713131731866255,"url":"https://maps.app.goo.gl/S3ph9mpPrmbS64x3A","address":"Λεωφ. Ελ. Βενιζέλου 88, Νέα Σμύρνη 171 22","categoryIds":["greek-restaurants"],"categories":["Greek Restaurants"]},"distanceKm":0.5112715237293622},{"entity":{"id":"greekRestaurants_ef1588581bbb","slug":"myrtia-ef15","kind":"restaurant","name":"Μυρτιά","lat":37.940920844377125,"lng":23.712738244892858,"url":"https://maps.app.goo.gl/QHjMpbFEFgtWLbA57","address":"Αϊδινίου 55, Νέα Σμύρνη 171 22","categoryIds":["greek-restaurants"],"categories":["Greek Restaurants"]},"distanceKm":0.5358554306908601},{"entity":{"id":"cheapEatsRestaurants_7f509ca8a241","slug":"doner-tzortz-7f50","kind":"restaurant","name":"DONER.TZORTZ","lat":37.95300238294556,"lng":23.716665931248773,"url":"https://maps.app.goo.gl/otFTTi2nsTTPYaYKA?g_st=ipc","address":"Βιζυηνού 2, Νέα Σμύρνη 171 21","categoryIds":["cheap-eats"],"categories":["Gyros & Cheap Eats"]},"distanceKm":0.8510331354544534},{"entity":{"id":"greekRestaurants_e3992a60261a","slug":"kritikos-e399","kind":"restaurant","name":"Κρητικός","lat":37.94303304147985,"lng":23.704084169584778,"url":"https://maps.app.goo.gl/QgBcqGt9addfXPwL6","address":"Ραιδεστού 36, Νέα Σμύρνη 171 22","categoryIds":["greek-restaurants"],"categories":["Greek Restaurants"]},"distanceKm":0.9318420012627008},{"entity":{"id":"coffeeBrunchRestaurants_45cff5aaefe1","slug":"peggy-sue-45cf","kind":"restaurant","name":"Peggy Sue","lat":37.9539520452851,"lng":23.715104827553436,"url":"https://maps.app.goo.gl/jJoRB32pj6dGvy9h9?g_st=ipc","address":"Σπαθαρη 2, Νέα Σμύρνη 171 21","categoryIds":["coffee-brunch"],"categories":["Coffee & Brunch Spots"]},"distanceKm":0.9320877525392983},{"entity":{"id":"cheapEatsRestaurants_4c857b269660","slug":"soyvlakia-kalamakia-panostimo-4c85","kind":"restaurant","name":"Σουβλακια καλαμάκια πανοστιμο","lat":37.95437724216138,"lng":23.71201791711626,"url":"https://maps.app.goo.gl/wSd2i93DKt8GM9aEA?g_st=ipc","address":"Δοϊράνης 35, Καλλιθέα 176 72","categoryIds":["cheap-eats"],"categories":["Gyros & Cheap Eats"]},"distanceKm":0.9945620624074211},{"entity":{"id":"italianRestaurants_20d0a7e98724","slug":"dei-fratelli-ristorante-italiano-20d0","kind":"restaurant","name":"Dei Fratelli - Ristorante Italiano","lat":37.954535351071335,"lng":23.71576098163187,"url":"https://maps.app.goo.gl/hbqzvikXoNEXvdgj7?g_st=ipc","address":"ΚΡΑΤΗΤΟΣ 10 &, Σπαθαρη, Νέα Σμύρνη 171 21","categoryIds":["italian"],"categories":["Italian Restaurants"]},"distanceKm":1.00294884717327},{"entity":{"id":"coffeeBrunchRestaurants_bcfaf36dacbe","slug":"tyropites-o-mitsos-bcfa","kind":"restaurant","name":"Τυρόπιτες ο Μήτσος","lat":37.95255129753746,"lng":23.705922909041465,"url":"https://maps.app.goo.gl/SR156bdeLaJYk1WY6?g_st=ipc","address":"Συνταγματάρχου Δαβάκη 32A, Καλλιθέα 176 72","categoryIds":["coffee-brunch"],"categories":["Coffee & Brunch Spots"]},"distanceKm":1.0602760589796203},{"entity":{"id":"dessertsRestaurants_6903e2ef4276","slug":"la-maison-fine-pastry-6903","kind":"restaurant","name":"La Maison - Fine Pastry","lat":37.951479018771344,"lng":23.703684961330683,"url":"https://maps.app.goo.gl/Hwbaz4KzQVAzGaRA8?g_st=ipc","address":"Δημοσθένους 149, Καλλιθέα 176 73","categoryIds":["desserts"],"categories":["Dessert Shops"]},"distanceKm":1.1302371513788172}],"counts":{"totalEntities":4117,"totalInArea":336,"totalInCategory":0,"totalCategoryArea":336},"relatedCategories":[{"categoryId":"coffee-brunch","categorySlug":"brunch","categoryName":"Coffee & Brunch Spots","count":56,"passesThreshold":true},{"categoryId":"cheap-eats","categorySlug":"cheap-eats","categoryName":"Gyros & Cheap Eats","count":46,"passesThreshold":true},{"categoryId":"greek-restaurants","categorySlug":"greek-restaurants","categoryName":"Greek Restaurants","count":44,"passesThreshold":true},{"categoryId":"desserts","categorySlug":"desserts","categoryName":"Dessert Shops","count":32,"passesThreshold":true},{"categoryId":"attractions","categorySlug":"attractions","categoryName":"Must-See Attractions","count":29,"passesThreshold":true},{"categoryId":"italian","categorySlug":"italian","categoryName":"Italian Restaurants","count":25,"passesThreshold":true},{"categoryId":"vegetarian","categorySlug":"vegetarian","categoryName":"Vegetarian Friendly Restaurants","count":19,"passesThreshold":true},{"categoryId":"luxury-dining","categorySlug":"luxury-dining","categoryName":"Luxury Dining","count":17,"passesThreshold":true},{"categoryId":"rooftop-lounges","categorySlug":"rooftops","categoryName":"Rooftop Lounges","count":14,"passesThreshold":true},{"categoryId":"asian","categorySlug":"asian-restaurants","categoryName":"Asian Restaurants","count":11,"passesThreshold":true}],"relatedAreas":[{"areaId":"municipalities_5bc013791cf8","areaName":"Πλάκα","areaSlug":"plaka","count":872,"passesThreshold":true,"nearestDistanceKm":0.012491754607387504},{"areaId":"municipalities_877c3bc81df5","areaName":"Σύνταγμα","areaSlug":"syntagma","count":867,"passesThreshold":true,"nearestDistanceKm":0.009392084429921843},{"areaId":"municipalities_0cae2c00b932","areaName":"Κολωνάκι","areaSlug":"kolonaki","count":858,"passesThreshold":true,"nearestDistanceKm":0.019551496670837543},{"areaId":"municipalities_d7e1aaaed4f9","areaName":"Μοναστηράκι","areaSlug":"monastiraki","count":857,"passesThreshold":true,"nearestDistanceKm":0.0015439249117317326},{"areaId":"municipalities_4149fa79e27b","areaName":"Ακρόπολη","areaSlug":"akropoli","count":856,"passesThreshold":true,"nearestDistanceKm":0.005729795337023071},{"areaId":"municipalities_0fd1d03201a0","areaName":"Μετς","areaSlug":"mets","count":856,"passesThreshold":true,"nearestDistanceKm":0.0655206557127576},{"areaId":"municipalities_2bcfcb8b899f","areaName":"Ψυρρή","areaSlug":"psyrri","count":855,"passesThreshold":true,"nearestDistanceKm":0.047074153549061026},{"areaId":"municipalities_616efd2a0d9b","areaName":"Κουκάκι","areaSlug":"koykaki","count":854,"passesThreshold":true,"nearestDistanceKm":0.03240357443173243},{"areaId":"municipalities_b85b54408d92","areaName":"Θησείο","areaSlug":"thiseio","count":848,"passesThreshold":true,"nearestDistanceKm":0.08292401975417248},{"areaId":"municipalities_2f324ee27306","areaName":"Εξάρχεια","areaSlug":"exarcheia","count":847,"passesThreshold":true,"nearestDistanceKm":0.08690050688547628}],"passesThreshold":true},"topGuides":[]},"__N_SSG":true}