{"pageProps":{"entity":{"id":"cheapEatsRestaurants_8113009fd5ab","slug":"axi-8113","kind":"restaurant","name":"AXI - 阿锡早点","lat":37.98134764148285,"lng":23.721168322095103,"url":"https://maps.app.goo.gl/QAxCvjDtdvgbPe3b7?g_st=ipc","address":"Athens, Greece, Akadimou, 104 36","categoryIds":["cheap-eats"],"categories":["Gyros & Cheap Eats"]},"sameCategory":[{"id":"cheapEatsRestaurants_ee7a3b30b5dc","slug":"galiantra-ee7a","kind":"restaurant","name":"Γαλιάντρα","lat":37.982766279881204,"lng":23.72018754800204,"url":"https://maps.app.goo.gl/WkvoPR33PQyg4HdDA?g_st=ipc","address":"Γιατράκου 4, Αθήνα 104 36","categoryIds":["cheap-eats"],"categories":["Gyros & Cheap Eats"]},{"id":"cheapEatsRestaurants_6df03a7d154b","slug":"to-soyvlaki-tis-sarri-6df0","kind":"restaurant","name":"το σουβλάκι της σαρρή","lat":37.978860476586924,"lng":23.722082836375154,"url":"https://maps.app.goo.gl/4dueoYmWEmQ4i8jF8?g_st=ipc","address":"Σαρρή 36, Αθήνα 105 53","categoryIds":["cheap-eats"],"categories":["Gyros & Cheap Eats"]},{"id":"cheapEatsRestaurants_f6e9355765da","slug":"armando-pizzeria-cafeteria-f6e9","kind":"restaurant","name":"Armando Pizzeria Cafeteria","lat":37.98213236236815,"lng":23.71647213293712,"url":"https://maps.app.goo.gl/X5ofrEqzBi24eigT6?g_st=ipc","address":"Σαλαμίνος 43, Αθήνα 104 35","categoryIds":["cheap-eats"],"categories":["Gyros & Cheap Eats"]},{"id":"cheapEatsRestaurants_9ef22bd13da7","slug":"gyristroyla-9ef2","kind":"restaurant","name":"Γυριστρούλα","lat":37.97711548768267,"lng":23.72128560665997,"url":"https://maps.app.goo.gl/rUqbZBRjNZ4twFu59?g_st=ipc","address":"Square (across from \"Thissio\" ISAP station, Αγίων Ασωμάτων 9, Αθήνα 105 54","categoryIds":["cheap-eats"],"categories":["Gyros & Cheap Eats"]},{"id":"cheapEatsRestaurants_0c227902a32d","slug":"elvis-kalamakia-0c22","kind":"restaurant","name":"Έλβις Καλαμάκια","lat":37.977219822169786,"lng":23.722815670884195,"url":"https://maps.app.goo.gl/FJ47hNfgCop393VD9?g_st=ipc","address":"Ερμού 112, Αθήνα 105 63","categoryIds":["cheap-eats"],"categories":["Gyros & Cheap Eats"]},{"id":"cheapEatsRestaurants_9273dc402e3b","slug":"piccola-9273","kind":"restaurant","name":"Piccola","lat":37.980127892484575,"lng":23.715865229557284,"url":"https://maps.app.goo.gl/MuZFA3dXT4LnZFtL7?g_st=ipc","address":"Keramikou 111, Athina 104 35","categoryIds":["cheap-eats"],"categories":["Gyros & Cheap Eats"]},{"id":"cheapEatsRestaurants_97e6c85445da","slug":"tsiken-the-van-97e6","kind":"restaurant","name":"ΤΣΙΚΕΝ The Van","lat":37.97797456722786,"lng":23.725133314287408,"url":"https://maps.app.goo.gl/QK18bYTh1b11fJt97?g_st=ipc","address":"Μιαούλη 19, Αθήνα 105 54","categoryIds":["cheap-eats"],"categories":["Gyros & Cheap Eats"]},{"id":"cheapEatsRestaurants_eaf8d8c0d190","slug":"bouloukos-kebab-eaf8","kind":"restaurant","name":"Bouloukos Kebab","lat":37.980172161906935,"lng":23.72690266572384,"url":"https://maps.app.goo.gl/eUePB41Ppi2PT7NL7?g_st=ipc","address":"Αθηνάς 53, Αθήνα 105 52","categoryIds":["cheap-eats"],"categories":["Gyros & Cheap Eats"]}],"nearby":[{"id":"asianRestaurants_11df834afa0a","slug":"axi-11df","kind":"restaurant","name":"AXI - 阿锡早点","lat":37.98134764148285,"lng":23.721168322095103,"url":"https://maps.app.goo.gl/BQFSgk7VHKmzvjWN9?g_st=ipc","address":"Athens, Greece, Akadimou, 104 36","categoryIds":["asian"],"categories":["Asian Restaurants"],"distanceKm":0},{"id":"asianRestaurants_d23972f8388f","slug":"noodle-shop-d239","kind":"restaurant","name":"Noodle Shop - 相遇面馆","lat":37.98145210842213,"lng":23.721054788106656,"url":"https://maps.app.goo.gl/Za9q8z3zwF4WhUQs8?g_st=ipc","address":"Ακαδήμου 4, Αθήνα 104 36","categoryIds":["asian"],"categories":["Asian Restaurants"],"distanceKm":0.015295494565789129},{"id":"greekRestaurants_8c5628ce57f7","slug":"seychelles-8c56","kind":"restaurant","name":"Σεϋχέλλες","lat":37.9823149491854,"lng":23.720253813195804,"url":"https://maps.app.goo.gl/iUj8NxtUsYKhihFV9","address":"Κεραμεικού 49, Αθήνα 104 36","categoryIds":["greek-restaurants"],"categories":["Greek Restaurants"],"distanceKm":0.1341394137991307},{"id":"cheapEatsRestaurants_ee7a3b30b5dc","slug":"galiantra-ee7a","kind":"restaurant","name":"Γαλιάντρα","lat":37.982766279881204,"lng":23.72018754800204,"url":"https://maps.app.goo.gl/WkvoPR33PQyg4HdDA?g_st=ipc","address":"Γιατράκου 4, Αθήνα 104 36","categoryIds":["cheap-eats"],"categories":["Gyros & Cheap Eats"],"distanceKm":0.17964573940789044},{"id":"coffeeBrunchRestaurants_427065b8cb6b","slug":"okupa-kitchen-listening-bar-4270","kind":"restaurant","name":"Okupa Kitchen & Listening Bar","lat":37.979629344397615,"lng":23.720723846557707,"url":"https://maps.app.goo.gl/qmz7mBRbaa6QhTDd8?g_st=ipc","address":"Σαμουήλ Καλογήρου 3, Αθήνα 105 53","categoryIds":["coffee-brunch"],"categories":["Coffee & Brunch Spots"],"distanceKm":0.1949969177593141},{"id":"asianRestaurants_f31c7fe7455a","slug":"168-bar-f31c","kind":"restaurant","name":"168 Bar","lat":37.97952828529781,"lng":23.72107861467235,"url":"https://maps.app.goo.gl/kfZE6p7Ddwomz7Zd9?g_st=ipc","address":"Διπύλου 6, Αθήνα 105 53","categoryIds":["asian"],"categories":["Asian Restaurants"],"distanceKm":0.20245590811523734},{"id":"burgersRestaurants_73788d5c5e26","slug":"street-habit-burgers-sandwiches-7378","kind":"restaurant","name":"Street Habit Burgers & Sandwiches","lat":37.982308190228395,"lng":23.718935233979323,"url":"https://maps.app.goo.gl/ypf3MAMpnquGQSrr6?g_st=ipc","address":"Λεωνίδου 41, Μαραθώνος 20, Αθήνα 104 36","categoryIds":["burgers"],"categories":["Burger Spots"],"distanceKm":0.2229651958633499},{"id":"greekRestaurants_6dad5c0e5b55","slug":"to-aygo-toy-kokkora-6dad","kind":"restaurant","name":"Το Αυγό Του Κόκκορα","lat":37.98270365301358,"lng":23.719206888648312,"url":"https://maps.app.goo.gl/iKbPmGsQDpnYazKs9","address":"Λεωνίδου 46, Αθήνα 104 36","categoryIds":["greek-restaurants"],"categories":["Greek Restaurants"],"distanceKm":0.22866479938623369}],"sameRegion":[],"mentionedGuides":[],"canonicalSlug":"axi-11df","isCanonicalEntity":false},"__N_SSG":true}