{"pageProps":{"entity":{"id":"luxuryDiningRestaurants_e825cfee350a","slug":"basegrill-e825","kind":"restaurant","name":"Basegrill","lat":37.86050537468002,"lng":23.752246157817687,"url":"https://maps.app.goo.gl/hxrPoafUYa9EUkbw7?g_st=ipc","address":"Ζησιμοπούλου 5, Γλυφάδα 166 74","categoryIds":["luxury-dining"],"categories":["Luxury Dining"]},"sameCategory":[{"id":"luxuryDiningRestaurants_3c7a33670545","slug":"bungalow7-athens-3c7a","kind":"restaurant","name":"Bungalow7 Athens","lat":37.85872799573807,"lng":23.751508806698986,"url":"https://maps.app.goo.gl/cZjRzro2aqBguv3EA?g_st=ipc","address":"Λεωφ. Ποσειδώνος 110, Γλυφάδα 166 75","categoryIds":["luxury-dining"],"categories":["Luxury Dining"]},{"id":"luxuryDiningRestaurants_7d36e4ca660e","slug":"ark-7d36","kind":"restaurant","name":"Ark","lat":37.85971913916164,"lng":23.74981043696894,"url":"https://maps.app.goo.gl/Dx4oajrWFGZwwetZ9?g_st=ipc","address":"Γρ. Λαμπράκη 2, Γλυφάδα 166 74","categoryIds":["luxury-dining"],"categories":["Luxury Dining"]},{"id":"luxuryDiningRestaurants_72f0c7381e5c","slug":"caretta-athens-72f0","kind":"restaurant","name":"Caretta Athens","lat":37.8628471518072,"lng":23.74485660521178,"url":"https://maps.app.goo.gl/Uw1vLRNczCvaVvgf8?g_st=ipc","address":"Διαδόχου Παύλου 46, Γλυφάδα 166 75","categoryIds":["luxury-dining"],"categories":["Luxury Dining"]},{"id":"luxuryDiningRestaurants_0dbacc69dd52","slug":"feedel-asador-0dba","kind":"restaurant","name":"FEEDEL ASADOR","lat":37.86621086434499,"lng":23.74871853137983,"url":"https://maps.app.goo.gl/axUbgwvJZkdNUx4n8?g_st=ipc","address":"Ν Ζερβα 24 Και, Κύπρου, Γλυφάδα 166 75","categoryIds":["luxury-dining"],"categories":["Luxury Dining"]},{"id":"luxuryDiningRestaurants_771807889c8b","slug":"beastalis-food-for-proud-meat-eaters-7718","kind":"restaurant","name":"BEASTALIS ,Food for proud meat eaters","lat":37.867214606158306,"lng":23.7473035874199,"url":"https://maps.app.goo.gl/2E1n4NVs2CjMsLQo7?g_st=ipc","address":"Κύπρου 9, Γλυφάδα 166 75","categoryIds":["luxury-dining"],"categories":["Luxury Dining"]},{"id":"luxuryDiningRestaurants_d4685ec9fc7a","slug":"barbarossa-athens-d468","kind":"restaurant","name":"Barbarossa Athens","lat":37.85088920250088,"lng":23.748814418850717,"url":"https://maps.app.goo.gl/oUiPt5pCahzP963D8?g_st=ipc","address":"Λεωφ. Αλκυονίδων 4, Βούλα 166 73","categoryIds":["luxury-dining"],"categories":["Luxury Dining"]},{"id":"luxuryDiningRestaurants_daf4afb74694","slug":"sea-satin-athens-riviera-daf4","kind":"restaurant","name":"Sea Satin Athens Riviera","lat":37.840370182607195,"lng":23.760387083086915,"url":"https://maps.app.goo.gl/Uip41WWw3kvAGzDG9?g_st=ipc","address":"Λεωφ. Κωνσταντίνου Καραμανλή 14, Βούλα 166 73","categoryIds":["luxury-dining"],"categories":["Luxury Dining"]},{"id":"luxuryDiningRestaurants_9dba478c9326","slug":"faidon-s-athens-9dba","kind":"restaurant","name":"FAIDON'S Athens","lat":37.841556503840984,"lng":23.766513107501794,"url":"https://maps.app.goo.gl/keaSEXUAsA2Tk34x9?g_st=ipc","address":"Αγίου Ιωάννου 28, Βούλα 166 73","categoryIds":["luxury-dining"],"categories":["Luxury Dining"]}],"nearby":[{"id":"greekRestaurants_2c46fb9be459","slug":"basegrill-2c46","kind":"restaurant","name":"Basegrill","lat":37.860629906056765,"lng":23.752227328267114,"url":"https://maps.app.goo.gl/Mg499qYpRgDUfYMg9","address":"Ζησιμοπούλου 5, Γλυφάδα 166 74","categoryIds":["greek-restaurants"],"categories":["Greek Restaurants"],"distanceKm":0.013945574311506483},{"id":"greekRestaurants_f2b28136b406","slug":"ethos-athens-f2b2","kind":"restaurant","name":"Ethos Athens","lat":37.86060943582202,"lng":23.752891201537246,"url":"https://maps.app.goo.gl/xMQQbpjUHPQdMrpg6?g_st=ipc","address":"Zisimopoulou 10, Glifada 166 74","categoryIds":["greek-restaurants"],"categories":["Greek Restaurants"],"distanceKm":0.05779793914944471},{"id":"coffeeBrunchRestaurants_bf37b14fbfdf","slug":"kool-food-and-coffee-bf37","kind":"restaurant","name":"KOOL Food and Coffee","lat":37.8617153280559,"lng":23.75264950039194,"url":"https://maps.app.goo.gl/zAtPpG6k1DNtijDy5?g_st=ipc","address":"Leof. Dimarchou Aggelou Metaxa 22, Glifada 166 74","categoryIds":["coffee-brunch"],"categories":["Coffee & Brunch Spots"],"distanceKm":0.1391221741663496},{"id":"italianRestaurants_19fa39b4b310","slug":"cicchetti-prosciutteria-spritzeria-19fa","kind":"restaurant","name":"Cicchetti Prosciutteria & Spritzeria","lat":37.859684523196464,"lng":23.75386502955931,"url":"https://maps.app.goo.gl/3jMcfyGkfYbxGbps9","address":"Fivis 11, Glifada 166 74","categoryIds":["italian"],"categories":["Italian Restaurants"],"distanceKm":0.16890591181241563},{"id":"greekRestaurants_0d2e578d4137","slug":"sasmos-kritiko-estiatorio-0d2e","kind":"restaurant","name":"Σασμός Κρητικό Εστιατόριο","lat":37.86096099153773,"lng":23.750381646450872,"url":"https://maps.app.goo.gl/hFF1UKLboDX66HUH8","address":"Γρ. Λαμπράκη 1-3, Γλυφάδα 166 75","categoryIds":["greek-restaurants"],"categories":["Greek Restaurants"],"distanceKm":0.17134452556439},{"id":"dessertsRestaurants_dbb06fc87d85","slug":"choureal-choux-profiterole-dbb0","kind":"restaurant","name":"Choureal - Choux & Profiterole","lat":37.86175367207503,"lng":23.751100149395214,"url":"https://maps.app.goo.gl/PTmrU95w2y1tQWmE7?g_st=ipc","address":"Lazaraki 39, Glifada 166 75","categoryIds":["desserts"],"categories":["Dessert Shops"],"distanceKm":0.1714300908013601},{"id":"dessertsRestaurants_cdd2ff99e09f","slug":"choureal-choux-profiterole-cdd2","kind":"restaurant","name":"Choureal - Choux & Profiterole","lat":37.86175419711277,"lng":23.7510964996929,"url":"https://maps.app.goo.gl/jqVCKVDpx8nte58k7?g_st=ipc","address":"Lazaraki 39, Glifada 166 75","categoryIds":["desserts"],"categories":["Dessert Shops"],"distanceKm":0.17166554148113472},{"id":"coffeeBrunchRestaurants_3b6eb83fd8ab","slug":"angelina-le-petit-paris-depuis-2012-3b6e","kind":"restaurant","name":"Angelina Le Petit Paris- Depuis 2012","lat":37.859847959328306,"lng":23.754133995266965,"url":"https://maps.app.goo.gl/HLP4ksmAZgKQH5e59?g_st=ipc","address":"Λεωφ. Δημάρχου Αγγέλου Μεταξά 38, Γλυφάδα 166 74","categoryIds":["coffee-brunch"],"categories":["Coffee & Brunch Spots"],"distanceKm":0.1811382167335327}],"sameRegion":[],"mentionedGuides":[],"canonicalSlug":"basegrill-2c46","isCanonicalEntity":false},"__N_SSG":true}