{"pageProps":{"entity":{"id":"wineriesVineyards_011f8d812c25","slug":"domaine-skouras-ktima-skoyra-o-a-e-011f","kind":"restaurant","name":"DOMAINE SKOURAS / ΚΤΗΜΑ ΣΚΟΥΡΑ Ο.Α.Ε.","lat":37.689635245473845,"lng":22.65473621335941,"url":"https://maps.app.goo.gl/xuRduiD32C9WJMTL8?g_st=ipc","address":"Argous - Sternas Rd (10th Km), Malandreni, Άργος 212 00","categoryIds":["wineries-vineyards"],"categories":["Wineries & Vineyards"]},"sameCategory":[{"id":"wineriesVineyards_69d625490caa","slug":"oinopoieia-papantoni-69d6","kind":"restaurant","name":"Οινοποιεία Παπαντώνη","lat":37.62151973903064,"lng":22.717966668919065,"url":"https://maps.app.goo.gl/8MoiYv6j31NHuYmD9?g_st=ipc","address":"Κανάρη 47, Άργος 212 00","categoryIds":["wineries-vineyards"],"categories":["Wineries & Vineyards"]},{"id":"wineriesVineyards_88afc94904f1","slug":"karamitsos-winery-88af","kind":"restaurant","name":"Karamitsos Winery","lat":37.8058034996967,"lng":22.666146923082234,"url":"https://maps.app.goo.gl/97nmfFmuN9mMotwW7?g_st=ipc","address":"Θέση Μπογάζι, Νεμέα 205 00","categoryIds":["wineries-vineyards"],"categories":["Wineries & Vineyards"]},{"id":"wineriesVineyards_b1e6778656c1","slug":"ktima-bairaktaris-b1e6","kind":"restaurant","name":"Ktima Bairaktaris","lat":37.809706199473894,"lng":22.66496992803815,"url":"https://maps.app.goo.gl/DHUmZNYmY1jciDqK9?g_st=ipc","address":"Ελ. Βενιζέλου 83, Νεμέα 205 00","categoryIds":["wineries-vineyards"],"categories":["Wineries & Vineyards"]},{"id":"wineriesVineyards_239a4e029aee","slug":"venikos-wine-window-wine-tours-tastings-239a","kind":"restaurant","name":"Venikos Wine Window, Wine Tours & Tastings","lat":37.821663923892565,"lng":22.663321715457876,"url":"https://maps.app.goo.gl/ZMmJXxpaMciuZeCj6?g_st=ipc","address":"Plateia Iroon 3, Νεμέα 205 00","categoryIds":["wineries-vineyards"],"categories":["Wineries & Vineyards"]},{"id":"wineriesVineyards_02d00923574f","slug":"lafazanis-winery-02d0","kind":"restaurant","name":"Lafazanis Winery","lat":37.81366330913366,"lng":22.765441857507405,"url":"https://maps.app.goo.gl/A2t4w3k9kTA2cB6j9?g_st=ipc","address":"Θέση Κεφαλάρι, Αρχαίες Κλεωνές 205 00","categoryIds":["wineries-vineyards"],"categories":["Wineries & Vineyards"]},{"id":"wineriesVineyards_44279fa455a5","slug":"gaia-winery-nemea-4427","kind":"restaurant","name":"Gaia Winery Nemea","lat":37.85612300690931,"lng":22.670580052988402,"url":"https://maps.app.goo.gl/ZgmCy9JQ7Vrkbz1r9?g_st=ipc","address":"Κούτσι 205 00","categoryIds":["wineries-vineyards"],"categories":["Wineries & Vineyards"]},{"id":"wineriesVineyards_b00a536153f6","slug":"semeli-estate-ktima-semeli-b00a","kind":"restaurant","name":"Semeli Estate | Κτήμα Σεμέλη","lat":37.87119800007677,"lng":22.67941642720224,"url":"https://maps.app.goo.gl/zETqXnjPfU3pMwmA8?g_st=ipc","address":"Επαρ.Οδ. Κιάτου - Νεμέας, Κούτσι 205 00","categoryIds":["wineries-vineyards"],"categories":["Wineries & Vineyards"]},{"id":"wineriesVineyards_2941ab0a3cb2","slug":"ktima-spyropoylos-2941","kind":"restaurant","name":"Κτήμα Σπυρόπουλος","lat":37.63241805452202,"lng":22.386158704913175,"url":"https://maps.app.goo.gl/yaMLQMfuQx4GhqbF7?g_st=ipc","address":"Μαντινεία 221 00","categoryIds":["wineries-vineyards"],"categories":["Wineries & Vineyards"]}],"nearby":[{"id":"mustSeeAttractions_6da28e1f03a6","slug":"mykines-6da2","kind":"restaurant","name":"Μυκήνες","lat":37.719549554552074,"lng":22.745771038100788,"url":"https://maps.app.goo.gl/wvmKvmFpppdNJFd78?g_st=ipc","address":"Μυκήνες 212 00","categoryIds":["attractions"],"categories":["Must-See Attractions"],"distanceKm":8.67205243935394},{"id":"municipalities_c660ac4fbaed","slug":"argos-c660","kind":"municipality","name":"Άργος","lat":37.6333,"lng":22.7333,"aliases":["Argos","Argos city","Άργη","Αργε","Αργος"],"region":"Αργολίδα","name_en":"Argos","region_en":"Argolis","distanceKm":9.33092356087454},{"id":"wineriesVineyards_69d625490caa","slug":"oinopoieia-papantoni-69d6","kind":"restaurant","name":"Οινοποιεία Παπαντώνη","lat":37.62151973903064,"lng":22.717966668919065,"url":"https://maps.app.goo.gl/8MoiYv6j31NHuYmD9?g_st=ipc","address":"Κανάρη 47, Άργος 212 00","categoryIds":["wineries-vineyards"],"categories":["Wineries & Vineyards"],"distanceKm":9.399532617240965},{"id":"mustSeeAttractions_fdd5af362f6e","slug":"archaiologikoy-choroy-mykinon-fdd5","kind":"restaurant","name":"Αρχαιολογικού Χώρου Μυκηνών","lat":37.73086788150969,"lng":22.75613319936325,"url":"https://maps.app.goo.gl/BqhWK8uyZVNjhnRG8?g_st=ipc","address":"Μυκήνες 212 00","categoryIds":["attractions"],"categories":["Must-See Attractions"],"distanceKm":10.029036222944312},{"id":"wineriesVineyards_88afc94904f1","slug":"karamitsos-winery-88af","kind":"restaurant","name":"Karamitsos Winery","lat":37.8058034996967,"lng":22.666146923082234,"url":"https://maps.app.goo.gl/97nmfFmuN9mMotwW7?g_st=ipc","address":"Θέση Μπογάζι, Νεμέα 205 00","categoryIds":["wineries-vineyards"],"categories":["Wineries & Vineyards"],"distanceKm":12.956223025823354},{"id":"wineriesVineyards_b1e6778656c1","slug":"ktima-bairaktaris-b1e6","kind":"restaurant","name":"Ktima Bairaktaris","lat":37.809706199473894,"lng":22.66496992803815,"url":"https://maps.app.goo.gl/DHUmZNYmY1jciDqK9?g_st=ipc","address":"Ελ. Βενιζέλου 83, Νεμέα 205 00","categoryIds":["wineries-vineyards"],"categories":["Wineries & Vineyards"],"distanceKm":13.381564474085284},{"id":"mustSeeAttractions_bf66b7fd059d","slug":"archaiologikos-choros-nemeas-bf66","kind":"restaurant","name":"Αρχαιολογικός Χώρος Νεμέας","lat":37.808169165276894,"lng":22.71117627010056,"url":"https://maps.app.goo.gl/PrH4BXCt62jqPBys9?g_st=ipc","address":"Koutsomidi, Nemea 205 00","categoryIds":["attractions"],"categories":["Must-See Attractions"],"distanceKm":14.083563933187973},{"id":"municipalities_ef70ef6cd5fd","slug":"nemea-ef70","kind":"municipality","name":"Νεμέα","lat":37.817,"lng":22.667,"region":"Κορινθία","name_en":"Nemea","region_en":"Corinthia","distanceKm":14.203297140052909}],"sameRegion":[],"mentionedGuides":[],"canonicalSlug":"domaine-skouras-ktima-skoyra-o-a-e-011f","isCanonicalEntity":true},"__N_SSG":true}