{"pageProps":{"entity":{"id":"cheapEatsRestaurants_34ddf07c2336","slug":"estiatorio-psistaria-sotiris-34dd","kind":"restaurant","name":"Εστιατόριο Ψησταριά Σωτήρης","lat":37.87939587296456,"lng":23.933984566615596,"url":"https://maps.app.goo.gl/U5qLZ6nCR7tW5r3u7?g_st=ipc","address":"Μυριννουντος 10, Μαρκόπουλο Μεσογαίας 190 03","categoryIds":["cheap-eats"],"categories":["Gyros & Cheap Eats"]},"sameCategory":[{"id":"cheapEatsRestaurants_d994fad95b5a","slug":"aroma-elladas-d994","kind":"restaurant","name":"Άρωμα Ελλάδας","lat":37.80578649121729,"lng":23.9833913286695,"url":"https://maps.app.goo.gl/cDRv243YonNg2qnB6?g_st=ipc","address":"Ευεργέτη Κωνσταντίνου Πρίφτη 57, Κερατέα 190 01","categoryIds":["cheap-eats"],"categories":["Gyros & Cheap Eats"]},{"id":"cheapEatsRestaurants_0c78537a51b9","slug":"pitta-fan-grill-0c78","kind":"restaurant","name":"ΠΙΤΤΑ FAN grill","lat":37.84574550115403,"lng":23.82243212849934,"url":"https://maps.app.goo.gl/xQ5Aqm4jpK3KEQLx8?g_st=ipc","address":"Λεωφ. Ευελπίδων 364, Κίτσι 194 00","categoryIds":["cheap-eats"],"categories":["Gyros & Cheap Eats"]},{"id":"cheapEatsRestaurants_f656711be260","slug":"psitopoleio-o-thanasis-f656","kind":"restaurant","name":"Ψητοπωλείο ο Θανάσης","lat":37.95535052108935,"lng":23.854531337453796,"url":"https://maps.app.goo.gl/GvWt9fy2W45TxTRs8?g_st=ipc","address":"Αγ. Τριάδος 42, Παιανία 190 02","categoryIds":["cheap-eats"],"categories":["Gyros & Cheap Eats"]},{"id":"cheapEatsRestaurants_2fe91c5ec4e8","slug":"pita-lagonisi-2fe9","kind":"restaurant","name":"Πίτα Λαγονήσι","lat":37.787769077925994,"lng":23.886240321695578,"url":"https://maps.app.goo.gl/gnVwTeJ7a9GqoCGQ9?g_st=ipc","address":"Λεωφ. Καλυβίων 4, Σαρωνικός 190 10","categoryIds":["cheap-eats"],"categories":["Gyros & Cheap Eats"]},{"id":"cheapEatsRestaurants_b59c9010c8a4","slug":"zachos-b59c","kind":"restaurant","name":"Ζάχος","lat":37.821251970598816,"lng":23.80344271241433,"url":"https://maps.app.goo.gl/DsP5tZnJxShfNf3H9?g_st=ipc","address":"Βασ. Κωνσταντίνου 94, Βάρη 166 72","categoryIds":["cheap-eats"],"categories":["Gyros & Cheap Eats"]},{"id":"cheapEatsRestaurants_6aba6b4d71c3","slug":"cook-and-grill-pallinis-6aba","kind":"restaurant","name":"Cook And Grill Παλλήνης","lat":38.00364715720239,"lng":23.880433616458955,"url":"https://maps.app.goo.gl/KtBirzLenbmGoPCW9?g_st=ipc","address":"Λεωφ. Μαραθώνος 76, Παλλήνη 153 51","categoryIds":["cheap-eats"],"categories":["Gyros & Cheap Eats"]},{"id":"cheapEatsRestaurants_e8be7933bd6e","slug":"i-love-souvlaki-e8be","kind":"restaurant","name":"I Love Souvlaki","lat":38.00365767820438,"lng":23.880036032400344,"url":"https://maps.app.goo.gl/TceiwQJnedx4muqW7?g_st=ipc","address":"Λεωφ. Μαραθώνος 72, Παλλήνη 153 51","categoryIds":["cheap-eats"],"categories":["Gyros & Cheap Eats"]},{"id":"cheapEatsRestaurants_fda4a4f93016","slug":"psitopoleio-to-pyrnari-fda4","kind":"restaurant","name":"Ψητοπωλείο «Το Πυρνάρι»","lat":37.874394232840224,"lng":23.766043784078654,"url":"https://maps.app.goo.gl/qS5CXA1L9CMHWtaN7?g_st=ipc","address":"Ανθέων 33, Γλυφάδα 166 74","categoryIds":["cheap-eats"],"categories":["Gyros & Cheap Eats"]}],"nearby":[{"id":"municipalities_a1757f1f5877","slug":"koropi-a175","kind":"municipality","name":"Κορωπί","lat":37.8833,"lng":23.9,"region":"Ανατολικά Προάστια","name_en":"Koropi","region_en":"Eastern Suburbs","distanceKm":3.014061554625814},{"id":"familyFriendly_c8ef51000921","slug":"margi-farm-c8ef","kind":"restaurant","name":"Margi Farm","lat":37.84874963465927,"lng":23.91294630423687,"url":"https://maps.app.goo.gl/LpauJpU7FAqyQdA8A?g_st=ipc","address":"Thorikou, Saronikos 190 10","categoryIds":["family-friendly"],"categories":["Kid Friendly Locations"],"distanceKm":3.875988986611361},{"id":"greekRestaurants_4897cd79b835","slug":"to-trigono-4897","kind":"restaurant","name":"Το Τρίγωνο","lat":37.842540231960264,"lng":23.92981276182192,"url":"https://maps.app.goo.gl/pPFdZPKhVShhMrpC6","address":"Αθηνων 36, Καλύβια Θορικού 190 10","categoryIds":["greek-restaurants"],"categories":["Greek Restaurants"],"distanceKm":4.114492369929556},{"id":"greekRestaurants_2ecb7afbe3a2","slug":"taverna-o-moyroyzis-2ecb","kind":"restaurant","name":"Ταβέρνα ο Μουρούζης","lat":37.841203116649474,"lng":23.927040364485364,"url":"https://maps.app.goo.gl/ezdUi47iiXAnpXxY9","address":"Βασιλείου Γεωργάκη 2, Καλύβια Θορικού 190 10","categoryIds":["greek-restaurants"],"categories":["Greek Restaurants"],"distanceKm":4.290373196156511},{"id":"greekRestaurants_8851a9198b0c","slug":"o-christoforos-8851","kind":"restaurant","name":"Ο Χριστόφορος","lat":37.84084854419875,"lng":23.927116302854657,"url":"https://maps.app.goo.gl/qHLpPbKqrYerTaBG8","address":"Μιχάλη Καλαβρυτινού 11, Καλύβια Θορικού 190 10","categoryIds":["greek-restaurants"],"categories":["Greek Restaurants"],"distanceKm":4.32846993914021},{"id":"fishTavernasRestaurants_f7b6756d4a93","slug":"psaraki-f7b6","kind":"restaurant","name":"ψαΡΑΚΙ","lat":37.83998892168737,"lng":23.92872058927444,"url":"https://maps.app.goo.gl/RqqP9EwfK4qQLD1v5?g_st=ipc","address":"Ευαγγελίστριας, Καλύβια Θορικού 190 10","categoryIds":["fish-tavernas"],"categories":["Fish Tavernas"],"distanceKm":4.406154351680433},{"id":"municipalities_0343e4758ade","slug":"saronikos-0343","kind":"municipality","name":"Σαρωνικός","lat":37.8333,"lng":23.9333,"region":"Ανατολικά Προάστια","name_en":"Saronikos","region_en":"Eastern Suburbs","distanceKm":5.125979560007185},{"id":"wineriesVineyards_262c7717edc1","slug":"oinopoieio-papagiannakos-262c","kind":"restaurant","name":"Οινοποιείο Παπαγιαννάκος","lat":37.90457982525897,"lng":23.983420618508436,"url":"https://maps.app.goo.gl/nRd1KxMycS9cXqd6A?g_st=ipc","address":"Πυθαγόρα, Μαρκόπουλο Μεσογαίας 190 03","categoryIds":["wineries-vineyards"],"categories":["Wineries & Vineyards"],"distanceKm":5.1634217225748}],"sameRegion":[],"mentionedGuides":[],"canonicalSlug":"estiatorio-psistaria-sotiris-34dd","isCanonicalEntity":true},"__N_SSG":true}