{"pageProps":{"entity":{"id":"dessertsRestaurants_7bd01cf1e63e","slug":"fresko-yogurt-bar-7bd0","kind":"restaurant","name":"Fresko Yogurt Bar","lat":37.9729332607424,"lng":23.720307507382138,"url":"https://maps.app.goo.gl/iHsYU8dLuNLhL1VR9?g_st=ipc","address":"Ιουλίου Σμιθ 2, Αθήνα 118 51","categoryIds":["desserts"],"categories":["Dessert Shops"]},"sameCategory":[{"id":"dessertsRestaurants_09255d7a464f","slug":"gellissimo-biscoto-athens-0925","kind":"restaurant","name":"Gellissimo Biscoto Athens","lat":37.976849802530815,"lng":23.72255119140275,"url":"https://maps.app.goo.gl/bhDcxgYzcsmRG16T9?g_st=ipc","address":"Άστιγγος 11, Αθήνα 105 55","categoryIds":["desserts"],"categories":["Dessert Shops"]},{"id":"dessertsRestaurants_7b2e78fd0a01","slug":"gelato-di-nonna-athens-7b2e","kind":"restaurant","name":"Gelato di nonna athens","lat":37.97720359295253,"lng":23.7219062023344,"url":"https://maps.app.goo.gl/bwiTBxSxMuZzG31X9?g_st=ipc","address":"Ερμού 129, Αθήνα 105 55","categoryIds":["desserts"],"categories":["Dessert Shops"]},{"id":"dessertsRestaurants_2d2fecfa00e3","slug":"mona-lisa-l-atelier-del-gelato-athens-2d2f","kind":"restaurant","name":"Mona Lisa L' Atelier Del Gelato | Athens","lat":37.9757494300935,"lng":23.72490107398961,"url":"https://maps.app.goo.gl/rBV4LZwssuXLxfZU8?g_st=ipc","address":"Αδριανού 48, Αθήνα 105 55","categoryIds":["desserts"],"categories":["Dessert Shops"]},{"id":"dessertsRestaurants_225c3d4d20c4","slug":"lartecono-davinci-gelato-monastiraki-225c","kind":"restaurant","name":"Lartecono Davinci Gelato (Monastiraki)","lat":37.97572321950476,"lng":23.72502143325919,"url":"https://maps.app.goo.gl/oGqQ5yg8faLuCoD76?g_st=ipc","address":"Αδριανού 50, Αθήνα 105 55","categoryIds":["desserts"],"categories":["Dessert Shops"]},{"id":"dessertsRestaurants_e14aac326296","slug":"fairytale-athens-cafe-suites-e14a","kind":"restaurant","name":"Fairytale Athens Café & Suites","lat":37.978055870009605,"lng":23.721759750185587,"url":"https://maps.app.goo.gl/RRwtMb4QWCm2gxDA6?g_st=ipc","address":"Λεωκορίου 16, Αθήνα 105 54","categoryIds":["desserts"],"categories":["Dessert Shops"]},{"id":"dessertsRestaurants_ae317ae9a63f","slug":"plan-e-t-ice-cream-ae31","kind":"restaurant","name":"Plan(e)t Ice Cream","lat":37.9768796209685,"lng":23.725383311814642,"url":"https://maps.app.goo.gl/zzypW34gBH83e5G99?g_st=ipc","address":"Ερμού 86, Αθήνα 105 54","categoryIds":["desserts"],"categories":["Dessert Shops"]},{"id":"dessertsRestaurants_31563f38c3c8","slug":"little-kook-3156","kind":"restaurant","name":"Little Kook","lat":37.977733085549225,"lng":23.724289592884226,"url":"https://maps.app.goo.gl/i8dJi89C6KdUv3Qy8?g_st=ipc","address":"Καραϊσκάκη, Αθήνα 105 54","categoryIds":["desserts"],"categories":["Dessert Shops"]},{"id":"dessertsRestaurants_722e1b739382","slug":"iceroll-722e","kind":"restaurant","name":"IceRoll","lat":37.97685958783748,"lng":23.726327595889753,"url":"https://maps.app.goo.gl/8LHJovnHdYJkvDpY9?g_st=ipc","address":"Αθηνάς 2, Αθήνα 105 51","categoryIds":["desserts"],"categories":["Dessert Shops"]}],"nearby":[{"id":"coffeeBrunchRestaurants_f2909cf2cf63","slug":"fresko-yogurt-bar-f290","kind":"restaurant","name":"Fresko Yogurt Bar","lat":37.97293031928317,"lng":23.72030106020887,"url":"https://maps.app.goo.gl/i3qPMdgczqaXz45r8?g_st=ipc","address":"Ιουλίου Σμιθ 2, Αθήνα 118 51","categoryIds":["coffee-brunch"],"categories":["Coffee & Brunch Spots"],"distanceKm":0.0006529530781137498},{"id":"rooftopLoungesRestaurants_f3813d39259f","slug":"thissio-view-rooftop-estiatorio-mpar-f381","kind":"restaurant","name":"THISSIO VIEW - Rooftop Εστιατόριο & Μπάρ","lat":37.974080279276336,"lng":23.719915035860108,"url":"https://maps.app.goo.gl/fQ8YQr8FRL5GzrPm7?g_st=ipc","address":"Αποστόλου Παύλου 25, Αθήνα 118 51","categoryIds":["rooftop-lounges"],"categories":["Rooftop Lounges"],"distanceKm":0.13210077332794176},{"id":"monasteriesChurches_526ec40757ea","slug":"ieros-naos-agias-marinas-thiseioy-526e","kind":"restaurant","name":"Ιερός Ναός Αγίας Μαρίνας Θησείου","lat":37.97369230338061,"lng":23.718995271203244,"url":"https://maps.app.goo.gl/RzkAj7rMQNDfRMKN8?g_st=ipc","address":"Αγίας Μαρίνας 1, Αθήνα 118 51","categoryIds":["monasteries-churches"],"categories":["Monasteries & Spiritual Sites"],"distanceKm":0.14266773335701402},{"id":"rooftopLoungesRestaurants_f6776fb8dcd6","slug":"hill-athens-rooftop-restaurant-f677","kind":"restaurant","name":"Hill Athens Rooftop Restaurant","lat":37.97419365813568,"lng":23.719905442723636,"url":"https://maps.app.goo.gl/3QDHt2qN9bAbpZCo6?g_st=ipc","address":"Αποστόλου Παύλου 27, Αθήνα 118 51","categoryIds":["rooftop-lounges"],"categories":["Rooftop Lounges"],"distanceKm":0.14451302713139583},{"id":"municipalities_b85b54408d92","slug":"thiseio-b85b","kind":"municipality","name":"Θησείο","lat":37.9747,"lng":23.7206,"aliases":["Thiseio","Thisseio"],"region":"Κέντρο Αθήνας","name_en":"Thisio","region_en":"Athens Center","distanceKm":0.1981183428029792},{"id":"mustSeeAttractions_26d34993a0ba","slug":"ethniko-asteroskopeio-athinon-kentro-episkepton-thiseioy-26d3","kind":"restaurant","name":"Εθνικό Αστεροσκοπείο Αθηνών - Κέντρο Επισκεπτών Θησείου","lat":37.972744612814594,"lng":23.717947819468222,"url":"https://maps.app.goo.gl/6gQt8KFRg9ZbnwLVA?g_st=ipc","address":"Λόφος Νυμφών Θησείο, ΤΘ 20048, Αθήνα 118 10","categoryIds":["attractions"],"categories":["Must-See Attractions"],"distanceKm":0.20789997270785673},{"id":"familyFriendly_a550b3686c2d","slug":"ethniko-asteroskopeio-athinon-kentro-episkepton-thiseioy-a550","kind":"restaurant","name":"Εθνικό Αστεροσκοπείο Αθηνών - Κέντρο Επισκεπτών Θησείου","lat":37.97274718818258,"lng":23.717946612728728,"url":"https://maps.app.goo.gl/hbZeHeJkN4GXh5tc6?g_st=ipc","address":"Λόφος Νυμφών Θησείο, ΤΘ 20048, Αθήνα 118 10","categoryIds":["family-friendly"],"categories":["Kid Friendly Locations"],"distanceKm":0.20797652242810105},{"id":"coffeeBrunchRestaurants_97adfd0567d5","slug":"the-underdog-flagship-store-thissio-97ad","kind":"restaurant","name":"The Underdog® Flagship Store Thissio","lat":37.97497137545366,"lng":23.719135012325086,"url":"https://maps.app.goo.gl/LEHRwEwwo2yTd8KD9?g_st=ipc","address":"Ηρακλειδών 8, Αθήνα 118 51","categoryIds":["coffee-brunch"],"categories":["Coffee & Brunch Spots"],"distanceKm":0.24884273535470666}],"sameRegion":[],"mentionedGuides":[],"canonicalSlug":"fresko-yogurt-bar-7bd0","isCanonicalEntity":true},"__N_SSG":true}