{"pageProps":{"entity":{"id":"vegetarianRestaurants_4651fd50cc98","slug":"gi-4651","kind":"restaurant","name":"Γη","lat":37.867754101352695,"lng":23.757082449020576,"url":"https://maps.app.goo.gl/J8MbyuN6xbnsUxi89?g_st=ipc","address":"Γρ. Λαμπράκη 69, Γλυφάδα 166 75","categoryIds":["vegetarian"],"categories":["Vegetarian Friendly Restaurants"]},"sameCategory":[{"id":"vegetarianRestaurants_5e82930d8565","slug":"coconuts-nuts-specialties-5e82","kind":"restaurant","name":"COCONUTS Nuts & Specialties","lat":37.83974545115199,"lng":23.767343337140883,"url":"https://maps.app.goo.gl/C155rgfingteegQn8?g_st=ipc","address":"Λεωφ. Βασιλέως Παύλου 67, Βούλα 166 73","categoryIds":["vegetarian"],"categories":["Vegetarian Friendly Restaurants"]},{"id":"vegetarianRestaurants_74f8ca9bcb55","slug":"dinette-dafni-74f8","kind":"restaurant","name":"Dinette Dafni","lat":37.949260684351316,"lng":23.73612865746863,"url":"https://maps.app.goo.gl/kkxVViHsfrAhDtz38?g_st=ipc","address":"Μιχαήλ Καραολή 1-3, Αθήνα 172 35","categoryIds":["vegetarian"],"categories":["Vegetarian Friendly Restaurants"]},{"id":"vegetarianRestaurants_83a2e8e8f0cf","slug":"amigos-83a2","kind":"restaurant","name":"Amigos","lat":37.944997225203664,"lng":23.712218480792846,"url":"https://maps.app.goo.gl/WmqorR4WUEup986y6?g_st=ipc","address":"Μεγ. Αλεξάνδρου 70, Νέα Σμύρνη 171 22","categoryIds":["vegetarian"],"categories":["Vegetarian Friendly Restaurants"]},{"id":"vegetarianRestaurants_de7324c496a6","slug":"fakafel-de73","kind":"restaurant","name":"Φakafel","lat":37.945977379116876,"lng":23.71063148252821,"url":"https://maps.app.goo.gl/r5AXr2ToKxBqZpAv9?g_st=ipc","address":"Φakafel","categoryIds":["vegetarian"],"categories":["Vegetarian Friendly Restaurants"]},{"id":"vegetarianRestaurants_ce0918ac5e44","slug":"big-nick-ce09","kind":"restaurant","name":"Big Nick","lat":37.95644842524022,"lng":23.735670588284904,"url":"https://maps.app.goo.gl/3kEuq9FgPSZDgC3t8?g_st=ipc","address":"Λεωφόρος Βουλιαγμένης 145, Αθήνα 116 31","categoryIds":["vegetarian"],"categories":["Vegetarian Friendly Restaurants"]},{"id":"vegetarianRestaurants_2e588abb0db5","slug":"baba-ghanoush-2e58","kind":"restaurant","name":"Baba Ghanoush","lat":37.96544673051708,"lng":23.74367426912522,"url":"https://maps.app.goo.gl/TVzEkkpCr1SQ2ZUEA?g_st=ipc","address":"Εμπεδοκλέους 25 - 27, Αθήνα 116 35","categoryIds":["vegetarian"],"categories":["Vegetarian Friendly Restaurants"]},{"id":"vegetarianRestaurants_663d79e21a0f","slug":"noa-poke-koukaki-663d","kind":"restaurant","name":"Noa Poke Koukaki","lat":37.962721066064105,"lng":23.72328239582356,"url":"https://maps.app.goo.gl/2BHN8JbCEv2oz4LT8?g_st=ipc","address":"Φαλήρου 84, Αθήνα 117 41","categoryIds":["vegetarian"],"categories":["Vegetarian Friendly Restaurants"]},{"id":"vegetarianRestaurants_06ce84bd30cd","slug":"mother-vegan-bistro-06ce","kind":"restaurant","name":"Mother Vegan Bistro","lat":37.962693218314804,"lng":23.721538252984118,"url":"https://maps.app.goo.gl/TZgz9fcY4M4aZZQD6?g_st=ipc","address":"Δημητρακοπούλου, Αγίου Νικολάου 95, Αθήνα 117 41","categoryIds":["vegetarian"],"categories":["Vegetarian Friendly Restaurants"]}],"nearby":[{"id":"familyFriendly_11e87a91baef","slug":"plateia-chariton-11e8","kind":"restaurant","name":"Πλατεία Χαρίτων","lat":37.86415490115138,"lng":23.75493366426452,"url":"https://maps.app.goo.gl/eBpgr4RX9Y42hXEw6?g_st=ipc","address":"Σεμέλης 1, Γλυφάδα 166 74","categoryIds":["family-friendly"],"categories":["Kid Friendly Locations"],"distanceKm":0.4424365700215937},{"id":"greekRestaurants_b6c15b677224","slug":"to-drami-b6c1","kind":"restaurant","name":"To Drami","lat":37.86297028796149,"lng":23.75634712220573,"url":"https://maps.app.goo.gl/HFhEeo24Fzrwgfb98?g_st=ipc","address":"Laodikis 22, Glifada 166 74","categoryIds":["greek-restaurants"],"categories":["Greek Restaurants"],"distanceKm":0.5358379529421111},{"id":"burgersRestaurants_95ea2450af09","slug":"queen-burger-95ea","kind":"restaurant","name":"Queen Burger","lat":37.8629146169985,"lng":23.754961439660974,"url":"https://maps.app.goo.gl/vkVpYXMvEFeRqcwv6?g_st=ic","address":"Giannitsopoulou 3, Glifada 166 74","categoryIds":["burgers"],"categories":["Burger Spots"],"distanceKm":0.5694262470688067},{"id":"burgersRestaurants_01217d39d9c7","slug":"queen-burger-0121","kind":"restaurant","name":"Queen Burger","lat":37.8629143636926,"lng":23.754961929770175,"url":"https://maps.app.goo.gl/cTKmuer8pw34Mj4m6","address":"Giannitsopoulou 3, Glifada 166 74","categoryIds":["burgers"],"categories":["Burger Spots"],"distanceKm":0.5694387997377106},{"id":"mexicanRestaurants_4df313ff7b2b","slug":"ancho-mexican-grill-4df3","kind":"restaurant","name":"Ancho Mexican Grill","lat":37.862745862193556,"lng":23.754877099753806,"url":"https://maps.app.goo.gl/LepDURte7YPh6NZL8?g_st=ipc","address":"Γιαννιτσοπούλου 3, Γλυφάδα 166 74","categoryIds":["mexican"],"categories":["Mexican Restaurants"],"distanceKm":0.5895809987421226},{"id":"greekRestaurants_b64cf8867729","slug":"tefariki-b64c","kind":"restaurant","name":"Τεφαρίκι","lat":37.871857113105406,"lng":23.752753345977908,"url":"https://maps.app.goo.gl/mcH8XPhdX39hW6V59","address":"Ξενοφώντος 28, Γλυφάδα 166 75","categoryIds":["greek-restaurants"],"categories":["Greek Restaurants"],"distanceKm":0.5937591953584233},{"id":"burgersRestaurants_dcffa319373f","slug":"just-burgers-dcff","kind":"restaurant","name":"Just Burgers","lat":37.86233017342334,"lng":23.756048198703365,"url":"https://maps.app.goo.gl/JHVusoRbYHy3Y7vt5?g_st=ipc","address":"Βασ. Γεωργίου Β 10, Γλυφάδα 166 74","categoryIds":["burgers"],"categories":["Burger Spots"],"distanceKm":0.6099086130613324},{"id":"italianRestaurants_dd5b148ca8d7","slug":"peccati-di-gola-dd5b","kind":"restaurant","name":"Peccati Di Gola","lat":37.86427445144013,"lng":23.751331713919253,"url":"https://maps.app.goo.gl/o1MzXXTU18xSPfb69?g_st=ipc","address":"Κύπρου 50, Γλυφάδα 166 75","categoryIds":["italian"],"categories":["Italian Restaurants"],"distanceKm":0.636038182899662}],"sameRegion":[],"mentionedGuides":[],"canonicalSlug":"gi-4651","isCanonicalEntity":true},"__N_SSG":true}