{"pageProps":{"entity":{"id":"italianRestaurants_0a253e52c51e","slug":"gorlomi-0a25","kind":"restaurant","name":"Gorlomi","lat":37.97728908184003,"lng":23.74514067416134,"url":"https://maps.app.goo.gl/XB7Fy2Zdva4f5Hrv6?g_st=ipc","address":"Πλουτάρχου 9, Αθήνα 106 75","categoryIds":["italian"],"categories":["Italian Restaurants"]},"sameCategory":[{"id":"italianRestaurants_468953c2e15e","slug":"malconi-s-italian-restaurant-4689","kind":"restaurant","name":"Malconi's Italian Restaurant","lat":37.9782776822669,"lng":23.744765633446125,"url":"https://maps.app.goo.gl/q6QEwwnvQiVfYob8A?g_st=ipc","address":"Patriarhou Ioakim 43 &, Πλουτάρχου 23, Αθήνα 106 75","categoryIds":["italian"],"categories":["Italian Restaurants"]},{"id":"italianRestaurants_3be4af98c471","slug":"trattoria-capanna-3be4","kind":"restaurant","name":"Trattoria Capanna","lat":37.978619151360974,"lng":23.74496219249258,"url":"https://maps.app.goo.gl/TbrGKuznviUTnbH8A?g_st=ipc","address":"Πλουτάρχου 38, Αθήνα 106 75","categoryIds":["italian"],"categories":["Italian Restaurants"]},{"id":"italianRestaurants_5bb1f8760120","slug":"brunello-5bb1","kind":"restaurant","name":"Brunello","lat":37.97774328484756,"lng":23.74346729703624,"url":"https://maps.app.goo.gl/71Ffa4D3sz17HHuJ7?g_st=ipc","address":"Λουκιανού 21b, Αθήνα 106 75","categoryIds":["italian"],"categories":["Italian Restaurants"]},{"id":"italianRestaurants_05ab7052947d","slug":"tre-sorelle-pizza-05ab","kind":"restaurant","name":"Tre Sorelle Pizza","lat":37.971668400347134,"lng":23.745923794431828,"url":"https://maps.app.goo.gl/dt7Xajoo364aPHjy7?g_st=ipc","address":"Αρχελάου 19, Αθήνα 116 35","categoryIds":["italian"],"categories":["Italian Restaurants"]},{"id":"italianRestaurants_a02be0df2fa9","slug":"frankie-a02b","kind":"restaurant","name":"Frankie","lat":37.98052235951531,"lng":23.738034947822758,"url":"https://maps.app.goo.gl/Ju5CstFm66m8QTbA9?g_st=ipc","address":"Σκουφά 42, Αθήνα 106 72","categoryIds":["italian"],"categories":["Italian Restaurants"]},{"id":"italianRestaurants_13c0dc268b15","slug":"lost-athens-13c0","kind":"restaurant","name":"Lost Athens","lat":37.970670759829304,"lng":23.746680147108094,"url":"https://maps.app.goo.gl/Y9CFJNjG4R2hx4hB6?g_st=ipc","address":"Αρχελάου 7, Αθήνα 116 35","categoryIds":["italian"],"categories":["Italian Restaurants"]},{"id":"italianRestaurants_c9470358a12d","slug":"la-pasteria-c947","kind":"restaurant","name":"La Pasteria","lat":37.97832911911956,"lng":23.73614187652223,"url":"https://maps.app.goo.gl/4tmrg1wVrWp5rgjx6?g_st=ipc","address":"Βαλαωρίτου 15, Αθήνα 106 71","categoryIds":["italian"],"categories":["Italian Restaurants"]},{"id":"italianRestaurants_67b7b653e959","slug":"cupola-67b7","kind":"restaurant","name":"Cupola","lat":37.97044661658537,"lng":23.742232273257617,"url":"https://maps.app.goo.gl/mFVjH2gTLzicYaVJA?g_st=ipc","address":"Ευφοριωνος 13, Αθήνα 116 35","categoryIds":["italian"],"categories":["Italian Restaurants"]}],"nearby":[{"id":"luxuryDiningRestaurants_6cf02d855248","slug":"gorlomi-6cf0","kind":"restaurant","name":"Gorlomi","lat":37.97728860760529,"lng":23.74514103872722,"url":"https://maps.app.goo.gl/gjhhSnxNmG8dsNg58?g_st=ipc","address":"Πλουτάρχου 9, Αθήνα 106 75","categoryIds":["luxury-dining"],"categories":["Luxury Dining"],"distanceKm":0.00006165861967670413},{"id":"burgersRestaurants_349cb9dc8b75","slug":"smash-n-bun-349c","kind":"restaurant","name":"Smash'n Bun","lat":37.97817483675376,"lng":23.745292656199194,"url":"https://maps.app.goo.gl/4n21xowaSG1Zg8d79?g_st=ipc","address":"Πατριάρχου Ιωακείμ 48, Αθήνα 106 76","categoryIds":["burgers"],"categories":["Burger Spots"],"distanceKm":0.09938822294350147},{"id":"luxuryDiningRestaurants_b803a88d407f","slug":"zurbaran-athens-b803","kind":"restaurant","name":"Zurbaran Athens","lat":37.97801172701077,"lng":23.744349686117033,"url":"https://maps.app.goo.gl/rXKGxv9snP1gaFVh9?g_st=ipc","address":"Πατριάρχου Ιωακείμ 38, Αθήνα 106 75","categoryIds":["luxury-dining"],"categories":["Luxury Dining"],"distanceKm":0.10612940033528183},{"id":"dessertsRestaurants_01136de60da9","slug":"l-arte-del-gelato-0113","kind":"restaurant","name":"L’arte del gelato","lat":37.97826235491174,"lng":23.745310264522946,"url":"https://maps.app.goo.gl/EjfGShRdB64dNF5s7?g_st=ipc","address":"Πατριάρχου Ιωακείμ 48-50, Αθήνα 106 76","categoryIds":["desserts"],"categories":["Dessert Shops"],"distanceKm":0.1092390801850062},{"id":"italianRestaurants_468953c2e15e","slug":"malconi-s-italian-restaurant-4689","kind":"restaurant","name":"Malconi's Italian Restaurant","lat":37.9782776822669,"lng":23.744765633446125,"url":"https://maps.app.goo.gl/q6QEwwnvQiVfYob8A?g_st=ipc","address":"Patriarhou Ioakim 43 &, Πλουτάρχου 23, Αθήνα 106 75","categoryIds":["italian"],"categories":["Italian Restaurants"],"distanceKm":0.11473707194211828},{"id":"luxuryDiningRestaurants_ed36498bd60c","slug":"woowoo-athens-ed36","kind":"restaurant","name":"WooWoo Athens","lat":37.97826618328873,"lng":23.744714006159654,"url":"https://maps.app.goo.gl/gH4BTnSVsyBMroV17?g_st=ipc","address":"Πατριάρχου Ιωακείμ 43, Αθήνα 106 75","categoryIds":["luxury-dining"],"categories":["Luxury Dining"],"distanceKm":0.11490471504680412},{"id":"cheapEatsRestaurants_61f60bc4ea81","slug":"beeftekopolis-61f6","kind":"restaurant","name":"Beeftekopolis","lat":37.97774283666473,"lng":23.746360813383102,"url":"https://maps.app.goo.gl/j2KRM4BYgZPKkWer5?g_st=ipc","address":"Marasli 23, Athina 106 76","categoryIds":["cheap-eats"],"categories":["Gyros & Cheap Eats"],"distanceKm":0.11824938573034972},{"id":"coffeeBrunchRestaurants_6c5755f458a3","slug":"vasilissa-melissa-athina-6c57","kind":"restaurant","name":"Βασίλισσα μέλισσα Αθήνα","lat":37.97835486257647,"lng":23.745084929463765,"url":"https://maps.app.goo.gl/gMvoN4EZdoGpDeZ47?g_st=ipc","address":"Πατριάρχου Ιωακείμ 45, Αθήνα 106 76","categoryIds":["coffee-brunch"],"categories":["Coffee & Brunch Spots"],"distanceKm":0.11861008929078083}],"sameRegion":[],"mentionedGuides":[],"canonicalSlug":"gorlomi-0a25","isCanonicalEntity":true},"__N_SSG":true}