{"pageProps":{"entity":{"id":"greekRestaurants_31846964133f","slug":"inodion-3184","kind":"restaurant","name":"Inodion","lat":35.20856301491662,"lng":26.10648423346929,"url":"https://maps.app.goo.gl/pzhkDBi9GpvKTFMMA?g_st=ipc","address":"Ελ. Βενιζέλου 157, Σητεία 732 00","categoryIds":["greek-restaurants"],"categories":["Greek Restaurants"]},"sameCategory":[{"id":"greekRestaurants_1567bdcebc34","slug":"dragon-s-cave-tavern-1567","kind":"restaurant","name":"Dragon's Cave Tavern","lat":35.02451844531051,"lng":26.015929343410054,"url":"https://maps.app.goo.gl/BHeTEMJwhoKFTLPG7?g_st=ipc","address":"Λαγκάδα, Λιθίνες 720 59","categoryIds":["greek-restaurants"],"categories":["Greek Restaurants"]},{"id":"greekRestaurants_ab6c973413e5","slug":"taverna-oasis-ab6c","kind":"restaurant","name":"Ταβέρνα Όασις","lat":35.0192294033516,"lng":26.031168966197797,"url":"https://maps.app.goo.gl/VPbi6FqvcCuiHpnd7?g_st=ipc","address":"Καλό Νερό, Περιβολάκια 720 59","categoryIds":["greek-restaurants"],"categories":["Greek Restaurants"]},{"id":"greekRestaurants_d2117786f7ef","slug":"kalliotzina-d211","kind":"restaurant","name":"Καλλιοτζίνα","lat":35.033382728113054,"lng":25.943654893279238,"url":"https://maps.app.goo.gl/vGqVwBvZXj3Cs15N9?g_st=ipc","address":"Κουτσουρᾶς, Σταυροχώρι 720 55","categoryIds":["greek-restaurants"],"categories":["Greek Restaurants"]},{"id":"greekRestaurants_e12720049bff","slug":"p-i-a-t-o-creative-greek-cuisine-e127","kind":"restaurant","name":"P I A T O Creative Greek Cuisine","lat":35.191014456442474,"lng":25.720317471781893,"url":"https://maps.app.goo.gl/EPLHpPqWCPBvDpjd9?g_st=ipc","address":"Ακτή Ιωσήφ, Κούνδουρου 8, Αγ. Νικόλαος 721 00","categoryIds":["greek-restaurants"],"categories":["Greek Restaurants"]},{"id":"greekRestaurants_88aa93e2ed98","slug":"gioma-meze-88aa","kind":"restaurant","name":"Gioma Meze","lat":35.19092879373842,"lng":25.71639633645474,"url":"https://maps.app.goo.gl/Rv7Nyy9Pu5iTxP4R6?g_st=ipc","address":"Διονυσίου Σολωμού 12, Αγ. Νικόλαος 721 00","categoryIds":["greek-restaurants"],"categories":["Greek Restaurants"]},{"id":"greekRestaurants_85761cad61c2","slug":"madame-meze-8576","kind":"restaurant","name":"Madame Meze","lat":35.01115019973434,"lng":25.74036253218556,"url":"https://maps.app.goo.gl/6cPcQrvXzwudXHiH8?g_st=ipc","address":"Ὁπλαρχηγοῦ Λακέρδα, Ιεράπετρα 722 00","categoryIds":["greek-restaurants"],"categories":["Greek Restaurants"]},{"id":"greekRestaurants_d8e66ee61d19","slug":"taverna-agias-paraskeyis-d8e6","kind":"restaurant","name":"Ταβέρνα Αγίας Παρασκευής","lat":35.08283189053066,"lng":25.576266926635412,"url":"https://maps.app.goo.gl/SEFLyBqoAyReomC66?g_st=ipc","address":"Χριστός 720 56","categoryIds":["greek-restaurants"],"categories":["Greek Restaurants"]},{"id":"greekRestaurants_e7edc905ec04","slug":"taverna-afroditi-e7ed","kind":"restaurant","name":"Ταβέρνα Αφροδίτη","lat":35.04824214563024,"lng":25.489380915090635,"url":"https://maps.app.goo.gl/Hd6w5ARoLxjc8sSE7?g_st=ipc","address":"Κατω Σύμη Βιάννου, 1, Κάτω Σύμη 700 04","categoryIds":["greek-restaurants"],"categories":["Greek Restaurants"]}],"nearby":[{"id":"municipalities_0fab25c875e2","slug":"siteia-0fab","kind":"municipality","name":"Σητεία","lat":35.2078,"lng":26.106,"aliases":["Σητεια"],"region":"Ανατολική Κρήτη","name_en":"Sitia","region_en":"East Crete","distanceKm":0.09557137198755537},{"id":"coffeeBrunchRestaurants_32952e6ac25c","slug":"cafe-kafe-konstantinos-mich-katsamboxakis-3295","kind":"restaurant","name":"Café Kafé (Konstantinos Mich. Katsamboxakis)","lat":35.20722771587482,"lng":26.10675728610521,"url":"https://maps.app.goo.gl/xoXNN9GSVDDfAxxk9?g_st=ipc","address":"Kon/nou Karamanli 6, Sitia 723 00","categoryIds":["coffee-brunch"],"categories":["Coffee & Brunch Spots"],"distanceKm":0.15053665836350835},{"id":"dessertsRestaurants_3d8333fd87a3","slug":"mitsakakis-3d83","kind":"restaurant","name":"Mitsakakis","lat":35.2071841117343,"lng":26.1068075256644,"url":"https://maps.app.goo.gl/HzPozyu829t1F6kV8?g_st=ipc","address":"Kon/nou Karamanli 6, Sitia 723 00","categoryIds":["desserts"],"categories":["Dessert Shops"],"distanceKm":0.15611505210520585},{"id":"coffeeBrunchRestaurants_21dac0392c36","slug":"surf-beach-snack-bar-kouremenos-21da","kind":"restaurant","name":"Surf Beach - Snack Bar Kouremenos","lat":35.20624912822425,"lng":26.26983256244183,"url":"https://maps.app.goo.gl/gJZYAD9gs6uvp4U49?g_st=ipc","address":"Ιτανίων, Kouremenos 723 00","categoryIds":["coffee-brunch"],"categories":["Coffee & Brunch Spots"],"distanceKm":14.843090805087284},{"id":"greekRestaurants_1567bdcebc34","slug":"dragon-s-cave-tavern-1567","kind":"restaurant","name":"Dragon's Cave Tavern","lat":35.02451844531051,"lng":26.015929343410054,"url":"https://maps.app.goo.gl/BHeTEMJwhoKFTLPG7?g_st=ipc","address":"Λαγκάδα, Λιθίνες 720 59","categoryIds":["greek-restaurants"],"categories":["Greek Restaurants"],"distanceKm":22.06010812128116},{"id":"greekRestaurants_ab6c973413e5","slug":"taverna-oasis-ab6c","kind":"restaurant","name":"Ταβέρνα Όασις","lat":35.0192294033516,"lng":26.031168966197797,"url":"https://maps.app.goo.gl/VPbi6FqvcCuiHpnd7?g_st=ipc","address":"Καλό Νερό, Περιβολάκια 720 59","categoryIds":["greek-restaurants"],"categories":["Greek Restaurants"],"distanceKm":22.139475253357027},{"id":"coffeeBrunchRestaurants_1c66ab81c701","slug":"cavo-bianco-1c66","kind":"restaurant","name":"Cavo Bianco","lat":35.02143360163328,"lng":26.015024448599853,"url":"https://maps.app.goo.gl/ybTzaZNb6KvEBPUb8?g_st=ipc","address":"Dragon's Way, Ierapetra 720 59","categoryIds":["coffee-brunch"],"categories":["Coffee & Brunch Spots"],"distanceKm":22.409169424330287},{"id":"greekRestaurants_d2117786f7ef","slug":"kalliotzina-d211","kind":"restaurant","name":"Καλλιοτζίνα","lat":35.033382728113054,"lng":25.943654893279238,"url":"https://maps.app.goo.gl/vGqVwBvZXj3Cs15N9?g_st=ipc","address":"Κουτσουρᾶς, Σταυροχώρι 720 55","categoryIds":["greek-restaurants"],"categories":["Greek Restaurants"],"distanceKm":24.469505391614423}],"sameRegion":[],"mentionedGuides":[],"canonicalSlug":"inodion-3184","isCanonicalEntity":true},"__N_SSG":true}