{"pageProps":{"entity":{"id":"mexicanRestaurants_246d0cbd5711","slug":"kaisaras-mpar-kaisaras-bar-246d","kind":"restaurant","name":"Καίσαρας Μπαρ - Kaisaras Bar","lat":37.96879437306453,"lng":23.758782238098565,"url":"https://maps.app.goo.gl/dNnjqQMeoX6QVGm38?g_st=ipc","address":"Πλατεία Παναγιώτη Μακρή 7-9, Καισαριανή 161 21","categoryIds":["mexican"],"categories":["Mexican Restaurants"]},"sameCategory":[{"id":"mexicanRestaurants_7f0e3c29626a","slug":"o-mexikanos-7f0e","kind":"restaurant","name":"Ο Μεξικανός","lat":37.98186119461787,"lng":23.768203133980027,"url":"https://maps.app.goo.gl/bgqno3epSEAwFEp1A?g_st=ipc","address":"157 73, Γεωρ. Παπανδρέου 47, Ζωγράφου 157 73","categoryIds":["mexican"],"categories":["Mexican Restaurants"]},{"id":"mexicanRestaurants_855638776a76","slug":"tekila-8556","kind":"restaurant","name":"Tekila","lat":37.97697304778162,"lng":23.733460625726625,"url":"https://maps.app.goo.gl/CAhgNENSirDV1fWq7?g_st=ipc","address":"Κολοκοτρώνη 3, Αθήνα 105 62","categoryIds":["mexican"],"categories":["Mexican Restaurants"]},{"id":"mexicanRestaurants_33052426e7a2","slug":"mamacita-taqueria-y-cocteleria-3305","kind":"restaurant","name":"Mamacita - Taquería y Coctelería","lat":37.97469687554734,"lng":23.731910676858394,"url":"https://maps.app.goo.gl/KcBA2GUcjk1cY9FJ8?g_st=ipc","address":"Απόλλωνος 9Β, Αθήνα 105 57","categoryIds":["mexican"],"categories":["Mexican Restaurants"]},{"id":"mexicanRestaurants_d1ef1807c1f0","slug":"taco-loco-athens-d1ef","kind":"restaurant","name":"Taco Loco Athens","lat":37.9776204281013,"lng":23.730210870551065,"url":"https://maps.app.goo.gl/6pEPXa7waRhazPjR9?g_st=ipc","address":"Κολοκοτρώνη 39, Αθήνα 105 62","categoryIds":["mexican"],"categories":["Mexican Restaurants"]},{"id":"mexicanRestaurants_5d5b665dab34","slug":"poncho-tacos-5d5b","kind":"restaurant","name":"Poncho TACOS","lat":37.986865601219684,"lng":23.73564152842256,"url":"https://maps.app.goo.gl/UDV48UEWHbvnBPVPA?g_st=ipc","address":"Θεμιστοκλέους 63, Αθήνα 106 83","categoryIds":["mexican"],"categories":["Mexican Restaurants"]},{"id":"mexicanRestaurants_fbd3ffd2a2f7","slug":"senor-picante-fbd3","kind":"restaurant","name":"Señor Picante","lat":37.965314110245735,"lng":23.72647699463702,"url":"https://maps.app.goo.gl/ubhB9thYzcYwcr5P6?g_st=ipc","address":"Φαλήρου 40, Αθήνα 117 42","categoryIds":["mexican"],"categories":["Mexican Restaurants"]},{"id":"mexicanRestaurants_12ba982b5dec","slug":"ancho-mexican-grill-12ba","kind":"restaurant","name":"Ancho Mexican Grill","lat":37.97715705569823,"lng":23.72766354204186,"url":"https://maps.app.goo.gl/iYXrRpCvSYJUhEHx8?g_st=ipc","address":"Αιόλου 25, Αθήνα 105 51","categoryIds":["mexican"],"categories":["Mexican Restaurants"]},{"id":"mexicanRestaurants_68ac307861c4","slug":"morenita-all-day-bar-restaurant-68ac","kind":"restaurant","name":"Morenita All Day Bar Restaurant","lat":37.978327591113846,"lng":23.724081018892964,"url":"https://maps.app.goo.gl/HF699YbZfp4NJUYi7?g_st=ipc","address":"Τάκη 13, Αθήνα 105 54","categoryIds":["mexican"],"categories":["Mexican Restaurants"]}],"nearby":[{"id":"greekRestaurants_d05f0b437e54","slug":"osonoypo-d05f","kind":"restaurant","name":"Οσονούπω","lat":37.968722862920075,"lng":23.75908756393202,"url":"https://maps.app.goo.gl/HBqT7hbWLLfdjPem9","address":"Πλ. Αναγεννήσεως 2, Καισαριανή 161 21","categoryIds":["greek-restaurants"],"categories":["Greek Restaurants"],"distanceKm":0.0279210870730997},{"id":"italianRestaurants_98c72b583c4b","slug":"nonna-edda-98c7","kind":"restaurant","name":"Nonna Edda","lat":37.968437805608076,"lng":23.757681215549333,"url":"https://maps.app.goo.gl/QWSrhfiNkAJznHfQA?g_st=ipc","address":"Λεωφ. Εθ. Αντιστάσεως 62, Καισαριανή 161 21","categoryIds":["italian"],"categories":["Italian Restaurants"],"distanceKm":0.10434237497270714},{"id":"cheapEatsRestaurants_bf6249591df7","slug":"taverna-psistaria-mandrakis-bf62","kind":"restaurant","name":"Ταβέρνα - Ψησταριά Μανδράκης","lat":37.96926409248282,"lng":23.754508850206804,"url":"https://maps.app.goo.gl/oqmBo1caT2qX5wtB9?g_st=ipc","address":"Λεωφ. Εθ. Αντιστάσεως 11, Καισαριανή 161 21","categoryIds":["cheap-eats"],"categories":["Gyros & Cheap Eats"],"distanceKm":0.3782279552765096},{"id":"greekRestaurants_6d8ba6e8459c","slug":"o-tsompanakos-6d8b","kind":"restaurant","name":"Ο Τσομπανάκος","lat":37.96567041818392,"lng":23.763543849190544,"url":"https://maps.app.goo.gl/D1121EC8pmNBFqbK9","address":"Ανακρέοντος 2, Καισαριανή 161 22","categoryIds":["greek-restaurants"],"categories":["Greek Restaurants"],"distanceKm":0.5430444684954345},{"id":"cheapEatsRestaurants_f4243fccdc09","slug":"i-thraka-f424","kind":"restaurant","name":"Η Θράκα","lat":37.96908730439045,"lng":23.752466160817594,"url":"https://maps.app.goo.gl/P6rYV5DBevfNLik18?g_st=ipc","address":"Υμηττού 58, Αθήνα 116 34","categoryIds":["cheap-eats"],"categories":["Gyros & Cheap Eats"],"distanceKm":0.5546239729167437},{"id":"cheapEatsRestaurants_c3e978d4eac2","slug":"5f-c3e9","kind":"restaurant","name":"5Φ","lat":37.97277642269308,"lng":23.753966804299914,"url":"https://maps.app.goo.gl/Jtpipww8tzt83Z1fA?g_st=ipc","address":"Diocharous 31 &, Κλεισούρας, Αθήνα 161 21","categoryIds":["cheap-eats"],"categories":["Gyros & Cheap Eats"],"distanceKm":0.6117467751149055},{"id":"greekRestaurants_7edc46b44623","slug":"5f-7edc","kind":"restaurant","name":"5Φ","lat":37.972863677998646,"lng":23.753932616513207,"url":"https://maps.app.goo.gl/ZMLzvJ9Vxp7NSoVNA","address":"Diocharous 31 &, Κλεισούρας, Αθήνα 161 21","categoryIds":["greek-restaurants"],"categories":["Greek Restaurants"],"distanceKm":0.6208535074704585},{"id":"luxuryDiningRestaurants_5f111a9bb710","slug":"seeds-restaurant-5f11","kind":"restaurant","name":"Seeds Restaurant","lat":37.97301735223458,"lng":23.75389127288081,"url":"https://maps.app.goo.gl/dJm31W4p6fxcPwDr7?g_st=ipc","address":"Oumplianis 14, Diocharous 27, & 161 21","categoryIds":["luxury-dining"],"categories":["Luxury Dining"],"distanceKm":0.6358530033228785}],"sameRegion":[],"mentionedGuides":[],"canonicalSlug":"kaisaras-mpar-kaisaras-bar-246d","isCanonicalEntity":true},"__N_SSG":true}