{"pageProps":{"entity":{"id":"familyFriendly_09f0644c9732","slug":"lofos-politismoy-09f0","kind":"restaurant","name":"Λόφος πολιτισμού","lat":37.91111626951665,"lng":23.722999637224824,"url":"https://maps.app.goo.gl/MWLNyH93oknhhPcz9?g_st=ipc","address":"Άλιμος 174 55","categoryIds":["family-friendly"],"categories":["Kid Friendly Locations"]},"sameCategory":[{"id":"familyFriendly_b7e14b13fc56","slug":"paramythoypoli-ellinikoy-argyroypolis-b7e1","kind":"restaurant","name":"Παραμυθούπολη Ελληνικού Αργυρούπολης","lat":37.90960009979719,"lng":23.737312819815322,"url":"https://maps.app.goo.gl/MGgTCv28KmDG4VgK8?g_st=ipc","address":"Αλ. Παπαναστασίου, Αργυρούπολη 164 52","categoryIds":["family-friendly"],"categories":["Kid Friendly Locations"]},{"id":"familyFriendly_ae632d4e248a","slug":"protypo-oikogeneiako-parko-ae63","kind":"restaurant","name":"Πρότυπο Οικογενειακό Πάρκο","lat":37.904103805227116,"lng":23.74422997348302,"url":"https://maps.app.goo.gl/kUkHYYpwWmY27cqm9?g_st=ipc","address":"Δραγατσανίου, Ελληνικό 167 77","categoryIds":["family-friendly"],"categories":["Kid Friendly Locations"]},{"id":"familyFriendly_9f066a9c3f09","slug":"dei-chocolate-ice-cream-experience-9f06","kind":"restaurant","name":"ΔΕΗ Chocolate & Ice Cream Experience","lat":37.89648025729673,"lng":23.737725296668952,"url":"https://maps.app.goo.gl/u7nRPPFnbvtVeLEQ7?g_st=ipc","address":"The Ellinikon Expérience Park, Ελληνικό 167 77","categoryIds":["family-friendly"],"categories":["Kid Friendly Locations"]},{"id":"familyFriendly_feb6b1cb5cd1","slug":"little-land-kids-play-feb6","kind":"restaurant","name":"Little Land - Kids Play","lat":37.930642671894525,"lng":23.710426716839976,"url":"https://maps.app.goo.gl/fZKSbKJMUaonK7vh9?g_st=ipc","address":"Λεωφ. Ελ. Βενιζέλου 235, Παλαιό Φάληρο 175 63","categoryIds":["family-friendly"],"categories":["Kid Friendly Locations"]},{"id":"familyFriendly_824dcd75a264","slug":"the-ellinikon-experience-park-824d","kind":"restaurant","name":"The Ellinikon Experience Park","lat":37.889532923626724,"lng":23.741777435195917,"url":"https://maps.app.goo.gl/sqeFJaUrDmxw1UqF7?g_st=ipc","address":"Ελληνικό 167 77","categoryIds":["family-friendly"],"categories":["Kid Friendly Locations"]},{"id":"familyFriendly_eb2517ef6cdc","slug":"flisvos-playground-eb25","kind":"restaurant","name":"Flisvos Playground","lat":37.9267608286871,"lng":23.6891198217997,"url":"https://maps.app.goo.gl/jLUBCzf12Wt3RSRK7?g_st=ipc","address":"Palaio Faliro 175 61","categoryIds":["family-friendly"],"categories":["Kid Friendly Locations"]},{"id":"familyFriendly_f503c55e6f20","slug":"palio-faliro-park-f503","kind":"restaurant","name":"Palio Faliro Park","lat":37.927500164435116,"lng":23.68777633044372,"url":"https://maps.app.goo.gl/2D445MwyghagAFkRA?g_st=ic","address":"Leof. Poseidonos 17, Paleo Faliro 175 61","categoryIds":["family-friendly"],"categories":["Kid Friendly Locations"]},{"id":"familyFriendly_d5ba30df5709","slug":"parko-floisvos-d5ba","kind":"restaurant","name":"Πάρκο Φλοίσβος","lat":37.928217571282076,"lng":23.687928394626468,"url":"https://maps.app.goo.gl/xsiY1D9U4tz2Gxeu8?g_st=ipc","address":"Πάρκο Φλοίσβου Λεωφόρος Ποσειδονος παλαιο φαληρο, Αθήνα 175 61","categoryIds":["family-friendly"],"categories":["Kid Friendly Locations"]}],"nearby":[{"id":"municipalities_e380923f57a8","slug":"alimos-e380","kind":"municipality","name":"Άλιμος","lat":37.9105,"lng":23.7239,"region":"Νότια Προάστια","name_en":"Alimos","region_en":"Southern Suburbs","distanceKm":0.10457030239125022},{"id":"italianRestaurants_e0eab8c43067","slug":"il-tinello-athens-e0ea","kind":"restaurant","name":"Il Tinello Athens","lat":37.9164984895058,"lng":23.723486074483993,"url":"https://maps.app.goo.gl/BQxFwm6nKx3uhqa9A?g_st=ipc","address":"Κνωσού 54, Άλιμος 174 55","categoryIds":["italian"],"categories":["Italian Restaurants"],"distanceKm":0.5999949838322282},{"id":"coffeeBrunchRestaurants_11333324ec7e","slug":"cheiropoiito-peinirli-alimos-1133","kind":"restaurant","name":"Χειροποίητο Πεϊνιρλί - Άλιμος","lat":37.915620511365894,"lng":23.717157875434445,"url":"https://maps.app.goo.gl/t1zARdBkZ8TDso696?g_st=ipc","address":"Λεωφ. Καλαμακίου 65, Άλιμος 174 55","categoryIds":["coffee-brunch"],"categories":["Coffee & Brunch Spots"],"distanceKm":0.7165757524520667},{"id":"cheapEatsRestaurants_9e38740e23c2","slug":"o-proedros-alimos-9e38","kind":"restaurant","name":"ο Πρόεδρος (Άλιμος)","lat":37.912881112573395,"lng":23.714106306735346,"url":"https://maps.app.goo.gl/nwzgkAPXAUQ2k7tQ7?g_st=ipc","address":"Άλιμος, Λεωφ. Καλαμακίου 26, Αθήνα 174 55","categoryIds":["cheap-eats"],"categories":["Gyros & Cheap Eats"],"distanceKm":0.804494488242401},{"id":"greekRestaurants_797f42f3890a","slug":"o-proedros-alimos-797f","kind":"restaurant","name":"ο Πρόεδρος (Άλιμος)","lat":37.91296146943959,"lng":23.714111676638694,"url":"https://maps.app.goo.gl/NkEb3eW3PBdD3fTy7","address":"Άλιμος, Λεωφ. Καλαμακίου 26, Αθήνα 174 55","categoryIds":["greek-restaurants"],"categories":["Greek Restaurants"],"distanceKm":0.8062646229268903},{"id":"dessertsRestaurants_1ece1efe7fc8","slug":"palet-zacharoplasteio-1ece","kind":"restaurant","name":"Palet - Ζαχαροπλαστείο","lat":37.91207733136549,"lng":23.71327552843966,"url":"https://maps.app.goo.gl/tMT6hK9STA8aQXbB8?g_st=ipc","address":"Λεωφ. Καλαμακίου 16, Άλιμος 174 55","categoryIds":["desserts"],"categories":["Dessert Shops"],"distanceKm":0.8597471668831622},{"id":"monasteriesChurches_1a2f185631bd","slug":"ieros-naos-metamorfoseos-toy-sotiros-alimoy-1a2f","kind":"restaurant","name":"Ιερός Ναός Μεταμορφώσεως του Σωτήρος Αλίμου","lat":37.91489271664002,"lng":23.713901119345575,"url":"https://maps.app.goo.gl/iaAnNdKjb6eDxhaq5?g_st=ipc","address":"Νίκης 51, Άλιμος 174 55","categoryIds":["monasteries-churches"],"categories":["Monasteries & Spiritual Sites"],"distanceKm":0.9019032380578483},{"id":"burgersRestaurants_0f3559803382","slug":"street-burger-0f35","kind":"restaurant","name":"Street Burger","lat":37.907177869982185,"lng":23.732883953097378,"url":"https://maps.app.goo.gl/hySSSjtTD5s23KKdA?g_st=ipc","address":"Λεωφ. Αλίμου 56, Άλιμος 174 55","categoryIds":["burgers"],"categories":["Burger Spots"],"distanceKm":0.9714704893765617}],"sameRegion":[],"mentionedGuides":[],"canonicalSlug":"lofos-politismoy-09f0","isCanonicalEntity":true},"__N_SSG":true}