{"pageProps":{"entity":{"id":"greekRestaurants_cce1cd728bae","slug":"loyizidis-estiatorio-voyliagmeni-cce1","kind":"restaurant","name":"Λουιζίδης Εστιατόριο Βουλιαγμένη","lat":37.813204547074946,"lng":23.78315032705324,"url":"https://maps.app.goo.gl/DrVjHpSB5fMFZXij9","address":"Ερμού 2, Βουλιαγμένη 166 71","categoryIds":["greek-restaurants"],"categories":["Greek Restaurants"]},"sameCategory":[{"id":"greekRestaurants_d87acafe326d","slug":"ta-vlachika-d87a","kind":"restaurant","name":"Ta Vlachika","lat":37.834890045838,"lng":23.791941775154488,"url":"https://maps.app.goo.gl/VC2HFhV1wgWoJ7Ev7","address":"Leoforos Evelpidon, Πρεβέζης, Βάρη 166 72","categoryIds":["greek-restaurants"],"categories":["Greek Restaurants"]},{"id":"greekRestaurants_2f171b46e48c","slug":"taverna-tsolias-2f17","kind":"restaurant","name":"Ταβέρνα Τσολιάς","lat":37.834865053335534,"lng":23.79315959403436,"url":"https://maps.app.goo.gl/Pp2npdeDX3kaQbgD6","address":"Λεωφ. Βάρης 45, Βάρη 166 72","categoryIds":["greek-restaurants"],"categories":["Greek Restaurants"]},{"id":"greekRestaurants_fd7a28a0649b","slug":"pasiphae-fd7a","kind":"restaurant","name":"PASIPHAE","lat":37.85781169380274,"lng":23.753685400099858,"url":"https://maps.app.goo.gl/w2UaAYT95xemDfAx9?g_st=ipc","address":"Lazaraki 63, Glifada 166 74","categoryIds":["greek-restaurants"],"categories":["Greek Restaurants"]},{"id":"greekRestaurants_f2b28136b406","slug":"ethos-athens-f2b2","kind":"restaurant","name":"Ethos Athens","lat":37.86060943582202,"lng":23.752891201537246,"url":"https://maps.app.goo.gl/xMQQbpjUHPQdMrpg6?g_st=ipc","address":"Zisimopoulou 10, Glifada 166 74","categoryIds":["greek-restaurants"],"categories":["Greek Restaurants"]},{"id":"greekRestaurants_2c46fb9be459","slug":"basegrill-2c46","kind":"restaurant","name":"Basegrill","lat":37.860629906056765,"lng":23.752227328267114,"url":"https://maps.app.goo.gl/Mg499qYpRgDUfYMg9","address":"Ζησιμοπούλου 5, Γλυφάδα 166 74","categoryIds":["greek-restaurants"],"categories":["Greek Restaurants"]},{"id":"greekRestaurants_b6c15b677224","slug":"to-drami-b6c1","kind":"restaurant","name":"To Drami","lat":37.86297028796149,"lng":23.75634712220573,"url":"https://maps.app.goo.gl/HFhEeo24Fzrwgfb98?g_st=ipc","address":"Laodikis 22, Glifada 166 74","categoryIds":["greek-restaurants"],"categories":["Greek Restaurants"]},{"id":"greekRestaurants_0d2e578d4137","slug":"sasmos-kritiko-estiatorio-0d2e","kind":"restaurant","name":"Σασμός Κρητικό Εστιατόριο","lat":37.86096099153773,"lng":23.750381646450872,"url":"https://maps.app.goo.gl/hFF1UKLboDX66HUH8","address":"Γρ. Λαμπράκη 1-3, Γλυφάδα 166 75","categoryIds":["greek-restaurants"],"categories":["Greek Restaurants"]},{"id":"greekRestaurants_b64cf8867729","slug":"tefariki-b64c","kind":"restaurant","name":"Τεφαρίκι","lat":37.871857113105406,"lng":23.752753345977908,"url":"https://maps.app.goo.gl/mcH8XPhdX39hW6V59","address":"Ξενοφώντος 28, Γλυφάδα 166 75","categoryIds":["greek-restaurants"],"categories":["Greek Restaurants"]}],"nearby":[{"id":"cheapEatsRestaurants_cf5c14c0c783","slug":"zachos-gkril-cf5c","kind":"restaurant","name":"Ζάχος Γκριλ","lat":37.81320496162539,"lng":23.782770964184124,"url":"https://maps.app.goo.gl/bEtWEwaW2PfwcEhW9?g_st=ipc","address":"Ερμού 1, Βουλιαγμένη 166 71","categoryIds":["cheap-eats"],"categories":["Gyros & Cheap Eats"],"distanceKm":0.0333253602045508},{"id":"coffeeBrunchRestaurants_0b20fa30dfc5","slug":"sofi-s-eatery-0b20","kind":"restaurant","name":"Sofi’s Eatery","lat":37.81302845785067,"lng":23.782463728500748,"url":"https://maps.app.goo.gl/Pa3TPAmcLCv6SJsw5?g_st=ipc","address":"Αγίου Παντελεήμονος 7, Βουλιαγμένη 166 71","categoryIds":["coffee-brunch"],"categories":["Coffee & Brunch Spots"],"distanceKm":0.06341329358236124},{"id":"municipalities_e38c35bbed55","slug":"voyliagmeni-e38c","kind":"municipality","name":"Βουλιαγμένη","lat":37.8095,"lng":23.7821,"region":"Νότια Προάστια","name_en":"Vouliagmeni","region_en":"Southern Suburbs","distanceKm":0.42213417377720563},{"id":"fishTavernasRestaurants_f4426065c5a4","slug":"sardelaki-me-thea-f442","kind":"restaurant","name":"Σαρδελάκι με θέα","lat":37.80897457022261,"lng":23.782330412997638,"url":"https://maps.app.goo.gl/6zBxpoBupuA67wwt8?g_st=ipc","address":"Λεωφ. Ποσειδώνος 18, Βουλιαγμένη 166 71","categoryIds":["fish-tavernas"],"categories":["Fish Tavernas"],"distanceKm":0.47583503592159426},{"id":"luxuryDiningRestaurants_08bbcc5a4dd6","slug":"labros-restaurant-08bb","kind":"restaurant","name":"Labros Restaurant","lat":37.8081975831625,"lng":23.78348018457994,"url":"https://maps.app.goo.gl/H6wg8L7hEhDJU9C38?g_st=ipc","address":"Λεωφ. Ποσειδώνος 20, Βουλιαγμένη 166 71","categoryIds":["luxury-dining"],"categories":["Luxury Dining"],"distanceKm":0.5575025803371929},{"id":"mustSeeAttractions_96c6dc77490d","slug":"limni-voyliagmenis-96c6","kind":"restaurant","name":"Λίμνη Βουλιαγμένης","lat":37.80708594211009,"lng":23.78595413697381,"url":"https://maps.app.goo.gl/HJESfC3rnS8i8UYa9?g_st=ipc","address":"Βουλιαγμένη 166 71","categoryIds":["attractions"],"categories":["Must-See Attractions"],"distanceKm":0.7235720755614224},{"id":"coffeeBrunchRestaurants_80a974b8dc70","slug":"estiatorio-limnis-80a9","kind":"restaurant","name":"Εστιατόριο Λίμνης","lat":37.80691600865377,"lng":23.785479129703763,"url":"https://maps.app.goo.gl/mDVVDSh15YWjZRdF9?g_st=ipc","address":"Λίμνη, Βουλιαγμένη 166 71","categoryIds":["coffee-brunch"],"categories":["Coffee & Brunch Spots"],"distanceKm":0.728567085944377},{"id":"luxuryDiningRestaurants_42ea23e17e35","slug":"abraovata-42ea","kind":"restaurant","name":"abraOvata","lat":37.806852023213075,"lng":23.785311811319485,"url":"https://maps.app.goo.gl/XBCeyEooo1BQ3GPW6?g_st=ipc","address":"Εστιατόριο Λίμνης, Αθήνα 166 71","categoryIds":["luxury-dining"],"categories":["Luxury Dining"],"distanceKm":0.7314455674255332}],"sameRegion":[],"mentionedGuides":[],"canonicalSlug":"loyizidis-estiatorio-voyliagmeni-cce1","isCanonicalEntity":true},"__N_SSG":true}