{"pageProps":{"entity":{"id":"rooftopLoungesRestaurants_55f4048d25e6","slug":"mosaic-milos-55f4","kind":"restaurant","name":"Mosaic Milos","lat":36.744311630154215,"lng":24.421917685649166,"url":"https://maps.app.goo.gl/w6QH5tCXxfavUiaSA?g_st=ipc","address":"Plaka 848 00","categoryIds":["rooftop-lounges"],"categories":["Rooftop Lounges"]},"sameCategory":[{"id":"rooftopLoungesRestaurants_24466fdc7cae","slug":"bebop-2446","kind":"restaurant","name":"Bebop","lat":37.08434926553262,"lng":25.146838769043043,"url":"https://maps.app.goo.gl/afKAwGAeEkWcEeYE9?g_st=ipc","address":"Paros 844 00","categoryIds":["rooftop-lounges"],"categories":["Rooftop Lounges"]},{"id":"rooftopLoungesRestaurants_f44c78191d73","slug":"musique-cafe-restaurant-f44c","kind":"restaurant","name":"Musique Cafe - Restaurant","lat":37.10327388720912,"lng":25.374720099192075,"url":"https://maps.app.goo.gl/xGrZAJx1PKMWWCnU7?g_st=ipc","address":"Ariadnis, Naxos 843 00","categoryIds":["rooftop-lounges"],"categories":["Rooftop Lounges"]},{"id":"rooftopLoungesRestaurants_b11d5369fcab","slug":"swing-cocktail-bar-naxos-b11d","kind":"restaurant","name":"Swing Cocktail Bar Naxos","lat":37.10397730324002,"lng":25.375517434266428,"url":"https://maps.app.goo.gl/wrFubAW9MXvR6z5Y6?g_st=ipc","address":"Protopapadaki, Naxos 843 00","categoryIds":["rooftop-lounges"],"categories":["Rooftop Lounges"]},{"id":"rooftopLoungesRestaurants_741da60ba975","slug":"avaton-1739-coffee-wine-roof-741d","kind":"restaurant","name":"AVATON 1739 - Coffee & Wine Roof","lat":37.10529463592704,"lng":25.37737954083749,"url":"https://maps.app.goo.gl/T7jbKyc9RSyKYmeG8?g_st=ipc","address":"Kastro, Naxos 843 00","categoryIds":["rooftop-lounges"],"categories":["Rooftop Lounges"]},{"id":"rooftopLoungesRestaurants_b9086fd9d613","slug":"oceanis-rooftop-garden-cocktails-b908","kind":"restaurant","name":"Oceanis Rooftop Garden Cocktails","lat":37.501996070488,"lng":23.45562913585347,"url":"https://maps.app.goo.gl/jsTmkoKprsWbmQrL7?g_st=ipc","address":"Πόρος 180 20","categoryIds":["rooftop-lounges"],"categories":["Rooftop Lounges"]},{"id":"rooftopLoungesRestaurants_3fcd2594d1cf","slug":"asteria-rooftop-3fcd","kind":"restaurant","name":"Asteria Rooftop","lat":37.85949154574065,"lng":23.750248190887866,"url":"https://maps.app.goo.gl/yT2duNTycA4x2XMj8?g_st=ipc","address":"Αστέρας, Λεωφ. Ποσειδώνος 110, Γλυφάδα 166 75","categoryIds":["rooftop-lounges"],"categories":["Rooftop Lounges"]},{"id":"rooftopLoungesRestaurants_8bd69f8e140f","slug":"sky-bar-360-8bd6","kind":"restaurant","name":"Sky Bar 360","lat":37.91880690173223,"lng":23.70114636675223,"url":"https://maps.app.goo.gl/TMX4yShbMaVX6rTHA?g_st=ipc","address":"Λεωφ. Ποσειδώνος 72, Παλαιό Φάληρο 175 62","categoryIds":["rooftop-lounges"],"categories":["Rooftop Lounges"]},{"id":"rooftopLoungesRestaurants_eff063b05a76","slug":"premiere-restaurant-eff0","kind":"restaurant","name":"Premiere Restaurant","lat":37.95933669311001,"lng":23.721893436588108,"url":"https://maps.app.goo.gl/xdoJybpRxJKYAgbKA?g_st=ipc","address":"Λεωφ. Ανδρέα Συγγρού 89-93, Αθήνα 117 45","categoryIds":["rooftop-lounges"],"categories":["Rooftop Lounges"]}],"nearby":[{"id":"coffeeBrunchRestaurants_22ed699a380f","slug":"mosaic-milos-22ed","kind":"restaurant","name":"Mosaic Milos","lat":36.74431276131015,"lng":24.421917244173116,"url":"https://maps.app.goo.gl/5Mzweh8YnbTNhVaQ9?g_st=ipc","address":"Plaka 848 00","categoryIds":["coffee-brunch"],"categories":["Coffee & Brunch Spots"],"distanceKm":0.0001317864097531046},{"id":"municipalities_af26c33fb168","slug":"plaka-milos-af26","kind":"municipality","name":"Πλάκα Μήλος","lat":36.744,"lng":24.425,"region":"Μήλος","name_en":"Plaka Milos","region_en":"Milos","distanceKm":0.2768182061024181},{"id":"municipalities_e18b28aacc13","slug":"milos-e18b","kind":"municipality","name":"Μήλος","lat":36.7446,"lng":24.426,"aliases":["Μηλος"],"region":"Κυκλάδες","name_en":"Milos","region_en":"Cyclades","distanceKm":0.3651521467809173},{"id":"municipalities_89c635fb5cca","slug":"adamantas-89c6","kind":"municipality","name":"Αδάμαντας","lat":36.7236,"lng":24.4446,"region":"Μήλος","name_en":"Adamas","region_en":"Milos","distanceKm":3.0642517271887852},{"id":"dessertsRestaurants_227e46360090","slug":"aggeliki-ice-cream-shop-227e","kind":"restaurant","name":"Aggeliki ice cream shop","lat":36.724956307095454,"lng":24.446679354720963,"url":"https://maps.app.goo.gl/Lr6pCYmiGibrxw1B7?g_st=ipc","address":"Greece, Adamas 848 00","categoryIds":["desserts"],"categories":["Dessert Shops"],"distanceKm":3.0823805666048325},{"id":"luxuryDiningRestaurants_9f9cf29a5760","slug":"makris-milos-fine-dining-restaurant-9f9c","kind":"restaurant","name":"Makris Milos Fine Dining Restaurant","lat":36.744626545035004,"lng":24.481317634143164,"url":"https://maps.app.goo.gl/DyjWXnMeBVwqWcfy6?g_st=ipc","address":"Mytakas, Island 848 00","categoryIds":["luxury-dining"],"categories":["Luxury Dining"],"distanceKm":5.292756948253161},{"id":"municipalities_9168baac00c3","slug":"pollonia-9168","kind":"municipality","name":"Πολλώνια","lat":36.7534,"lng":24.5087,"region":"Μήλος","name_en":"Pollonia","region_en":"Milos","distanceKm":7.797778637387275},{"id":"wineriesVineyards_946eb8e58cb0","slug":"kostantakis-winery-946e","kind":"restaurant","name":"Kostantakis Winery","lat":36.75755644321186,"lng":24.52676070016812,"url":"https://maps.app.goo.gl/6jEcs57aPdcQLmi17?g_st=ipc","address":"Πολλώνια 848 00","categoryIds":["wineries-vineyards"],"categories":["Wineries & Vineyards"],"distanceKm":9.456301765074446}],"sameRegion":[],"mentionedGuides":[{"slug":"choose-perfect-greek-island-el","title":"Πώς να Επιλέξετε το Τέλειο Ελληνικό Νησί για το Ταξίδι σας"},{"slug":"choose-perfect-greek-island","title":"How to Choose the Perfect Greek Island for Your Trip"}],"canonicalSlug":"mosaic-milos-22ed","isCanonicalEntity":false},"__N_SSG":true}