{"pageProps":{"entity":{"id":"mustSeeAttractions_dff5abd15b84","slug":"naos-tis-afaias-dff5","kind":"restaurant","name":"Ναός της Αφαίας","lat":37.75437516471331,"lng":23.533121298393443,"url":"https://maps.app.goo.gl/TEdzv6vPybFxQzP18?g_st=ipc","address":"Αίγινα 180 10","categoryIds":["attractions"],"categories":["Must-See Attractions"]},"sameCategory":[{"id":"mustSeeAttractions_1f6f7342d4cd","slug":"to-roloi-toy-peiraia-1f6f","kind":"restaurant","name":"Το Ρολόι του Πειραιά","lat":37.93913367533199,"lng":23.648716548781902,"url":"https://maps.app.goo.gl/T618Z3KqK9zezNFE9?g_st=ipc","address":"Ακτή Μουτσοπούλου 6, Πειραιάς 185 35","categoryIds":["attractions"],"categories":["Must-See Attractions"]},{"id":"mustSeeAttractions_96c6dc77490d","slug":"limni-voyliagmenis-96c6","kind":"restaurant","name":"Λίμνη Βουλιαγμένης","lat":37.80708594211009,"lng":23.78595413697381,"url":"https://maps.app.goo.gl/HJESfC3rnS8i8UYa9?g_st=ipc","address":"Βουλιαγμένη 166 71","categoryIds":["attractions"],"categories":["Must-See Attractions"]},{"id":"mustSeeAttractions_7720a421889c","slug":"marina-floisvoy-7720","kind":"restaurant","name":"Μαρίνα Φλοίσβου","lat":37.9311951612676,"lng":23.68504538337465,"url":"https://maps.app.goo.gl/vxdQs7SscGUC98hY9?g_st=ipc","address":"Flisvos Marina, Αθήνα 175 61","categoryIds":["attractions"],"categories":["Must-See Attractions"]},{"id":"mustSeeAttractions_dc5030eb7fbd","slug":"kentro-politismoy-idryma-stayros-niarchos-dc50","kind":"restaurant","name":"Κέντρο Πολιτισμού Ίδρυμα Σταύρος Νιάρχος","lat":37.939856198299935,"lng":23.69211972785974,"url":"https://maps.app.goo.gl/pQWTjEcbS98njE48A?g_st=ipc","address":"Λεωφ. Ανδρέα Συγγρού 364, Καλλιθέα 176 74","categoryIds":["attractions"],"categories":["Must-See Attractions"]},{"id":"mustSeeAttractions_3df9a416cf1a","slug":"lofos-filopappoy-3df9","kind":"restaurant","name":"Λόφος Φιλοπάππου","lat":37.96711952882775,"lng":23.721574966297474,"url":"https://maps.app.goo.gl/oZosE6Kbfk2BP5e67?g_st=ipc","address":"Φυλής 215, Αθήνα 117 41","categoryIds":["attractions"],"categories":["Must-See Attractions"]},{"id":"mustSeeAttractions_aeebd3346525","slug":"pnyka-aeeb","kind":"restaurant","name":"Πνύκα","lat":37.96737351880718,"lng":23.721158867490345,"url":"https://maps.app.goo.gl/yJCvqZ3YjAxVjgmU6?g_st=ipc","address":"Αθήνα 117 41","categoryIds":["attractions"],"categories":["Must-See Attractions"]},{"id":"mustSeeAttractions_11b87cb6f066","slug":"philopappos-monument-11b8","kind":"restaurant","name":"Philopappos Monument","lat":37.96735214641467,"lng":23.72141968401236,"url":"https://maps.app.goo.gl/4mH8BGK5UQuAHaXf6?g_st=ipc","address":"Athens 117 41","categoryIds":["attractions"],"categories":["Must-See Attractions"]},{"id":"mustSeeAttractions_bf865dc1bff4","slug":"prison-of-socrates-bf86","kind":"restaurant","name":"Prison of Socrates","lat":37.96945283540711,"lng":23.72099752982901,"url":"https://maps.app.goo.gl/431NuRe11zxrUqR89?g_st=ipc","address":"43, Rovertou Galli 39, Athina 117 41","categoryIds":["attractions"],"categories":["Must-See Attractions"]}],"nearby":[{"id":"greekRestaurants_7b2f8cec89e8","slug":"estiatorio-thymari-7b2f","kind":"restaurant","name":"Εστιατόριο Θυμάρι","lat":37.74409980963869,"lng":23.53632010673103,"url":"https://maps.app.goo.gl/rzpZZmk1oVw5HpXk9?g_st=ipc","address":"Λεωφ. Αφαίας, Αγ. Μαρίνα 180 10","categoryIds":["greek-restaurants"],"categories":["Greek Restaurants"],"distanceKm":1.1766726372780019},{"id":"cheapEatsRestaurants_8ba4f0065f8a","slug":"pita-tom-8ba4","kind":"restaurant","name":"Pita Tom","lat":37.74366491916778,"lng":23.535568140347873,"url":"https://maps.app.goo.gl/YMXgj9Wj4KVHBdms9?g_st=ipc","address":"Αγ. Μαρίνα 180 10","categoryIds":["cheap-eats"],"categories":["Gyros & Cheap Eats"],"distanceKm":1.2101997987438837},{"id":"monasteriesChurches_c167cd824b01","slug":"ieros-naos-agioy-nektarioy-aiginis-c167","kind":"restaurant","name":"Ιερός Ναός Αγίου Νεκταρίου Αιγίνης","lat":37.746945069118,"lng":23.484687951163814,"url":"https://maps.app.goo.gl/KjppqYPoe3hM1kHb9?g_st=ipc","address":"Κοντός 180 10","categoryIds":["monasteries-churches"],"categories":["Monasteries & Spiritual Sites"],"distanceKm":4.337662671652801},{"id":"monasteriesChurches_d020daa580d2","slug":"ieron-isychastirion-agias-triados-agioy-nektarioy-aiginis-d020","kind":"restaurant","name":"Ιερόν Ησυχαστήριον Αγίας Τριάδος - Αγίου Νεκταρίου Αιγίνης","lat":37.747756129707696,"lng":23.48419119090333,"url":"https://maps.app.goo.gl/FKwvJEY7DdQLDdKC7?g_st=ipc","address":"37°44'54.9\"N 23°29, 03 6\"E, Κοντός 180 10","categoryIds":["monasteries-churches"],"categories":["Monasteries & Spiritual Sites"],"distanceKm":4.364412211291765},{"id":"monasteriesChurches_e06cb099676f","slug":"iera-moni-panagias-chrysoleontissas-e06c","kind":"restaurant","name":"Ιερά Μονή Παναγίας Χρυσολεόντισσας","lat":37.72683515229462,"lng":23.487000558860796,"url":"https://maps.app.goo.gl/4wfUy4FPX2uzBPHt8?g_st=ipc","address":"Κοντός 180 10","categoryIds":["monasteries-churches"],"categories":["Monasteries & Spiritual Sites"],"distanceKm":5.081797491490179},{"id":"greekRestaurants_4c0797e5b05b","slug":"to-steki-toy-kynigoy-4c07","kind":"restaurant","name":"Το Στέκι του Κυνηγού","lat":37.70692578125452,"lng":23.504550200008005,"url":"https://maps.app.goo.gl/eRHkBsaWKHX368U76?g_st=ipc","address":"Ανίτσαιο 180 10","categoryIds":["greek-restaurants"],"categories":["Greek Restaurants"],"distanceKm":5.843881257593605},{"id":"fishTavernasRestaurants_ef34e6a5f34e","slug":"ammos-restaurant-ef34","kind":"restaurant","name":"AMMOS Restaurant","lat":37.719362798936,"lng":23.459117899142395,"url":"https://maps.app.goo.gl/zm3QJEgpXF2deJBSA?g_st=ipc","address":"Μαραθώνας, ΑΙΓΙΝΑ, Αίγινα 180 10","categoryIds":["fish-tavernas"],"categories":["Fish Tavernas"],"distanceKm":7.5832456124203995},{"id":"greekRestaurants_2017008c1880","slug":"paradosiaki-taverna-vatzoylias-2017","kind":"restaurant","name":"Παραδοσιακή Ταβέρνα Βατζούλιας","lat":37.74554524402309,"lng":23.44741816441979,"url":"https://maps.app.goo.gl/mXN4oehYWbVxscvt8?g_st=ipc","address":"Αφαίας 215, Αίγινα 180 10","categoryIds":["greek-restaurants"],"categories":["Greek Restaurants"],"distanceKm":7.598779832957342}],"sameRegion":[],"mentionedGuides":[],"canonicalSlug":"naos-tis-afaias-dff5","isCanonicalEntity":true},"__N_SSG":true}