{"pageProps":{"entity":{"id":"cheapEatsRestaurants_84f34ec821dd","slug":"o-stefanos-soyvlakia-84f3","kind":"restaurant","name":"Ο ΣΤΕΦΑΝΟΣ ΣΟΥΒΛΑΚΙΑ","lat":38.045163297484955,"lng":23.729228755056532,"url":"https://maps.app.goo.gl/Uog41UVXEyuZaDfdA?g_st=ipc","address":"Δεληγιάννη 71, Άγιοι Ανάργυροι 135 62","categoryIds":["cheap-eats"],"categories":["Gyros & Cheap Eats"]},"sameCategory":[{"id":"cheapEatsRestaurants_25538f73c661","slug":"koutsi-katsika-street-food-nea-filadelfeia-2553","kind":"restaurant","name":"Koutsi Katsika Street Food Νέα Φιλαδέλφεια","lat":38.036295969328165,"lng":23.73867352816236,"url":"https://maps.app.goo.gl/SfprcJNzr7drSK6A6?g_st=ipc","address":"Λεωφ. Δεκελείας 109, Νέα Φιλαδέλφεια Αττικής 143 41","categoryIds":["cheap-eats"],"categories":["Gyros & Cheap Eats"]},{"id":"cheapEatsRestaurants_8e920e95e567","slug":"slum-it-8e92","kind":"restaurant","name":"Slum it","lat":38.034971479219536,"lng":23.73628101866516,"url":"https://maps.app.goo.gl/m2fyvmtGXXiGevuC6?g_st=ipc","address":"Βρυούλων 15, Νέα Φιλαδέλφεια Αττικής 143 41","categoryIds":["cheap-eats"],"categories":["Gyros & Cheap Eats"]},{"id":"cheapEatsRestaurants_93852e0ca98a","slug":"i-vromiara-the-gourmet-street-food-nea-filadelfeia-9385","kind":"restaurant","name":"Η Βρωμιάρα - The Gourmet Street Food - Νεα Φιλαδέλφεια","lat":38.03438911435279,"lng":23.73692338806855,"url":"https://maps.app.goo.gl/Q23dgN65gryr9fpi7?g_st=ipc","address":"Βρυούλων 5, Νέα Φιλαδέλφεια Αττικής 143 41","categoryIds":["cheap-eats"],"categories":["Gyros & Cheap Eats"]},{"id":"cheapEatsRestaurants_ae066a0c8be0","slug":"street-wok-ae06","kind":"restaurant","name":"Street wok","lat":38.03415581458627,"lng":23.737421868861436,"url":"https://maps.app.goo.gl/2Mpgb24E2Bp7GYMDA?g_st=ipc","address":"Βρυούλων 4, Νέα Φιλαδέλφεια Αττικής 143 41","categoryIds":["cheap-eats"],"categories":["Gyros & Cheap Eats"]},{"id":"cheapEatsRestaurants_708ba2b3a806","slug":"eyripidis-1955-708b","kind":"restaurant","name":"Ευριπίδης 1955","lat":38.03354736852586,"lng":23.737489018536408,"url":"https://maps.app.goo.gl/oALQiKiSKqqQt7VE8?g_st=ipc","address":"Λεωφ. Δεκελείας 83, Νέα Φιλαδέλφεια Αττικής 143 41","categoryIds":["cheap-eats"],"categories":["Gyros & Cheap Eats"]},{"id":"cheapEatsRestaurants_372f0ee727b9","slug":"rigani-thymari-372f","kind":"restaurant","name":"Ρίγανη θυμάρι","lat":38.06157357464134,"lng":23.72960229805207,"url":"https://maps.app.goo.gl/Up1hU92hpZRnvgdJ8?g_st=ipc","address":"Αγίας Άννης 37, Αχαρνές 136 75","categoryIds":["cheap-eats"],"categories":["Gyros & Cheap Eats"]},{"id":"cheapEatsRestaurants_59fb21ba5f98","slug":"hobos-street-grill-59fb","kind":"restaurant","name":"Hobos Street Grill","lat":38.04249747641086,"lng":23.753515339761147,"url":"https://maps.app.goo.gl/YHJtEHPvQRVXwD3F7?g_st=ipc","address":"Λεωφ. Ηρακλείου 254, Νέα Ιωνία 142 31","categoryIds":["cheap-eats"],"categories":["Gyros & Cheap Eats"]},{"id":"cheapEatsRestaurants_23208072a530","slug":"o-mparmpas-choriatiki-kantina-2320","kind":"restaurant","name":"Ο Μπάρμπας Χωριάτικη Καντίνα","lat":38.03834405515059,"lng":23.705313931462435,"url":"https://maps.app.goo.gl/rw8Py2VR6j9NeDLn6?g_st=ipc","address":"Αγίου Νικολάου 2, Ίλιον 131 23","categoryIds":["cheap-eats"],"categories":["Gyros & Cheap Eats"]}],"nearby":[{"id":"italianRestaurants_c7fad2a2b587","slug":"parco-pizza-c7fa","kind":"restaurant","name":"PARCO PIZZA","lat":38.04774854674856,"lng":23.728958951505486,"url":"https://maps.app.goo.gl/UiJhpTwk6oBuPXFx9?g_st=ipc","address":"Λεωφ. Δημοκρατίας 9, Καματερό 134 51","categoryIds":["italian"],"categories":["Italian Restaurants"],"distanceKm":0.2884358391439884},{"id":"familyFriendly_ee34f2b0b4d6","slug":"luna-park-aidonakia-s-a-ee34","kind":"restaurant","name":"Luna Park Aidonakia S.A.","lat":38.04298329114164,"lng":23.72412165922102,"url":"https://maps.app.goo.gl/7i1TWYeF8ZyU3Vq47?g_st=ipc","address":"Leof. Dimokratias, Agii Anargiri 131 22","categoryIds":["family-friendly"],"categories":["Kid Friendly Locations"],"distanceKm":0.5086985699485905},{"id":"municipalities_2d28cc1df46e","slug":"agioi-anargyroi-2d28","kind":"municipality","name":"Άγιοι Ανάργυροι","lat":38.04,"lng":23.73,"region":"Δυτικά Προάστια","name_en":"Agioi Anargyroi","region_en":"Western Suburbs","distanceKm":0.578091410203544},{"id":"familyFriendly_901096bfa3e5","slug":"mitropolitiko-parko-antonis-tritsis-9010","kind":"restaurant","name":"Μητροπολιτικό Πάρκο Αντώνης Τρίτσης","lat":38.04448272470426,"lng":23.721863541204524,"url":"https://maps.app.goo.gl/ruiCqSWVCT4XLQ6T7?g_st=ipc","address":"Σπύρου Μουστακλή 23, Ίλιον 131 22","categoryIds":["family-friendly"],"categories":["Kid Friendly Locations"],"distanceKm":0.6493905087146508},{"id":"greekRestaurants_9c1516b8d16d","slug":"mister-loykidelis-9c15","kind":"restaurant","name":"Μίστερ Λουκιδέλης","lat":38.03885909725717,"lng":23.736070793481,"url":"https://maps.app.goo.gl/CMKSzphqRyS8ewpNA","address":"Γεωρ. Παπανδρέου 81, Νέα Φιλαδέλφεια Αττικής 143 41","categoryIds":["greek-restaurants"],"categories":["Greek Restaurants"],"distanceKm":0.9221739096509991},{"id":"municipalities_88064bcfc221","slug":"kamatero-8806","kind":"municipality","name":"Καματερό","lat":38.05,"lng":23.72,"region":"Δυτικά Προάστια","name_en":"Kamatero","region_en":"Western Suburbs","distanceKm":0.970727520121102},{"id":"greekRestaurants_32d9fbbeb9ef","slug":"to-karagatsi-32d9","kind":"restaurant","name":"Το Καραγάτσι","lat":38.039818289814335,"lng":23.738940522044075,"url":"https://maps.app.goo.gl/8aQhSfNrT1Z9qqEm7","address":"Αγίου Ιωάννου 1, Νέα Φιλαδέλφεια Αττικής 143 42","categoryIds":["greek-restaurants"],"categories":["Greek Restaurants"],"distanceKm":1.0375700989194385},{"id":"coffeeBrunchRestaurants_51893d66518d","slug":"mimosa-neighborhood-bistrot-5189","kind":"restaurant","name":"mimosa neighborhood bistrot","lat":38.03853139699867,"lng":23.737753049309227,"url":"https://maps.app.goo.gl/KBvxE1xtgNdKgvxY8?g_st=ipc","address":"Efesou, Μουδανιών &, Νέα Φιλαδέλφεια Αττικής 143 41","categoryIds":["coffee-brunch"],"categories":["Coffee & Brunch Spots"],"distanceKm":1.04931637970286}],"sameRegion":[],"mentionedGuides":[],"canonicalSlug":"o-stefanos-soyvlakia-84f3","isCanonicalEntity":true},"__N_SSG":true}