{"pageProps":{"entity":{"id":"familyFriendly_851fdc1f68b5","slug":"parapotamio-parko-artas-851f","kind":"restaurant","name":"Παραποτάμιο Πάρκο Άρτας","lat":39.16127581116029,"lng":20.996020576304343,"url":"https://maps.app.goo.gl/2QGxoFpihPsqFc2W8?g_st=ic","address":"Περιφερειακή Οδός και, Periferiaki odos Afxentiou 1, Arta 471 00","categoryIds":["family-friendly"],"categories":["Kid Friendly Locations"]},"sameCategory":[{"id":"familyFriendly_fca4b1834b63","slug":"play-hall-fca4","kind":"restaurant","name":"PLAY HALL","lat":39.65033321631473,"lng":20.865657018209728,"url":"https://maps.app.goo.gl/SFFV3HjpyPgVaZLc9?g_st=ipc","address":"Leof. Geor. Gennimata, Ioannina 452 21","categoryIds":["family-friendly"],"categories":["Kid Friendly Locations"]},{"id":"familyFriendly_c02221112b03","slug":"keramario-paradosiaki-taverna-kai-xenones-c022","kind":"restaurant","name":"Κεραμαριό Παραδοσιακή Ταβέρνα και Ξενώνες","lat":39.40971777314896,"lng":21.605805073179642,"url":"https://maps.app.goo.gl/39GhkgeydgX7Y7Z5A?g_st=ipc","address":"Συνοικισμός Κεραμαριό, Δρακότρυπα, Mouzaki 430 60","categoryIds":["family-friendly"],"categories":["Kid Friendly Locations"]},{"id":"familyFriendly_ea50207bb21c","slug":"saloon-park-ea50","kind":"restaurant","name":"Saloon Park","lat":38.90092130813555,"lng":21.772793181199432,"url":"https://maps.app.goo.gl/LrjoDSvaukPFS7Bc7?g_st=ipc","address":"3ο χιλ Καρπενησίου Προυσσου, Karpenisi 361 00","categoryIds":["family-friendly"],"categories":["Kid Friendly Locations"]},{"id":"familyFriendly_a4d875b2fad3","slug":"the-mill-of-the-elves-a4d8","kind":"restaurant","name":"The Mill of the Elves","lat":39.5462653378013,"lng":21.758814753478795,"url":"https://maps.app.goo.gl/HiNCRKX6yM5iQQuv6?g_st=ipc","address":"Πάρκο Ματσόπουλου, Trikala 421 00","categoryIds":["family-friendly"],"categories":["Kid Friendly Locations"]},{"id":"familyFriendly_f9db02b0c4d4","slug":"saint-george-athletic-park-f9db","kind":"restaurant","name":"Saint George Athletic Park","lat":39.54375380003077,"lng":21.786690732349854,"url":"https://maps.app.goo.gl/pwB8sxfXU5yLbEHY9?g_st=ipc","address":"Trikala 421 00","categoryIds":["family-friendly"],"categories":["Kid Friendly Locations"]},{"id":"familyFriendly_f1559b4827bb","slug":"sarakatsaniki-stani-f155","kind":"restaurant","name":"Σαρακατσάνικη Στάνη","lat":39.93486554028431,"lng":20.916784074474684,"url":"https://maps.app.goo.gl/hz7v5UJ8xo3K6aLE7?g_st=ic","address":"Γυφτόκαμπος Σκαμνέλι, Skamnelli 440 10","categoryIds":["family-friendly"],"categories":["Kid Friendly Locations"]},{"id":"familyFriendly_ef01ab8f9ddc","slug":"rafting-no-limits-gr-ef01","kind":"restaurant","name":"Rafting No Limits GR","lat":40.057225940419336,"lng":20.627015564275286,"url":"https://maps.app.goo.gl/JMXqaxKVD3CmU7Ft8?g_st=ipc","address":"BOURAZANI Konitsa, BOURAZANi KONITSA 441 00","categoryIds":["family-friendly"],"categories":["Kid Friendly Locations"]},{"id":"familyFriendly_d18c51f19172","slug":"the-park-of-mushrooms-d18c","kind":"restaurant","name":"The Park of Mushrooms","lat":40.085707982229366,"lng":21.437328929556166,"url":"https://maps.app.goo.gl/8bk7HjJdaK7izqGE6?g_st=ipc","address":"Taliadouri 77, Grevena 511 00","categoryIds":["family-friendly"],"categories":["Kid Friendly Locations"]}],"nearby":[{"id":"municipalities_6249e4ce05d5","slug":"arta-6249","kind":"municipality","name":"Άρτα","lat":39.16,"lng":20.985,"region":"Ήπειρος","name_en":"Arta","region_en":"Epirus","distanceKm":0.9607057365168653},{"id":"mustSeeAttractions_6493befc2e7b","slug":"nicopolis-6493","kind":"restaurant","name":"Nicopolis","lat":39.02636525396993,"lng":20.733626410935955,"url":"https://maps.app.goo.gl/satDDwkecYRf2TSBA?g_st=ipc","address":"Nicopolis 481 00","categoryIds":["attractions"],"categories":["Must-See Attractions"],"distanceKm":27.162814957166415},{"id":"mustSeeAttractions_cf30313c597a","slug":"byzantine-walls-of-nikopolis-cf30","kind":"restaurant","name":"Byzantine Walls of Nikopolis","lat":39.0118446526379,"lng":20.732022944510806,"url":"https://maps.app.goo.gl/VMrzqGqwGc2EoieJ7?g_st=ipc","address":"Unnamed Road, 481 00","categoryIds":["attractions"],"categories":["Must-See Attractions"],"distanceKm":28.200379007644116},{"id":"municipalities_761f6f2874f3","slug":"preveza-761f","kind":"municipality","name":"Πρέβεζα","lat":38.9567,"lng":20.75,"aliases":["Preveza"],"region":"Ήπειρος","name_en":"Preveza","region_en":"Epirus","distanceKm":31.123709451834223}],"sameRegion":[],"mentionedGuides":[],"canonicalSlug":"parapotamio-parko-artas-851f","isCanonicalEntity":true},"__N_SSG":true}