{"pageProps":{"entity":{"id":"familyFriendly_784064c3c628","slug":"parko-aixonis-7840","kind":"restaurant","name":"Πάρκο Αιξωνής","lat":37.85436759031945,"lng":23.767620410773823,"url":"https://maps.app.goo.gl/D43jUtfBGCJtvXoNA?g_st=ipc","address":"Δημ. Γούναρη, Γλυφάδα 166 74","categoryIds":["family-friendly"],"categories":["Kid Friendly Locations"]},"sameCategory":[{"id":"familyFriendly_11e87a91baef","slug":"plateia-chariton-11e8","kind":"restaurant","name":"Πλατεία Χαρίτων","lat":37.86415490115138,"lng":23.75493366426452,"url":"https://maps.app.goo.gl/eBpgr4RX9Y42hXEw6?g_st=ipc","address":"Σεμέλης 1, Γλυφάδα 166 74","categoryIds":["family-friendly"],"categories":["Kid Friendly Locations"]},{"id":"familyFriendly_b360cd975d06","slug":"voula-park-b360","kind":"restaurant","name":"Voula Park","lat":37.839630282199295,"lng":23.762193155062445,"url":"https://maps.app.goo.gl/V4oZWgECkqhJFkK46?g_st=ipc","address":"Nireos, Voula, Athens 166 73","categoryIds":["family-friendly"],"categories":["Kid Friendly Locations"]},{"id":"familyFriendly_bba3af84c3c6","slug":"bella-vespa-bba3","kind":"restaurant","name":"Bella Vespa","lat":37.86706675735918,"lng":23.747387332761612,"url":"https://maps.app.goo.gl/dpip4AngfBL8xv2M8?g_st=ipc","address":"Κύπρου 11, Γλυφάδα 166 75","categoryIds":["family-friendly"],"categories":["Kid Friendly Locations"]},{"id":"familyFriendly_55f46ad3d361","slug":"sea-turtle-rescue-centre-55f4","kind":"restaurant","name":"Sea Turtle Rescue Centre","lat":37.863977076270096,"lng":23.741869224495424,"url":"https://maps.app.goo.gl/rnhMSdAUACk8DJcQ6?g_st=ic","address":"3rd Glyfada Marina, Αθήνα 166 75","categoryIds":["family-friendly"],"categories":["Kid Friendly Locations"]},{"id":"familyFriendly_37e90b2f8c07","slug":"happy-play-park-37e9","kind":"restaurant","name":"Happy Play Park","lat":37.83676394128604,"lng":23.807828606428487,"url":"https://maps.app.goo.gl/RA9ywQvUBdabkNk1A?g_st=ic","address":"Varis Koropiou Ave 27, Vari 166 72","categoryIds":["family-friendly"],"categories":["Kid Friendly Locations"]},{"id":"familyFriendly_824dcd75a264","slug":"the-ellinikon-experience-park-824d","kind":"restaurant","name":"The Ellinikon Experience Park","lat":37.889532923626724,"lng":23.741777435195917,"url":"https://maps.app.goo.gl/sqeFJaUrDmxw1UqF7?g_st=ipc","address":"Ελληνικό 167 77","categoryIds":["family-friendly"],"categories":["Kid Friendly Locations"]},{"id":"familyFriendly_605cb6ee53f8","slug":"paidiki-chara-plateias-karaiskaki-605c","kind":"restaurant","name":"Παιδική Χαρά Πλατείας Καραισκάκη","lat":37.90061761752489,"lng":23.771490329070613,"url":"https://maps.app.goo.gl/9R2iG5DSfkWfCzH2A?g_st=ipc","address":"Λευκωσίας 25, Γλυφάδα 165 62","categoryIds":["family-friendly"],"categories":["Kid Friendly Locations"]},{"id":"familyFriendly_9f066a9c3f09","slug":"dei-chocolate-ice-cream-experience-9f06","kind":"restaurant","name":"ΔΕΗ Chocolate & Ice Cream Experience","lat":37.89648025729673,"lng":23.737725296668952,"url":"https://maps.app.goo.gl/u7nRPPFnbvtVeLEQ7?g_st=ipc","address":"The Ellinikon Expérience Park, Ελληνικό 167 77","categoryIds":["family-friendly"],"categories":["Kid Friendly Locations"]}],"nearby":[{"id":"cheapEatsRestaurants_9085d6dbdfe8","slug":"street-food-park-9085","kind":"restaurant","name":"Street Food Park","lat":37.85905594962557,"lng":23.764660793565383,"url":"https://maps.app.goo.gl/8bfdGPL68FsznR1SA?g_st=ipc","address":"Παρ. Λεωφ. Βουλιαγμένης 153, Γλυφάδα 166 74","categoryIds":["cheap-eats"],"categories":["Gyros & Cheap Eats"],"distanceKm":0.5824869480517548},{"id":"mexicanRestaurants_bc074466ce69","slug":"amigos-bc07","kind":"restaurant","name":"Amigos","lat":37.85929715781572,"lng":23.756229404432254,"url":"https://maps.app.goo.gl/CeHzLQv4LTsb7j5RA?g_st=ipc","address":"Κύπρου 65, Γλυφάδα 166 74","categoryIds":["mexican"],"categories":["Mexican Restaurants"],"distanceKm":1.140427634746393},{"id":"burgersRestaurants_aaf9b8df7638","slug":"the-burger-joint-aaf9","kind":"restaurant","name":"the burger joint","lat":37.85975416543059,"lng":23.75632935360373,"url":"https://maps.app.goo.gl/4ebsLmRmHgQAtXCy5?g_st=ipc","address":"Πλ. Νυμφών 1, Γλυφάδα 166 74","categoryIds":["burgers"],"categories":["Burger Spots"],"distanceKm":1.1581828594207204},{"id":"coffeeBrunchRestaurants_296c68e50c96","slug":"blends-mix-match-296c","kind":"restaurant","name":"Blends Mix & Match","lat":37.86035282429643,"lng":23.756257632105665,"url":"https://maps.app.goo.gl/VgzGwQBJonZ2HWs87?g_st=ic","address":"Pl. Nimfon, Glifada 166 74","categoryIds":["coffee-brunch"],"categories":["Coffee & Brunch Spots"],"distanceKm":1.1991983989966812},{"id":"coffeeBrunchRestaurants_798042ad21e8","slug":"opus-inner-pleasure-7980","kind":"restaurant","name":"OPUS Inner Pleasure","lat":37.85815683883427,"lng":23.754579101528986,"url":"https://maps.app.goo.gl/s6FvEiAwBwBVBs2t9?g_st=ipc","address":"Πανδώρας 9, Γλυφάδα 166 74","categoryIds":["coffee-brunch"],"categories":["Coffee & Brunch Spots"],"distanceKm":1.2200193390413914},{"id":"fishTavernasRestaurants_a989c7b64d77","slug":"mparmpoynaki-glyfada-a989","kind":"restaurant","name":"Μπαρμπουνάκι Γλυφάδα","lat":37.85833613514832,"lng":23.75466359649667,"url":"https://maps.app.goo.gl/KZucjQ49PpF8K1GL7?g_st=ipc","address":"Λεωφ. Δημάρχου Αγγέλου Μεταξά 48, Γλυφάδα 166 74","categoryIds":["fish-tavernas"],"categories":["Fish Tavernas"],"distanceKm":1.2201271345688622},{"id":"burgersRestaurants_da84a1508542","slug":"ekiben-kitchen-glyfada-da84","kind":"restaurant","name":"Ekiben Kitchen Glyfada","lat":37.861176009715045,"lng":23.756396095505576,"url":"https://maps.app.goo.gl/nBtptoxrUvHyuGTz6?g_st=ic","address":"Laodikis 41, Glifada 166 74","categoryIds":["burgers"],"categories":["Burger Spots"],"distanceKm":1.242648739396428},{"id":"asianRestaurants_6985f147fd97","slug":"ekiben-kitchen-glyfada-6985","kind":"restaurant","name":"Ekiben Kitchen Glyfada","lat":37.861176848381916,"lng":23.75639518380584,"url":"https://maps.app.goo.gl/bR7jaQSkxn33eLgq7","address":"Laodikis 41, Glifada 166 74","categoryIds":["asian"],"categories":["Asian Restaurants"],"distanceKm":1.242769020823338}],"sameRegion":[],"mentionedGuides":[],"canonicalSlug":"parko-aixonis-7840","isCanonicalEntity":true},"__N_SSG":true}