{"pageProps":{"entity":{"id":"luxuryDiningRestaurants_bfd21fa32b8e","slug":"perivoli-restaurant-bfd2","kind":"restaurant","name":"Perivoli Restaurant","lat":36.98184971359456,"lng":24.72167247742077,"url":"https://maps.app.goo.gl/iAutDnpTgMPkufBt7?g_st=ipc","address":"Αρτεμώνας 840 03","categoryIds":["luxury-dining"],"categories":["Luxury Dining"]},"sameCategory":[{"id":"luxuryDiningRestaurants_bc521e15ad20","slug":"bostani-bar-restaurant-bc52","kind":"restaurant","name":"Bostani Bar & Restaurant","lat":36.983114036475556,"lng":24.733935585542696,"url":"https://maps.app.goo.gl/s5s1BcxwRoxjRnrv7?g_st=ipc","address":"Poulati, Sifnos 840 03","categoryIds":["luxury-dining"],"categories":["Luxury Dining"]},{"id":"luxuryDiningRestaurants_81dc67aec549","slug":"cantina-81dc","kind":"restaurant","name":"Cantina","lat":36.97219283235427,"lng":24.74596680838354,"url":"https://maps.app.goo.gl/LgALa3qo2pc4x9pP6?g_st=ipc","address":"Seralia, Kastro 840 03","categoryIds":["luxury-dining"],"categories":["Luxury Dining"]},{"id":"luxuryDiningRestaurants_5a94207b2974","slug":"maiolica-sifnos-5a94","kind":"restaurant","name":"Maiòlica Sifnos","lat":36.9320107600118,"lng":24.73115373110344,"url":"https://maps.app.goo.gl/B9Sap96yo6EiNoxB7?g_st=ipc","address":"Πλατύς Γιαλός 840 03","categoryIds":["luxury-dining"],"categories":["Luxury Dining"]},{"id":"luxuryDiningRestaurants_9f9cf29a5760","slug":"makris-milos-fine-dining-restaurant-9f9c","kind":"restaurant","name":"Makris Milos Fine Dining Restaurant","lat":36.744626545035004,"lng":24.481317634143164,"url":"https://maps.app.goo.gl/DyjWXnMeBVwqWcfy6?g_st=ipc","address":"Mytakas, Island 848 00","categoryIds":["luxury-dining"],"categories":["Luxury Dining"]},{"id":"luxuryDiningRestaurants_162c7c269249","slug":"mario-restaurant-162c","kind":"restaurant","name":"Mario Restaurant","lat":37.091334008503296,"lng":25.156686500869714,"url":"https://maps.app.goo.gl/XvstBKLEfdRFvAHv7?g_st=ipc","address":"Λιβάδια, Paros 844 00","categoryIds":["luxury-dining"],"categories":["Luxury Dining"]},{"id":"luxuryDiningRestaurants_1787918aabcc","slug":"matsuhisa-paros-1787","kind":"restaurant","name":"Matsuhisa Paros","lat":37.122332088945846,"lng":25.232444794394056,"url":"https://maps.app.goo.gl/MmRAPTUjpZ9ev73JA?g_st=ipc","address":"Avant Mar Hotel, Paros 844 01","categoryIds":["luxury-dining"],"categories":["Luxury Dining"]},{"id":"luxuryDiningRestaurants_daff556d4496","slug":"barbarossa-restaurant-daff","kind":"restaurant","name":"Barbarossa Restaurant","lat":37.12519351534626,"lng":25.23748367778552,"url":"https://maps.app.goo.gl/cdTNGtzo6JQDuLoVA?g_st=ipc","address":"Παλιό Λιμάνι Νάουσας, Limanaki, Naousa 844 01","categoryIds":["luxury-dining"],"categories":["Luxury Dining"]},{"id":"luxuryDiningRestaurants_0493f737e4a2","slug":"siparos-seaside-restaurant-0493","kind":"restaurant","name":"Siparos Seaside Restaurant","lat":37.12641991370185,"lng":25.266628395086137,"url":"https://maps.app.goo.gl/VTdFDVhfiq6yFy2q6?g_st=ipc","address":"Ξιφαρά 844 01","categoryIds":["luxury-dining"],"categories":["Luxury Dining"]}],"nearby":[{"id":"dessertsRestaurants_3a9ca127474c","slug":"yellow-bicycle-3a9c","kind":"restaurant","name":"Yellow Bicycle","lat":36.981512610738626,"lng":24.723907398959476,"url":"https://maps.app.goo.gl/jrFAxiopPa2HXAPw6?g_st=ipc","address":"Αρτεμώνας 840 03","categoryIds":["desserts"],"categories":["Dessert Shops"],"distanceKm":0.2020261396595853},{"id":"dessertsRestaurants_1e21715c1ba4","slug":"theodorou-1e21","kind":"restaurant","name":"Theodorou","lat":36.98032236422911,"lng":24.725175617740387,"url":"https://maps.app.goo.gl/3Jy7ZAZANHv7j8Zv5?g_st=ipc","address":"Αρτεμώνας 840 03","categoryIds":["desserts"],"categories":["Dessert Shops"],"distanceKm":0.35450079089490605},{"id":"greekRestaurants_abbc05eb93be","slug":"estiatorio-lempesis-abbc","kind":"restaurant","name":"Εστιατόριο Λεμπέσης","lat":36.97977476107011,"lng":24.72663670780289,"url":"https://maps.app.goo.gl/uu2dJGd3dS7HNDiS6?g_st=ipc","address":"Αρτεμώνας 840 03","categoryIds":["greek-restaurants"],"categories":["Greek Restaurants"],"distanceKm":0.49767025882561816},{"id":"coffeeBrunchRestaurants_afaf99ec8235","slug":"cafe-prago-afaf","kind":"restaurant","name":"Cafe Prago","lat":36.975461059633815,"lng":24.7240519346836,"url":"https://maps.app.goo.gl/isrdd8GJ3jpsZQ7W7?g_st=ipc","address":"Apollonias, Artemona 840 03","categoryIds":["coffee-brunch"],"categories":["Coffee & Brunch Spots"],"distanceKm":0.7411635194676648},{"id":"italianRestaurants_25eccdd64c34","slug":"mamma-mia-sifnos-apollonia-25ec","kind":"restaurant","name":"Mamma Mia - Sifnos - Apollonia","lat":36.97495083578174,"lng":24.7241131412881,"url":"https://maps.app.goo.gl/88fvareZPz1tuDRy7?g_st=ipc","address":"Απολλωνία 840 03","categoryIds":["italian"],"categories":["Italian Restaurants"],"distanceKm":0.7971680337724477},{"id":"coffeeBrunchRestaurants_efd5bd610439","slug":"threefolds-sifnos-efd5","kind":"restaurant","name":"Threefolds sifnos","lat":36.974665514362115,"lng":24.72381923558153,"url":"https://maps.app.goo.gl/PqpVut6E24nuqAUq6?g_st=ipc","address":"Απολλωνία 840 03","categoryIds":["coffee-brunch"],"categories":["Coffee & Brunch Spots"],"distanceKm":0.8212920204963144},{"id":"coffeeBrunchRestaurants_c3458e08944b","slug":"to-stavri-bakery-to-stayri-c345","kind":"restaurant","name":"To Stavri bakery (Το Σταυρί)","lat":36.97380305039157,"lng":24.72319061672324,"url":"https://maps.app.goo.gl/uYWL7LrV5mmCq24M8?g_st=ipc","address":"Epar.Od. Limani Kamaron-Artemonas, Apollonia 840 03","categoryIds":["coffee-brunch"],"categories":["Coffee & Brunch Spots"],"distanceKm":0.9048538424016308},{"id":"greekRestaurants_e46c14fa463c","slug":"cayenne-restaurant-art-gallery-e46c","kind":"restaurant","name":"Cayenne Restaurant Art Gallery","lat":36.97306144321347,"lng":24.723650051381746,"url":"https://maps.app.goo.gl/mz6pX32TuR9ieYY67?g_st=ipc","address":"Επαρ.Οδ. Απολλωνίας-Όρμος Φάρου, Απολλωνία 840 03","categoryIds":["greek-restaurants"],"categories":["Greek Restaurants"],"distanceKm":0.9928751585905978}],"sameRegion":[],"mentionedGuides":[],"canonicalSlug":"perivoli-restaurant-bfd2","isCanonicalEntity":true},"__N_SSG":true}