{"pageProps":{"entity":{"id":"cheapEatsRestaurants_9aa1dc025a0d","slug":"psitopoleia-eyosmos-ano-kato-9aa1","kind":"restaurant","name":"ΨΗΤΟΠΩΛΕΙΑ ΕΥΟΣΜΟΣ- ΑΝΩ ΚΑΤΩ","lat":40.66706897454817,"lng":22.912010033587894,"url":"https://maps.app.goo.gl/Keom9mTvrZ5H3Nat7?g_st=ipc","address":"Tzavella 2, Evosmos 562 24","categoryIds":["cheap-eats"],"categories":["Gyros & Cheap Eats"]},"sameCategory":[{"id":"cheapEatsRestaurants_da038af38ca1","slug":"devido-da03","kind":"restaurant","name":"Devido","lat":40.66696798830783,"lng":22.91206522121093,"url":"https://maps.app.goo.gl/ghxqsvRTJj4mWN988?g_st=ipc","address":"Karaoli ke Dimitriou 89, Evosmos 562 24","categoryIds":["cheap-eats"],"categories":["Gyros & Cheap Eats"]},{"id":"cheapEatsRestaurants_91f775fd05bb","slug":"rookie-skg-91f7","kind":"restaurant","name":"Rookie.skg","lat":40.66725409679953,"lng":22.911543036523838,"url":"https://maps.app.goo.gl/h5xQF5VfomnJ621E6?g_st=ipc","address":"P. Mela 28, Evosmos 562 24","categoryIds":["cheap-eats"],"categories":["Gyros & Cheap Eats"]},{"id":"cheapEatsRestaurants_547f03a545e5","slug":"crats-fried-chicken-eyosmoy-547f","kind":"restaurant","name":"Crats Fried Chicken Ευόσμου","lat":40.66578126903803,"lng":22.911725635585793,"url":"https://maps.app.goo.gl/BYpMVurWN1yMNmFh8?g_st=ipc","address":"Aristotélous 67, Evosmos 562 24","categoryIds":["cheap-eats"],"categories":["Gyros & Cheap Eats"]},{"id":"cheapEatsRestaurants_c8843856c63b","slug":"stivos-burger-steak-c884","kind":"restaurant","name":"STIVOS BURGER & STEAK","lat":40.66959322745075,"lng":22.911385519403897,"url":"https://maps.app.goo.gl/aaKTJZJokUXTmmru9?g_st=ipc","address":"Ευαγγελισμού της Θεοτόκου 43, Evosmos 562 24","categoryIds":["cheap-eats"],"categories":["Gyros & Cheap Eats"]},{"id":"cheapEatsRestaurants_b4bd6b227c80","slug":"stivos-burger-steak-b4bd","kind":"restaurant","name":"STIVOS BURGER & STEAK","lat":40.66959404535745,"lng":22.911384200102038,"url":"https://maps.app.goo.gl/fxfKxZEHaxRaJ2HfA?g_st=ipc","address":"Ευαγγελισμού της Θεοτόκου 43, Evosmos 562 24","categoryIds":["cheap-eats"],"categories":["Gyros & Cheap Eats"]},{"id":"cheapEatsRestaurants_78b831279473","slug":"steakhouse-makis-78b8","kind":"restaurant","name":"Steakhouse MAKIS","lat":40.663898455247235,"lng":22.911569590344406,"url":"https://maps.app.goo.gl/ATqXPJfCjdXR8wes9?g_st=ipc","address":"Aristotélous 35, Evosmos 562 24","categoryIds":["cheap-eats"],"categories":["Gyros & Cheap Eats"]},{"id":"cheapEatsRestaurants_f921d077e63d","slug":"psitopoleio-nikos-f921","kind":"restaurant","name":"Ψητοπωλείο \"ΝΙΚΟΣ\"","lat":40.66963563529277,"lng":22.908013940571315,"url":"https://maps.app.goo.gl/LAQoYu8du3ZFbwSR7?g_st=ipc","address":"Meg. Alexandrou 56, Evosmos 562 24","categoryIds":["cheap-eats"],"categories":["Gyros & Cheap Eats"]},{"id":"cheapEatsRestaurants_12d4af48cdfc","slug":"kotopoyla-deras-12d4","kind":"restaurant","name":"Κοτόπουλα Δέρας","lat":40.6664983188531,"lng":22.919495227155743,"url":"https://maps.app.goo.gl/zrQxzEjiyGHcJGXt5?g_st=ipc","address":"Karaoli ke Dimitriou 154, Evosmos 562 24","categoryIds":["cheap-eats"],"categories":["Gyros & Cheap Eats"]}],"nearby":[{"id":"cheapEatsRestaurants_da038af38ca1","slug":"devido-da03","kind":"restaurant","name":"Devido","lat":40.66696798830783,"lng":22.91206522121093,"url":"https://maps.app.goo.gl/ghxqsvRTJj4mWN988?g_st=ipc","address":"Karaoli ke Dimitriou 89, Evosmos 562 24","categoryIds":["cheap-eats"],"categories":["Gyros & Cheap Eats"],"distanceKm":0.012155649586145678},{"id":"burgersRestaurants_e6cca423021b","slug":"rookie-skg-e6cc","kind":"restaurant","name":"Rookie.skg","lat":40.66725084444489,"lng":22.911546340289146,"url":"https://maps.app.goo.gl/UbXbrxK1VEFkvDdp7?g_st=ipc","address":"P. Mela 28, Evosmos 562 24","categoryIds":["burgers"],"categories":["Burger Spots"],"distanceKm":0.04402815681747142},{"id":"cheapEatsRestaurants_91f775fd05bb","slug":"rookie-skg-91f7","kind":"restaurant","name":"Rookie.skg","lat":40.66725409679953,"lng":22.911543036523838,"url":"https://maps.app.goo.gl/h5xQF5VfomnJ621E6?g_st=ipc","address":"P. Mela 28, Evosmos 562 24","categoryIds":["cheap-eats"],"categories":["Gyros & Cheap Eats"],"distanceKm":0.04444220102992204},{"id":"coffeeBrunchRestaurants_5f036d7db680","slug":"model-urban-style-bar-5f03","kind":"restaurant","name":"Model Urban Style Bar","lat":40.66742278574293,"lng":22.91124275092617,"url":"https://maps.app.goo.gl/kRz7a3AxwDHMinRU6?g_st=ipc","address":"P. Mela 26, Evosmos 562 24","categoryIds":["coffee-brunch"],"categories":["Coffee & Brunch Spots"],"distanceKm":0.07573459172204589},{"id":"cheapEatsRestaurants_547f03a545e5","slug":"crats-fried-chicken-eyosmoy-547f","kind":"restaurant","name":"Crats Fried Chicken Ευόσμου","lat":40.66578126903803,"lng":22.911725635585793,"url":"https://maps.app.goo.gl/BYpMVurWN1yMNmFh8?g_st=ipc","address":"Aristotélous 67, Evosmos 562 24","categoryIds":["cheap-eats"],"categories":["Gyros & Cheap Eats"],"distanceKm":0.1451816093446774},{"id":"burgersRestaurants_8809fdd68e04","slug":"jokerman-8809","kind":"restaurant","name":"JOKERMAN","lat":40.668414646990946,"lng":22.912364509174097,"url":"https://maps.app.goo.gl/Mz4wckU7VyfPoiNe7?g_st=ipc","address":"Meg. Alexandrou 87, Evosmos 562 24","categoryIds":["burgers"],"categories":["Burger Spots"],"distanceKm":0.15258948473455594},{"id":"greekRestaurants_7f8b3d2ad28e","slug":"backxes-7f8b","kind":"restaurant","name":"Backξες","lat":40.66851175512014,"lng":22.912875049998018,"url":"https://maps.app.goo.gl/4QcvwjevNtMp66VDA?g_st=ipc","address":"Καρατασου, Τσάμη - Καρατάσου 7, Θεσσαλονίκη 562 24","categoryIds":["greek-restaurants"],"categories":["Greek Restaurants"],"distanceKm":0.17623969727526095},{"id":"italianRestaurants_5c52a29bf906","slug":"raffaele-pizza-pasta-5c52","kind":"restaurant","name":"Raffaele Pizza & Pasta","lat":40.66835766189394,"lng":22.909237229764354,"url":"https://maps.app.goo.gl/aQ6nFJz5CrVrnaNv6","address":"P. Mela 8, Evosmos 562 24","categoryIds":["italian"],"categories":["Italian Restaurants"],"distanceKm":0.27427228577159524}],"sameRegion":[],"mentionedGuides":[],"canonicalSlug":"psitopoleia-eyosmos-ano-kato-9aa1","isCanonicalEntity":true},"__N_SSG":true}