{"pageProps":{"entity":{"id":"dessertsRestaurants_f5ba55d72f24","slug":"sarai-f5ba","kind":"restaurant","name":"Saráï","lat":40.50964221813708,"lng":22.21709810148732,"url":"https://maps.app.goo.gl/8r6UrDNn4r78Tkat6?g_st=ipc","address":"Pierion 204, Veria 591 00","categoryIds":["desserts"],"categories":["Dessert Shops"]},"sameCategory":[{"id":"dessertsRestaurants_cd0cca61f129","slug":"hochliourou-traditional-revani-cd0c","kind":"restaurant","name":"Hochliourou Traditional Revani","lat":40.52579895116516,"lng":22.20253231030905,"url":"https://maps.app.goo.gl/KeFfiyDrYEvNSjAv8?g_st=ipc","address":"Agiou Antoniou, Kentrikis 134, Veria 591 32","categoryIds":["desserts"],"categories":["Dessert Shops"]},{"id":"dessertsRestaurants_d6f56e7bfdf1","slug":"terkenlis-ktel-makedonias-d6f5","kind":"restaurant","name":"Τερκενλής ΚΤΕΛ Μακεδονίας","lat":40.654156711472844,"lng":22.902064012379874,"url":"https://maps.app.goo.gl/M3GHqH2wSqH8EMUj7?g_st=ipc","address":"Monastiriou, Menemeni 546 28","categoryIds":["desserts"],"categories":["Dessert Shops"]},{"id":"dessertsRestaurants_19a8d37c0b4c","slug":"cinnabon-19a8","kind":"restaurant","name":"Cinnabon","lat":40.646492769432,"lng":22.920799139987686,"url":"https://maps.app.goo.gl/Ndu5vJgYbtj4ou9s5?g_st=ipc","address":"Giannitson 61, Thessaloniki 546 27","categoryIds":["desserts"],"categories":["Dessert Shops"]},{"id":"dessertsRestaurants_31d6f488c2f0","slug":"terkenlis-ose-31d6","kind":"restaurant","name":"Terkenlis OSE","lat":40.64470252527838,"lng":22.92850176756682,"url":"https://maps.app.goo.gl/6mo1DJtrfFXMber56?g_st=ipc","address":"Monastiriou, Thessaloniki 546 27","categoryIds":["desserts"],"categories":["Dessert Shops"]},{"id":"dessertsRestaurants_715ce072dcab","slug":"chatzi-715c","kind":"restaurant","name":"Chatzi","lat":40.590808607832805,"lng":22.947461000377523,"url":"https://maps.app.goo.gl/aPDKbL8fF37cA1M1A?g_st=ipc","address":"ΘΕΜΙΣΤΟΚΛΗ ΣΟΦΟΥΛΗ 73, Argonafton 2, Kalamaria 551 31","categoryIds":["desserts"],"categories":["Dessert Shops"]},{"id":"dessertsRestaurants_72b74e57e81d","slug":"pastelopoiion-72b7","kind":"restaurant","name":"Pastelopoiḯon","lat":40.63949021546042,"lng":22.936170041434007,"url":"https://maps.app.goo.gl/QqgTsF7F3e7rFPXh6?g_st=ipc","address":"Dodekanisou 3, Thessaloniki 546 26","categoryIds":["desserts"],"categories":["Dessert Shops"]},{"id":"dessertsRestaurants_971d24d9e3ed","slug":"pagota-themis-971d","kind":"restaurant","name":"Παγωτά 'Θέμης'","lat":40.58103606730307,"lng":22.951200963653005,"url":"https://maps.app.goo.gl/hLPTQRcHhxotqq366?g_st=ipc","address":"I. Passalidi 69, Kalamaria 551 32","categoryIds":["desserts"],"categories":["Dessert Shops"]},{"id":"dessertsRestaurants_77934967676e","slug":"souffler-7793","kind":"restaurant","name":"Soufflér","lat":40.63479159488401,"lng":22.93892769842922,"url":"https://maps.app.goo.gl/BLrPEMBFAqcE5fZP6?g_st=ipc","address":"Rogkoti 4, Thessaloniki 546 24","categoryIds":["desserts"],"categories":["Dessert Shops"]}],"nearby":[{"id":"greekRestaurants_be297b509b05","slug":"vergiotiko-be29","kind":"restaurant","name":"Βεργιώτικο","lat":40.51968475945456,"lng":22.2039284722324,"url":"https://maps.app.goo.gl/wi8AuWq5DENoFUXG9?g_st=ipc","address":"thomaidoy 2, Βέροια 591 32","categoryIds":["greek-restaurants"],"categories":["Greek Restaurants"],"distanceKm":1.5768298794637685},{"id":"dessertsRestaurants_cd0cca61f129","slug":"hochliourou-traditional-revani-cd0c","kind":"restaurant","name":"Hochliourou Traditional Revani","lat":40.52579895116516,"lng":22.20253231030905,"url":"https://maps.app.goo.gl/KeFfiyDrYEvNSjAv8?g_st=ipc","address":"Agiou Antoniou, Kentrikis 134, Veria 591 32","categoryIds":["desserts"],"categories":["Dessert Shops"],"distanceKm":2.177976501401812},{"id":"greekRestaurants_0981b7de54f0","slug":"to-palio-podilato-0981","kind":"restaurant","name":"Το Παλιό Ποδήλατο","lat":40.488027534727074,"lng":22.213478399857028,"url":"https://maps.app.goo.gl/ceUirhjtqEWPKLQM6?g_st=ipc","address":"Ράχη 591 32","categoryIds":["greek-restaurants"],"categories":["Greek Restaurants"],"distanceKm":2.422852338446072},{"id":"familyFriendly_5f4d4e2afff8","slug":"bowling-city-club-5f4d","kind":"restaurant","name":"Bowling City Club","lat":40.49775337927069,"lng":22.17239983558456,"url":"https://maps.app.goo.gl/KgPCpfULKMp7KhMJ7?g_st=ipc","address":"Bowling City Club, Veria 591 32","categoryIds":["family-friendly"],"categories":["Kid Friendly Locations"],"distanceKm":4.003723887270311},{"id":"mustSeeAttractions_2ba6bcb8ac97","slug":"palace-of-aigai-aegae-2ba6","kind":"restaurant","name":"Palace of Aigai (Aegae)","lat":40.47783656530058,"lng":22.32233617700311,"url":"https://maps.app.goo.gl/jFwKES4CcpviH3818?g_st=ipc","address":"Vergina 590 31","categoryIds":["attractions"],"categories":["Must-See Attractions"],"distanceKm":9.57605887643079},{"id":"greekRestaurants_a1e0b45c2175","slug":"opos-palia-a1e0","kind":"restaurant","name":"Όπως Παλιά","lat":40.516459246402064,"lng":22.091097986857875,"url":"https://maps.app.goo.gl/N33JSjsamCUmz8TN7?g_st=ipc","address":"Κεντρικός δρόμος Κουμαριάς -Σελιου, Κουμαριά 591 32","categoryIds":["greek-restaurants"],"categories":["Greek Restaurants"],"distanceKm":10.678587828822277},{"id":"wineriesVineyards_1a8430108b4e","slug":"boutari-winery-s-a-1a84","kind":"restaurant","name":"Boutari Winery S.A.","lat":40.604954538648315,"lng":22.130368216830174,"url":"https://maps.app.goo.gl/faa8usVkmkz6Gxog6?g_st=ipc","address":"592 00, Epar.Od. Naousas-Kato Vermiou, Stenimachos","categoryIds":["wineries-vineyards"],"categories":["Wineries & Vineyards"],"distanceKm":12.884414864063308},{"id":"coffeeBrunchRestaurants_843447e20995","slug":"peinirli-kastanias-8434","kind":"restaurant","name":"Πεϊνιρλί Καστανιάς","lat":40.40779656305863,"lng":22.118956878515576,"url":"https://maps.app.goo.gl/tFoh177Q4oimL9Ny7?g_st=ipc","address":"Kastania 591 32","categoryIds":["coffee-brunch"],"categories":["Coffee & Brunch Spots"],"distanceKm":14.042559024324959}],"sameRegion":[],"mentionedGuides":[],"canonicalSlug":"sarai-f5ba","isCanonicalEntity":true},"__N_SSG":true}