{"pageProps":{"entity":{"id":"greekRestaurants_0d2e578d4137","slug":"sasmos-kritiko-estiatorio-0d2e","kind":"restaurant","name":"Σασμός Κρητικό Εστιατόριο","lat":37.86096099153773,"lng":23.750381646450872,"url":"https://maps.app.goo.gl/hFF1UKLboDX66HUH8","address":"Γρ. Λαμπράκη 1-3, Γλυφάδα 166 75","categoryIds":["greek-restaurants"],"categories":["Greek Restaurants"]},"sameCategory":[{"id":"greekRestaurants_2c46fb9be459","slug":"basegrill-2c46","kind":"restaurant","name":"Basegrill","lat":37.860629906056765,"lng":23.752227328267114,"url":"https://maps.app.goo.gl/Mg499qYpRgDUfYMg9","address":"Ζησιμοπούλου 5, Γλυφάδα 166 74","categoryIds":["greek-restaurants"],"categories":["Greek Restaurants"]},{"id":"greekRestaurants_f2b28136b406","slug":"ethos-athens-f2b2","kind":"restaurant","name":"Ethos Athens","lat":37.86060943582202,"lng":23.752891201537246,"url":"https://maps.app.goo.gl/xMQQbpjUHPQdMrpg6?g_st=ipc","address":"Zisimopoulou 10, Glifada 166 74","categoryIds":["greek-restaurants"],"categories":["Greek Restaurants"]},{"id":"greekRestaurants_fd7a28a0649b","slug":"pasiphae-fd7a","kind":"restaurant","name":"PASIPHAE","lat":37.85781169380274,"lng":23.753685400099858,"url":"https://maps.app.goo.gl/w2UaAYT95xemDfAx9?g_st=ipc","address":"Lazaraki 63, Glifada 166 74","categoryIds":["greek-restaurants"],"categories":["Greek Restaurants"]},{"id":"greekRestaurants_b6c15b677224","slug":"to-drami-b6c1","kind":"restaurant","name":"To Drami","lat":37.86297028796149,"lng":23.75634712220573,"url":"https://maps.app.goo.gl/HFhEeo24Fzrwgfb98?g_st=ipc","address":"Laodikis 22, Glifada 166 74","categoryIds":["greek-restaurants"],"categories":["Greek Restaurants"]},{"id":"greekRestaurants_b64cf8867729","slug":"tefariki-b64c","kind":"restaurant","name":"Τεφαρίκι","lat":37.871857113105406,"lng":23.752753345977908,"url":"https://maps.app.goo.gl/mcH8XPhdX39hW6V59","address":"Ξενοφώντος 28, Γλυφάδα 166 75","categoryIds":["greek-restaurants"],"categories":["Greek Restaurants"]},{"id":"greekRestaurants_1210e06dbe2b","slug":"meli-ladi-1210","kind":"restaurant","name":"Μέλι & Λάδι","lat":37.87699204463285,"lng":23.76367728627069,"url":"https://maps.app.goo.gl/CPZ65sur6LLxmT9J6","address":"Δημ. Γούναρη 144, Γλυφάδα 165 62","categoryIds":["greek-restaurants"],"categories":["Greek Restaurants"]},{"id":"greekRestaurants_f28bb3ae0783","slug":"gioyvetsakia-f28b","kind":"restaurant","name":"Γιουβετσάκια","lat":37.88563428778149,"lng":23.75438021161349,"url":"https://maps.app.goo.gl/tvw66LvtdqTpBCKw9","address":"Moreos 45 & Ithomis 20, Γλυφάδα 165 61","categoryIds":["greek-restaurants"],"categories":["Greek Restaurants"]},{"id":"greekRestaurants_d87acafe326d","slug":"ta-vlachika-d87a","kind":"restaurant","name":"Ta Vlachika","lat":37.834890045838,"lng":23.791941775154488,"url":"https://maps.app.goo.gl/VC2HFhV1wgWoJ7Ev7","address":"Leoforos Evelpidon, Πρεβέζης, Βάρη 166 72","categoryIds":["greek-restaurants"],"categories":["Greek Restaurants"]}],"nearby":[{"id":"dessertsRestaurants_18a065b2a830","slug":"despina-patisserie-18a0","kind":"restaurant","name":"Despina Patisserie","lat":37.861200491297915,"lng":23.749911676405425,"url":"https://maps.app.goo.gl/2bahw7piY4dbXkYo7?g_st=ipc","address":"Leof. Poseidonos 83, Glifada 166 75","categoryIds":["desserts"],"categories":["Dessert Shops"],"distanceKm":0.04910640733908356},{"id":"dessertsRestaurants_1645b1ac4da2","slug":"despina-patisserie-1645","kind":"restaurant","name":"Despina Patisserie","lat":37.86120193496575,"lng":23.74991092954331,"url":"https://maps.app.goo.gl/BcZzqDj73wXq14WVA?g_st=ipc","address":"Leof. Poseidonos 83, Glifada 166 75","categoryIds":["desserts"],"categories":["Dessert Shops"],"distanceKm":0.04924865107910803},{"id":"dessertsRestaurants_cdd2ff99e09f","slug":"choureal-choux-profiterole-cdd2","kind":"restaurant","name":"Choureal - Choux & Profiterole","lat":37.86175419711277,"lng":23.7510964996929,"url":"https://maps.app.goo.gl/jqVCKVDpx8nte58k7?g_st=ipc","address":"Lazaraki 39, Glifada 166 75","categoryIds":["desserts"],"categories":["Dessert Shops"],"distanceKm":0.10824782528745013},{"id":"dessertsRestaurants_dbb06fc87d85","slug":"choureal-choux-profiterole-dbb0","kind":"restaurant","name":"Choureal - Choux & Profiterole","lat":37.86175367207503,"lng":23.751100149395214,"url":"https://maps.app.goo.gl/PTmrU95w2y1tQWmE7?g_st=ipc","address":"Lazaraki 39, Glifada 166 75","categoryIds":["desserts"],"categories":["Dessert Shops"],"distanceKm":0.10838640668528939},{"id":"dessertsRestaurants_2ea0c1d8df4a","slug":"routina-glyfada-2ea0","kind":"restaurant","name":"Routina Glyfada","lat":37.86189651923641,"lng":23.7499341335772,"url":"https://maps.app.goo.gl/sSMfazw5iP79eG8K7?g_st=ipc","address":"Δούσμανη 8, Γλυφάδα 166 75","categoryIds":["desserts"],"categories":["Dessert Shops"],"distanceKm":0.11119716278047966},{"id":"luxuryDiningRestaurants_7d36e4ca660e","slug":"ark-7d36","kind":"restaurant","name":"Ark","lat":37.85971913916164,"lng":23.74981043696894,"url":"https://maps.app.goo.gl/Dx4oajrWFGZwwetZ9?g_st=ipc","address":"Γρ. Λαμπράκη 2, Γλυφάδα 166 74","categoryIds":["luxury-dining"],"categories":["Luxury Dining"],"distanceKm":0.1469110068759155},{"id":"rooftopLoungesRestaurants_3fcd2594d1cf","slug":"asteria-rooftop-3fcd","kind":"restaurant","name":"Asteria Rooftop","lat":37.85949154574065,"lng":23.750248190887866,"url":"https://maps.app.goo.gl/yT2duNTycA4x2XMj8?g_st=ipc","address":"Αστέρας, Λεωφ. Ποσειδώνος 110, Γλυφάδα 166 75","categoryIds":["rooftop-lounges"],"categories":["Rooftop Lounges"],"distanceKm":0.16381441885036746},{"id":"greekRestaurants_2c46fb9be459","slug":"basegrill-2c46","kind":"restaurant","name":"Basegrill","lat":37.860629906056765,"lng":23.752227328267114,"url":"https://maps.app.goo.gl/Mg499qYpRgDUfYMg9","address":"Ζησιμοπούλου 5, Γλυφάδα 166 74","categoryIds":["greek-restaurants"],"categories":["Greek Restaurants"],"distanceKm":0.16616006624760246}],"sameRegion":[],"mentionedGuides":[],"canonicalSlug":"sasmos-kritiko-estiatorio-0d2e","isCanonicalEntity":true},"__N_SSG":true}