{"pageProps":{"entity":{"id":"dessertsRestaurants_0a4575669b20","slug":"sorolop-0a45","kind":"restaurant","name":"Sorolop","lat":37.98564970745245,"lng":23.73486137468713,"url":"https://maps.app.goo.gl/JHNfHtwZtaTRv5c86?g_st=ipc","address":"Ανδρέα Μεταξά 17, Αθήνα 106 81","categoryIds":["desserts"],"categories":["Dessert Shops"]},"sameCategory":[{"id":"dessertsRestaurants_1784b9fa852d","slug":"baklamania-1784","kind":"restaurant","name":"Baklamania","lat":37.985982058793134,"lng":23.733879471082627,"url":"https://maps.app.goo.gl/dVejuM8qJpCUsYq38?g_st=ipc","address":"Θεμιστοκλέους 49, Αθήνα 106 83","categoryIds":["desserts"],"categories":["Dessert Shops"]},{"id":"dessertsRestaurants_ba20d8faff31","slug":"craquelin-ba20","kind":"restaurant","name":"Craquelin","lat":37.9865815151158,"lng":23.732749024802267,"url":"https://maps.app.goo.gl/m9Z1VRpp25owhfSz8?g_st=ipc","address":"Σολωμού 23, Αθήνα 106 82","categoryIds":["desserts"],"categories":["Dessert Shops"]},{"id":"dessertsRestaurants_be636dabd487","slug":"afoi-asimakopoyloi-be63","kind":"restaurant","name":"Αφοι Ασημακόπουλοι","lat":37.98543510745225,"lng":23.738217370820664,"url":"https://maps.app.goo.gl/zhMqHSFRswEjySMi9?g_st=ipc","address":"Χαρ. Τρικούπη 82, Αθήνα 106 80","categoryIds":["desserts"],"categories":["Dessert Shops"]},{"id":"dessertsRestaurants_50c92ff86d1d","slug":"portatif-factory-50c9","kind":"restaurant","name":"Πορτατίφ - Factory","lat":37.98547841789868,"lng":23.739345621810312,"url":"https://maps.app.goo.gl/Q5VYitKyncAmC1Wn8?g_st=ipc","address":"Μαυρομιχάλη 81, Αθήνα 114 72","categoryIds":["desserts"],"categories":["Dessert Shops"]},{"id":"dessertsRestaurants_9c94210f8850","slug":"portatif-9c94","kind":"restaurant","name":"Πορτατίφ","lat":37.98143747413951,"lng":23.73741735308623,"url":"https://maps.app.goo.gl/SMmjRRT6odmioe2Z7?g_st=ipc","address":"Σίνα 21, Αθήνα 106 72","categoryIds":["desserts"],"categories":["Dessert Shops"]},{"id":"dessertsRestaurants_ebf937ba8b50","slug":"stani-ebf9","kind":"restaurant","name":"Στάνη","lat":37.9854576770231,"lng":23.727929129339035,"url":"https://maps.app.goo.gl/eghkbGAv61qnF46Z8?g_st=ipc","address":"Μαρίκας Κοτοπούλη 10, Αθήνα 104 32","categoryIds":["desserts"],"categories":["Dessert Shops"]},{"id":"dessertsRestaurants_bc01e604b5d0","slug":"loykoymades-chanion-th-ktistaki-bc01","kind":"restaurant","name":"Λουκουμάδες Χανίων Θ.Κτιστάκη","lat":37.98396443932887,"lng":23.726671901662836,"url":"https://maps.app.goo.gl/JiNj7VSFZZXUBr419?g_st=ipc","address":"Σωκράτους 59, Αθήνα 104 31","categoryIds":["desserts"],"categories":["Dessert Shops"]},{"id":"dessertsRestaurants_96fe8f32b3e6","slug":"kora-96fe","kind":"restaurant","name":"KORA","lat":37.98015086678449,"lng":23.739699532790965,"url":"https://maps.app.goo.gl/UK3LPUGZqVW7TtoQ6?g_st=ipc","address":"Παναγιώτου Αναγνωστοπούλου 44, Αθήνα 106 73","categoryIds":["desserts"],"categories":["Dessert Shops"]}],"nearby":[{"id":"vegetarianRestaurants_4f70d2b2123b","slug":"filomila-vegeterian-food-4f70","kind":"restaurant","name":"Filomila Vegeterian Food","lat":37.9853717765479,"lng":23.73508897094766,"url":"https://maps.app.goo.gl/JYkwhsRENEnEtjgHA?g_st=ipc","address":"Ανδρέα Μεταξά 13, Αθήνα 106 81","categoryIds":["vegetarian"],"categories":["Vegetarian Friendly Restaurants"],"distanceKm":0.03678252041329222},{"id":"italianRestaurants_f3fa54dd222e","slug":"mystic-pizza-pasta-f3fa","kind":"restaurant","name":"Mystic Pizza & Pasta","lat":37.98571885741884,"lng":23.735343296198398,"url":"https://maps.app.goo.gl/1SJBX6YThtp2jdfQ8?g_st=ipc","address":"Εμμανουήλ Μπενάκη 76, Αθήνα 106 81","categoryIds":["italian"],"categories":["Italian Restaurants"],"distanceKm":0.04292976346659381},{"id":"vegetarianRestaurants_7f7c33a1a56c","slug":"rozalia-7f7c","kind":"restaurant","name":"Ροζαλία","lat":37.98607917346581,"lng":23.735180101843408,"url":"https://maps.app.goo.gl/UngDLMKcNPzNvksZ6?g_st=ipc","address":"Βαλτετσίου 59, Αθήνα 106 81","categoryIds":["vegetarian"],"categories":["Vegetarian Friendly Restaurants"],"distanceKm":0.055324022327434594},{"id":"greekRestaurants_399d4f103d60","slug":"pakoymel-399d","kind":"restaurant","name":"Pακουμελ","lat":37.98611213872367,"lng":23.7356153825947,"url":"https://maps.app.goo.gl/ES9bhy4RguonMm8G8","address":"Εμμανουήλ Μπενάκη 71, Αθήνα 106 81","categoryIds":["greek-restaurants"],"categories":["Greek Restaurants"],"distanceKm":0.08373001963599054},{"id":"greekRestaurants_be06a546e935","slug":"giantes-be06","kind":"restaurant","name":"Γιάντες","lat":37.98561482975353,"lng":23.735926375159003,"url":"https://maps.app.goo.gl/LuGL5j7KgtCFWxmA8","address":"Βαλτετσίου 44, Αθήνα 106 81","categoryIds":["greek-restaurants"],"categories":["Greek Restaurants"],"distanceKm":0.09341713816005918},{"id":"dessertsRestaurants_1784b9fa852d","slug":"baklamania-1784","kind":"restaurant","name":"Baklamania","lat":37.985982058793134,"lng":23.733879471082627,"url":"https://maps.app.goo.gl/dVejuM8qJpCUsYq38?g_st=ipc","address":"Θεμιστοκλέους 49, Αθήνα 106 83","categoryIds":["desserts"],"categories":["Dessert Shops"],"distanceKm":0.09365352547182172},{"id":"burgersRestaurants_293449c2193c","slug":"exberg-2934","kind":"restaurant","name":"Exberg","lat":37.985722017039464,"lng":23.73377568835493,"url":"https://maps.app.goo.gl/671QPGYqt87fhozt8?g_st=ipc","address":"Θεμιστοκλέους 56, Αθήνα 106 81","categoryIds":["burgers"],"categories":["Burger Spots"],"distanceKm":0.09548855861068177},{"id":"luxuryDiningRestaurants_2f3a275d221f","slug":"giantes-2f3a","kind":"restaurant","name":"Γιάντες","lat":37.985496291273606,"lng":23.735937070358016,"url":"https://maps.app.goo.gl/wmG4jDbuv8SWkb2K8?g_st=ipc","address":"Βαλτετσίου 44, Αθήνα 106 81","categoryIds":["luxury-dining"],"categories":["Luxury Dining"],"distanceKm":0.09580501420770254}],"sameRegion":[],"mentionedGuides":[],"canonicalSlug":"sorolop-0a45","isCanonicalEntity":true},"__N_SSG":true}