{"pageProps":{"entity":{"id":"burgersRestaurants_e1c3b2a2acd7","slug":"tarantino-modiano-e1c3","kind":"restaurant","name":"Tarantino Modiano","lat":40.63523520193276,"lng":22.941893523743314,"url":"https://maps.app.goo.gl/bUgobpjQbL4yxA2J7?g_st=ipc","address":"Vasileos Irakleiou 33, Thessaloniki 546 24","categoryIds":["burgers"],"categories":["Burger Spots"]},"sameCategory":[{"id":"burgersRestaurants_ebadcc0c31a2","slug":"po-boys-skg-ebad","kind":"restaurant","name":"PO‘ BOYS skg","lat":40.63567624458847,"lng":22.93883473827237,"url":"https://maps.app.goo.gl/g2t2qtDt95d9ETNRA?g_st=ipc","address":"Ag. Mina 7, Thessaloniki 546 25","categoryIds":["burgers"],"categories":["Burger Spots"]},{"id":"burgersRestaurants_556277867880","slug":"po-boys-skg-5562","kind":"restaurant","name":"PO‘ BOYS skg","lat":40.63567773116643,"lng":22.938833791849664,"url":"https://maps.app.goo.gl/bK6Jxq7UCUQfisxN8?g_st=ic","address":"Ag. Mina 7, Thessaloniki 546 25","categoryIds":["burgers"],"categories":["Burger Spots"]},{"id":"burgersRestaurants_d54ba5e0c0be","slug":"pax-d54b","kind":"restaurant","name":"Pax","lat":40.63378366371667,"lng":22.938802932281405,"url":"https://maps.app.goo.gl/WZscxBG8wSCngxdz8?g_st=ipc","address":"Eleftheriou Venizelou &, Kalapothaki 8, Thessaloniki 546 24","categoryIds":["burgers"],"categories":["Burger Spots"]},{"id":"burgersRestaurants_d27855febf5e","slug":"cantina-manara-d278","kind":"restaurant","name":"Cantina Manara","lat":40.6371113197463,"lng":22.93922534676657,"url":"https://maps.app.goo.gl/51NLWv682h6DK989A?g_st=ipc","address":"Στοά, Ermou 1, Thessaloniki 546 25","categoryIds":["burgers"],"categories":["Burger Spots"]},{"id":"burgersRestaurants_5f60ddf4afc7","slug":"cantina-manara-5f60","kind":"restaurant","name":"Cantina Manara","lat":40.63711109259931,"lng":22.939224692318376,"url":"https://maps.app.goo.gl/KQJFzjKDNSvQ3adb6?g_st=ic","address":"Στοά, Ermou 1, Thessaloniki 546 25","categoryIds":["burgers"],"categories":["Burger Spots"]},{"id":"burgersRestaurants_57ae2704265c","slug":"austin-smokehouse-bbq-57ae","kind":"restaurant","name":"Austin smokehouse bbq","lat":40.63591485801073,"lng":22.93805727931312,"url":"https://maps.app.goo.gl/wDKEYQZL9F4crVQk9?g_st=ipc","address":"Katouni 25, Thessaloniki 546 25","categoryIds":["burgers"],"categories":["Burger Spots"]},{"id":"burgersRestaurants_7709ed422386","slug":"raw-street-burger-thessaloniki-7709","kind":"restaurant","name":"Raw Street Burger - Thessaloniki","lat":40.6360216575253,"lng":22.93735358036402,"url":"https://maps.app.goo.gl/8jf35cPRudvWnsoP7?g_st=ipc","address":"Politechniou 53, Thessaloniki 546 25","categoryIds":["burgers"],"categories":["Burger Spots"]},{"id":"burgersRestaurants_90d16bd5f050","slug":"pratina-burger-project-90d1","kind":"restaurant","name":"PRATINA Burger Project","lat":40.63713764523389,"lng":22.937597600102066,"url":"https://maps.app.goo.gl/rE8kgxhDvdzbh9hw7","address":"Veroias 5, Thessaloniki 546 25","categoryIds":["burgers"],"categories":["Burger Spots"]}],"nearby":[{"id":"cheapEatsRestaurants_3ea6371d1865","slug":"ochsenkopf-german-delicatessen-3ea6","kind":"restaurant","name":"Ochsenkopf German Delicatessen","lat":40.634945471087235,"lng":22.941783687986916,"url":"https://maps.app.goo.gl/B68oxS5kPucvmKVy7?g_st=ipc","address":"Αγορά Μοδιανο, Thessaloniki 546 24","categoryIds":["cheap-eats"],"categories":["Gyros & Cheap Eats"],"distanceKm":0.0335232713594132},{"id":"cheapEatsRestaurants_2a4da9b1c110","slug":"grn-2a4d","kind":"restaurant","name":"ΓΡΝ","lat":40.634922554090494,"lng":22.9424405001041,"url":"https://maps.app.goo.gl/QeUW3QZjeTvschnB8?g_st=ipc","address":"Ermou 24, Thessaloniki 546 24","categoryIds":["cheap-eats"],"categories":["Gyros & Cheap Eats"],"distanceKm":0.057783350734594056},{"id":"vegetarianRestaurants_32a8aea960ab","slug":"falafel-taste-middle-east-32a8","kind":"restaurant","name":"Falafel Taste Middle East","lat":40.63474906740278,"lng":22.94144363936892,"url":"https://maps.app.goo.gl/WjaRXr3X47WgLXLC6?g_st=ipc","address":"Agora Modiano, Vasileos Irakleiou 33, Thessaloniki 546 24","categoryIds":["vegetarian"],"categories":["Vegetarian Friendly Restaurants"],"distanceKm":0.06605432092282149},{"id":"cheapEatsRestaurants_5ddb8d5c463a","slug":"kyrios-mpampatsikos-5ddb","kind":"restaurant","name":"Κύριος Μπαμπάτσικος","lat":40.63461122232153,"lng":22.941727966275263,"url":"https://maps.app.goo.gl/dBrKhYFMn7bdAAyAA?g_st=ipc","address":"Vasileos Irakleiou 33, Thessaloniki 546 24","categoryIds":["cheap-eats"],"categories":["Gyros & Cheap Eats"],"distanceKm":0.07077583693912505},{"id":"greekRestaurants_4c3b01ea4aaf","slug":"bazagiazi-4c3b","kind":"restaurant","name":"Bazagiazi","lat":40.63449745236604,"lng":22.94197317773979,"url":"https://maps.app.goo.gl/aQvcxn9tCqZ7ihHN7?g_st=ipc","address":"Vasileos Irakleiou 35, Thessaloniki 546 24","categoryIds":["greek-restaurants"],"categories":["Greek Restaurants"],"distanceKm":0.08230890896329808},{"id":"cheapEatsRestaurants_e9c2d48343e0","slug":"bombidia-bombs-e9c2","kind":"restaurant","name":"Bombídia - Bombs","lat":40.63441434318281,"lng":22.94206825187552,"url":"https://maps.app.goo.gl/a5enHSGzpNb2rYAJ7?g_st=ipc","address":"Vasileos Irakleiou 35, 37, Thessaloniki 546 24","categoryIds":["cheap-eats"],"categories":["Gyros & Cheap Eats"],"distanceKm":0.09245849996819511},{"id":"greekRestaurants_34eb138bccb6","slug":"paradosiako-kafeneio-stoy-mitsoy-34eb","kind":"restaurant","name":"Παραδοσιακό Καφενείο \"Στου Μήτσου\"","lat":40.636086191912526,"lng":22.942334253020217,"url":"https://maps.app.goo.gl/ZPKuMKk4XbPFHKGh9?g_st=ipc","address":"Βλάλη 11, Θεσσαλονίκη 546 24","categoryIds":["greek-restaurants"],"categories":["Greek Restaurants"],"distanceKm":0.10167155830737713},{"id":"dessertsRestaurants_dcc7c5a7a10c","slug":"proficherie-dcc7","kind":"restaurant","name":"PROFICHÉRIE","lat":40.635435050961,"lng":22.940491002950786,"url":"https://maps.app.goo.gl/vrmA8yCaVwtzavyo7?g_st=ic","address":"El. Venizelou 28, Thessaloniki 546 24","categoryIds":["desserts"],"categories":["Dessert Shops"],"distanceKm":0.12041642944995384}],"sameRegion":[],"mentionedGuides":[],"canonicalSlug":"tarantino-modiano-e1c3","isCanonicalEntity":true},"__N_SSG":true}