{"pageProps":{"entity":{"id":"burgersRestaurants_2bbfe567ce4d","slug":"taz-smash-burger-2bbf","kind":"restaurant","name":"Taz Smash Burger","lat":37.9974813634221,"lng":23.768005845039937,"url":"https://maps.app.goo.gl/Ms7N2dUnnPDHDSW29?g_st=ipc","address":"Περικλή Σταύρου 3, Αθήνα 115 24","categoryIds":["burgers"],"categories":["Burger Spots"]},"sameCategory":[{"id":"burgersRestaurants_d3fef77d7e5b","slug":"the-burger-joint-d3fe","kind":"restaurant","name":"The Burger Joint","lat":38.00432835767844,"lng":23.776577706406886,"url":"https://maps.app.goo.gl/zX4seBG8wnwkkKZo6?g_st=ipc","address":"Σολωμού 4, Νέο Ψυχικό 154 51","categoryIds":["burgers"],"categories":["Burger Spots"]},{"id":"burgersRestaurants_709666ea6902","slug":"akoko-athens-7096","kind":"restaurant","name":"Akoko Athens","lat":38.00485425312051,"lng":23.776133914107284,"url":"https://maps.app.goo.gl/bo55c6wZEvkSgiHn7?g_st=ipc","address":"Σολωμού 1, Νέο Ψυχικό 154 51","categoryIds":["burgers"],"categories":["Burger Spots"]},{"id":"burgersRestaurants_2cfc1007d530","slug":"criminal-taste-smash-burger-2cfc","kind":"restaurant","name":"Criminal Taste - Smash Burger","lat":37.98830387219437,"lng":23.758246415299563,"url":"https://maps.app.goo.gl/bjsnq9fK7qPHgAum7?g_st=ipc","address":"Πανόρμου 10, Αθήνα 115 23","categoryIds":["burgers"],"categories":["Burger Spots"]},{"id":"burgersRestaurants_97ab28e57798","slug":"f-smashing-cholargos-97ab","kind":"restaurant","name":"F* Smashing Cholargos","lat":38.00204211707431,"lng":23.791067777673266,"url":"https://maps.app.goo.gl/VHtz6unCWyzdNiiZ8?g_st=ipc","address":"Λεωφ. Μεσογείων 206, Χολαργός 155 61","categoryIds":["burgers"],"categories":["Burger Spots"]},{"id":"burgersRestaurants_01b4e6c2697b","slug":"smashtag-01b4","kind":"restaurant","name":"SmashTag","lat":37.97799517923772,"lng":23.75631086140523,"url":"https://maps.app.goo.gl/Yu7VLwDA42Wp7pZo8","address":"Michalakopoulou 68, Athina 115 28","categoryIds":["burgers"],"categories":["Burger Spots"]},{"id":"burgersRestaurants_4f7bcdd337e0","slug":"smashtag-4f7b","kind":"restaurant","name":"SmashTag","lat":37.97795470114958,"lng":23.756263128218805,"url":"https://maps.app.goo.gl/pRV1Ja3nApcMjLDQ7?g_st=ic","address":"Michalakopoulou 68, Athina 115 28","categoryIds":["burgers"],"categories":["Burger Spots"]},{"id":"burgersRestaurants_969f5f3e5d25","slug":"epos-burgers-chalandri-969f","kind":"restaurant","name":"Epos Burgers Chalandri","lat":38.01470688255288,"lng":23.784829615365847,"url":"https://maps.app.goo.gl/ZLd7Ph3tX8QHQZiq8?g_st=ic","address":"Likourgou 2, Chalandri 152 31","categoryIds":["burgers"],"categories":["Burger Spots"]},{"id":"burgersRestaurants_2779a1763d04","slug":"juicy-grill-athens-2779","kind":"restaurant","name":"Juicy Grill Athens","lat":37.999820550809126,"lng":23.797970198704302,"url":"https://maps.app.goo.gl/KoWkVLRYW6WDrfte9?g_st=ipc","address":"Λεωφ. Περικλέους 37, Χολαργός 155 61","categoryIds":["burgers"],"categories":["Burger Spots"]}],"nearby":[{"id":"dessertsRestaurants_0c24728d84f7","slug":"zacharoplasteia-konstantinidis-0c24","kind":"restaurant","name":"Ζαχαροπλαστεία Κωνσταντινίδης","lat":37.994489109318636,"lng":23.768109247569534,"url":"https://maps.app.goo.gl/KRDBFxECZQJmykCB8?g_st=ipc","address":"Λεωφ. Κηφισίας 116, Αθήνα 115 26","categoryIds":["desserts"],"categories":["Dessert Shops"],"distanceKm":0.3328468286653638},{"id":"dessertsRestaurants_12623fbd2b22","slug":"the-cookie-spot-1262","kind":"restaurant","name":"The Cookie Spot","lat":37.99444679765089,"lng":23.767246870295605,"url":"https://maps.app.goo.gl/RvKCNW6xRcbro6To7?g_st=ipc","address":"Λεωφ. Κηφισίας 129, Αθήνα 115 24","categoryIds":["desserts"],"categories":["Dessert Shops"],"distanceKm":0.3439201521668494},{"id":"italianRestaurants_239ca6b05a02","slug":"tale-koyale-239c","kind":"restaurant","name":"ΤΑΛΕ ΚΟΥΑΛΕ","lat":37.998832186045824,"lng":23.771946797243086,"url":"https://maps.app.goo.gl/yxs9qh1QSGqVTa1R6?g_st=ipc","address":"Αδριανείου 20, Αθήνα 115 25","categoryIds":["italian"],"categories":["Italian Restaurants"],"distanceKm":0.3765785865575172},{"id":"italianRestaurants_fbd799de8573","slug":"parlo-restaurant-fbd7","kind":"restaurant","name":"Parlo Restaurant","lat":37.99920315769846,"lng":23.772042235397578,"url":"https://maps.app.goo.gl/x9LunWYHnZkLF3B68?g_st=ipc","address":"Αδριανείου 25Α, Αθήνα 115 25","categoryIds":["italian"],"categories":["Italian Restaurants"],"distanceKm":0.4021815558880368},{"id":"greekRestaurants_ea6184198aae","slug":"taverna-o-nikiforos-ea61","kind":"restaurant","name":"Ταβέρνα Ο Νικηφόρος","lat":37.99407146777003,"lng":23.765861778134067,"url":"https://maps.app.goo.gl/S5V49nXtP76Umgj59","address":"Λασκαρίδου 7 &, Λουίζης Ριανκούρ, Αθήνα 151 24","categoryIds":["greek-restaurants"],"categories":["Greek Restaurants"],"distanceKm":0.423158993334665},{"id":"coffeeBrunchRestaurants_df11f874a198","slug":"samba-coffee-roasters-crossroads-df11","kind":"restaurant","name":"Samba Coffee Roasters | Crossroads","lat":37.99393050466954,"lng":23.765656487319742,"url":"https://maps.app.goo.gl/uQpG9Yamdzg2aDJG8?g_st=ipc","address":"Λασκαρίδου 7, Ampelokipi 115 24","categoryIds":["coffee-brunch"],"categories":["Coffee & Brunch Spots"],"distanceKm":0.44528510379553027},{"id":"cheapEatsRestaurants_3ae9e374071b","slug":"street-wok-3ae9","kind":"restaurant","name":"Street Wok","lat":37.993336241687885,"lng":23.765654609990445,"url":"https://maps.app.goo.gl/Krey285b8JEL9p1P8?g_st=ipc","address":"Ampelokipi Menemeni, Πανόρμου 115Ζ, Αθήνα 115 24","categoryIds":["cheap-eats"],"categories":["Gyros & Cheap Eats"],"distanceKm":0.5048705977453014},{"id":"asianRestaurants_4bddf7fbcbe7","slug":"street-wok-4bdd","kind":"restaurant","name":"Street Wok","lat":37.99333429542986,"lng":23.76565696133404,"url":"https://maps.app.goo.gl/xgYqVodevf1ae8hY7?g_st=ipc","address":"Ampelokipi Menemeni, Πανόρμου 115Ζ, Αθήνα 115 24","categoryIds":["asian"],"categories":["Asian Restaurants"],"distanceKm":0.5049841620888011}],"sameRegion":[],"mentionedGuides":[],"canonicalSlug":"taz-smash-burger-2bbf","isCanonicalEntity":true},"__N_SSG":true}