{"pageProps":{"entity":{"id":"burgersRestaurants_7ee34e05dcb7","slug":"x11-burgers-7ee3","kind":"restaurant","name":"X11 Burgers","lat":37.97115113774925,"lng":23.746564304670212,"url":"https://maps.app.goo.gl/kMJu1ePUZJzGwAJdA?g_st=ipc","address":"Αρχελάου 14, Αθήνα 116 35","categoryIds":["burgers"],"categories":["Burger Spots"]},"sameCategory":[{"id":"burgersRestaurants_a48e075150a2","slug":"greasy-spoon-athens-a48e","kind":"restaurant","name":"Greasy Spoon Athens","lat":37.971165228067136,"lng":23.74653583168114,"url":"https://maps.app.goo.gl/jy3gfbvNXVipSkrJA?g_st=ic","address":"Archelaou 14, Athina 116 35","categoryIds":["burgers"],"categories":["Burger Spots"]},{"id":"burgersRestaurants_7a76471a6430","slug":"nob-burger-7a76","kind":"restaurant","name":"nob.burger","lat":37.97058357459842,"lng":23.741857084173848,"url":"https://maps.app.goo.gl/7ty7gMmfJYVeTM5H9?g_st=ipc","address":"Ερατοσθένους 3, Αθήνα 116 35","categoryIds":["burgers"],"categories":["Burger Spots"]},{"id":"burgersRestaurants_15242c3b8b89","slug":"mpear-1524","kind":"restaurant","name":"MPEAR","lat":37.96750105563297,"lng":23.744555646756957,"url":"https://maps.app.goo.gl/yKgLKc4LFJhxaawY6","address":"Ευφράνορος 8, Athina 116 35","categoryIds":["burgers"],"categories":["Burger Spots"]},{"id":"burgersRestaurants_e6f63be043f2","slug":"mpear-e6f6","kind":"restaurant","name":"MPEAR","lat":37.96749991846514,"lng":23.744555997873523,"url":"https://maps.app.goo.gl/7youU9MYZn4rqr2E8?g_st=ic","address":"Ευφράνορος 8, Athina 116 35","categoryIds":["burgers"],"categories":["Burger Spots"]},{"id":"burgersRestaurants_333f3b6e6592","slug":"chicken-queen-333f","kind":"restaurant","name":"Chicken Queen","lat":37.96764787341708,"lng":23.749271201498335,"url":"https://maps.app.goo.gl/y9qpEuxuYdxvEzYY9?g_st=ipc","address":"Ευτυχίδου 47, Αθήνα 116 34","categoryIds":["burgers"],"categories":["Burger Spots"]},{"id":"burgersRestaurants_2488bfd093b0","slug":"raw-street-burger-2488","kind":"restaurant","name":"RAW Street Burger","lat":37.96608078812892,"lng":23.747084457131937,"url":"https://maps.app.goo.gl/WsNpm6Ti1nzJiYwd7?g_st=ipc","address":"Υμηττού 130, Αθήνα 116 34","categoryIds":["burgers"],"categories":["Burger Spots"]},{"id":"burgersRestaurants_bfe01035e2db","slug":"agora-select-bfe0","kind":"restaurant","name":"Agora Select","lat":37.97626574663726,"lng":23.751456733864202,"url":"https://maps.app.goo.gl/GxR6tX8MHegtVPLA7?g_st=ipc","address":"Χατζηγιάννη Μέξη 8 και, Κων/νου Βεντήρη 9, Αθήνα 115 28","categoryIds":["burgers"],"categories":["Burger Spots"]},{"id":"burgersRestaurants_349cb9dc8b75","slug":"smash-n-bun-349c","kind":"restaurant","name":"Smash'n Bun","lat":37.97817483675376,"lng":23.745292656199194,"url":"https://maps.app.goo.gl/4n21xowaSG1Zg8d79?g_st=ipc","address":"Πατριάρχου Ιωακείμ 48, Αθήνα 106 76","categoryIds":["burgers"],"categories":["Burger Spots"]}],"nearby":[{"id":"burgersRestaurants_a48e075150a2","slug":"greasy-spoon-athens-a48e","kind":"restaurant","name":"Greasy Spoon Athens","lat":37.971165228067136,"lng":23.74653583168114,"url":"https://maps.app.goo.gl/jy3gfbvNXVipSkrJA?g_st=ic","address":"Archelaou 14, Athina 116 35","categoryIds":["burgers"],"categories":["Burger Spots"],"distanceKm":0.002946881481876564},{"id":"cheapEatsRestaurants_78307b191873","slug":"piggy-popoylo-7830","kind":"restaurant","name":"Piggy - Πόπουλο","lat":37.97132961125026,"lng":23.74642727932896,"url":"https://maps.app.goo.gl/cPZpCzgEKX45Ej6G8?g_st=ipc","address":"Αρχελάου 16, Αθήνα 116 35","categoryIds":["cheap-eats"],"categories":["Gyros & Cheap Eats"],"distanceKm":0.02319715452693017},{"id":"italianRestaurants_13c0dc268b15","slug":"lost-athens-13c0","kind":"restaurant","name":"Lost Athens","lat":37.970670759829304,"lng":23.746680147108094,"url":"https://maps.app.goo.gl/Y9CFJNjG4R2hx4hB6?g_st=ipc","address":"Αρχελάου 7, Αθήνα 116 35","categoryIds":["italian"],"categories":["Italian Restaurants"],"distanceKm":0.05437221831042497},{"id":"italianRestaurants_05ab7052947d","slug":"tre-sorelle-pizza-05ab","kind":"restaurant","name":"Tre Sorelle Pizza","lat":37.971668400347134,"lng":23.745923794431828,"url":"https://maps.app.goo.gl/dt7Xajoo364aPHjy7?g_st=ipc","address":"Αρχελάου 19, Αθήνα 116 35","categoryIds":["italian"],"categories":["Italian Restaurants"],"distanceKm":0.08037712962622431},{"id":"vegetarianRestaurants_2f95eefcadc8","slug":"the-vegan-vandal-2f95","kind":"restaurant","name":"The Vegan Vandal","lat":37.971917764819835,"lng":23.745569639926703,"url":"https://maps.app.goo.gl/i8rVwiqPkua751nQ7?g_st=ipc","address":"Αμύντα 15, Αθήνα 116 35","categoryIds":["vegetarian"],"categories":["Vegetarian Friendly Restaurants"],"distanceKm":0.12193711845197111},{"id":"dessertsRestaurants_0ee58cfa385e","slug":"antonis-selekos-conceptual-desserts-0ee5","kind":"restaurant","name":"Antonis Selekos Conceptual Desserts","lat":37.9704115845213,"lng":23.747853371766638,"url":"https://maps.app.goo.gl/63mGgggS1JuTSJJf6?g_st=ipc","address":"Εριφύλης 2, Αθήνα 116 34","categoryIds":["desserts"],"categories":["Dessert Shops"],"distanceKm":0.13975252334914498},{"id":"coffeeBrunchRestaurants_6e5370c63d00","slug":"moden-6e53","kind":"restaurant","name":"Moden","lat":37.971223973274974,"lng":23.748242971172175,"url":"https://maps.app.goo.gl/LCSd8nHPjaUEMAGx8?g_st=ipc","address":"Αμασείας 6 &, Πρατίνου 53, Αθήνα 116 34","categoryIds":["coffee-brunch"],"categories":["Coffee & Brunch Spots"],"distanceKm":0.14736993974496324},{"id":"luxuryDiningRestaurants_66b323f42981","slug":"akra-66b3","kind":"restaurant","name":"Ακρα","lat":37.97187166175863,"lng":23.745034148490227,"url":"https://maps.app.goo.gl/ZDppkuU7VyctpKx28?g_st=ipc","address":"Αμύντα 12, Αθήνα 116 35","categoryIds":["luxury-dining"],"categories":["Luxury Dining"],"distanceKm":0.15623534437790262}],"sameRegion":[],"mentionedGuides":[],"canonicalSlug":"x11-burgers-7ee3","isCanonicalEntity":true},"__N_SSG":true}