{"pageProps":{"entity":{"id":"dessertsRestaurants_7da559b75445","slug":"zacharoplasteia-konstantinidis-7da5","kind":"restaurant","name":"Ζαχαροπλαστεία Κωνσταντινίδης","lat":38.01171233220572,"lng":23.81400562383525,"url":"https://maps.app.goo.gl/qEsfTTzyhzLukvSx9?g_st=ipc","address":"Λεωφ. Μεσογείων 368, Αγ. Παρασκευή 153 41","categoryIds":["desserts"],"categories":["Dessert Shops"]},"sameCategory":[{"id":"dessertsRestaurants_4de4990e8c52","slug":"galaktopoleio-stamoy-4de4","kind":"restaurant","name":"Γαλακτοπωλείο ΣΤΑΜΟΥ","lat":38.01272894935628,"lng":23.81812735076741,"url":"https://maps.app.goo.gl/45pSKohNfJSTdCAA6?g_st=ipc","address":"Λεωφ. Μεσογείων 400b, Αγ. Παρασκευή 153 42","categoryIds":["desserts"],"categories":["Dessert Shops"]},{"id":"dessertsRestaurants_0abf80a62983","slug":"zacharoplasteia-kosmikon-ag-paraskeyi-0abf","kind":"restaurant","name":"ΖΑΧΑΡΟΠΛΑΣΤΕΙΑ ΚΟΣΜΙΚΟΝ ΑΓ.ΠΑΡΑΣΚΕΥΗ","lat":38.015552019857395,"lng":23.816005253846708,"url":"https://maps.app.goo.gl/KMvANWbGzpUHc27L8?g_st=ipc","address":"Χαλανδρίου 34, Αγ. Παρασκευή 153 43","categoryIds":["desserts"],"categories":["Dessert Shops"]},{"id":"dessertsRestaurants_456ff03615cf","slug":"poulette-456f","kind":"restaurant","name":"Poulette","lat":38.01540164071511,"lng":23.819922887018567,"url":"https://maps.app.goo.gl/HvM2PHcBBq1Dcqka8?g_st=ipc","address":"Ellinoservikis Filias 64, Ag. Paraskevi 153 43","categoryIds":["desserts"],"categories":["Dessert Shops"]},{"id":"dessertsRestaurants_f98eb7c31fa7","slug":"solo-gelato-agia-paraskevi-f98e","kind":"restaurant","name":"Solo Gelato Agia Paraskevi","lat":38.010730173792794,"lng":23.824059390812284,"url":"https://maps.app.goo.gl/q2uK9vCzk28wfiSB6?g_st=ipc","address":"Αγίου Ιωάννου 23B, Αγ. Παρασκευή 153 42","categoryIds":["desserts"],"categories":["Dessert Shops"]},{"id":"dessertsRestaurants_4b614377342f","slug":"a-la-gkrek-4b61","kind":"restaurant","name":"Α λα γκρεκ","lat":38.01997084545109,"lng":23.803610791226863,"url":"https://maps.app.goo.gl/ErAvKczSJTMADaCZ7?g_st=ipc","address":"Αγίας Παρασκευής 65, Χαλάνδρι 152 34","categoryIds":["desserts"],"categories":["Dessert Shops"]},{"id":"dessertsRestaurants_1340f4510458","slug":"terkenlis-chalandri-1340","kind":"restaurant","name":"Τερκενλής Χαλάνδρι","lat":38.017510768826554,"lng":23.80115941464693,"url":"https://maps.app.goo.gl/KH7YfmY3KwdAXppf7?g_st=ipc","address":"Παπανικολή 100, Χαλάνδρι 152 32","categoryIds":["desserts"],"categories":["Dessert Shops"]},{"id":"dessertsRestaurants_012b7b845ccc","slug":"bread-b-c-bread-before-christ-012b","kind":"restaurant","name":"BREAD B.C. Bread Before Christ","lat":38.02007413497763,"lng":23.80316316504697,"url":"https://maps.app.goo.gl/fFwnMsNms9DPch6d6?g_st=ipc","address":"Αγίας Παρασκευής 59, Χαλάνδρι 152 34","categoryIds":["desserts"],"categories":["Dessert Shops"]},{"id":"dessertsRestaurants_78c1b48a02f1","slug":"le-greche-agia-paraskevi-78c1","kind":"restaurant","name":"Le Greche Agia Paraskevi","lat":38.013608144326774,"lng":23.83072625387381,"url":"https://maps.app.goo.gl/bgontMhqzf4bbQEm7?g_st=ipc","address":"Λεωφ. Μεσογείων 456, Αγ. Παρασκευή 153 41","categoryIds":["desserts"],"categories":["Dessert Shops"]}],"nearby":[{"id":"greekRestaurants_c4e480192004","slug":"ta-romanakia-c4e4","kind":"restaurant","name":"Τα Ρωμανάκια","lat":38.01166841393731,"lng":23.8131702489518,"url":"https://maps.app.goo.gl/huAdXz8UP2bA8sPj6?g_st=ipc","address":"Λεωφ. Μεσογείων 366, Αγ. Παρασκευή 153 41","categoryIds":["greek-restaurants"],"categories":["Greek Restaurants"],"distanceKm":0.07334896367114385},{"id":"asianRestaurants_4641bf909241","slug":"wasabe-asian-fusion-4641","kind":"restaurant","name":"Wasabe Asian Fusion","lat":38.01234432312043,"lng":23.815000066422606,"url":"https://maps.app.goo.gl/E1rgPWQWHHSpVx7UA?g_st=ipc","address":"Λεωφ. Μεσογείων 401, Αγ. Παρασκευή 153 43","categoryIds":["asian"],"categories":["Asian Restaurants"],"distanceKm":0.11193134054294833},{"id":"greekRestaurants_8e94a0e9697c","slug":"to-steki-tis-tompra-8e94","kind":"restaurant","name":"Το στέκι της Τόμπρα","lat":38.01114194965107,"lng":23.812150664429954,"url":"https://maps.app.goo.gl/nzMoaK1cxHPd4BAQA?g_st=ipc","address":"Ηπείρου 5-7, Αγ. Παρασκευή 153 41","categoryIds":["greek-restaurants"],"categories":["Greek Restaurants"],"distanceKm":0.1744491763652062},{"id":"greekRestaurants_8c8e269305b0","slug":"nison-gi-8c8e","kind":"restaurant","name":"Νήσων Γη","lat":38.011331255497275,"lng":23.81122856443911,"url":"https://maps.app.goo.gl/wmEbsZ59WvGe41oB6?g_st=ipc","address":"Λεωφ. Μεσογείων 356, Αγ. Παρασκευή 153 41","categoryIds":["greek-restaurants"],"categories":["Greek Restaurants"],"distanceKm":0.246957949290121},{"id":"familyFriendly_3a0b8382227c","slug":"kidtopia-3a0b","kind":"restaurant","name":"KIDTOPIA","lat":38.01289484430431,"lng":23.811355038875934,"url":"https://maps.app.goo.gl/hbL95STxeVAMj8X58?g_st=ic","address":"Erifilis 31, Chalandri 152 32","categoryIds":["family-friendly"],"categories":["Kid Friendly Locations"],"distanceKm":0.26685611481003985},{"id":"coffeeBrunchRestaurants_9ce003d4ec0a","slug":"alto-corto-cafe-9ce0","kind":"restaurant","name":"Alto Corto Cafe","lat":38.012694707387,"lng":23.81807168304755,"url":"https://maps.app.goo.gl/1oTiFbFAjGwZTcXq9?g_st=ipc","address":"Λεωφόρος Μεσογείων 400 και, Αἰγαίου Πελάγους, Αγ. Παρασκευή 153 42","categoryIds":["coffee-brunch"],"categories":["Coffee & Brunch Spots"],"distanceKm":0.37259245584258904},{"id":"dessertsRestaurants_4de4990e8c52","slug":"galaktopoleio-stamoy-4de4","kind":"restaurant","name":"Γαλακτοπωλείο ΣΤΑΜΟΥ","lat":38.01272894935628,"lng":23.81812735076741,"url":"https://maps.app.goo.gl/45pSKohNfJSTdCAA6?g_st=ipc","address":"Λεωφ. Μεσογείων 400b, Αγ. Παρασκευή 153 42","categoryIds":["desserts"],"categories":["Dessert Shops"],"distanceKm":0.37837775807729845},{"id":"dessertsRestaurants_0abf80a62983","slug":"zacharoplasteia-kosmikon-ag-paraskeyi-0abf","kind":"restaurant","name":"ΖΑΧΑΡΟΠΛΑΣΤΕΙΑ ΚΟΣΜΙΚΟΝ ΑΓ.ΠΑΡΑΣΚΕΥΗ","lat":38.015552019857395,"lng":23.816005253846708,"url":"https://maps.app.goo.gl/KMvANWbGzpUHc27L8?g_st=ipc","address":"Χαλανδρίου 34, Αγ. Παρασκευή 153 43","categoryIds":["desserts"],"categories":["Dessert Shops"],"distanceKm":0.4614951560999732}],"sameRegion":[],"mentionedGuides":[],"canonicalSlug":"zacharoplasteia-konstantinidis-7da5","isCanonicalEntity":true},"__N_SSG":true}