{"pageProps":{"entity":{"id":"dessertsRestaurants_0c24728d84f7","slug":"zacharoplasteia-konstantinidis-0c24","kind":"restaurant","name":"Ζαχαροπλαστεία Κωνσταντινίδης","lat":37.994489109318636,"lng":23.768109247569534,"url":"https://maps.app.goo.gl/KRDBFxECZQJmykCB8?g_st=ipc","address":"Λεωφ. Κηφισίας 116, Αθήνα 115 26","categoryIds":["desserts"],"categories":["Dessert Shops"]},"sameCategory":[{"id":"dessertsRestaurants_12623fbd2b22","slug":"the-cookie-spot-1262","kind":"restaurant","name":"The Cookie Spot","lat":37.99444679765089,"lng":23.767246870295605,"url":"https://maps.app.goo.gl/RvKCNW6xRcbro6To7?g_st=ipc","address":"Λεωφ. Κηφισίας 129, Αθήνα 115 24","categoryIds":["desserts"],"categories":["Dessert Shops"]},{"id":"dessertsRestaurants_33a56f7d2cf2","slug":"andrias-33a5","kind":"restaurant","name":"Ανδριάς","lat":37.98955326408805,"lng":23.76607876362105,"url":"https://maps.app.goo.gl/dtVWFaCoXcBCwpmEA?g_st=ipc","address":"Σεβαστουπόλεως 64, Αθήνα 115 26","categoryIds":["desserts"],"categories":["Dessert Shops"]},{"id":"dessertsRestaurants_82392100ef3d","slug":"galaktopoleio-stamoy-8239","kind":"restaurant","name":"Γαλακτοπωλείο ΣΤΑΜΟΥ","lat":37.99247877904618,"lng":23.761668631710492,"url":"https://maps.app.goo.gl/118TMc1zY2E2HRzEA?g_st=ipc","address":"Πανόρμου 62, Αθήνα 115 23","categoryIds":["desserts"],"categories":["Dessert Shops"]},{"id":"dessertsRestaurants_b83e09929158","slug":"zacharoplasteia-konstantinidis-b83e","kind":"restaurant","name":"ΖΑΧΑΡΟΠΛΑΣΤΕΙΑ ΚΩΝΣΤΑΝΤΙΝΙΔΗΣ","lat":37.989007700389564,"lng":23.768816133618305,"url":"https://maps.app.goo.gl/kiKCSDG9JX1cLwVf9?g_st=ipc","address":"Λεωφ. Μεσογείων 86, Αθήνα 115 27","categoryIds":["desserts"],"categories":["Dessert Shops"]},{"id":"dessertsRestaurants_69d8bc325b59","slug":"the-sweet-spot-69d8","kind":"restaurant","name":"The Sweet Spot","lat":38.000116106882906,"lng":23.77349448800709,"url":"https://maps.app.goo.gl/CH4eLFxcoxyVn5pM9?g_st=ipc","address":"Αδριανείου 46, Αθήνα 115 25","categoryIds":["desserts"],"categories":["Dessert Shops"]},{"id":"dessertsRestaurants_44539c96154c","slug":"katamaya-sweet-savory-4453","kind":"restaurant","name":"Katamaya Sweet & Savory","lat":38.001728655646296,"lng":23.776605222448108,"url":"https://maps.app.goo.gl/d4khgseTBK8h5W1MA?g_st=ipc","address":"Δημ. Βασιλείου 20, Ψυχικό 154 51","categoryIds":["desserts"],"categories":["Dessert Shops"]},{"id":"dessertsRestaurants_b43c17b9e94d","slug":"le-greche-neo-psychiko-b43c","kind":"restaurant","name":"Le Greche NEO Psychiko","lat":38.00380450511544,"lng":23.775289515752554,"url":"https://maps.app.goo.gl/hRu6XR8fQTV8oMCF6?g_st=ipc","address":"Λυκούργου 2, Νέο Ψυχικό 154 51","categoryIds":["desserts"],"categories":["Dessert Shops"]},{"id":"dessertsRestaurants_c351ea4104d5","slug":"carpo-psychiko-c351","kind":"restaurant","name":"carpo psychiko","lat":38.004332008333996,"lng":23.775883928805627,"url":"https://maps.app.goo.gl/ipvrg2WYGAj3yFzR6?g_st=ipc","address":"Dim. Vasiliou 1, Neo Psichiko 154 51","categoryIds":["desserts"],"categories":["Dessert Shops"]}],"nearby":[{"id":"dessertsRestaurants_12623fbd2b22","slug":"the-cookie-spot-1262","kind":"restaurant","name":"The Cookie Spot","lat":37.99444679765089,"lng":23.767246870295605,"url":"https://maps.app.goo.gl/RvKCNW6xRcbro6To7?g_st=ipc","address":"Λεωφ. Κηφισίας 129, Αθήνα 115 24","categoryIds":["desserts"],"categories":["Dessert Shops"],"distanceKm":0.07571592577560628},{"id":"greekRestaurants_ea6184198aae","slug":"taverna-o-nikiforos-ea61","kind":"restaurant","name":"Ταβέρνα Ο Νικηφόρος","lat":37.99407146777003,"lng":23.765861778134067,"url":"https://maps.app.goo.gl/S5V49nXtP76Umgj59","address":"Λασκαρίδου 7 &, Λουίζης Ριανκούρ, Αθήνα 151 24","categoryIds":["greek-restaurants"],"categories":["Greek Restaurants"],"distanceKm":0.20234608813011665},{"id":"coffeeBrunchRestaurants_df11f874a198","slug":"samba-coffee-roasters-crossroads-df11","kind":"restaurant","name":"Samba Coffee Roasters | Crossroads","lat":37.99393050466954,"lng":23.765656487319742,"url":"https://maps.app.goo.gl/uQpG9Yamdzg2aDJG8?g_st=ipc","address":"Λασκαρίδου 7, Ampelokipi 115 24","categoryIds":["coffee-brunch"],"categories":["Coffee & Brunch Spots"],"distanceKm":0.22372989863579051},{"id":"asianRestaurants_4bddf7fbcbe7","slug":"street-wok-4bdd","kind":"restaurant","name":"Street Wok","lat":37.99333429542986,"lng":23.76565696133404,"url":"https://maps.app.goo.gl/xgYqVodevf1ae8hY7?g_st=ipc","address":"Ampelokipi Menemeni, Πανόρμου 115Ζ, Αθήνα 115 24","categoryIds":["asian"],"categories":["Asian Restaurants"],"distanceKm":0.2503366237359565},{"id":"cheapEatsRestaurants_3ae9e374071b","slug":"street-wok-3ae9","kind":"restaurant","name":"Street Wok","lat":37.993336241687885,"lng":23.765654609990445,"url":"https://maps.app.goo.gl/Krey285b8JEL9p1P8?g_st=ipc","address":"Ampelokipi Menemeni, Πανόρμου 115Ζ, Αθήνα 115 24","categoryIds":["cheap-eats"],"categories":["Gyros & Cheap Eats"],"distanceKm":0.2504026580926263},{"id":"rooftopLoungesRestaurants_f9c73dde5ada","slug":"sensimilia-cafe-bar-f9c7","kind":"restaurant","name":"Sensimilia Cafe Bar","lat":37.993035889378,"lng":23.76531520450526,"url":"https://maps.app.goo.gl/s89v4aAfgSswW1qy7?g_st=ipc","address":"Δουκίσσης Πλακεντίας 129, Αθήνα 115 23","categoryIds":["rooftop-lounges"],"categories":["Rooftop Lounges"],"distanceKm":0.29335898402126104},{"id":"asianRestaurants_315dc41692bd","slug":"sakura-sushi-and-steak-house-315d","kind":"restaurant","name":"Sakura Sushi and Steak House","lat":37.992808848594535,"lng":23.76520165923385,"url":"https://maps.app.goo.gl/qjninjaDQmMf2fNU7","address":"Doukissis Plakentias 73, Athina 115 23","categoryIds":["asian"],"categories":["Asian Restaurants"],"distanceKm":0.31595471697272304},{"id":"burgersRestaurants_2bbfe567ce4d","slug":"taz-smash-burger-2bbf","kind":"restaurant","name":"Taz Smash Burger","lat":37.9974813634221,"lng":23.768005845039937,"url":"https://maps.app.goo.gl/Ms7N2dUnnPDHDSW29?g_st=ipc","address":"Περικλή Σταύρου 3, Αθήνα 115 24","categoryIds":["burgers"],"categories":["Burger Spots"],"distanceKm":0.3328468286653638}],"sameRegion":[],"mentionedGuides":[],"canonicalSlug":"zacharoplasteia-konstantinidis-0c24","isCanonicalEntity":true},"__N_SSG":true}