{"pageProps":{"entity":{"id":"dessertsRestaurants_6128b9a38565","slug":"zante-6128","kind":"restaurant","name":"Zante","lat":38.01329808317404,"lng":23.75625779357789,"url":"https://maps.app.goo.gl/vdA9XUPFa7M3vbdi7?g_st=ipc","address":"Ελ. Βενιζέλου 21, Γαλάτσι 111 47","categoryIds":["desserts"],"categories":["Dessert Shops"]},"sameCategory":[{"id":"dessertsRestaurants_3c1566b87f0f","slug":"galaktopoleio-stamoy-galatsi-attikis-3c15","kind":"restaurant","name":"Γαλακτοπωλείο ΣΤΑΜΟΥ, Γαλάτσι Αττικής","lat":38.01421938915903,"lng":23.75342305374386,"url":"https://maps.app.goo.gl/n8JWXhCzyJJxjNQv5?g_st=ipc","address":"Λεωφ. Βεΐκου 9, Γαλάτσι 111 46","categoryIds":["desserts"],"categories":["Dessert Shops"]},{"id":"dessertsRestaurants_9a1aa3339c46","slug":"eva-9a1a","kind":"restaurant","name":"Eva","lat":38.015131929032286,"lng":23.750456340002337,"url":"https://maps.app.goo.gl/GBYXZRmRKUPq81F8A?g_st=ic","address":"Karaiskaki 16, Galatsi 111 46","categoryIds":["desserts"],"categories":["Dessert Shops"]},{"id":"dessertsRestaurants_903707df6326","slug":"papliber-9037","kind":"restaurant","name":"PapLiber","lat":38.021403205203185,"lng":23.74592719548837,"url":"https://maps.app.goo.gl/3KG3eWHdUB7oyaGD7?g_st=ipc","address":"Γεωργούλια Αγησιλάου 10, Αθήνα 111 42","categoryIds":["desserts"],"categories":["Dessert Shops"]},{"id":"dessertsRestaurants_55ea1e7f1b68","slug":"cremona-55ea","kind":"restaurant","name":"CREMONA","lat":37.999276434608944,"lng":23.746794928014506,"url":"https://maps.app.goo.gl/88H4UALJy3RpJMnJA?g_st=ipc","address":"58, Δοϊράνης 56, Αθήνα 113 63","categoryIds":["desserts"],"categories":["Dessert Shops"]},{"id":"dessertsRestaurants_b43c17b9e94d","slug":"le-greche-neo-psychiko-b43c","kind":"restaurant","name":"Le Greche NEO Psychiko","lat":38.00380450511544,"lng":23.775289515752554,"url":"https://maps.app.goo.gl/hRu6XR8fQTV8oMCF6?g_st=ipc","address":"Λυκούργου 2, Νέο Ψυχικό 154 51","categoryIds":["desserts"],"categories":["Dessert Shops"]},{"id":"dessertsRestaurants_c99ab06196ae","slug":"carpo-psychiko-c99a","kind":"restaurant","name":"carpo psychiko","lat":38.00433299399579,"lng":23.77588410102084,"url":"https://maps.app.goo.gl/cHiF8braV8253FBP6?g_st=ipc","address":"Dim. Vasiliou 1, Neo Psichiko 154 51","categoryIds":["desserts"],"categories":["Dessert Shops"]},{"id":"dessertsRestaurants_c351ea4104d5","slug":"carpo-psychiko-c351","kind":"restaurant","name":"carpo psychiko","lat":38.004332008333996,"lng":23.775883928805627,"url":"https://maps.app.goo.gl/ipvrg2WYGAj3yFzR6?g_st=ipc","address":"Dim. Vasiliou 1, Neo Psichiko 154 51","categoryIds":["desserts"],"categories":["Dessert Shops"]},{"id":"dessertsRestaurants_b21d96062bcb","slug":"pap-liber-patisia-b21d","kind":"restaurant","name":"Pap-Liber (Πατήσια)","lat":38.01877416845803,"lng":23.734552478722144,"url":"https://maps.app.goo.gl/fgNMoYsGZV8mdkn37?g_st=ipc","address":"Ιακωβίδου 10 &, Τσίλλερ, Αθήνα 111 44","categoryIds":["desserts"],"categories":["Dessert Shops"]}],"nearby":[{"id":"italianRestaurants_c18420cfda0e","slug":"pizzamore-c184","kind":"restaurant","name":"Pizzamore","lat":38.01171283477954,"lng":23.755383909223237,"url":"https://maps.app.goo.gl/kYHyarXW2TAM2VEr9?g_st=ipc","address":"Πρωτοπαπαδάκη 20, Γαλάτσι 111 47","categoryIds":["italian"],"categories":["Italian Restaurants"],"distanceKm":0.1921795264396875},{"id":"asianRestaurants_f4e606aad25d","slug":"shisan-sushi-bar-f4e6","kind":"restaurant","name":"Shisan Sushi Bar","lat":38.01364374248811,"lng":23.753228892987114,"url":"https://maps.app.goo.gl/3ZyGn2FKaLUXuMuJ9?g_st=ipc","address":"Λεωφ. Βεΐκου 7, Γαλάτσι 111 46","categoryIds":["asian"],"categories":["Asian Restaurants"],"distanceKm":0.2681211830366598},{"id":"dessertsRestaurants_3c1566b87f0f","slug":"galaktopoleio-stamoy-galatsi-attikis-3c15","kind":"restaurant","name":"Γαλακτοπωλείο ΣΤΑΜΟΥ, Γαλάτσι Αττικής","lat":38.01421938915903,"lng":23.75342305374386,"url":"https://maps.app.goo.gl/n8JWXhCzyJJxjNQv5?g_st=ipc","address":"Λεωφ. Βεΐκου 9, Γαλάτσι 111 46","categoryIds":["desserts"],"categories":["Dessert Shops"],"distanceKm":0.2686414922461106},{"id":"greekRestaurants_24b930305a8e","slug":"leykes-24b9","kind":"restaurant","name":"Λεύκες","lat":38.01369593012145,"lng":23.750720348183243,"url":"https://maps.app.goo.gl/f11Mf8a6b4eezgj29","address":"Λεωφ. Γαλατσίου 100, Γαλάτσι 111 46","categoryIds":["greek-restaurants"],"categories":["Greek Restaurants"],"distanceKm":0.4871300598210684},{"id":"greekRestaurants_fa7cc6bab7be","slug":"lefkes-on-the-side-fa7c","kind":"restaurant","name":"Lefkes on the Side","lat":38.013850196604025,"lng":23.75041166079297,"url":"https://maps.app.goo.gl/bBjijsL8Z595BXhZ7","address":"Λεωφ. Γαλατσίου 98, Γαλάτσι 111 46","categoryIds":["greek-restaurants"],"categories":["Greek Restaurants"],"distanceKm":0.5158260773309391},{"id":"dessertsRestaurants_9a1aa3339c46","slug":"eva-9a1a","kind":"restaurant","name":"Eva","lat":38.015131929032286,"lng":23.750456340002337,"url":"https://maps.app.goo.gl/GBYXZRmRKUPq81F8A?g_st=ic","address":"Karaiskaki 16, Galatsi 111 46","categoryIds":["desserts"],"categories":["Dessert Shops"],"distanceKm":0.5476221538865655},{"id":"coffeeBrunchRestaurants_a919b680f3b5","slug":"48-a919","kind":"restaurant","name":"48","lat":38.018274408105384,"lng":23.755916271922057,"url":"https://maps.app.goo.gl/PcD6G1TEsbi1swU57?g_st=ipc","address":"Λεωφ. Βεΐκου 48, Γαλάτσι 111 47","categoryIds":["coffee-brunch"],"categories":["Coffee & Brunch Spots"],"distanceKm":0.5541503305387523},{"id":"fishTavernasRestaurants_b281006b20df","slug":"kafeneio-oyzeri-lesvion-b281","kind":"restaurant","name":"Καφενείο Ουζερί Λέσβιον","lat":38.008048120056024,"lng":23.753608668653317,"url":"https://maps.app.goo.gl/RoRVKdrKmqxNRkrs5?g_st=ipc","address":"Βαρδουσίων 3, Γαλάτσι 111 47","categoryIds":["fish-tavernas"],"categories":["Fish Tavernas"],"distanceKm":0.6282135772237538}],"sameRegion":[],"mentionedGuides":[],"canonicalSlug":"zante-6128","isCanonicalEntity":true},"__N_SSG":true}