{"pageProps":{"entity":{"id":"coffeeBrunchRestaurants_a919b680f3b5","slug":"48-a919","kind":"restaurant","name":"48","lat":38.018274408105384,"lng":23.755916271922057,"url":"https://maps.app.goo.gl/PcD6G1TEsbi1swU57?g_st=ipc","address":"Λεωφ. Βεΐκου 48, Γαλάτσι 111 47","categoryIds":["coffee-brunch"],"categories":["Coffee & Brunch Spots"]},"sameCategory":[{"id":"coffeeBrunchRestaurants_5b95e5db288d","slug":"slow-athens-5b95","kind":"restaurant","name":"Slow Athens","lat":38.02276964076481,"lng":23.750109220953814,"url":"https://maps.app.goo.gl/1iFxkjwZn9gN56m89?g_st=ipc","address":"Αγίου Σπυρίδωνος 18, Γαλάτσι 111 46","categoryIds":["coffee-brunch"],"categories":["Coffee & Brunch Spots"]},{"id":"coffeeBrunchRestaurants_7101d26f85dd","slug":"montakioy-neo-psychiko-7101","kind":"restaurant","name":"ΜΟΝΤΑΚΙΟΥ - ΝΕΟ ΨΥΧΙΚΟ","lat":38.00899356630051,"lng":23.779485267398293,"url":"https://maps.app.goo.gl/e75yZ6CbqLTXVusq7?g_st=ipc","address":"Λεωφ. Κηφισίας 340, Νέο Ψυχικό 154 51","categoryIds":["coffee-brunch"],"categories":["Coffee & Brunch Spots"]},{"id":"coffeeBrunchRestaurants_8eea389a06d0","slug":"santo-belto-8eea","kind":"restaurant","name":"Santo Belto","lat":38.00295539657206,"lng":23.737407823969118,"url":"https://maps.app.goo.gl/ZWa6fMfeNKbHNQGB7?g_st=ipc","address":"Αγίας Ζώνης 21, Αθήνα 113 61","categoryIds":["coffee-brunch","desserts"],"categories":["Coffee & Brunch Spots","Dessert Shops"],"legacySlugs":["santo-belto-1567"]},{"id":"coffeeBrunchRestaurants_a5983b685dbd","slug":"to-peinirli-tis-neas-ionias-a598","kind":"restaurant","name":"To Peinirli tis Neas Ionias","lat":38.039553570278855,"lng":23.75782693390007,"url":"https://maps.app.goo.gl/Dgayt5WtWZw7apFh8?g_st=ic","address":"Ramnountos 76, Nea Ionia 142 34","categoryIds":["coffee-brunch"],"categories":["Coffee & Brunch Spots"]},{"id":"coffeeBrunchRestaurants_1dc06dcd5307","slug":"libertine-drinkery-1dc0","kind":"restaurant","name":"Libertine drinkery","lat":38.035181855146,"lng":23.738539611236607,"url":"https://maps.app.goo.gl/8mxrF5SroX8mcG5e8?g_st=ipc","address":"Λεωφ. Δεκελείας 114, Νέα Φιλαδέλφεια Αττικής 143 41","categoryIds":["coffee-brunch"],"categories":["Coffee & Brunch Spots"]},{"id":"coffeeBrunchRestaurants_f590b11239fb","slug":"old-dog-f590","kind":"restaurant","name":"Old Dog","lat":38.03404960556602,"lng":23.736865639669244,"url":"https://maps.app.goo.gl/dYXbhhbFaLPj39Nu9?g_st=ipc","address":"Σάρδεων 6, Νέα Φιλαδέλφεια Αττικής 143 41","categoryIds":["coffee-brunch"],"categories":["Coffee & Brunch Spots"]},{"id":"coffeeBrunchRestaurants_9257bf81b3ff","slug":"fairytale-to-paramythopoleio-tis-n-filadelfeias-9257","kind":"restaurant","name":"Fairytale – Το Παραμυθοπωλείο της Ν. Φιλαδέλφειας","lat":38.03555224332492,"lng":23.73629276954315,"url":"https://maps.app.goo.gl/GoWf19SFoVJNYBHP9?g_st=ipc","address":"Νικ. Τρυρια 48, Νέα Φιλαδέλφεια Αττικής 143 41","categoryIds":["coffee-brunch","desserts"],"categories":["Coffee & Brunch Spots","Dessert Shops"],"legacySlugs":["fairytale-to-paramythopoleio-tis-n-filadelfeias-db46"]},{"id":"coffeeBrunchRestaurants_e705f1112f3d","slug":"dimitra-goynaridi-e705","kind":"restaurant","name":"Δήμητρα Γουναρίδη","lat":38.04165697380787,"lng":23.75123284178688,"url":"https://maps.app.goo.gl/b5dp6jq3caW91FoHA?g_st=ipc","address":"Ευαγγελικής Σχολής 5, Νέα Ιωνία 142 31","categoryIds":["coffee-brunch"],"categories":["Coffee & Brunch Spots"]},{"id":"coffeeBrunchRestaurants_ce89cd6aa5d7","slug":"kick-ce89","kind":"restaurant","name":"KICK","lat":37.99916132656893,"lng":23.737461252467714,"url":"https://maps.app.goo.gl/72fZq7DBsWg8jnSR8?g_st=ipc","address":"Σποράδων 26, Αθήνα 113 61","categoryIds":["coffee-brunch"],"categories":["Coffee & Brunch Spots"]},{"id":"coffeeBrunchRestaurants_5e77841cb06d","slug":"flake-5e77","kind":"restaurant","name":"Flake","lat":37.99900849338742,"lng":23.737419912416144,"url":"https://maps.app.goo.gl/Xk1A8oDNqWipGzYL6?g_st=ipc","address":"Σποράδων 24, Αθήνα 113 61","categoryIds":["coffee-brunch"],"categories":["Coffee & Brunch Spots"]},{"id":"coffeeBrunchRestaurants_3bc65dffef91","slug":"hide-seek-all-day-bar-restaurant-3bc6","kind":"restaurant","name":"Hide & Seek - All day bar restaurant","lat":38.01697332433943,"lng":23.786770693061168,"url":"https://maps.app.goo.gl/6jRQwexkVc3z2pR59?g_st=ipc","address":"Λεωφ. Κηφισίας 254, Χαλάνδρι 152 31","categoryIds":["coffee-brunch"],"categories":["Coffee & Brunch Spots"]},{"id":"coffeeBrunchRestaurants_30b7a9a0db9b","slug":"palia-agora-30b7","kind":"restaurant","name":"Palia Agora","lat":38.023405893296015,"lng":23.786302411937246,"url":"https://maps.app.goo.gl/xrBYBKpsUdVTC1vj6?g_st=ipc","address":"Κεχαγιά 26, Φιλοθέη 152 37","categoryIds":["coffee-brunch"],"categories":["Coffee & Brunch Spots"]}],"nearby":[{"id":"burgersRestaurants_23a9c50becc9","slug":"serial-grillers-23a9","kind":"restaurant","name":"Serial Grillers","lat":38.01971897283902,"lng":23.753398114124796,"url":"https://maps.app.goo.gl/nhc6uHCi6xq6oZKL7?g_st=ipc","address":"Τράλλεων 130, Γαλάτσι 111 46","categoryIds":["burgers"],"categories":["Burger Spots"],"distanceKm":0.27287684025250464},{"id":"fishTavernasRestaurants_8be01291d057","slug":"steki-psarofagadon-8be0","kind":"restaurant","name":"ΣΤΕΚΙ ΨΑΡΟΦΑΓΑΔΩΝ","lat":38.0206189578116,"lng":23.753464770079276,"url":"https://maps.app.goo.gl/z4bfrFA8WgPgak7Q6?g_st=ipc","address":"Παπαφλέσσα 36, Γαλάτσι 111 46","categoryIds":["fish-tavernas"],"categories":["Fish Tavernas"],"distanceKm":0.33776221962831615},{"id":"dessertsRestaurants_3c1566b87f0f","slug":"galaktopoleio-stamoy-galatsi-attikis-3c15","kind":"restaurant","name":"Γαλακτοπωλείο ΣΤΑΜΟΥ, Γαλάτσι Αττικής","lat":38.01421938915903,"lng":23.75342305374386,"url":"https://maps.app.goo.gl/n8JWXhCzyJJxjNQv5?g_st=ipc","address":"Λεωφ. Βεΐκου 9, Γαλάτσι 111 46","categoryIds":["desserts"],"categories":["Dessert Shops"],"distanceKm":0.501012387543765},{"id":"municipalities_5c4c490c8c5a","slug":"galatsi-5c4c","kind":"municipality","name":"Γαλάτσι","lat":38.0167,"lng":23.75,"aliases":["Galatsi","Galatsia","Γαλατσι","Galatsion"],"region":"Βόρεια Προάστια","name_en":"Galatsi","region_en":"Northern Suburbs","distanceKm":0.5470455812270646},{"id":"dessertsRestaurants_6128b9a38565","slug":"zante-6128","kind":"restaurant","name":"Zante","lat":38.01329808317404,"lng":23.75625779357789,"url":"https://maps.app.goo.gl/vdA9XUPFa7M3vbdi7?g_st=ipc","address":"Ελ. Βενιζέλου 21, Γαλάτσι 111 47","categoryIds":["desserts"],"categories":["Dessert Shops"],"distanceKm":0.5541503305387523},{"id":"asianRestaurants_f4e606aad25d","slug":"shisan-sushi-bar-f4e6","kind":"restaurant","name":"Shisan Sushi Bar","lat":38.01364374248811,"lng":23.753228892987114,"url":"https://maps.app.goo.gl/3ZyGn2FKaLUXuMuJ9?g_st=ipc","address":"Λεωφ. Βεΐκου 7, Γαλάτσι 111 46","categoryIds":["asian"],"categories":["Asian Restaurants"],"distanceKm":0.5661743372088215},{"id":"dessertsRestaurants_9a1aa3339c46","slug":"eva-9a1a","kind":"restaurant","name":"Eva","lat":38.015131929032286,"lng":23.750456340002337,"url":"https://maps.app.goo.gl/GBYXZRmRKUPq81F8A?g_st=ic","address":"Karaiskaki 16, Galatsi 111 46","categoryIds":["desserts"],"categories":["Dessert Shops"],"distanceKm":0.5923477979323449},{"id":"greekRestaurants_24b930305a8e","slug":"leykes-24b9","kind":"restaurant","name":"Λεύκες","lat":38.01369593012145,"lng":23.750720348183243,"url":"https://maps.app.goo.gl/f11Mf8a6b4eezgj29","address":"Λεωφ. Γαλατσίου 100, Γαλάτσι 111 46","categoryIds":["greek-restaurants"],"categories":["Greek Restaurants"],"distanceKm":0.6829181199474923},{"id":"cheapEatsRestaurants_7b6d49968714","slug":"nikos-o-kalavrytinos-7b6d","kind":"restaurant","name":"Νίκος ο Καλαβρυτινός","lat":38.024001161887576,"lng":23.75301292455858,"url":"https://maps.app.goo.gl/cmE54PPQGsdzvzgz5?g_st=ipc","address":"Εκάβης 63, Γαλάτσι 111 46","categoryIds":["cheap-eats"],"categories":["Gyros & Cheap Eats"],"distanceKm":0.685695354962003},{"id":"greekRestaurants_fa7cc6bab7be","slug":"lefkes-on-the-side-fa7c","kind":"restaurant","name":"Lefkes on the Side","lat":38.013850196604025,"lng":23.75041166079297,"url":"https://maps.app.goo.gl/bBjijsL8Z595BXhZ7","address":"Λεωφ. Γαλατσίου 98, Γαλάτσι 111 46","categoryIds":["greek-restaurants"],"categories":["Greek Restaurants"],"distanceKm":0.6888791179811236},{"id":"italianRestaurants_9807c76fa027","slug":"kamikaze-9807","kind":"restaurant","name":"KAMIKAZE","lat":38.0243124367211,"lng":23.753568534514113,"url":"https://maps.app.goo.gl/nGW44VsbXXjFk6eF7?g_st=ipc","address":"Ναρκίσσου 34-36, Γαλάτσι 111 46","categoryIds":["italian"],"categories":["Italian Restaurants"],"distanceKm":0.702189212430982},{"id":"coffeeBrunchRestaurants_5b95e5db288d","slug":"slow-athens-5b95","kind":"restaurant","name":"Slow Athens","lat":38.02276964076481,"lng":23.750109220953814,"url":"https://maps.app.goo.gl/1iFxkjwZn9gN56m89?g_st=ipc","address":"Αγίου Σπυρίδωνος 18, Γαλάτσι 111 46","categoryIds":["coffee-brunch"],"categories":["Coffee & Brunch Spots"],"distanceKm":0.7131691205099437},{"id":"italianRestaurants_c18420cfda0e","slug":"pizzamore-c184","kind":"restaurant","name":"Pizzamore","lat":38.01171283477954,"lng":23.755383909223237,"url":"https://maps.app.goo.gl/kYHyarXW2TAM2VEr9?g_st=ipc","address":"Πρωτοπαπαδάκη 20, Γαλάτσι 111 47","categoryIds":["italian"],"categories":["Italian Restaurants"],"distanceKm":0.7311027031823},{"id":"municipalities_4d3a6952ff1a","slug":"psychiko-4d3a","kind":"municipality","name":"Ψυχικό","lat":38.021,"lng":23.765,"aliases":["Psychiko","Psychicon","Ψυχικο","Psihiko","Psyxiko","Psixiko","Psychico"],"region":"Βόρεια Προάστια","name_en":"Psychiko","region_en":"Northern Suburbs","distanceKm":0.8514907297755918},{"id":"cheapEatsRestaurants_cbf0a0d9c1b3","slug":"lamprinaki-cbf0","kind":"restaurant","name":"Λαμπρινάκι","lat":38.0224148920344,"lng":23.747555518536878,"url":"https://maps.app.goo.gl/M5T9Z6KajRqpaNBA7?g_st=ipc","address":"Τράλλεων 67, Αθήνα 111 42","categoryIds":["cheap-eats"],"categories":["Gyros & Cheap Eats"],"distanceKm":0.8650797776983816},{"id":"greekRestaurants_0c72524c082e","slug":"gia-des-gkarnten-0c72","kind":"restaurant","name":"Για Δες Γκάρντεν","lat":38.02025659339306,"lng":23.745905469042288,"url":"https://maps.app.goo.gl/aLm6k1HqkUoU9PxE8","address":"Χαλεπά 68, Αθήνα 111 41","categoryIds":["greek-restaurants"],"categories":["Greek Restaurants"],"distanceKm":0.904218450581645},{"id":"dessertsRestaurants_903707df6326","slug":"papliber-9037","kind":"restaurant","name":"PapLiber","lat":38.021403205203185,"lng":23.74592719548837,"url":"https://maps.app.goo.gl/3KG3eWHdUB7oyaGD7?g_st=ipc","address":"Γεωργούλια Αγησιλάου 10, Αθήνα 111 42","categoryIds":["desserts"],"categories":["Dessert Shops"],"distanceKm":0.9416598782548421},{"id":"monasteriesChurches_7d585aed6cfa","slug":"ieros-naos-koimiseos-tis-theotokoy-panagitsa-7d58","kind":"restaurant","name":"Ιερός Ναός Κοιμήσεως της Θεοτόκου (Παναγίτσα)","lat":38.01727711784317,"lng":23.744778782538283,"url":"https://maps.app.goo.gl/RDMFUG49GBgqceAu8?g_st=ipc","address":"Ανδρεόπουλου 2, Αθήνα 111 41","categoryIds":["monasteries-churches"],"categories":["Monasteries & Spiritual Sites"],"distanceKm":0.9819432440127354},{"id":"municipalities_6dce5446e51c","slug":"filothei-6dce","kind":"municipality","name":"Φιλοθέη","lat":38.024,"lng":23.766,"aliases":["Filothei","Filothee","Φιλοθεη","Philothei"],"region":"Βόρεια Προάστια","name_en":"Filothei","region_en":"Northern Suburbs","distanceKm":1.0888378845795634},{"id":"fishTavernasRestaurants_b281006b20df","slug":"kafeneio-oyzeri-lesvion-b281","kind":"restaurant","name":"Καφενείο Ουζερί Λέσβιον","lat":38.008048120056024,"lng":23.753608668653317,"url":"https://maps.app.goo.gl/RoRVKdrKmqxNRkrs5?g_st=ipc","address":"Βαρδουσίων 3, Γαλάτσι 111 47","categoryIds":["fish-tavernas"],"categories":["Fish Tavernas"],"distanceKm":1.1549423540992318},{"id":"familyFriendly_acd0cfc71ead","slug":"o-lofos-toy-paidioy-acd0","kind":"restaurant","name":"Ο Λόφος του παιδιού","lat":38.01260579188783,"lng":23.744735148228322,"url":"https://maps.app.goo.gl/FRgTyn4QAqJnFsYb8?g_st=ic","address":"Δρίσκου, Passov &, Galatsi 111 46","categoryIds":["family-friendly"],"categories":["Kid Friendly Locations"],"distanceKm":1.1647981467036401},{"id":"greekRestaurants_1c33d3a3b85a","slug":"i-voskopoyla-1c33","kind":"restaurant","name":"Η Βοσκοπούλα","lat":38.026845200131646,"lng":23.747963927790185,"url":"https://maps.app.goo.gl/hpb1BhW8cddVUadJA","address":"Σιβόρων 87, Αθήνα 111 42","categoryIds":["greek-restaurants"],"categories":["Greek Restaurants"],"distanceKm":1.1804678019398174},{"id":"cheapEatsRestaurants_a39f2b17c80c","slug":"i-vasiliki-psitopoleio-soyvlakopoleio-a39f","kind":"restaurant","name":"Η Βασιλική - Ψητοπωλείο Σουβλακοπωλείο","lat":38.01712717421362,"lng":23.740908436131292,"url":"https://maps.app.goo.gl/5zkEPJhoVXLaVYeF7?g_st=ipc","address":"Μαρκορά 25, Αθήνα 111 41","categoryIds":["cheap-eats"],"categories":["Gyros & Cheap Eats"],"distanceKm":1.320885495480011},{"id":"greekRestaurants_f3b2aad713df","slug":"to-ampari-toy-pentara-f3b2","kind":"restaurant","name":"Το Αμπάρι του Πεντάρα","lat":38.007341170588916,"lng":23.749681397448036,"url":"https://maps.app.goo.gl/ocPNHJergJqkbxW6A","address":"Καυκάσου 157, Αθήνα 113 64","categoryIds":["greek-restaurants"],"categories":["Greek Restaurants"],"distanceKm":1.3327920335892187}],"sameRegion":[],"mentionedGuides":[],"canonicalSlug":"48-a919","enrichment":{"summary_en":"48 is a curated restaurant in Γαλάτσι 111 47 in the Coffee & Brunch Spots collection. It is connected to 13 nearby Googlementor picks to help travelers build a stronger local route.","summary_el":"48 είναι ένα επιλεγμένο σημείο φαγητού στην περιοχή Γαλάτσι 111 47 και ανήκει στη συλλογή Coffee & Brunch Spots. Συνδέεται με 13 κοντινές προτάσεις του Googlementor για πιο ολοκληρωμένη εμπειρία.","vibe_tags":["curated","daytime-favorite"],"best_for":["first-time visitors","food lovers"],"visit_moments":["early morning","late brunch"],"practical_note":"Address and direct map link are available for easy turn-by-turn access.","nearby_walkable_count":13,"nearby_count_2km":40,"confidence":0.98},"areaContext":{"slug":"galatsi","name":"Galatsi","nameEl":"Γαλάτσι"},"intentContexts":[{"href":"/brunch/galatsi","label":"Coffee & Brunch Spots in Galatsi","categorySlug":"brunch","categoryName":"Coffee & Brunch Spots","areaSlug":"galatsi","areaName":"Galatsi","areaNameEl":"Γαλάτσι"}]},"__N_SSG":true}