{"pageProps":{"entity":{"id":"greekRestaurants_1c5a5710b282","slug":"amvrosia-1c5a","kind":"restaurant","name":"Αμβροσία","lat":37.05198027328874,"lng":25.498122685244876,"url":"https://maps.app.goo.gl/hServvR8erYFDEW79?g_st=ipc","address":"Επαρ.Οδ. Δαμαριώνα-Δανακού, Φιλότι 843 02","categoryIds":["greek-restaurants"],"categories":["Greek Restaurants"]},"sameCategory":[{"id":"greekRestaurants_acfd3167ad8f","slug":"antamoma-naxian-cuisine-mylos-360-cafe-sunset-bar-acfd","kind":"restaurant","name":"Antamoma Naxian Cuisine- Mylos 360 Café Sunset Bar","lat":37.05816092044301,"lng":25.511084670521964,"url":"https://maps.app.goo.gl/VGafeMQpVB4NtiKo8?g_st=ipc","address":"Ai Giannis, Απείραθος 843 00","categoryIds":["greek-restaurants"],"categories":["Greek Restaurants"]},{"id":"greekRestaurants_694ee1d214aa","slug":"paravas-traditional-tavern-souvlaki-694e","kind":"restaurant","name":"PARAVAS Traditional Tavern & Souvlaki","lat":37.06316256125292,"lng":25.482406792920514,"url":"https://maps.app.goo.gl/fmFJ2qDuDCSYVraUA?g_st=ipc","address":"Χαλκείο 843 02","categoryIds":["greek-restaurants"],"categories":["Greek Restaurants"]},{"id":"greekRestaurants_675afe268027","slug":"stoy-koytoypa-stou-koutoupa-675a","kind":"restaurant","name":"Στου Κούτουπα (Stou Koutoupa)","lat":37.07115111503441,"lng":25.51957571120497,"url":"https://maps.app.goo.gl/cDoUJzNEfc5atgwUA?g_st=ipc","address":"Επαρ.Οδ. Νάξου-Απειράνθου 128, Απείραθος 843 02","categoryIds":["greek-restaurants"],"categories":["Greek Restaurants"]},{"id":"greekRestaurants_b2aaf0dfb9a4","slug":"kalliopi-b2aa","kind":"restaurant","name":"Καλλιόπη","lat":37.07778318483779,"lng":25.496090474760013,"url":"https://maps.app.goo.gl/m8AnzCybw8VgSFBX7?g_st=ipc","address":"Μονή Νάξου, Δήμος Δρυμαλίας, Λούροι 843 02","categoryIds":["greek-restaurants"],"categories":["Greek Restaurants"]},{"id":"greekRestaurants_bf6e5357d26f","slug":"paradosiaki-taverna-i-pigi-naxos-ano-potamia-bf6e","kind":"restaurant","name":"Παραδοσιακή Ταβέρνα Η Πηγή, Νάξος, Ανω Ποταμιά","lat":37.07025549625695,"lng":25.44969173381983,"url":"https://maps.app.goo.gl/zHdqa3ibYKAfwYCp6?g_st=ipc","address":"Άνω Ποταμιά 843 00","categoryIds":["greek-restaurants"],"categories":["Greek Restaurants"]},{"id":"greekRestaurants_ba6e2f5a3693","slug":"stoy-vasilarakioy-ba6e","kind":"restaurant","name":"Στου Βασιλαρακιού","lat":37.10103491424863,"lng":25.479225143286413,"url":"https://maps.app.goo.gl/FQTuXwoBqZwWBWJp7?g_st=ipc","address":"Κινιδαρος 843 02","categoryIds":["greek-restaurants"],"categories":["Greek Restaurants"]},{"id":"greekRestaurants_782ef9c750c1","slug":"o-vasilis-782e","kind":"restaurant","name":"Ο Βασίλης","lat":37.0889554380196,"lng":25.43811428187733,"url":"https://maps.app.goo.gl/Bois49ffMzowZbcd7?g_st=ipc","address":"Μελανές 843 00","categoryIds":["greek-restaurants"],"categories":["Greek Restaurants"]},{"id":"greekRestaurants_63f03d08e827","slug":"taverna-ntalas-tavern-dalas-naxos-63f0","kind":"restaurant","name":"Ταβέρνα Ντάλας - Tavern Dalas Naxos","lat":37.117244572204875,"lng":25.535996626541273,"url":"https://maps.app.goo.gl/n7JkoJgQ2MUtxDzQA?g_st=ipc","address":"KORONOS, NAXOU, Νάξος 843 02","categoryIds":["greek-restaurants"],"categories":["Greek Restaurants"]},{"id":"greekRestaurants_c9e38ef4f293","slug":"matina-stayros-c9e3","kind":"restaurant","name":"ΜΑΤΙΝΑ - ΣΤΑΥΡΟΣ","lat":37.11750078972081,"lng":25.535943262786688,"url":"https://maps.app.goo.gl/VnH1nvUYXPSk9vNQ9?g_st=ipc","address":"Κόρωνος 843 02","categoryIds":["greek-restaurants"],"categories":["Greek Restaurants"]},{"id":"greekRestaurants_5cf83791c807","slug":"stella-tavern-cafe-5cf8","kind":"restaurant","name":"Stella Tavern - Cafe","lat":37.11718254552825,"lng":25.4359815192468,"url":"https://maps.app.goo.gl/FwsYyePUb1F8BvTJ7?g_st=ipc","address":"Εγγαρές 843 00","categoryIds":["greek-restaurants"],"categories":["Greek Restaurants"]},{"id":"greekRestaurants_7ff5c5b32196","slug":"naxiotiki-koyzina-o-charis-7ff5","kind":"restaurant","name":"Ναξιώτικη Κουζίνα Ο ΧΑΡΗΣ","lat":37.11626279044314,"lng":25.432754046535003,"url":"https://maps.app.goo.gl/tMSXhERiQux6L3Yy8?g_st=ipc","address":"Εγγαρές 843 00","categoryIds":["greek-restaurants"],"categories":["Greek Restaurants"]},{"id":"greekRestaurants_63896ef45064","slug":"taverna-axiotissa-6389","kind":"restaurant","name":"Taverna Axiotissa","lat":37.00531817331461,"lng":25.39495449152434,"url":"https://maps.app.goo.gl/TfCQXtRYj4ztLf7s8?g_st=ipc","address":"Νάξος 843 00","categoryIds":["greek-restaurants"],"categories":["Greek Restaurants"]}],"nearby":[{"id":"coffeeBrunchRestaurants_adc2f257af84","slug":"platanos-cafe-restaurant-adc2","kind":"restaurant","name":"Platanos Cafe Restaurant","lat":37.0520184479865,"lng":25.4980988789785,"url":"https://maps.app.goo.gl/GftgqDRmHM6GREdg9?g_st=ipc","address":"Epar.Od. Naxou-Apiranthou, Filoti 843 02","categoryIds":["coffee-brunch"],"categories":["Coffee & Brunch Spots"],"distanceKm":0.004741507720045838},{"id":"coffeeBrunchRestaurants_409a1c00e009","slug":"fasolas-gastrokafeneio-409a","kind":"restaurant","name":"Fasolas Gastrokafeneio","lat":37.05047829842748,"lng":25.497802752574465,"url":"https://maps.app.goo.gl/s28qFqLPN9on9SZy8?g_st=ipc","address":"Filoti 843 02","categoryIds":["coffee-brunch","desserts"],"categories":["Coffee & Brunch Spots","Dessert Shops"],"legacySlugs":["fasolas-gastrokafeneio-d95b"],"distanceKm":0.16940814891100658},{"id":"fishTavernasRestaurants_11936c86acd1","slug":"antamoma-delicuisine-1193","kind":"restaurant","name":"Antamoma DeliCuisine","lat":37.05815377728116,"lng":25.5110845454022,"url":"https://maps.app.goo.gl/vfCEnss3wGtRVEwf8?g_st=ipc","address":"Ai Giannis, Apirathos 843 00","categoryIds":["fish-tavernas"],"categories":["Fish Tavernas"],"distanceKm":1.3395028878025166},{"id":"greekRestaurants_acfd3167ad8f","slug":"antamoma-naxian-cuisine-mylos-360-cafe-sunset-bar-acfd","kind":"restaurant","name":"Antamoma Naxian Cuisine- Mylos 360 Café Sunset Bar","lat":37.05816092044301,"lng":25.511084670521964,"url":"https://maps.app.goo.gl/VGafeMQpVB4NtiKo8?g_st=ipc","address":"Ai Giannis, Απείραθος 843 00","categoryIds":["greek-restaurants"],"categories":["Greek Restaurants"],"distanceKm":1.3399195970008955},{"id":"coffeeBrunchRestaurants_c49fc6ae7fef","slug":"rotonda-cafe-bar-restaurant-in-naxos-c49f","kind":"restaurant","name":"Rotonda - Cafe Bar Restaurant in Naxos","lat":37.05872571074158,"lng":25.510854348333638,"url":"https://maps.app.goo.gl/CVfadsvfxt5JGHVb8?g_st=ipc","address":"ai giannis, Apirathos 843 00","categoryIds":["coffee-brunch"],"categories":["Coffee & Brunch Spots"],"distanceKm":1.356111948125237},{"id":"coffeeBrunchRestaurants_a1d642828b23","slug":"halki-cafe-bistro-a1d6","kind":"restaurant","name":"Halki Cafe Bistro","lat":37.0642321945567,"lng":25.484940977880758,"url":"https://maps.app.goo.gl/EM1dP9kHW3eWkooMA?g_st=ipc","address":"Epar.Od. Naxou-Apiranthou, Chalkio 843 00","categoryIds":["coffee-brunch"],"categories":["Coffee & Brunch Spots"],"distanceKm":1.7956030548100193},{"id":"italianRestaurants_4f96313e6daa","slug":"mitos-arternative-bar-4f96","kind":"restaurant","name":"Mitos ARTernative BAR","lat":37.06317254380818,"lng":25.48274579484659,"url":"https://maps.app.goo.gl/jstAML7uYBqEdQYq6?g_st=ipc","address":"Χαλκείο 843 02","categoryIds":["italian"],"categories":["Italian Restaurants"],"distanceKm":1.8468064200527239},{"id":"coffeeBrunchRestaurants_4d900c72bc80","slug":"caffe-greco-4d90","kind":"restaurant","name":"Caffe Greco","lat":37.06283829210554,"lng":25.482179694372245,"url":"https://maps.app.goo.gl/bvxkDLgLP2gCrEDeA?g_st=ipc","address":"Χαλκείο 843 02","categoryIds":["coffee-brunch","desserts"],"categories":["Coffee & Brunch Spots","Dessert Shops"],"legacySlugs":["caffe-greco-cc34"],"distanceKm":1.8598885414703208},{"id":"greekRestaurants_694ee1d214aa","slug":"paravas-traditional-tavern-souvlaki-694e","kind":"restaurant","name":"PARAVAS Traditional Tavern & Souvlaki","lat":37.06316256125292,"lng":25.482406792920514,"url":"https://maps.app.goo.gl/fmFJ2qDuDCSYVraUA?g_st=ipc","address":"Χαλκείο 843 02","categoryIds":["greek-restaurants"],"categories":["Greek Restaurants"],"distanceKm":1.868403362612197},{"id":"greekRestaurants_675afe268027","slug":"stoy-koytoypa-stou-koutoupa-675a","kind":"restaurant","name":"Στου Κούτουπα (Stou Koutoupa)","lat":37.07115111503441,"lng":25.51957571120497,"url":"https://maps.app.goo.gl/cDoUJzNEfc5atgwUA?g_st=ipc","address":"Επαρ.Οδ. Νάξου-Απειράνθου 128, Απείραθος 843 02","categoryIds":["greek-restaurants"],"categories":["Greek Restaurants"],"distanceKm":2.8579268405897342},{"id":"greekRestaurants_b2aaf0dfb9a4","slug":"kalliopi-b2aa","kind":"restaurant","name":"Καλλιόπη","lat":37.07778318483779,"lng":25.496090474760013,"url":"https://maps.app.goo.gl/m8AnzCybw8VgSFBX7?g_st=ipc","address":"Μονή Νάξου, Δήμος Δρυμαλίας, Λούροι 843 02","categoryIds":["greek-restaurants"],"categories":["Greek Restaurants"],"distanceKm":2.8748133022320324},{"id":"greekRestaurants_bf6e5357d26f","slug":"paradosiaki-taverna-i-pigi-naxos-ano-potamia-bf6e","kind":"restaurant","name":"Παραδοσιακή Ταβέρνα Η Πηγή, Νάξος, Ανω Ποταμιά","lat":37.07025549625695,"lng":25.44969173381983,"url":"https://maps.app.goo.gl/zHdqa3ibYKAfwYCp6?g_st=ipc","address":"Άνω Ποταμιά 843 00","categoryIds":["greek-restaurants"],"categories":["Greek Restaurants"],"distanceKm":4.753655258119624},{"id":"greekRestaurants_ba6e2f5a3693","slug":"stoy-vasilarakioy-ba6e","kind":"restaurant","name":"Στου Βασιλαρακιού","lat":37.10103491424863,"lng":25.479225143286413,"url":"https://maps.app.goo.gl/FQTuXwoBqZwWBWJp7?g_st=ipc","address":"Κινιδαρος 843 02","categoryIds":["greek-restaurants"],"categories":["Greek Restaurants"],"distanceKm":5.7064507784663245},{"id":"greekRestaurants_782ef9c750c1","slug":"o-vasilis-782e","kind":"restaurant","name":"Ο Βασίλης","lat":37.0889554380196,"lng":25.43811428187733,"url":"https://maps.app.goo.gl/Bois49ffMzowZbcd7?g_st=ipc","address":"Μελανές 843 00","categoryIds":["greek-restaurants"],"categories":["Greek Restaurants"],"distanceKm":6.726782265305755},{"id":"greekRestaurants_63f03d08e827","slug":"taverna-ntalas-tavern-dalas-naxos-63f0","kind":"restaurant","name":"Ταβέρνα Ντάλας - Tavern Dalas Naxos","lat":37.117244572204875,"lng":25.535996626541273,"url":"https://maps.app.goo.gl/n7JkoJgQ2MUtxDzQA?g_st=ipc","address":"KORONOS, NAXOU, Νάξος 843 02","categoryIds":["greek-restaurants"],"categories":["Greek Restaurants"],"distanceKm":7.99699581461909},{"id":"greekRestaurants_c9e38ef4f293","slug":"matina-stayros-c9e3","kind":"restaurant","name":"ΜΑΤΙΝΑ - ΣΤΑΥΡΟΣ","lat":37.11750078972081,"lng":25.535943262786688,"url":"https://maps.app.goo.gl/VnH1nvUYXPSk9vNQ9?g_st=ipc","address":"Κόρωνος 843 02","categoryIds":["greek-restaurants"],"categories":["Greek Restaurants"],"distanceKm":8.020875268791446},{"id":"fishTavernasRestaurants_64df5c108dc4","slug":"apanemi-64df","kind":"restaurant","name":"Apanemi","lat":37.07828569738803,"lng":25.58750367173503,"url":"https://maps.app.goo.gl/oDvDW47p75wDgfpm6?g_st=ipc","address":"Moutsouna, Naxos 843 02","categoryIds":["fish-tavernas"],"categories":["Fish Tavernas"],"distanceKm":8.452826186369423},{"id":"greekRestaurants_5cf83791c807","slug":"stella-tavern-cafe-5cf8","kind":"restaurant","name":"Stella Tavern - Cafe","lat":37.11718254552825,"lng":25.4359815192468,"url":"https://maps.app.goo.gl/FwsYyePUb1F8BvTJ7?g_st=ipc","address":"Εγγαρές 843 00","categoryIds":["greek-restaurants"],"categories":["Greek Restaurants"],"distanceKm":9.107676352908161},{"id":"greekRestaurants_7ff5c5b32196","slug":"naxiotiki-koyzina-o-charis-7ff5","kind":"restaurant","name":"Ναξιώτικη Κουζίνα Ο ΧΑΡΗΣ","lat":37.11626279044314,"lng":25.432754046535003,"url":"https://maps.app.goo.gl/tMSXhERiQux6L3Yy8?g_st=ipc","address":"Εγγαρές 843 00","categoryIds":["greek-restaurants"],"categories":["Greek Restaurants"],"distanceKm":9.20412251153728},{"id":"greekRestaurants_63896ef45064","slug":"taverna-axiotissa-6389","kind":"restaurant","name":"Taverna Axiotissa","lat":37.00531817331461,"lng":25.39495449152434,"url":"https://maps.app.goo.gl/TfCQXtRYj4ztLf7s8?g_st=ipc","address":"Νάξος 843 00","categoryIds":["greek-restaurants"],"categories":["Greek Restaurants"],"distanceKm":10.525977889702112},{"id":"coffeeBrunchRestaurants_a4f088033efd","slug":"petrino-beach-restaurant-a4f0","kind":"restaurant","name":"Petrino Beach Restaurant","lat":37.05234820744201,"lng":25.368775961363156,"url":"https://maps.app.goo.gl/zpHeyfTFhxTR1uEU8?g_st=ipc","address":"Μαραγκας 843 00","categoryIds":["coffee-brunch"],"categories":["Coffee & Brunch Spots"],"distanceKm":11.478721297319586},{"id":"coffeeBrunchRestaurants_6269550b6464","slug":"naxaki-beach-lounge-bar-restaurant-6269","kind":"restaurant","name":"Naxaki Beach Lounge Bar & Restaurant","lat":37.096820663451155,"lng":25.37554032822482,"url":"https://maps.app.goo.gl/pycw7dvrTdi8yEicA?g_st=ipc","address":"Agios Georgios Beach - Naxos, Naxos 843 00","categoryIds":["coffee-brunch"],"categories":["Coffee & Brunch Spots"],"distanceKm":11.963682735200296},{"id":"greekRestaurants_533382eda428","slug":"to-elliniko-restaurant-5333","kind":"restaurant","name":"To Elliniko Restaurant","lat":37.10045212673621,"lng":25.377603556843287,"url":"https://maps.app.goo.gl/Xqt8tsmindBjCsXV8?g_st=ipc","address":"Ιωάννου Παπαρηγοπούλου, Νάξος 843 00","categoryIds":["greek-restaurants"],"categories":["Greek Restaurants"],"distanceKm":11.973564054144346},{"id":"coffeeBrunchRestaurants_901c6f873e9a","slug":"pantry-coffee-and-brunch-spot-901c","kind":"restaurant","name":"Pantry coffee and brunch spot","lat":37.10537841466819,"lng":25.380795502578987,"url":"https://maps.app.goo.gl/ExrjzA4WbcAXVt436?g_st=ipc","address":"Naxos 843 00","categoryIds":["coffee-brunch"],"categories":["Coffee & Brunch Spots"],"distanceKm":11.98286215599276}],"sameRegion":[],"mentionedGuides":[],"canonicalSlug":"amvrosia-1c5a","enrichment":{"summary_en":"Αμβροσία is a curated restaurant in Φιλότι 843 02 in the Greek Restaurants collection. It is connected to 2 nearby Googlementor picks to help travelers build a stronger local route.","summary_el":"Αμβροσία είναι ένα επιλεγμένο σημείο φαγητού στην περιοχή Φιλότι 843 02 και ανήκει στη συλλογή Greek Restaurants. Συνδέεται με 2 κοντινές προτάσεις του Googlementor για πιο ολοκληρωμένη εμπειρία.","vibe_tags":["curated"],"best_for":["first-time visitors","food lovers"],"visit_moments":["lunch stop","dinner stop"],"practical_note":"Address and direct map link are available for easy turn-by-turn access.","nearby_walkable_count":2,"nearby_count_2km":9,"confidence":0.9},"areaContext":null,"intentContexts":[]},"__N_SSG":true}