{"pageProps":{"entity":{"id":"municipalities_3cbd90a19d63","slug":"andros-3cbd","kind":"municipality","name":"Άνδρος","lat":37.8333,"lng":24.9333,"region":"Κυκλάδες","name_en":"Andros","region_en":"Cyclades"},"sameCategory":[],"nearby":[{"id":"fishTavernasRestaurants_f065f7059030","slug":"binelikia-f065","kind":"restaurant","name":"Binelikia","lat":37.83942195557314,"lng":24.93605561916826,"url":"https://maps.app.goo.gl/g7MbV8Cu1pjFFz8b7?g_st=ipc","address":"Νειμποριό, Andros 845 00","categoryIds":["fish-tavernas"],"categories":["Fish Tavernas"],"distanceKm":0.7224641307825588},{"id":"greekRestaurants_718e14a085bf","slug":"fofo-cycladic-gastronomy-718e","kind":"restaurant","name":"Fofo Cycladic Gastronomy","lat":37.82353783239752,"lng":24.928189313412695,"url":"https://maps.app.goo.gl/2iPebnrW2ztaiYfU7?g_st=ipc","address":"Επαρ.Οδ. Άνδρου-Σταυροπέδας, Λιβάδια 845 00","categoryIds":["greek-restaurants"],"categories":["Greek Restaurants"],"distanceKm":1.1746453599450046},{"id":"dessertsRestaurants_1d7df040c53a","slug":"zacharoplasteio-za-i-ris-zairis-pastry-patisserie-gelateria-1d7d","kind":"restaurant","name":"ΖΑΧΑΡΟΠΛΑΣΤΕΙΟ \"ΖΑ'Ι'ΡΗΣ\" ZAIRIS-PASTRY Patisserie Gelateria","lat":37.82579583533186,"lng":24.91462125689678,"url":"https://maps.app.goo.gl/QbRR2HA2G4VUjkbb9?g_st=ipc","address":"ΜΕΣΣΑΡΙΑ, ΑΝΔΡΟΣ - MESSARIA, ANDROS, KYKLADES 845 00","categoryIds":["desserts"],"categories":["Dessert Shops"],"distanceKm":1.840500405659295},{"id":"greekRestaurants_9335e3ff6212","slug":"sea-satin-nino-9335","kind":"restaurant","name":"SEA SATIN NINO","lat":37.773197007055956,"lng":24.950818318342087,"url":"https://maps.app.goo.gl/h3BaucesVrSWHYau5?g_st=ipc","address":"Pedestrian Walk Way, Ormos, Korthi 845 02","categoryIds":["greek-restaurants"],"categories":["Greek Restaurants"],"distanceKm":6.8580853604183245},{"id":"fishTavernasRestaurants_61c64ce0663b","slug":"lithodomi-61c6","kind":"restaurant","name":"Λιθοδομή","lat":37.7730077055442,"lng":24.95123511430265,"url":"https://maps.app.goo.gl/AdyzF8weXRZVC15f6?g_st=ipc","address":"Αλίκης Ψάλτη, Ormos Korthiou 845 02","categoryIds":["fish-tavernas"],"categories":["Fish Tavernas"],"distanceKm":6.886885910443481},{"id":"greekRestaurants_86110571add2","slug":"to-mpalkoni-toy-aigaioy-8611","kind":"restaurant","name":"Το Μπαλκόνι του Αιγαίου","lat":37.83554332996387,"lng":24.812413866994714,"url":"https://maps.app.goo.gl/7HaLWB594ALzDwtp7?g_st=ipc","address":"ΑΠΡΟΒΑΤΟ, Άνω Απροβατου 845 01","categoryIds":["greek-restaurants"],"categories":["Greek Restaurants"],"distanceKm":10.619182152100258},{"id":"fishTavernasRestaurants_58477da61988","slug":"oti-kalo-5847","kind":"restaurant","name":"Oti Kalo","lat":37.8562893028016,"lng":24.785922766571392,"url":"https://maps.app.goo.gl/NHF5wztHFXbNzzkG6?g_st=ipc","address":"Μπατσί 845 01","categoryIds":["fish-tavernas"],"categories":["Fish Tavernas"],"distanceKm":13.190950901662863},{"id":"fishTavernasRestaurants_4dd45c710873","slug":"stamatis-tavern-4dd4","kind":"restaurant","name":"Stamatis Tavern","lat":37.85607023280217,"lng":24.78575728988094,"url":"https://maps.app.goo.gl/mBX3JbJMAWJA4x3Y7?g_st=ipc","address":"Κυκλάδων Ανδρος, Mpatsi 845 03","categoryIds":["fish-tavernas"],"categories":["Fish Tavernas"],"distanceKm":13.200530870308238},{"id":"fishTavernasRestaurants_b2dc1ce51a26","slug":"mastello-b2dc","kind":"restaurant","name":"Mastello","lat":37.85819226338292,"lng":24.78588365168363,"url":"https://maps.app.goo.gl/6pEnXsNrPXAaNQPu8?g_st=ipc","address":"Μπατσί 845 01","categoryIds":["fish-tavernas"],"categories":["Fish Tavernas"],"distanceKm":13.236780645642998},{"id":"greekRestaurants_93cc48915673","slug":"almi-tavern-andros-93cc","kind":"restaurant","name":"Almi Tavern Andros","lat":37.861737922645034,"lng":24.779792309491878,"url":"https://maps.app.goo.gl/eHhBS6sYeSo2Zr6s5?g_st=ipc","address":"Επαρ.Οδ. Άνδρου-Μπατσίου, Μπατσί 845 01","categoryIds":["greek-restaurants"],"categories":["Greek Restaurants"],"distanceKm":13.844649599703901},{"id":"greekRestaurants_1430d6fb94a9","slug":"kossis-1430","kind":"restaurant","name":"Κόσσης","lat":37.92050251340132,"lng":24.72409809326984,"url":"https://maps.app.goo.gl/uhxK7foF95HsorjaA?g_st=ipc","address":"Aνω, Κάτω Φελλός 845 01","categoryIds":["greek-restaurants"],"categories":["Greek Restaurants"],"distanceKm":20.7646117903456},{"id":"greekRestaurants_d4937c446881","slug":"to-steki-toy-andrea-stin-andro-d493","kind":"restaurant","name":"Το Στέκι Του Ανδρέα στην Άνδρο","lat":37.90062312367468,"lng":24.711658535578362,"url":"https://maps.app.goo.gl/XUN3ng41cfQhgK3D6?g_st=ipc","address":"Παραλία Φελλού, Άνδρος 845 00","categoryIds":["greek-restaurants"],"categories":["Greek Restaurants"],"distanceKm":20.84650165496687},{"id":"fishTavernasRestaurants_d5a2190de0c2","slug":"tama-d5a2","kind":"restaurant","name":"Táma","lat":37.651655752579366,"lng":25.051591259144875,"url":"https://maps.app.goo.gl/FhoWaSrsyrypuExG8?g_st=ipc","address":"Όρμος Πανόρμου 842 01","categoryIds":["fish-tavernas"],"categories":["Fish Tavernas"],"distanceKm":22.718775823778984},{"id":"greekRestaurants_f1c703fa9088","slug":"sima-f1c7","kind":"restaurant","name":"Sima","lat":37.640391826641014,"lng":25.040013069732986,"url":"https://maps.app.goo.gl/3px2jqkoAcSm4AFa7?g_st=ipc","address":"Πύργος 842 01","categoryIds":["greek-restaurants"],"categories":["Greek Restaurants"],"distanceKm":23.413210185768364},{"id":"dessertsRestaurants_757fe603b972","slug":"to-kentrikon-757f","kind":"restaurant","name":"Το Κεντρικόν","lat":37.63921354793122,"lng":25.04200584233484,"url":"https://maps.app.goo.gl/MoMdkmCiYwwuTbUi7?g_st=ipc","address":"Unnamed Road, Πύργος 842 01","categoryIds":["desserts"],"categories":["Dessert Shops"],"distanceKm":23.603757433895233},{"id":"greekRestaurants_854af5844b5d","slug":"athmar-854a","kind":"restaurant","name":"Αθμάρ","lat":37.639145778049105,"lng":25.04198852214129,"url":"https://maps.app.goo.gl/89sj6fRtcg34nfx16?g_st=ipc","address":"Τήνου, Πύργος 842 01","categoryIds":["greek-restaurants"],"categories":["Greek Restaurants"],"distanceKm":23.610032812363805},{"id":"coffeeBrunchRestaurants_5f5634aa7ab6","slug":"mayou-all-day-bar-5f56","kind":"restaurant","name":"Mayou all day bar","lat":37.6225070567129,"lng":25.05248500203228,"url":"https://maps.app.goo.gl/MQWdjK1DGr9YXoey5?g_st=ipc","address":"Isternia, Tinos 842 01, Tinos Island 842 01","categoryIds":["coffee-brunch"],"categories":["Coffee & Brunch Spots"],"distanceKm":25.676110874066136},{"id":"coffeeBrunchRestaurants_4b0dd01f9ddd","slug":"exo-meria-4b0d","kind":"restaurant","name":"Exo meria","lat":37.621680604479764,"lng":25.051831582375698,"url":"https://maps.app.goo.gl/o27dRVLq4yNqsqfV6?g_st=ipc","address":"Isternia 842 01","categoryIds":["coffee-brunch"],"categories":["Coffee & Brunch Spots"],"distanceKm":25.736722695873986},{"id":"greekRestaurants_9bd6eb0516c5","slug":"foy-foy-9bd6","kind":"restaurant","name":"ΦΟΥ-ΦΟΥ","lat":37.62122057124332,"lng":25.052979875664423,"url":"https://maps.app.goo.gl/TPj9fHVZDWJCm6NZA?g_st=ipc","address":"Isternia, Tinos 842 01, Tinos Island 842 01 Υστερνια, 842 01","categoryIds":["greek-restaurants"],"categories":["Greek Restaurants"],"distanceKm":25.824509818531546},{"id":"greekRestaurants_94cb9a9dd94a","slug":"stin-ammo-allios-94cb","kind":"restaurant","name":"Στην Άμμο...αλλιώς","lat":37.615358360450664,"lng":25.042685964832707,"url":"https://maps.app.goo.gl/3Pr5rMprS5Yppvz26?g_st=ipc","address":"Επαρχιακή οδός Τήνου, Όρμος Υστερνίων 842 00","categoryIds":["greek-restaurants"],"categories":["Greek Restaurants"],"distanceKm":26.073799811346724},{"id":"fishTavernasRestaurants_5745f4ec9e6d","slug":"to-thalassaki-5745","kind":"restaurant","name":"To Θαλασσάκι","lat":37.615230690872465,"lng":25.0428843541274,"url":"https://maps.app.goo.gl/eqUQ8oiZuscvzKLaA?g_st=ipc","address":"bay, Isternia 842 01","categoryIds":["fish-tavernas"],"categories":["Fish Tavernas"],"distanceKm":26.093437782855585},{"id":"luxuryDiningRestaurants_1d0300f3d6a7","slug":"o-ntinos-1d03","kind":"restaurant","name":"O Ntinos","lat":37.59381409443961,"lng":25.069991170783855,"url":"https://maps.app.goo.gl/P7xp29Uhw71Tk9J3A?g_st=ipc","address":"Όρμος Γιαννάκη, Kardiani 842 01","categoryIds":["luxury-dining"],"categories":["Luxury Dining"],"distanceKm":29.218315934560422},{"id":"greekRestaurants_838d0d66a841","slug":"svoura-tinos-838d","kind":"restaurant","name":"Svoura Tinos","lat":37.601268553117535,"lng":25.144221464428426,"url":"https://maps.app.goo.gl/V4vVEqRbyhJ55CDHA?g_st=ipc","address":"Οδός Κώμης, Κώμη 842 00","categoryIds":["greek-restaurants"],"categories":["Greek Restaurants"],"distanceKm":31.778496858011856},{"id":"greekRestaurants_5f9836018bd2","slug":"majorana-tinos-5f98","kind":"restaurant","name":"Majorana Tinos","lat":37.60853974046837,"lng":25.163273293292903,"url":"https://maps.app.goo.gl/e55FM2zsVXQpSNvD6?g_st=ipc","address":"Οδός Αγάπης 1, Τήνος 842 00","categoryIds":["greek-restaurants"],"categories":["Greek Restaurants"],"distanceKm":32.152046111324175}],"sameRegion":[{"id":"municipalities_094e7414e11a","slug":"mykonos-094e","kind":"municipality","name":"Μύκονος","lat":37.4467,"lng":25.3289,"aliases":["Mikonos","Μύκονα","Μυκονος","Mykonos","Myconos"],"region":"Κυκλάδες","name_en":"Mykonos","region_en":"Cyclades"},{"id":"municipalities_10c41fed1584","slug":"syros-10c4","kind":"municipality","name":"Σύρος","lat":37.4442,"lng":24.9428,"aliases":["Syros","Siros","Σύρα","Συρος","Συρο"],"region":"Κυκλάδες","name_en":"Syros","region_en":"Cyclades"},{"id":"municipalities_27d97a869977","slug":"schoinoysa-27d9","kind":"municipality","name":"Σχοινούσα","lat":36.8667,"lng":25.5167,"region":"Κυκλάδες","name_en":"Schinoussa","region_en":"Cyclades"},{"id":"municipalities_402e7912632b","slug":"serifos-402e","kind":"municipality","name":"Σέριφος","lat":37.1537,"lng":24.5197,"aliases":["Σεριφος"],"region":"Κυκλάδες","name_en":"Serifos","region_en":"Cyclades"},{"id":"municipalities_444e7b37bb5a","slug":"koyfonisi-444e","kind":"municipality","name":"Κουφονήσι","lat":36.9333,"lng":25.6,"region":"Κυκλάδες","name_en":"Koufonisia","region_en":"Cyclades"},{"id":"municipalities_56cba484379e","slug":"anafi-56cb","kind":"municipality","name":"Ανάφη","lat":36.35,"lng":25.7667,"region":"Κυκλάδες","name_en":"Anafi","region_en":"Cyclades"},{"id":"municipalities_5b32b43e93f7","slug":"santorini-5b32","kind":"municipality","name":"Σαντορίνη","lat":36.3932,"lng":25.4615,"aliases":["Thira","Thera","Santorin","Σαντορίνα","Σαντορινη","Θήρα","Θηρα"],"region":"Κυκλάδες","name_en":"Santorini","region_en":"Cyclades"},{"id":"municipalities_6d137de68b2c","slug":"kea-6d13","kind":"municipality","name":"Κέα","lat":37.6333,"lng":24.3333,"aliases":["Kea","Keios","Κέιος","Κεα"],"region":"Κυκλάδες","name_en":"Kea","region_en":"Cyclades"},{"id":"municipalities_72366b2ec926","slug":"sifnos-7236","kind":"municipality","name":"Σίφνος","lat":36.9717,"lng":24.7036,"aliases":["Σιφνος"],"region":"Κυκλάδες","name_en":"Sifnos","region_en":"Cyclades"},{"id":"municipalities_7b6436cb2406","slug":"sikinos-7b64","kind":"municipality","name":"Σίκινος","lat":36.6833,"lng":25.1333,"region":"Κυκλάδες","name_en":"Sikinos","region_en":"Cyclades"},{"id":"municipalities_7f2e13a4b7d2","slug":"donoysa-7f2e","kind":"municipality","name":"Δονούσα","lat":37.1,"lng":25.8,"region":"Κυκλάδες","name_en":"Donousa","region_en":"Cyclades"},{"id":"municipalities_8e551d6fe098","slug":"irakleia-8e55","kind":"municipality","name":"Ηρακλειά","lat":36.8333,"lng":25.45,"region":"Κυκλάδες","name_en":"Heraklia","region_en":"Cyclades"},{"id":"municipalities_9268ba4d6ee8","slug":"paros-9268","kind":"municipality","name":"Πάρος","lat":37.085,"lng":25.15,"aliases":["Paros","Πάριος","Παρος"],"region":"Κυκλάδες","name_en":"Paros","region_en":"Cyclades"},{"id":"municipalities_927aa23a9fc7","slug":"kimolos-927a","kind":"municipality","name":"Κίμωλος","lat":36.7783,"lng":24.575,"aliases":["Κιμωλος"],"region":"Κυκλάδες","name_en":"Kimolos","region_en":"Cyclades"},{"id":"municipalities_b0831f971d7e","slug":"folegandros-b083","kind":"municipality","name":"Φολέγανδρος","lat":36.6167,"lng":24.9167,"aliases":["Φολεγανδρος"],"region":"Κυκλάδες","name_en":"Folegandros","region_en":"Cyclades"},{"id":"municipalities_b456e42c7271","slug":"ormos-b456","kind":"municipality","name":"Όρμος","lat":37.4269,"lng":25.3528,"aliases":["Ορμος","Ornos Beach"],"region":"Κυκλάδες","name_en":"Ornos","region_en":"Cyclades"}],"mentionedGuides":[],"canonicalSlug":"andros-3cbd","enrichment":{"summary_en":"Άνδρος is a curated neighborhood area in Κυκλάδες. It is connected to 1 nearby Googlementor picks to help travelers build a stronger local route.","summary_el":"Άνδρος είναι ένα επιλεγμένο σημείο ενδιαφέροντος στην περιοχή Κυκλάδες. Συνδέεται με 1 κοντινές προτάσεις του Googlementor για πιο ολοκληρωμένη εμπειρία.","vibe_tags":["local-neighborhood","base-for-exploring"],"best_for":["first-time visitors","walk-and-explore days","return visitors"],"visit_moments":["late morning walks","sunset exploration"],"practical_note":"1 curated places are within walkable distance from this area center.","nearby_walkable_count":1,"nearby_count_2km":3,"confidence":0.55},"areaContext":null,"intentContexts":[]},"__N_SSG":true}