{"pageProps":{"entity":{"id":"fishTavernasRestaurants_64df5c108dc4","slug":"apanemi-64df","kind":"restaurant","name":"Apanemi","lat":37.07828569738803,"lng":25.58750367173503,"url":"https://maps.app.goo.gl/oDvDW47p75wDgfpm6?g_st=ipc","address":"Moutsouna, Naxos 843 02","categoryIds":["fish-tavernas"],"categories":["Fish Tavernas"]},"sameCategory":[{"id":"fishTavernasRestaurants_11936c86acd1","slug":"antamoma-delicuisine-1193","kind":"restaurant","name":"Antamoma DeliCuisine","lat":37.05815377728116,"lng":25.5110845454022,"url":"https://maps.app.goo.gl/vfCEnss3wGtRVEwf8?g_st=ipc","address":"Ai Giannis, Apirathos 843 00","categoryIds":["fish-tavernas"],"categories":["Fish Tavernas"]},{"id":"fishTavernasRestaurants_368ca3267414","slug":"capetan-nikolas-368c","kind":"restaurant","name":"CAPETAN NIKOLAS","lat":36.931591561962186,"lng":25.597135247422372,"url":"https://maps.app.goo.gl/5J1tsPBuPnJDQAsV7?g_st=ipc","address":"Koufonisia 843 00","categoryIds":["fish-tavernas"],"categories":["Fish Tavernas"]},{"id":"fishTavernasRestaurants_b653485690ac","slug":"apanemi-town-b653","kind":"restaurant","name":"Apanemi Town","lat":37.10834996586582,"lng":25.376821223396767,"url":"https://maps.app.goo.gl/FCsJjFS6FdS2hgQ86?g_st=ipc","address":"Leof. Naxou Eggaron, Naxos 843 00","categoryIds":["fish-tavernas"],"categories":["Fish Tavernas"]},{"id":"fishTavernasRestaurants_d7e3e1315391","slug":"sarris-tavern-d7e3","kind":"restaurant","name":"Sarris Tavern","lat":37.10364861622317,"lng":25.37580990635783,"url":"https://maps.app.goo.gl/AXzYwLeXrYvTjRri8?g_st=ipc","address":"Sarris Tavern 8, Naxos 843 00","categoryIds":["fish-tavernas"],"categories":["Fish Tavernas"]},{"id":"fishTavernasRestaurants_78cb3f4380c2","slug":"cafe-ouzerie-barabbas-78cb","kind":"restaurant","name":"Café Ouzerie Barabbas","lat":37.10204187531306,"lng":25.37502616238965,"url":"https://maps.app.goo.gl/BH3za9tuZUwNeCz87?g_st=ipc","address":"Naxos 843 00","categoryIds":["fish-tavernas"],"categories":["Fish Tavernas"]},{"id":"fishTavernasRestaurants_e056f191e63e","slug":"nissaki-restaurant-est-1971-e056","kind":"restaurant","name":"Nissaki Restaurant est. 1971","lat":37.10031334389294,"lng":25.37366043300574,"url":"https://maps.app.goo.gl/yMHNpMahUsVq7kRRA?g_st=ipc","address":"Agiou Georgiou, Naxos 843 00","categoryIds":["fish-tavernas"],"categories":["Fish Tavernas"]},{"id":"fishTavernasRestaurants_e4bded96d41b","slug":"akrogiali-restaurant-studios-e4bd","kind":"restaurant","name":"Akrogiali Restaurant- Studios","lat":37.06850212174682,"lng":25.355709551048015,"url":"https://maps.app.goo.gl/f5SYBYZkLKJhZSov6?g_st=ipc","address":"Αγ. Αννα 843 00","categoryIds":["fish-tavernas"],"categories":["Fish Tavernas"]},{"id":"fishTavernasRestaurants_0de5c8be59df","slug":"o-katsoynas-0de5","kind":"restaurant","name":"Ο ΚΑΤΣΟΥΝΑΣ","lat":37.13969481378141,"lng":25.28757143574355,"url":"https://maps.app.goo.gl/oZW4nirAsKmE2gbg8?g_st=ipc","address":"Σάντα Μαρια 844 01","categoryIds":["fish-tavernas"],"categories":["Fish Tavernas"]},{"id":"fishTavernasRestaurants_9bf6858efa20","slug":"siparos-seaside-restaurant-9bf6","kind":"restaurant","name":"Siparos Seaside Restaurant","lat":37.12641356420799,"lng":25.266629540061626,"url":"https://maps.app.goo.gl/Y5FqpWpLwoZYaHni9?g_st=ipc","address":"Ξιφαρά 844 01","categoryIds":["fish-tavernas","luxury-dining"],"categories":["Fish Tavernas","Luxury Dining"],"legacySlugs":["siparos-seaside-restaurant-0493"]},{"id":"fishTavernasRestaurants_6ff9bd52a54d","slug":"ouzeri-halaris-6ff9","kind":"restaurant","name":"Ouzeri Halaris","lat":37.03514430348778,"lng":25.26011593103973,"url":"https://maps.app.goo.gl/cqX5H5Ys7cUSx38m7?g_st=ipc","address":"Epar.Od. Parikias-Piso Livadiou, Piso Livadi 844 00","categoryIds":["fish-tavernas"],"categories":["Fish Tavernas"]},{"id":"fishTavernasRestaurants_2b513f5d0dca","slug":"sigi-ikthios-2b51","kind":"restaurant","name":"Sigi Ikthios","lat":37.12488461984584,"lng":25.2375451186848,"url":"https://maps.app.goo.gl/a8XzzgdiGdqnwgxp6?g_st=ipc","address":"Limanaki Naousa, Naousa 844 01","categoryIds":["fish-tavernas"],"categories":["Fish Tavernas"]},{"id":"fishTavernasRestaurants_d0606bef60e0","slug":"bluefish-paros-d060","kind":"restaurant","name":"Bluefish Paros","lat":37.12385227854004,"lng":25.235378897681453,"url":"https://maps.app.goo.gl/YqeBLughpHcPmHy19?g_st=ipc","address":"Naoussa, Paros 844 01","categoryIds":["fish-tavernas"],"categories":["Fish Tavernas"]}],"nearby":[{"id":"greekRestaurants_675afe268027","slug":"stoy-koytoypa-stou-koutoupa-675a","kind":"restaurant","name":"Στου Κούτουπα (Stou Koutoupa)","lat":37.07115111503441,"lng":25.51957571120497,"url":"https://maps.app.goo.gl/cDoUJzNEfc5atgwUA?g_st=ipc","address":"Επαρ.Οδ. Νάξου-Απειράνθου 128, Απείραθος 843 02","categoryIds":["greek-restaurants"],"categories":["Greek Restaurants"],"distanceKm":6.078350117132091},{"id":"greekRestaurants_63f03d08e827","slug":"taverna-ntalas-tavern-dalas-naxos-63f0","kind":"restaurant","name":"Ταβέρνα Ντάλας - Tavern Dalas Naxos","lat":37.117244572204875,"lng":25.535996626541273,"url":"https://maps.app.goo.gl/n7JkoJgQ2MUtxDzQA?g_st=ipc","address":"KORONOS, NAXOU, Νάξος 843 02","categoryIds":["greek-restaurants"],"categories":["Greek Restaurants"],"distanceKm":6.295594731936055},{"id":"greekRestaurants_c9e38ef4f293","slug":"matina-stayros-c9e3","kind":"restaurant","name":"ΜΑΤΙΝΑ - ΣΤΑΥΡΟΣ","lat":37.11750078972081,"lng":25.535943262786688,"url":"https://maps.app.goo.gl/VnH1nvUYXPSk9vNQ9?g_st=ipc","address":"Κόρωνος 843 02","categoryIds":["greek-restaurants"],"categories":["Greek Restaurants"],"distanceKm":6.318651494872907},{"id":"greekRestaurants_acfd3167ad8f","slug":"antamoma-naxian-cuisine-mylos-360-cafe-sunset-bar-acfd","kind":"restaurant","name":"Antamoma Naxian Cuisine- Mylos 360 Café Sunset Bar","lat":37.05816092044301,"lng":25.511084670521964,"url":"https://maps.app.goo.gl/VGafeMQpVB4NtiKo8?g_st=ipc","address":"Ai Giannis, Απείραθος 843 00","categoryIds":["greek-restaurants"],"categories":["Greek Restaurants"],"distanceKm":7.1399733176691065},{"id":"coffeeBrunchRestaurants_c49fc6ae7fef","slug":"rotonda-cafe-bar-restaurant-in-naxos-c49f","kind":"restaurant","name":"Rotonda - Cafe Bar Restaurant in Naxos","lat":37.05872571074158,"lng":25.510854348333638,"url":"https://maps.app.goo.gl/CVfadsvfxt5JGHVb8?g_st=ipc","address":"ai giannis, Apirathos 843 00","categoryIds":["coffee-brunch"],"categories":["Coffee & Brunch Spots"],"distanceKm":7.139977240212179},{"id":"fishTavernasRestaurants_11936c86acd1","slug":"antamoma-delicuisine-1193","kind":"restaurant","name":"Antamoma DeliCuisine","lat":37.05815377728116,"lng":25.5110845454022,"url":"https://maps.app.goo.gl/vfCEnss3wGtRVEwf8?g_st=ipc","address":"Ai Giannis, Apirathos 843 00","categoryIds":["fish-tavernas"],"categories":["Fish Tavernas"],"distanceKm":7.140233142263117},{"id":"greekRestaurants_b2aaf0dfb9a4","slug":"kalliopi-b2aa","kind":"restaurant","name":"Καλλιόπη","lat":37.07778318483779,"lng":25.496090474760013,"url":"https://maps.app.goo.gl/m8AnzCybw8VgSFBX7?g_st=ipc","address":"Μονή Νάξου, Δήμος Δρυμαλίας, Λούροι 843 02","categoryIds":["greek-restaurants"],"categories":["Greek Restaurants"],"distanceKm":8.109730588461073},{"id":"greekRestaurants_1c5a5710b282","slug":"amvrosia-1c5a","kind":"restaurant","name":"Αμβροσία","lat":37.05198027328874,"lng":25.498122685244876,"url":"https://maps.app.goo.gl/hServvR8erYFDEW79?g_st=ipc","address":"Επαρ.Οδ. Δαμαριώνα-Δανακού, Φιλότι 843 02","categoryIds":["greek-restaurants"],"categories":["Greek Restaurants"],"distanceKm":8.452826186369423},{"id":"coffeeBrunchRestaurants_adc2f257af84","slug":"platanos-cafe-restaurant-adc2","kind":"restaurant","name":"Platanos Cafe Restaurant","lat":37.0520184479865,"lng":25.4980988789785,"url":"https://maps.app.goo.gl/GftgqDRmHM6GREdg9?g_st=ipc","address":"Epar.Od. Naxou-Apiranthou, Filoti 843 02","categoryIds":["coffee-brunch"],"categories":["Coffee & Brunch Spots"],"distanceKm":8.453338524515566},{"id":"coffeeBrunchRestaurants_409a1c00e009","slug":"fasolas-gastrokafeneio-409a","kind":"restaurant","name":"Fasolas Gastrokafeneio","lat":37.05047829842748,"lng":25.497802752574465,"url":"https://maps.app.goo.gl/s28qFqLPN9on9SZy8?g_st=ipc","address":"Filoti 843 02","categoryIds":["coffee-brunch","desserts"],"categories":["Coffee & Brunch Spots","Dessert Shops"],"legacySlugs":["fasolas-gastrokafeneio-d95b"],"distanceKm":8.53858920228314},{"id":"coffeeBrunchRestaurants_a1d642828b23","slug":"halki-cafe-bistro-a1d6","kind":"restaurant","name":"Halki Cafe Bistro","lat":37.0642321945567,"lng":25.484940977880758,"url":"https://maps.app.goo.gl/EM1dP9kHW3eWkooMA?g_st=ipc","address":"Epar.Od. Naxou-Apiranthou, Chalkio 843 00","categoryIds":["coffee-brunch"],"categories":["Coffee & Brunch Spots"],"distanceKm":9.232662990892136},{"id":"italianRestaurants_4f96313e6daa","slug":"mitos-arternative-bar-4f96","kind":"restaurant","name":"Mitos ARTernative BAR","lat":37.06317254380818,"lng":25.48274579484659,"url":"https://maps.app.goo.gl/jstAML7uYBqEdQYq6?g_st=ipc","address":"Χαλκείο 843 02","categoryIds":["italian"],"categories":["Italian Restaurants"],"distanceKm":9.444984706189606},{"id":"greekRestaurants_694ee1d214aa","slug":"paravas-traditional-tavern-souvlaki-694e","kind":"restaurant","name":"PARAVAS Traditional Tavern & Souvlaki","lat":37.06316256125292,"lng":25.482406792920514,"url":"https://maps.app.goo.gl/fmFJ2qDuDCSYVraUA?g_st=ipc","address":"Χαλκείο 843 02","categoryIds":["greek-restaurants"],"categories":["Greek Restaurants"],"distanceKm":9.474780627592267},{"id":"coffeeBrunchRestaurants_4d900c72bc80","slug":"caffe-greco-4d90","kind":"restaurant","name":"Caffe Greco","lat":37.06283829210554,"lng":25.482179694372245,"url":"https://maps.app.goo.gl/bvxkDLgLP2gCrEDeA?g_st=ipc","address":"Χαλκείο 843 02","categoryIds":["coffee-brunch","desserts"],"categories":["Coffee & Brunch Spots","Dessert Shops"],"legacySlugs":["caffe-greco-cc34"],"distanceKm":9.501082036091452},{"id":"greekRestaurants_ba6e2f5a3693","slug":"stoy-vasilarakioy-ba6e","kind":"restaurant","name":"Στου Βασιλαρακιού","lat":37.10103491424863,"lng":25.479225143286413,"url":"https://maps.app.goo.gl/FQTuXwoBqZwWBWJp7?g_st=ipc","address":"Κινιδαρος 843 02","categoryIds":["greek-restaurants"],"categories":["Greek Restaurants"],"distanceKm":9.9317804832642},{"id":"greekRestaurants_bf6e5357d26f","slug":"paradosiaki-taverna-i-pigi-naxos-ano-potamia-bf6e","kind":"restaurant","name":"Παραδοσιακή Ταβέρνα Η Πηγή, Νάξος, Ανω Ποταμιά","lat":37.07025549625695,"lng":25.44969173381983,"url":"https://maps.app.goo.gl/zHdqa3ibYKAfwYCp6?g_st=ipc","address":"Άνω Ποταμιά 843 00","categoryIds":["greek-restaurants"],"categories":["Greek Restaurants"],"distanceKm":12.258878033296233},{"id":"greekRestaurants_782ef9c750c1","slug":"o-vasilis-782e","kind":"restaurant","name":"Ο Βασίλης","lat":37.0889554380196,"lng":25.43811428187733,"url":"https://maps.app.goo.gl/Bois49ffMzowZbcd7?g_st=ipc","address":"Μελανές 843 00","categoryIds":["greek-restaurants"],"categories":["Greek Restaurants"],"distanceKm":13.304805712282374},{"id":"greekRestaurants_5cf83791c807","slug":"stella-tavern-cafe-5cf8","kind":"restaurant","name":"Stella Tavern - Cafe","lat":37.11718254552825,"lng":25.4359815192468,"url":"https://maps.app.goo.gl/FwsYyePUb1F8BvTJ7?g_st=ipc","address":"Εγγαρές 843 00","categoryIds":["greek-restaurants"],"categories":["Greek Restaurants"],"distanceKm":14.117355875020698},{"id":"greekRestaurants_7ff5c5b32196","slug":"naxiotiki-koyzina-o-charis-7ff5","kind":"restaurant","name":"Ναξιώτικη Κουζίνα Ο ΧΑΡΗΣ","lat":37.11626279044314,"lng":25.432754046535003,"url":"https://maps.app.goo.gl/tMSXhERiQux6L3Yy8?g_st=ipc","address":"Εγγαρές 843 00","categoryIds":["greek-restaurants"],"categories":["Greek Restaurants"],"distanceKm":14.359774344104625},{"id":"coffeeBrunchRestaurants_ffafa520148c","slug":"koufonisia-bakery-ffaf","kind":"restaurant","name":"Koufonisia Bakery","lat":36.933430589719315,"lng":25.601645574976523,"url":"https://maps.app.goo.gl/upgNqgqMcearc7wRA?g_st=ipc","address":"Koufonisia 843 00","categoryIds":["coffee-brunch"],"categories":["Coffee & Brunch Spots"],"distanceKm":16.156030474863808},{"id":"municipalities_444e7b37bb5a","slug":"koyfonisi-444e","kind":"municipality","name":"Κουφονήσι","lat":36.9333,"lng":25.6,"region":"Κυκλάδες","name_en":"Koufonisia","region_en":"Cyclades","distanceKm":16.15981670359846},{"id":"dessertsRestaurants_3d1262fd2666","slug":"fystiki-gelato-3d12","kind":"restaurant","name":"Fystiki Gelato","lat":36.93198529080786,"lng":25.599118541452043,"url":"https://maps.app.goo.gl/SRnK7VZPNJJSVHfq6?g_st=ipc","address":"Κουφονησίων, Koufonisi 843 00","categoryIds":["desserts"],"categories":["Dessert Shops"],"distanceKm":16.300524791141978},{"id":"italianRestaurants_b24f49cdda5b","slug":"mikres-cyclades-b24f","kind":"restaurant","name":"Mikres Cyclades","lat":36.931957255563695,"lng":25.59902680119125,"url":"https://maps.app.goo.gl/JbLqAJKLLdfUdDyN8?g_st=ipc","address":"Άνω, 843 00","categoryIds":["italian"],"categories":["Italian Restaurants"],"distanceKm":16.303122617272134},{"id":"fishTavernasRestaurants_368ca3267414","slug":"capetan-nikolas-368c","kind":"restaurant","name":"CAPETAN NIKOLAS","lat":36.931591561962186,"lng":25.597135247422372,"url":"https://maps.app.goo.gl/5J1tsPBuPnJDQAsV7?g_st=ipc","address":"Koufonisia 843 00","categoryIds":["fish-tavernas"],"categories":["Fish Tavernas"],"distanceKm":16.334050379071403}],"sameRegion":[],"mentionedGuides":[],"canonicalSlug":"apanemi-64df","enrichment":{"summary_en":"Apanemi is a curated restaurant in Naxos 843 02 in the Fish Tavernas collection. It is connected to 0 nearby Googlementor picks to help travelers build a stronger local route.","summary_el":"Apanemi είναι ένα επιλεγμένο σημείο φαγητού στην περιοχή Naxos 843 02 και ανήκει στη συλλογή Fish Tavernas. Συνδέεται με 0 κοντινές προτάσεις του Googlementor για πιο ολοκληρωμένη εμπειρία.","vibe_tags":["curated","seafood-local"],"best_for":["first-time visitors","food lovers"],"visit_moments":["lunch stop","dinner stop"],"practical_note":"Address and direct map link are available for easy turn-by-turn access.","nearby_walkable_count":0,"nearby_count_2km":0,"confidence":0.9},"areaContext":null,"intentContexts":[]},"__N_SSG":true}