{"pageProps":{"entity":{"id":"familyFriendly_2da660f5cea1","slug":"aqua-fun-2da6","kind":"restaurant","name":"Aqua Fun","lat":37.082347515027855,"lng":25.35405984069226,"url":"https://maps.app.goo.gl/kxZ4WVVMgAh5nHj19?g_st=ipc","address":"ΣΤΕΛΙΔΑ, Ag. Prokopios 843 00","categoryIds":["family-friendly"],"categories":["Kid Friendly Locations"]},"sameCategory":[{"id":"familyFriendly_03f29a25699e","slug":"funbox-03f2","kind":"restaurant","name":"Funbox","lat":37.450143269337566,"lng":25.34837194743214,"url":"https://maps.app.goo.gl/BEmUn1htaDH92gUZ7?g_st=ic","address":"Famelis Spiros, Mikonos 846 00","categoryIds":["family-friendly"],"categories":["Kid Friendly Locations"]},{"id":"familyFriendly_83c448f68640","slug":"gipedo-podosfairoy-pagoy-83c4","kind":"restaurant","name":"Γήπεδο Ποδοσφαίρου Πάγου","lat":37.42646477570567,"lng":24.907668410293343,"url":"https://maps.app.goo.gl/BaTm12sUUp1d1c9g8?g_st=ipc","address":"Πάγος 841 00","categoryIds":["family-friendly"],"categories":["Kid Friendly Locations"]},{"id":"familyFriendly_18bddf615bf3","slug":"anima-club-18bd","kind":"restaurant","name":"Anima Club","lat":37.74050273423326,"lng":23.921750567749367,"url":"https://maps.app.goo.gl/iMm9xyAzQoQ2dUJU9?g_st=ipc","address":"Υακίνθου Str, Ανάβυσσος 190 13","categoryIds":["family-friendly"],"categories":["Kid Friendly Locations"]},{"id":"familyFriendly_1a210cb8c101","slug":"ippikos-omilos-koyvara-1a21","kind":"restaurant","name":"Ιππικός Όμιλος Κουβαρά","lat":37.827589338108154,"lng":23.987545277707177,"url":"https://maps.app.goo.gl/hsmq3SFgWsx53mPW7?g_st=ipc","address":"Αγίου Φανουρίου, Κουβαράς 190 03","categoryIds":["family-friendly"],"categories":["Kid Friendly Locations"]},{"id":"familyFriendly_c8ef51000921","slug":"margi-farm-c8ef","kind":"restaurant","name":"Margi Farm","lat":37.84874963465927,"lng":23.91294630423687,"url":"https://maps.app.goo.gl/LpauJpU7FAqyQdA8A?g_st=ipc","address":"Thorikou, Saronikos 190 10","categoryIds":["family-friendly"],"categories":["Kid Friendly Locations"]},{"id":"familyFriendly_72e5a0b3386d","slug":"sports-park-72e5","kind":"restaurant","name":"SPORTS PARK","lat":37.97421350979179,"lng":23.929458278036556,"url":"https://maps.app.goo.gl/Jbrq2A31UzDnM1Ro7?g_st=ipc","address":"1 χλμ Σπατών, Πικερμίου, Σπάτα 190 04","categoryIds":["family-friendly"],"categories":["Kid Friendly Locations"]},{"id":"familyFriendly_37e90b2f8c07","slug":"happy-play-park-37e9","kind":"restaurant","name":"Happy Play Park","lat":37.83676394128604,"lng":23.807828606428487,"url":"https://maps.app.goo.gl/RA9ywQvUBdabkNk1A?g_st=ic","address":"Varis Koropiou Ave 27, Vari 166 72","categoryIds":["family-friendly"],"categories":["Kid Friendly Locations"]},{"id":"familyFriendly_db6ace0662f1","slug":"aquapolis-athens-db6a","kind":"restaurant","name":"Aquapolis Athens","lat":37.97858312845216,"lng":23.91151007116057,"url":"https://maps.app.goo.gl/5Ru3eXW4yXz7efi98?g_st=ic","address":"Θέση Γιαλού, Spata 190 04","categoryIds":["family-friendly"],"categories":["Kid Friendly Locations"]},{"id":"familyFriendly_8ed15a9c84d5","slug":"attica-zoological-park-8ed1","kind":"restaurant","name":"Attica Zoological Park","lat":37.98044022083859,"lng":23.910805906852257,"url":"https://maps.app.goo.gl/f6rw3vWAJG1aAtPU6?g_st=ipc","address":"Spata 190 04","categoryIds":["family-friendly"],"categories":["Kid Friendly Locations"]},{"id":"familyFriendly_0ccded432145","slug":"smart-park-0ccd","kind":"restaurant","name":"Smart Park","lat":37.98478188179295,"lng":23.913104747091037,"url":"https://maps.app.goo.gl/JecbscmoWg1c4Snw5?g_st=ipc","address":"Εμπορικό Πάρκο Smart Park, Ε. Πουλακη, OT 71, & 72, Σπάτα 190 04","categoryIds":["family-friendly"],"categories":["Kid Friendly Locations"]},{"id":"familyFriendly_9cc1c30ecd05","slug":"designer-outlet-athens-9cc1","kind":"restaurant","name":"Designer Outlet Athens","lat":37.98621935732948,"lng":23.91050612444449,"url":"https://maps.app.goo.gl/FiJWknWTB14td3ra9?g_st=ipc","address":"D-Oikodomiko Tetragono, Γυαλού E71, Σπάτα 190 04","categoryIds":["family-friendly"],"categories":["Kid Friendly Locations"]},{"id":"familyFriendly_569cf558f6b0","slug":"oasis-activity-farm-park-569c","kind":"restaurant","name":"OASIS Activity Farm Park","lat":37.928303788781086,"lng":23.851038750815583,"url":"https://maps.app.goo.gl/VYjCmEzxbNTXc6xX9?g_st=ipc","address":"Πλαπούτα, Άνω Καρέλλας 194 00","categoryIds":["family-friendly"],"categories":["Kid Friendly Locations"]}],"nearby":[{"id":"greekRestaurants_7b51b9a8d590","slug":"taverna-o-giannoylis-7b51","kind":"restaurant","name":"Ταβέρνα Ο Γιαννούλης","lat":37.07476079820257,"lng":25.35214595404142,"url":"https://maps.app.goo.gl/jk1SQcCbpGGpyJxP8?g_st=ipc","address":"Unnamed Road, Αγ. Προκόπιος 843 00","categoryIds":["greek-restaurants"],"categories":["Greek Restaurants"],"distanceKm":0.860520492630263},{"id":"coffeeBrunchRestaurants_11b9ac0dc44e","slug":"macao-beach-naxos-11b9","kind":"restaurant","name":"Macao beach naxos","lat":37.07477452112851,"lng":25.350720849700185,"url":"https://maps.app.goo.gl/VMcfVNerQn3tSzED8?g_st=ipc","address":"Agios Prokopios 843 00","categoryIds":["coffee-brunch"],"categories":["Coffee & Brunch Spots"],"distanceKm":0.8926569696958472},{"id":"fishTavernasRestaurants_e4bded96d41b","slug":"akrogiali-restaurant-studios-e4bd","kind":"restaurant","name":"Akrogiali Restaurant- Studios","lat":37.06850212174682,"lng":25.355709551048015,"url":"https://maps.app.goo.gl/f5SYBYZkLKJhZSov6?g_st=ipc","address":"Αγ. Αννα 843 00","categoryIds":["fish-tavernas"],"categories":["Fish Tavernas"],"distanceKm":1.5464784830567893},{"id":"coffeeBrunchRestaurants_1ed3ff082f80","slug":"goat-in-a-boat-1ed3","kind":"restaurant","name":"goat in a boat","lat":37.06717854640464,"lng":25.356316886639643,"url":"https://maps.app.goo.gl/RjakHZ5s5a6HV2Rj8?g_st=ipc","address":"Αγ. Αννα 843 00","categoryIds":["coffee-brunch"],"categories":["Coffee & Brunch Spots"],"distanceKm":1.6985563858732247},{"id":"greekRestaurants_e19d898df0e1","slug":"taverna-paradeisos-naxos-e19d","kind":"restaurant","name":"Ταβέρνα Παράδεισος | Νάξος","lat":37.06269869849226,"lng":25.355485426360563,"url":"https://maps.app.goo.gl/snSuBibKoHzbKRP3A?g_st=ipc","address":"Μαραγκας 843 00","categoryIds":["greek-restaurants"],"categories":["Greek Restaurants"],"distanceKm":2.1885064251830597},{"id":"coffeeBrunchRestaurants_6269550b6464","slug":"naxaki-beach-lounge-bar-restaurant-6269","kind":"restaurant","name":"Naxaki Beach Lounge Bar & Restaurant","lat":37.096820663451155,"lng":25.37554032822482,"url":"https://maps.app.goo.gl/pycw7dvrTdi8yEicA?g_st=ipc","address":"Agios Georgios Beach - Naxos, Naxos 843 00","categoryIds":["coffee-brunch"],"categories":["Coffee & Brunch Spots"],"distanceKm":2.494028082886724},{"id":"greekRestaurants_1f1aa19a1160","slug":"yazoo-summer-bliss-1f1a","kind":"restaurant","name":"Yazoo Summer Bliss","lat":37.05947332168921,"lng":25.35827570673648,"url":"https://maps.app.goo.gl/NhU86ckth6hj5Sat7?g_st=ipc","address":"Beach, Πλάκα 843 00","categoryIds":["greek-restaurants"],"categories":["Greek Restaurants"],"distanceKm":2.570849441703443},{"id":"coffeeBrunchRestaurants_06b43145276e","slug":"yazoo-summer-bliss-06b4","kind":"restaurant","name":"Yazoo Summer Bliss","lat":37.05936629317493,"lng":25.358292075823126,"url":"https://maps.app.goo.gl/6st7M6E2gAiTKTuK7?g_st=ipc","address":"Beach, Plaka 843 00","categoryIds":["coffee-brunch"],"categories":["Coffee & Brunch Spots"],"distanceKm":2.5828351873202644},{"id":"mexicanRestaurants_983dcb8a2e0a","slug":"picasso-on-the-beach-naxos-983d","kind":"restaurant","name":"Picasso on the beach - Naxos","lat":37.05943119973437,"lng":25.358989286042366,"url":"https://maps.app.goo.gl/dyPRjYQnHRARiSJ79?g_st=ipc","address":"Beach, Plaka, Ag. Anna 843 00","categoryIds":["mexican"],"categories":["Mexican Restaurants"],"distanceKm":2.5854368212870487},{"id":"coffeeBrunchRestaurants_3c0e0ba19c1e","slug":"cedar-naxos-3c0e","kind":"restaurant","name":"Cedar Naxos","lat":37.05894909734054,"lng":25.359010791260953,"url":"https://maps.app.goo.gl/sMRnKogU1qsVLy5N7?g_st=ipc","address":"Plaka beach island, Cyclades, Town 84300, 843 00","categoryIds":["coffee-brunch"],"categories":["Coffee & Brunch Spots"],"distanceKm":2.638604394863605},{"id":"fishTavernasRestaurants_e056f191e63e","slug":"nissaki-restaurant-est-1971-e056","kind":"restaurant","name":"Nissaki Restaurant est. 1971","lat":37.10031334389294,"lng":25.37366043300574,"url":"https://maps.app.goo.gl/yMHNpMahUsVq7kRRA?g_st=ipc","address":"Agiou Georgiou, Naxos 843 00","categoryIds":["fish-tavernas"],"categories":["Fish Tavernas"],"distanceKm":2.6482637496234696},{"id":"greekRestaurants_1d1d2978a995","slug":"nissaki-restaurant-since-1971-1d1d","kind":"restaurant","name":"Nissaki Restaurant since 1971","lat":37.1004793636916,"lng":25.373689522155757,"url":"https://maps.app.goo.gl/1p3SN2L3QLT24UKX8?g_st=ipc","address":"Αγίου Γεωργίου, Νάξος 843 00","categoryIds":["greek-restaurants"],"categories":["Greek Restaurants"],"distanceKm":2.663901383944607},{"id":"coffeeBrunchRestaurants_bcf369879144","slug":"melimilon-naxos-bcf3","kind":"restaurant","name":"Melimilon Naxos","lat":37.1012124273558,"lng":25.373816192509402,"url":"https://maps.app.goo.gl/24h3FMgmoD9y36B69?g_st=ipc","address":"Naxos 843 00","categoryIds":["coffee-brunch"],"categories":["Coffee & Brunch Spots"],"distanceKm":2.733298926814569},{"id":"italianRestaurants_338afaa92d9f","slug":"caya-italian-cuisine-cocktail-bar-338a","kind":"restaurant","name":"Caya Italian Cuisine Cocktail Bar","lat":37.05775350559496,"lng":25.360162570769955,"url":"https://maps.app.goo.gl/aQBfn7JeavM87SvT6?g_st=ipc","address":"Πλάκα Ναξος Κυκλάδες, 843 00","categoryIds":["italian"],"categories":["Italian Restaurants"],"distanceKm":2.7878144731885333},{"id":"fishTavernasRestaurants_78cb3f4380c2","slug":"cafe-ouzerie-barabbas-78cb","kind":"restaurant","name":"Café Ouzerie Barabbas","lat":37.10204187531306,"lng":25.37502616238965,"url":"https://maps.app.goo.gl/BH3za9tuZUwNeCz87?g_st=ipc","address":"Naxos 843 00","categoryIds":["fish-tavernas"],"categories":["Fish Tavernas"],"distanceKm":2.8729725240464536},{"id":"greekRestaurants_533382eda428","slug":"to-elliniko-restaurant-5333","kind":"restaurant","name":"To Elliniko Restaurant","lat":37.10045212673621,"lng":25.377603556843287,"url":"https://maps.app.goo.gl/Xqt8tsmindBjCsXV8?g_st=ipc","address":"Ιωάννου Παπαρηγοπούλου, Νάξος 843 00","categoryIds":["greek-restaurants"],"categories":["Greek Restaurants"],"distanceKm":2.900618632570657},{"id":"greekRestaurants_e47501c318a2","slug":"maro-e475","kind":"restaurant","name":"Μάρω","lat":37.10154028987827,"lng":25.3766315671974,"url":"https://maps.app.goo.gl/zA4x53E8WYhDfBig6?g_st=ipc","address":"Πλ. Πέτρου Ευριπαίου, Νάξος 843 00","categoryIds":["greek-restaurants"],"categories":["Greek Restaurants"],"distanceKm":2.9262102161930987},{"id":"italianRestaurants_81fb3a3e7792","slug":"etere-ristorante-spritzeria-81fb","kind":"restaurant","name":"ETERE Ristorante•Spritzeria","lat":37.10293986337665,"lng":25.375171669884853,"url":"https://maps.app.goo.gl/hwE3v2eAEfeWwtVD6?g_st=ipc","address":"Σχοινούσας, Kiprou &, Naxos 843 00","categoryIds":["italian"],"categories":["Italian Restaurants"],"distanceKm":2.957938568659141},{"id":"rooftopLoungesRestaurants_f44c78191d73","slug":"musique-cafe-restaurant-f44c","kind":"restaurant","name":"Musique Cafe - Restaurant","lat":37.10327388720912,"lng":25.374720099192075,"url":"https://maps.app.goo.gl/xGrZAJx1PKMWWCnU7?g_st=ipc","address":"Ariadnis, Naxos 843 00","categoryIds":["rooftop-lounges"],"categories":["Rooftop Lounges"],"distanceKm":2.9618342524912693},{"id":"greekRestaurants_7781d11d6267","slug":"musique-cafe-restaurant-7781","kind":"restaurant","name":"Musique Cafe - Restaurant","lat":37.103293290914934,"lng":25.374723030497336,"url":"https://maps.app.goo.gl/ShCS95qz2nMgxP8EA?g_st=ipc","address":"Αριάδνης, Νάξος 843 00","categoryIds":["greek-restaurants"],"categories":["Greek Restaurants"],"distanceKm":2.9636902511880354},{"id":"italianRestaurants_7d6f32d35713","slug":"dal-professore-naxos-7d6f","kind":"restaurant","name":"Dal Professore Naxos","lat":37.10347764120069,"lng":25.374650593867482,"url":"https://maps.app.goo.gl/GLP6dYmT8CK2v8Rk9?g_st=ipc","address":"Sea front - Naxos town Naxos Town, 843 00","categoryIds":["italian"],"categories":["Italian Restaurants"],"distanceKm":2.975877920241904},{"id":"fishTavernasRestaurants_d7e3e1315391","slug":"sarris-tavern-d7e3","kind":"restaurant","name":"Sarris Tavern","lat":37.10364861622317,"lng":25.37580990635783,"url":"https://maps.app.goo.gl/AXzYwLeXrYvTjRri8?g_st=ipc","address":"Sarris Tavern 8, Naxos 843 00","categoryIds":["fish-tavernas"],"categories":["Fish Tavernas"],"distanceKm":3.0547826378157317},{"id":"rooftopLoungesRestaurants_b11d5369fcab","slug":"swing-cocktail-bar-naxos-b11d","kind":"restaurant","name":"Swing Cocktail Bar Naxos","lat":37.10397730324002,"lng":25.375517434266428,"url":"https://maps.app.goo.gl/wrFubAW9MXvR6z5Y6?g_st=ipc","address":"Protopapadaki, Naxos 843 00","categoryIds":["rooftop-lounges"],"categories":["Rooftop Lounges"],"distanceKm":3.067040554276927},{"id":"cheapEatsRestaurants_4dbaa21f0de9","slug":"yasouvlaki-4dba","kind":"restaurant","name":"Yasouvlaki!","lat":37.104045402591176,"lng":25.37553445494035,"url":"https://maps.app.goo.gl/B6fuRTJ3jQNZCZMJ8?g_st=ipc","address":"Naxos 843 00","categoryIds":["cheap-eats"],"categories":["Gyros & Cheap Eats"],"distanceKm":3.0739168921221203}],"sameRegion":[],"mentionedGuides":[],"canonicalSlug":"aqua-fun-2da6","enrichment":{"summary_en":"Aqua Fun is a curated restaurant in Ag. Prokopios 843 00 in the Kid Friendly Locations collection. It is connected to 0 nearby Googlementor picks to help travelers build a stronger local route.","summary_el":"Aqua Fun είναι ένα επιλεγμένο σημείο φαγητού στην περιοχή Ag. Prokopios 843 00 και ανήκει στη συλλογή Kid Friendly Locations. Συνδέεται με 0 κοντινές προτάσεις του Googlementor για πιο ολοκληρωμένη εμπειρία.","vibe_tags":["curated","family-ready"],"best_for":["first-time visitors","food lovers","families"],"visit_moments":["lunch stop","dinner stop"],"practical_note":"Address and direct map link are available for easy turn-by-turn access.","nearby_walkable_count":0,"nearby_count_2km":4,"confidence":0.9},"areaContext":{"slug":"naxos","name":"Naxos","nameEl":"Νάξος"},"intentContexts":[]},"__N_SSG":true}