{"pageProps":{"entity":{"id":"cheapEatsRestaurants_14277405021c","slug":"aristofanis-geyseis-estiatoria-psitopoleia-ano-glyfada-1427","kind":"restaurant","name":"Αριστοφάνης Γεύσεις | Εστιατόρια | Ψητοπωλεία Άνω Γλυφάδα","lat":37.890796486374335,"lng":23.76076987782631,"url":"https://maps.app.goo.gl/vR5rdW1p8psGAbRc7?g_st=ipc","address":"Δημ. Γούναρη 46, Ελληνικό 167 77","categoryIds":["cheap-eats"],"categories":["Gyros & Cheap Eats"]},"sameCategory":[{"id":"burgersRestaurants_9c2f22b0606b","slug":"hashtag-burger-9c2f","kind":"restaurant","name":"Hashtag#Burger","lat":37.89371001882756,"lng":23.763217485797266,"url":"https://maps.app.goo.gl/BsuHdbYYc8dsSTwn8?g_st=ipc","address":"Γεωρ. Γεννηματά 26, Γλυφάδα 165 62","categoryIds":["burgers","cheap-eats"],"categories":["Burger Spots","Gyros & Cheap Eats"],"legacySlugs":["hashtag-burger-30dc"]},{"id":"burgersRestaurants_797126963f1f","slug":"amam-estiatorio-glyfada-7971","kind":"restaurant","name":"ΑΜΑΜ - ΕΣΤΙΑΤΟΡΙΟ - ΓΛΥΦΑΔΑ","lat":37.895880681449796,"lng":23.761095559330744,"url":"https://maps.app.goo.gl/fAsTx4mwCTHC78t86?g_st=ipc","address":"Γεωρ. Γεννηματά 11, Γλυφάδα 165 62","categoryIds":["burgers","cheap-eats"],"categories":["Burger Spots","Gyros & Cheap Eats"],"legacySlugs":["amam-estiatorio-glyfada-af98"]},{"id":"cheapEatsRestaurants_25ffd4c0ef7f","slug":"elliniko-soyvlaki-ap-to1990-25ff","kind":"restaurant","name":"Ελληνικό Σουβλάκι (απ'το1990)","lat":37.892191582868755,"lng":23.75361437896675,"url":"https://maps.app.goo.gl/RAbojGiNVh4trirv7?g_st=ipc","address":"Λεωφ. Ιασωνίδου 40, Ελληνικό 167 77","categoryIds":["cheap-eats"],"categories":["Gyros & Cheap Eats"]},{"id":"cheapEatsRestaurants_685be47e5df7","slug":"to-ariston-685b","kind":"restaurant","name":"Το Άριστον","lat":37.88039754118748,"lng":23.75713413104173,"url":"https://maps.app.goo.gl/4zqMC4Phrwrov3rL6?g_st=ipc","address":"Σοφίας Βέμπο 22, Γλυφάδα 166 75","categoryIds":["cheap-eats"],"categories":["Gyros & Cheap Eats"]},{"id":"cheapEatsRestaurants_f4150c2850c0","slug":"i-leivadia-f415","kind":"restaurant","name":"Η Λειβαδιά","lat":37.87979270265205,"lng":23.758582732685436,"url":"https://maps.app.goo.gl/BFkQxfbJJTqb7Qp87?g_st=ipc","address":"Ανδρέα Παπανδρέου 126, Γλυφάδα 165 61","categoryIds":["cheap-eats"],"categories":["Gyros & Cheap Eats"]},{"id":"cheapEatsRestaurants_833c862346f4","slug":"virtuoso-enjoyment-833c","kind":"restaurant","name":"Virtuoso_enjoyment","lat":37.90017783194547,"lng":23.749997183633212,"url":"https://maps.app.goo.gl/7nLwDeMLLVCCJGGAA?g_st=ipc","address":"Μαρίνου Γερουλάνου 126, Αργυρούπολη 164 52","categoryIds":["cheap-eats"],"categories":["Gyros & Cheap Eats"]},{"id":"cheapEatsRestaurants_04e6a1e9ffd2","slug":"to-kalamaki-toy-aggeloy-04e6","kind":"restaurant","name":"Το Καλαμάκι του Αγγέλου","lat":37.90324456071206,"lng":23.748792260475668,"url":"https://maps.app.goo.gl/qgszesYeGs45UoHG6?g_st=ipc","address":"Πόντου 16, Αργυρούπολη 164 52","categoryIds":["cheap-eats"],"categories":["Gyros & Cheap Eats"]},{"id":"cheapEatsRestaurants_38d81d943048","slug":"oi-pites-toy-nteni-38d8","kind":"restaurant","name":"Οι Πίτες του Ντένη","lat":37.90525389875436,"lng":23.75051113822582,"url":"https://maps.app.goo.gl/LT4SpnfnfY3JNg1K7?g_st=ipc","address":"Μαρίνου Γερουλάνου 81, Αργυρούπολη 164 52","categoryIds":["cheap-eats"],"categories":["Gyros & Cheap Eats"]},{"id":"cheapEatsRestaurants_fda4a4f93016","slug":"psitopoleio-to-pyrnari-fda4","kind":"restaurant","name":"Ψητοπωλείο «Το Πυρνάρι»","lat":37.874394232840224,"lng":23.766043784078654,"url":"https://maps.app.goo.gl/qS5CXA1L9CMHWtaN7?g_st=ipc","address":"Ανθέων 33, Γλυφάδα 166 74","categoryIds":["cheap-eats"],"categories":["Gyros & Cheap Eats"]},{"id":"cheapEatsRestaurants_1d0eb7258382","slug":"zahoulis-argyroupoli-soyvlaki-1d0e","kind":"restaurant","name":"ZAHOULIS ARGYROUPOLI Σουβλάκι","lat":37.90791549793596,"lng":23.748232505140976,"url":"https://maps.app.goo.gl/kKDkkSTXoQK8Uh328?g_st=ipc","address":"Μαρίνου Γερουλάνου 54, Αργυρούπολη 164 52","categoryIds":["cheap-eats"],"categories":["Gyros & Cheap Eats"]},{"id":"cheapEatsRestaurants_c226e99422f7","slug":"montagu-c226","kind":"restaurant","name":"Montagu","lat":37.90768059040179,"lng":23.745954563287732,"url":"https://maps.app.goo.gl/5VP4Qk8ng1M1pARWA?g_st=ipc","address":"Παρ. Λεωφ. Βουλιαγμένης 66, Αργυρούπολη 164 52","categoryIds":["cheap-eats"],"categories":["Gyros & Cheap Eats"]},{"id":"cheapEatsRestaurants_1229f76d436a","slug":"to-mpifteki-tis-sofias-1229","kind":"restaurant","name":"Το μπιφτέκι της Σοφίας","lat":37.90862324079437,"lng":23.747616716476674,"url":"https://maps.app.goo.gl/81gG3aHCeD1heo749?g_st=ipc","address":"Μαρίνου Γερουλάνου 42, Αργυρούπολη 164 52","categoryIds":["cheap-eats"],"categories":["Gyros & Cheap Eats"]}],"nearby":[{"id":"burgersRestaurants_9c2f22b0606b","slug":"hashtag-burger-9c2f","kind":"restaurant","name":"Hashtag#Burger","lat":37.89371001882756,"lng":23.763217485797266,"url":"https://maps.app.goo.gl/BsuHdbYYc8dsSTwn8?g_st=ipc","address":"Γεωρ. Γεννηματά 26, Γλυφάδα 165 62","categoryIds":["burgers","cheap-eats"],"categories":["Burger Spots","Gyros & Cheap Eats"],"legacySlugs":["hashtag-burger-30dc"],"distanceKm":0.38869968908598745},{"id":"burgersRestaurants_797126963f1f","slug":"amam-estiatorio-glyfada-7971","kind":"restaurant","name":"ΑΜΑΜ - ΕΣΤΙΑΤΟΡΙΟ - ΓΛΥΦΑΔΑ","lat":37.895880681449796,"lng":23.761095559330744,"url":"https://maps.app.goo.gl/fAsTx4mwCTHC78t86?g_st=ipc","address":"Γεωρ. Γεννηματά 11, Γλυφάδα 165 62","categoryIds":["burgers","cheap-eats"],"categories":["Burger Spots","Gyros & Cheap Eats"],"legacySlugs":["amam-estiatorio-glyfada-af98"],"distanceKm":0.5660585816822772},{"id":"cheapEatsRestaurants_25ffd4c0ef7f","slug":"elliniko-soyvlaki-ap-to1990-25ff","kind":"restaurant","name":"Ελληνικό Σουβλάκι (απ'το1990)","lat":37.892191582868755,"lng":23.75361437896675,"url":"https://maps.app.goo.gl/RAbojGiNVh4trirv7?g_st=ipc","address":"Λεωφ. Ιασωνίδου 40, Ελληνικό 167 77","categoryIds":["cheap-eats"],"categories":["Gyros & Cheap Eats"],"distanceKm":0.6467899936400157},{"id":"greekRestaurants_f28bb3ae0783","slug":"gioyvetsakia-f28b","kind":"restaurant","name":"Γιουβετσάκια","lat":37.88563428778149,"lng":23.75438021161349,"url":"https://maps.app.goo.gl/tvw66LvtdqTpBCKw9","address":"Moreos 45 & Ithomis 20, Γλυφάδα 165 61","categoryIds":["greek-restaurants"],"categories":["Greek Restaurants"],"distanceKm":0.8024394538333426},{"id":"fishTavernasRestaurants_3cf7850d662e","slug":"to-agkistri-3cf7","kind":"restaurant","name":"Το Αγκίστρι","lat":37.88417743586951,"lng":23.75467629204283,"url":"https://maps.app.goo.gl/tT9ydwBCoa2EgT5d7?g_st=ipc","address":"Παλμύρας 2, Γλυφάδα 165 61","categoryIds":["fish-tavernas"],"categories":["Fish Tavernas"],"distanceKm":0.9097616319489346},{"id":"dessertsRestaurants_1f8a84ec27ef","slug":"zacharoplasteio-melina-1f8a","kind":"restaurant","name":"Ζαχαροπλαστείο Μελίνα","lat":37.89634457510765,"lng":23.75272103741247,"url":"https://maps.app.goo.gl/q1hfQmUdAxU7F42R6?g_st=ipc","address":"Τριπόλεως 65, Ελληνικό 167 77","categoryIds":["desserts"],"categories":["Dessert Shops"],"distanceKm":0.9377776152116405},{"id":"dessertsRestaurants_f3a8bc3cdfa9","slug":"ourse-athens-f3a8","kind":"restaurant","name":"Ourse Athens","lat":37.88207729717418,"lng":23.76284471292179,"url":"https://maps.app.goo.gl/diDUu1LQKinrZXQT9?g_st=ipc","address":"Μυστρά 39, Γλυφάδα 165 61","categoryIds":["desserts"],"categories":["Dessert Shops"],"distanceKm":0.9864797238933849},{"id":"dessertsRestaurants_b4416b6328f3","slug":"sovolos-zacharoplasteio-foyrnos-b441","kind":"restaurant","name":"Sovolos - Ζαχαροπλαστείο - Φούρνος","lat":37.88041660741069,"lng":23.757712624330377,"url":"https://maps.app.goo.gl/P3uyZ1oH1pSEfex39?g_st=ipc","address":"Σοφίας Βέμπο 29, Γλυφάδα 165 61","categoryIds":["desserts"],"categories":["Dessert Shops"],"distanceKm":1.184964335380248},{"id":"cheapEatsRestaurants_685be47e5df7","slug":"to-ariston-685b","kind":"restaurant","name":"Το Άριστον","lat":37.88039754118748,"lng":23.75713413104173,"url":"https://maps.app.goo.gl/4zqMC4Phrwrov3rL6?g_st=ipc","address":"Σοφίας Βέμπο 22, Γλυφάδα 166 75","categoryIds":["cheap-eats"],"categories":["Gyros & Cheap Eats"],"distanceKm":1.19952439351802},{"id":"cheapEatsRestaurants_f4150c2850c0","slug":"i-leivadia-f415","kind":"restaurant","name":"Η Λειβαδιά","lat":37.87979270265205,"lng":23.758582732685436,"url":"https://maps.app.goo.gl/BFkQxfbJJTqb7Qp87?g_st=ipc","address":"Ανδρέα Παπανδρέου 126, Γλυφάδα 165 61","categoryIds":["cheap-eats"],"categories":["Gyros & Cheap Eats"],"distanceKm":1.2385286812056469},{"id":"italianRestaurants_18486d8f87b6","slug":"mamy-blue-pizza-napoletana-glyfada-1848","kind":"restaurant","name":"Mamy Blue - Pizza Napoletana Glyfada","lat":37.8796152626329,"lng":23.758507788324675,"url":"https://maps.app.goo.gl/Viv8JcHoZX8wKXaV9?g_st=ipc","address":"Ανδρέα Παπανδρέου 126, Γλυφάδα 165 61","categoryIds":["italian"],"categories":["Italian Restaurants"],"distanceKm":1.2590447636288808},{"id":"asianRestaurants_84fbfd57e68e","slug":"ryotei-118-84fb","kind":"restaurant","name":"Ryōtei 118","lat":37.879367097165485,"lng":23.763308738653866,"url":"https://maps.app.goo.gl/XC6EcCoyBojTFzQp9?g_st=ipc","address":"Δημ. Γούναρη 118, Γλυφάδα 166 74","categoryIds":["asian","burgers"],"categories":["Asian Restaurants","Burger Spots"],"legacySlugs":["ryotei-118-5acf"],"distanceKm":1.2902736290021544},{"id":"burgersRestaurants_ba4a0b5f3045","slug":"ryotei118-ba4a","kind":"restaurant","name":"Ryōtei118","lat":37.87936856839685,"lng":23.763367179515893,"url":"https://maps.app.goo.gl/jQiZ1pYw63j3q8zG9","address":"Dim. Gounari 118, Glifada 166 74","categoryIds":["burgers"],"categories":["Burger Spots"],"distanceKm":1.291008145670566},{"id":"cheapEatsRestaurants_833c862346f4","slug":"virtuoso-enjoyment-833c","kind":"restaurant","name":"Virtuoso_enjoyment","lat":37.90017783194547,"lng":23.749997183633212,"url":"https://maps.app.goo.gl/7nLwDeMLLVCCJGGAA?g_st=ipc","address":"Μαρίνου Γερουλάνου 126, Αργυρούπολη 164 52","categoryIds":["cheap-eats"],"categories":["Gyros & Cheap Eats"],"distanceKm":1.4077385386705368},{"id":"familyFriendly_605cb6ee53f8","slug":"paidiki-chara-plateias-karaiskaki-605c","kind":"restaurant","name":"Παιδική Χαρά Πλατείας Καραισκάκη","lat":37.90061761752489,"lng":23.771490329070613,"url":"https://maps.app.goo.gl/9R2iG5DSfkWfCzH2A?g_st=ipc","address":"Λευκωσίας 25, Γλυφάδα 165 62","categoryIds":["family-friendly"],"categories":["Kid Friendly Locations"],"distanceKm":1.4413511477091785},{"id":"greekRestaurants_1210e06dbe2b","slug":"meli-ladi-1210","kind":"restaurant","name":"Μέλι & Λάδι","lat":37.87699204463285,"lng":23.76367728627069,"url":"https://maps.app.goo.gl/CPZ65sur6LLxmT9J6","address":"Δημ. Γούναρη 144, Γλυφάδα 165 62","categoryIds":["greek-restaurants"],"categories":["Greek Restaurants"],"distanceKm":1.5560466490071447},{"id":"municipalities_4714f1907ab8","slug":"elliniko-4714","kind":"municipality","name":"Ελληνικό","lat":37.892,"lng":23.743,"region":"Νότια Προάστια","name_en":"Elliniko","region_en":"Southern Suburbs","distanceKm":1.5650813668576473},{"id":"familyFriendly_824dcd75a264","slug":"the-ellinikon-experience-park-824d","kind":"restaurant","name":"The Ellinikon Experience Park","lat":37.889532923626724,"lng":23.741777435195917,"url":"https://maps.app.goo.gl/sqeFJaUrDmxw1UqF7?g_st=ipc","address":"Ελληνικό 167 77","categoryIds":["family-friendly"],"categories":["Kid Friendly Locations"],"distanceKm":1.672572115919538},{"id":"cheapEatsRestaurants_04e6a1e9ffd2","slug":"to-kalamaki-toy-aggeloy-04e6","kind":"restaurant","name":"Το Καλαμάκι του Αγγέλου","lat":37.90324456071206,"lng":23.748792260475668,"url":"https://maps.app.goo.gl/qgszesYeGs45UoHG6?g_st=ipc","address":"Πόντου 16, Αργυρούπολη 164 52","categoryIds":["cheap-eats"],"categories":["Gyros & Cheap Eats"],"distanceKm":1.73795127098162},{"id":"dessertsRestaurants_2e03a8c9e4e0","slug":"sovolos-zacharoplasteio-foyrnos-2e03","kind":"restaurant","name":"Sovolos - Ζαχαροπλαστείο - Φούρνος","lat":37.87485505079695,"lng":23.763836128858856,"url":"https://maps.app.goo.gl/RXXKnkZNGbvAgkTW6?g_st=ipc","address":"Δημ. Γούναρη 158, Γλυφάδα 166 74","categoryIds":["desserts"],"categories":["Dessert Shops"],"distanceKm":1.7929168206095738},{"id":"dessertsRestaurants_040357268baa","slug":"galaktopoleio-stamoy-0403","kind":"restaurant","name":"Γαλακτοπωλείο ΣΤΑΜΟΥ","lat":37.874588254746484,"lng":23.763954006260555,"url":"https://maps.app.goo.gl/sGysojdMKvQUw51Q7?g_st=ipc","address":"Δημ. Γούναρη 160, Γλυφάδα 166 74","categoryIds":["desserts"],"categories":["Dessert Shops"],"distanceKm":1.8238090854107913},{"id":"cheapEatsRestaurants_38d81d943048","slug":"oi-pites-toy-nteni-38d8","kind":"restaurant","name":"Οι Πίτες του Ντένη","lat":37.90525389875436,"lng":23.75051113822582,"url":"https://maps.app.goo.gl/LT4SpnfnfY3JNg1K7?g_st=ipc","address":"Μαρίνου Γερουλάνου 81, Αργυρούπολη 164 52","categoryIds":["cheap-eats"],"categories":["Gyros & Cheap Eats"],"distanceKm":1.8424480778400005},{"id":"cheapEatsRestaurants_fda4a4f93016","slug":"psitopoleio-to-pyrnari-fda4","kind":"restaurant","name":"Ψητοπωλείο «Το Πυρνάρι»","lat":37.874394232840224,"lng":23.766043784078654,"url":"https://maps.app.goo.gl/qS5CXA1L9CMHWtaN7?g_st=ipc","address":"Ανθέων 33, Γλυφάδα 166 74","categoryIds":["cheap-eats"],"categories":["Gyros & Cheap Eats"],"distanceKm":1.8816621376475455},{"id":"dessertsRestaurants_9589925a188d","slug":"sweet-spoon-by-dimitris-drakos-9589","kind":"restaurant","name":"Sweet Spoon by Dimitris Drakos","lat":37.90709513956235,"lng":23.74948764110418,"url":"https://maps.app.goo.gl/QU5RbkRc2rsgbL2s5?g_st=ipc","address":"Μαρίνου Γερουλάνου 59, Αργυρούπολη 164 52","categoryIds":["desserts"],"categories":["Dessert Shops"],"distanceKm":2.065070454302137}],"sameRegion":[],"mentionedGuides":[],"canonicalSlug":"aristofanis-geyseis-estiatoria-psitopoleia-ano-glyfada-1427","enrichment":{"summary_en":"Αριστοφάνης Γεύσεις | Εστιατόρια | Ψητοπωλεία Άνω Γλυφάδα is a curated restaurant in Ελληνικό 167 77 in the Gyros & Cheap Eats collection. It is connected to 3 nearby Googlementor picks to help travelers build a stronger local route.","summary_el":"Αριστοφάνης Γεύσεις | Εστιατόρια | Ψητοπωλεία Άνω Γλυφάδα είναι ένα επιλεγμένο σημείο φαγητού στην περιοχή Ελληνικό 167 77 και ανήκει στη συλλογή Gyros & Cheap Eats. Συνδέεται με 3 κοντινές προτάσεις του Googlementor για πιο ολοκληρωμένη εμπειρία.","vibe_tags":["curated","budget-friendly"],"best_for":["first-time visitors","food lovers","budget travelers"],"visit_moments":["lunch stop","dinner stop"],"practical_note":"Address and direct map link are available for easy turn-by-turn access.","nearby_walkable_count":3,"nearby_count_2km":23,"confidence":0.9},"areaContext":{"slug":"elliniko","name":"Elliniko","nameEl":"Ελληνικό"},"intentContexts":[{"href":"/cheap-eats/elliniko","label":"Gyros & Cheap Eats in Elliniko","categorySlug":"cheap-eats","categoryName":"Gyros & Cheap Eats","areaSlug":"elliniko","areaName":"Elliniko","areaNameEl":"Ελληνικό"}]},"__N_SSG":true}