{"pageProps":{"entity":{"id":"mustSeeAttractions_aab957c1e5d6","slug":"ataturk-museum-of-thessaloniki-aab9","kind":"restaurant","name":"Ataturk Museum of Thessaloniki","lat":40.63574901751839,"lng":22.954355092076376,"url":"https://maps.app.goo.gl/RFapK1M21jxWogbVA?g_st=ipc","address":"Apostolou Pavlou 17, Thessaloniki 546 34","categoryIds":["attractions"],"categories":["Must-See Attractions"]},"sameCategory":[{"id":"mustSeeAttractions_6c182d5c56d9","slug":"arch-of-galerius-6c18","kind":"restaurant","name":"Arch of Galerius","lat":40.6322250425038,"lng":22.95175086035539,"url":"https://maps.app.goo.gl/VHhyUKPZMLXo4AeBA?g_st=ipc","address":"Egnatia 144, Thessaloniki 546 22","categoryIds":["attractions"],"categories":["Must-See Attractions"]},{"id":"mustSeeAttractions_7edc1e3f8f0e","slug":"holy-church-of-saint-demetrius-7edc","kind":"restaurant","name":"Holy Church of Saint Demetrius","lat":40.638898161361496,"lng":22.947614216085658,"url":"https://maps.app.goo.gl/f1z5P772ZL438rrB9?g_st=ipc","address":"Ag. Dimitriou 81-83, Thessaloniki 546 33","categoryIds":["attractions"],"categories":["Must-See Attractions"]},{"id":"mustSeeAttractions_c746cf030037","slug":"roman-forum-of-thessaloniki-c746","kind":"restaurant","name":"Roman Forum of Thessaloniki","lat":40.637858913960656,"lng":22.945675325840927,"url":"https://maps.app.goo.gl/YxX1f2JEnRyib5KP8?g_st=ipc","address":"Olympou 75, Thessaloniki 546 31","categoryIds":["attractions"],"categories":["Must-See Attractions"]},{"id":"mustSeeAttractions_72fd08699c11","slug":"thessaloniki-acropolis-72fd","kind":"restaurant","name":"Thessaloniki Acropolis","lat":40.644004048967396,"lng":22.961770870557544,"url":"https://maps.app.goo.gl/Pj3FuXA7LeypGUARA?g_st=ipc","address":"Eptapirgiou 130, Thessaloniki 546 34","categoryIds":["attractions"],"categories":["Must-See Attractions"]},{"id":"mustSeeAttractions_d05b087a8840","slug":"heptapyrgion-of-thessaloniki-d05b","kind":"restaurant","name":"Heptapyrgion of Thessaloniki","lat":40.64405781477335,"lng":22.96178016442897,"url":"https://maps.app.goo.gl/1s8aj4cc3MbpvaGq9?g_st=ipc","address":"Επταπύργιο, Eptapirgiou 40, Thessaloniki 546 34","categoryIds":["attractions"],"categories":["Must-See Attractions"]},{"id":"mustSeeAttractions_10253cdb4884","slug":"archaeological-museum-of-thessaloniki-1025","kind":"restaurant","name":"Archaeological Museum of Thessaloniki","lat":40.625561586478966,"lng":22.953718318827413,"url":"https://maps.app.goo.gl/MFq7CxhtGP7Gi8k59?g_st=ipc","address":"Manoli Andronikou 6, Thessaloniki 546 21","categoryIds":["attractions"],"categories":["Must-See Attractions"]},{"id":"mustSeeAttractions_43897b8cc3d5","slug":"white-tower-of-thessaloniki-4389","kind":"restaurant","name":"White Tower of Thessaloniki","lat":40.62644387532891,"lng":22.948379384273697,"url":"https://maps.app.goo.gl/Rpx9LHfqRzCfvkCh8?g_st=ipc","address":"Thessaloniki 546 21","categoryIds":["attractions"],"categories":["Must-See Attractions"]},{"id":"mustSeeAttractions_7ae286bbaeee","slug":"museum-of-illusions-thessaloniki-7ae2","kind":"restaurant","name":"Museum of Illusions Thessaloniki","lat":40.635429116411395,"lng":22.93597563245193,"url":"https://maps.app.goo.gl/C3krXMYjPGracAP87?g_st=ipc","address":"Doxis 5, Thessaloniki 546 25","categoryIds":["attractions"],"categories":["Must-See Attractions"]},{"id":"mustSeeAttractions_2ba6bcb8ac97","slug":"palace-of-aigai-aegae-2ba6","kind":"restaurant","name":"Palace of Aigai (Aegae)","lat":40.47783656530058,"lng":22.32233617700311,"url":"https://maps.app.goo.gl/jFwKES4CcpviH3818?g_st=ipc","address":"Vergina 590 31","categoryIds":["attractions"],"categories":["Must-See Attractions"]},{"id":"mustSeeAttractions_3ca5dbf40892","slug":"dion-3ca5","kind":"restaurant","name":"Dion","lat":40.17394047089396,"lng":22.491437674242245,"url":"https://maps.app.goo.gl/cEWrQYsLFdjV6Q239?g_st=ipc","address":"Epar.Od. Katerinis - Limena Litochoriou 910, Dion 601 00","categoryIds":["attractions"],"categories":["Must-See Attractions"]},{"id":"familyFriendly_d34de8d9d566","slug":"kerkini-lake-national-park-d34d","kind":"restaurant","name":"Kerkini Lake National Park","lat":41.25926151784883,"lng":23.14040332719198,"url":"https://maps.app.goo.gl/HMY8KCD3WrpUh6xp6?g_st=ipc","address":"Κερκίνη, 620 55","categoryIds":["family-friendly","attractions"],"categories":["Kid Friendly Locations","Must-See Attractions"],"legacySlugs":["kerkini-lake-national-park-65d9"]},{"id":"mustSeeAttractions_7469acb1186c","slug":"agio-oros-7469","kind":"restaurant","name":"Agio Oros","lat":40.32543105494457,"lng":23.97840678393634,"url":"https://maps.app.goo.gl/wXzMsUCGyGcDfoW59?g_st=ipc","address":"Ouranoupoli 630 75","categoryIds":["attractions"],"categories":["Must-See Attractions"]}],"nearby":[{"id":"cheapEatsRestaurants_aa2a8e3577a2","slug":"liga-ke-kala-aa2a","kind":"restaurant","name":"Liga ke kala","lat":40.63627784998205,"lng":22.954179728027064,"url":"https://maps.app.goo.gl/KNAkyJUgnkqkuPQs9?g_st=ipc","address":"Kassandrou 132, Thessaloniki 546 34","categoryIds":["cheap-eats"],"categories":["Gyros & Cheap Eats"],"distanceKm":0.060636755763374295},{"id":"greekRestaurants_8cc725e89b2f","slug":"doxa-8cc7","kind":"restaurant","name":"Δόξα","lat":40.63645880387639,"lng":22.95480906477019,"url":"https://maps.app.goo.gl/v7a1JB4C1wDKAViy6?g_st=ipc","address":"Αποστόλου Παύλου 25, Θεσσαλονίκη 546 34","categoryIds":["greek-restaurants"],"categories":["Greek Restaurants"],"distanceKm":0.08772979852209718},{"id":"greekRestaurants_64b68d7e42ed","slug":"oinohoos-64b6","kind":"restaurant","name":"Oinohoos","lat":40.63481540848585,"lng":22.95364872951098,"url":"https://maps.app.goo.gl/roxmt796zNAdVec76?g_st=ipc","address":"Kon/nou Melenikou 39, Thessaloniki 546 35","categoryIds":["greek-restaurants"],"categories":["Greek Restaurants"],"distanceKm":0.11970701677625505},{"id":"cheapEatsRestaurants_c01da58dabd8","slug":"pizza-romea-c01d","kind":"restaurant","name":"Pizza Romea","lat":40.636170436374,"lng":22.952743400099628,"url":"https://maps.app.goo.gl/jsFLzjxU7rbpCatGA?g_st=ipc","address":"Ag. Dimitriou 135, Thessaloniki 546 35","categoryIds":["cheap-eats"],"categories":["Gyros & Cheap Eats"],"distanceKm":0.14384396770866284},{"id":"vegetarianRestaurants_8b165a3d11ad","slug":"tarantoula-8b16","kind":"restaurant","name":"Tarantoúla","lat":40.635244984518486,"lng":22.952246319112277,"url":"https://maps.app.goo.gl/8ipQFrqJVpwS17GS7?g_st=ipc","address":"Olympou 127, Thessaloniki 546 35","categoryIds":["vegetarian"],"categories":["Vegetarian Friendly Restaurants"],"distanceKm":0.18656064119722565},{"id":"cheapEatsRestaurants_7ae963e72327","slug":"last-bite-7ae9","kind":"restaurant","name":"LAST BITE","lat":40.63432876296427,"lng":22.95290522955353,"url":"https://maps.app.goo.gl/qLtPEtu7Ux91nEnP8?g_st=ipc","address":"Kiriakou Manolaki 1, Thessaloniki 546 35","categoryIds":["cheap-eats","desserts"],"categories":["Gyros & Cheap Eats","Dessert Shops"],"legacySlugs":["last-bite-cc54"],"distanceKm":0.19977056027161205},{"id":"cheapEatsRestaurants_3a84f1e5b6b2","slug":"pizza-chris-3a84","kind":"restaurant","name":"Pizza Chris","lat":40.634238789767664,"lng":22.952894059300746,"url":"https://maps.app.goo.gl/rMq3J3GrNZNoRMpZ9?g_st=ipc","address":"Armenopoulou 17, Thessaloniki 546 35","categoryIds":["cheap-eats"],"categories":["Gyros & Cheap Eats"],"distanceKm":0.2083263228382885},{"id":"italianRestaurants_d4a8673af302","slug":"rosticceria-di-salonicco-d4a8","kind":"restaurant","name":"Rosticceria di Salonicco","lat":40.633588139092396,"lng":22.954063296681706,"url":"https://maps.app.goo.gl/WqcXyq1eyTArWEmP6?g_st=ipc","address":"Armenopoulou 27, Thessaloniki 546 35","categoryIds":["italian"],"categories":["Italian Restaurants"],"distanceKm":0.24153703214227265},{"id":"greekRestaurants_429218289710","slug":"ta-mikra-kalyvia-4292","kind":"restaurant","name":"Τα μικρά Καλύβια","lat":40.63664047814548,"lng":22.951162513295422,"url":"https://maps.app.goo.gl/Z39MqbdKvPEFnvnK6?g_st=ipc","address":"Ἁγ. Δημητρίου 136, Θεσσαλονίκη 546 35","categoryIds":["greek-restaurants"],"categories":["Greek Restaurants"],"distanceKm":0.2870525975347817},{"id":"coffeeBrunchRestaurants_f04e1b347f8a","slug":"tabya-f04e","kind":"restaurant","name":"Tabya","lat":40.6330498721733,"lng":22.954427623261545,"url":"https://maps.app.goo.gl/FxsAHzVitWKgJyqY8?g_st=ipc","address":"Kon/nou Melenikou 14, Thessaloniki 546 35","categoryIds":["coffee-brunch"],"categories":["Coffee & Brunch Spots"],"distanceKm":0.3001936679687907},{"id":"greekRestaurants_6297c85e5b73","slug":"to-limeri-6297","kind":"restaurant","name":"Το λημέρι","lat":40.63585070853852,"lng":22.950530015801274,"url":"https://maps.app.goo.gl/WWLkDZFBAptyzgH88?g_st=ipc","address":"Ολύμπου 116, Θεσσαλονίκη 546 35","categoryIds":["greek-restaurants"],"categories":["Greek Restaurants"],"distanceKm":0.3229651609024275},{"id":"greekRestaurants_f55cb9debc6f","slug":"iliopetra-f55c","kind":"restaurant","name":"Ηλιόπετρα","lat":40.637407844896174,"lng":22.95118029752211,"url":"https://maps.app.goo.gl/twTSSnJJWA1rop578?g_st=ipc","address":"Αισχύλου 5, Θεσσαλονίκη 546 34","categoryIds":["greek-restaurants"],"categories":["Greek Restaurants"],"distanceKm":0.3252523922902281},{"id":"greekRestaurants_c3b293abf29a","slug":"taverna-asylo-c3b2","kind":"restaurant","name":"Ταβέρνα Άσυλο","lat":40.634483959485976,"lng":22.957970652421718,"url":"https://maps.app.goo.gl/YcnTd1dcPwKyoKFT9?g_st=ipc","address":"Πανεπιστημίου 2, Αγ. Παύλος 546 36","categoryIds":["greek-restaurants"],"categories":["Greek Restaurants"],"distanceKm":0.33595828518725424},{"id":"cheapEatsRestaurants_3f9006febdb5","slug":"life-and-chicken-3f90","kind":"restaurant","name":"Life And Chicken","lat":40.63311964993022,"lng":22.951739765062324,"url":"https://maps.app.goo.gl/fczSwQFG8SAVzjsu7?g_st=ipc","address":"Κέντρο, Θεσσαλονίκη, Patriarchou Ioakim 26, Thessaloniki 546 35","categoryIds":["cheap-eats"],"categories":["Gyros & Cheap Eats"],"distanceKm":0.36631405416176815},{"id":"cheapEatsRestaurants_963344db5c1c","slug":"mimis-9633","kind":"restaurant","name":"Mimis","lat":40.63706330748784,"lng":22.950306559309492,"url":"https://maps.app.goo.gl/m8WS13tHpdvSyxE99?g_st=ipc","address":"Ag. Dimitriou 126, Thessaloniki 546 35","categoryIds":["cheap-eats"],"categories":["Gyros & Cheap Eats"],"distanceKm":0.37156646084595574},{"id":"coffeeBrunchRestaurants_cec31106b257","slug":"canela-kamara-cec3","kind":"restaurant","name":"CANELA KAMARA","lat":40.63288705394979,"lng":22.951924664943846,"url":"https://maps.app.goo.gl/uer9gPdcnKtNqaiA8?g_st=ipc","address":"Vasou 2, Thessaloniki 546 35","categoryIds":["coffee-brunch"],"categories":["Coffee & Brunch Spots"],"distanceKm":0.37859657688072723},{"id":"italianRestaurants_d3fb4b2d1274","slug":"osteria-dai-fioi-d3fb","kind":"restaurant","name":"Osteria dai Fioi","lat":40.633770916934814,"lng":22.950440152016508,"url":"https://maps.app.goo.gl/ptx8MrTs166UDsu79?g_st=ipc","address":"Leonida Iasonidou 9, Thessaloniki 546 35","categoryIds":["italian"],"categories":["Italian Restaurants"],"distanceKm":0.3968811317336032},{"id":"fishTavernasRestaurants_ec7fddf4df43","slug":"mourga-ec7f","kind":"restaurant","name":"Mourga","lat":40.635412338789585,"lng":22.94963013274726,"url":"https://maps.app.goo.gl/u7q8zzuEjPhJ53mR7?g_st=ipc","address":"Christopoulou 12, Thessaloniki 546 35","categoryIds":["fish-tavernas"],"categories":["Fish Tavernas"],"distanceKm":0.4004560449575005},{"id":"greekRestaurants_0c9a78977f40","slug":"nea-folia-0c9a","kind":"restaurant","name":"Νέα Φωλιά","lat":40.63831468853848,"lng":22.95095515507328,"url":"https://maps.app.goo.gl/RoPE5F5QLpWFB4rcA?g_st=ipc","address":"Αριστομένους 4, Θεσσαλονίκη 546 34","categoryIds":["greek-restaurants"],"categories":["Greek Restaurants"],"distanceKm":0.4045921019437951},{"id":"burgersRestaurants_d933f81e3617","slug":"pass-the-smashed-d933","kind":"restaurant","name":"Pass The Smashed","lat":40.63217264797822,"lng":22.953233528916606,"url":"https://maps.app.goo.gl/gnzc1t32pqqQF6sQ7?g_st=ic","address":"Episkopou Kitrous Nikolaou 2, Thessaloniki 546 35","categoryIds":["burgers"],"categories":["Burger Spots"],"distanceKm":0.4087809667330957},{"id":"greekRestaurants_c253491b9a8d","slug":"to-igglis-taverna-c253","kind":"restaurant","name":"το \"Ιγγλις\" ταβέρνα","lat":40.63880204066886,"lng":22.95710932601345,"url":"https://maps.app.goo.gl/dRFfUaqod6DSYEDx8?g_st=ipc","address":"Ηροδότου 32, Θεσσαλονίκη 546 34","categoryIds":["greek-restaurants"],"categories":["Greek Restaurants"],"distanceKm":0.4114097392763373},{"id":"coffeeBrunchRestaurants_1ba6faa5ef16","slug":"naked-1ba6","kind":"restaurant","name":"NAKED","lat":40.6351156138034,"lng":22.949358819047884,"url":"https://maps.app.goo.gl/tVt4qfxaTjfyP7oG8?g_st=ipc","address":"Filippou 62, Thessaloniki 546 35","categoryIds":["coffee-brunch"],"categories":["Coffee & Brunch Spots"],"distanceKm":0.42743984319777506},{"id":"vegetarianRestaurants_43af59721fc8","slug":"omg-in-skg-43af","kind":"restaurant","name":"OMG in SKG","lat":40.63186182844344,"lng":22.953097770969947,"url":"https://maps.app.goo.gl/b6twRtPbJbTuXUe26?g_st=ipc","address":"Episkopou Kitrous Nikolaou 1, Thessaloniki 546 35","categoryIds":["vegetarian"],"categories":["Vegetarian Friendly Restaurants"],"distanceKm":0.4450669077325763},{"id":"mustSeeAttractions_6c182d5c56d9","slug":"arch-of-galerius-6c18","kind":"restaurant","name":"Arch of Galerius","lat":40.6322250425038,"lng":22.95175086035539,"url":"https://maps.app.goo.gl/VHhyUKPZMLXo4AeBA?g_st=ipc","address":"Egnatia 144, Thessaloniki 546 22","categoryIds":["attractions"],"categories":["Must-See Attractions"],"distanceKm":0.44926344846604455}],"sameRegion":[],"mentionedGuides":[{"slug":"greek-bakeries-brunch-coffee-guide-el","title":"Ελληνική Αρτοποιία, Brunch & Κουλτούρα Καφέ"},{"slug":"greek-bakeries-brunch-coffee-guide","title":"Greek Bakeries, Brunch & Coffee Culture"},{"slug":"tap-water-safe-greece-el","title":"Είναι Ασφαλές να Πίνετε Νερό Βρύσης στην Ελλάδα;"},{"slug":"tap-water-safe-greece","title":"Is Tap Water Safe to Drink in Greece?"},{"slug":"traveling-to-greece-on-a-budget-el","title":"Ταξιδι στην Ελλαδα με μικρο budget"},{"slug":"traveling-to-greece-on-a-budget","title":"Traveling to Greece on a Budget"}],"canonicalSlug":"ataturk-museum-of-thessaloniki-aab9","enrichment":{"summary_en":"Ataturk Museum of Thessaloniki is a curated restaurant in Thessaloniki 546 34 in the Must-See Attractions collection. It is connected to 83 nearby Googlementor picks to help travelers build a stronger local route.","summary_el":"Ataturk Museum of Thessaloniki είναι ένα επιλεγμένο σημείο φαγητού στην περιοχή Thessaloniki 546 34 και ανήκει στη συλλογή Must-See Attractions. Συνδέεται με 83 κοντινές προτάσεις του Googlementor για πιο ολοκληρωμένη εμπειρία.","vibe_tags":["curated"],"best_for":["first-time visitors","food lovers"],"visit_moments":["lunch stop","dinner stop"],"practical_note":"Address and direct map link are available for easy turn-by-turn access.","nearby_walkable_count":83,"nearby_count_2km":266,"confidence":0.98},"areaContext":{"slug":"valaoritoy","name":"Valaritou","nameEl":"Βαλαωρίτου"},"intentContexts":[{"href":"/attractions/valaoritoy","label":"Must-See Attractions in Valaritou","categorySlug":"attractions","categoryName":"Must-See Attractions","areaSlug":"valaoritoy","areaName":"Valaritou","areaNameEl":"Βαλαωρίτου"}]},"__N_SSG":true}