{"pageProps":{"entity":{"id":"mustSeeAttractions_87fa659eb90c","slug":"balos-beach-87fa","kind":"restaurant","name":"Balos Beach","lat":35.57925124423901,"lng":23.588718436351613,"url":"https://maps.app.goo.gl/f8pqZqUtkRrXFShb8?g_st=ipc","address":"Kissamos 734 00","categoryIds":["attractions"],"categories":["Must-See Attractions"]},"sameCategory":[{"id":"mustSeeAttractions_da0706993263","slug":"arkadi-monastery-da07","kind":"restaurant","name":"Arkadi Monastery","lat":35.30989822185389,"lng":24.629043901550116,"url":"https://maps.app.goo.gl/sig6rYbJ8UK4ZqaX7?g_st=ipc","address":"Arkadi 741 50","categoryIds":["attractions"],"categories":["Must-See Attractions"]},{"id":"mustSeeAttractions_f427acd3fd5b","slug":"minoan-palace-of-phaistos-f427","kind":"restaurant","name":"Minoan Palace of Phaistos","lat":35.05129549151393,"lng":24.81458473558241,"url":"https://maps.app.goo.gl/qCcEvj915iPr2zD37?g_st=ipc","address":"Άγιος Ιωάννης, Kamilari 702 00","categoryIds":["attractions"],"categories":["Must-See Attractions"]},{"id":"mustSeeAttractions_00d499d24fcf","slug":"kastropoliteia-monemvasias-00d4","kind":"restaurant","name":"Καστροπολιτεία Μονεμβασιάς","lat":36.687484458767585,"lng":23.0558013260312,"url":"https://maps.app.goo.gl/a1RARGnxhykKakN29?g_st=ipc","address":"Monemvasia 230 70","categoryIds":["attractions"],"categories":["Must-See Attractions"]},{"id":"mustSeeAttractions_b10cf3afde5d","slug":"cape-tainaron-lighthouse-b10c","kind":"restaurant","name":"Cape Tainaron Lighthouse","lat":36.38632728796919,"lng":22.482904269212387,"url":"https://maps.app.goo.gl/qXxKEnky6NL6j8mX7?g_st=ipc","address":"Ανατολική Μάνη Ακρωτήριο Ταιναρο Anatoliki Mani, 230 71","categoryIds":["attractions"],"categories":["Must-See Attractions"]},{"id":"mustSeeAttractions_32e162886e33","slug":"knossos-palace-32e1","kind":"restaurant","name":"Knossos Palace","lat":35.29796093261648,"lng":25.162788626146504,"url":"https://maps.app.goo.gl/rAusZkVNEW96qAfY9?g_st=ipc","address":"Knossos 714 09","categoryIds":["attractions"],"categories":["Must-See Attractions"]},{"id":"mustSeeAttractions_a11f312d6e9f","slug":"caves-of-diros-a11f","kind":"restaurant","name":"Caves of Diros","lat":36.63819892596898,"lng":22.38069545600633,"url":"https://maps.app.goo.gl/Quro2ZP1jQNXZ1M5A?g_st=ipc","address":"Pyrgos Dirou 230 63","categoryIds":["attractions"],"categories":["Must-See Attractions"]},{"id":"mustSeeAttractions_fcaf48a77b52","slug":"akrotiri-fcaf","kind":"restaurant","name":"Akrotiri","lat":36.351796236748676,"lng":25.403447201033227,"url":"https://maps.app.goo.gl/wBKcGui1HWeMLpjPA?g_st=ipc","address":"Fira 847 00","categoryIds":["attractions"],"categories":["Must-See Attractions"]},{"id":"mustSeeAttractions_10eb6a61dc7d","slug":"mystras-10eb","kind":"restaurant","name":"Mystras","lat":37.06880575051119,"lng":22.375815197260966,"url":"https://maps.app.goo.gl/Ad6oLYv7MUahs6GT6?g_st=ipc","address":"Mistras 231 00","categoryIds":["attractions"],"categories":["Must-See Attractions"]},{"id":"mustSeeAttractions_007b974cc264","slug":"archaeological-site-of-mystras-007b","kind":"restaurant","name":"Archaeological Site of Mystras","lat":37.0741056706056,"lng":22.3669181951106,"url":"https://maps.app.goo.gl/hRfeUmzdQ9kFWn689?g_st=ipc","address":"Lower Town 231 00","categoryIds":["attractions"],"categories":["Must-See Attractions"]},{"id":"mustSeeAttractions_e7d3f595ce74","slug":"spilaio-katafyki-e7d3","kind":"restaurant","name":"Σπήλαιο Καταφύκι","lat":37.381809266398925,"lng":24.430137129464182,"url":"https://maps.app.goo.gl/ihjdRvavpYz6Jjd5A?g_st=ipc","address":"Δρυοπίδα 840 06","categoryIds":["attractions"],"categories":["Must-See Attractions"]},{"id":"mustSeeAttractions_a60d85bb9886","slug":"methoni-castle-a60d","kind":"restaurant","name":"Methoni Castle","lat":36.81667229767631,"lng":21.705266643313138,"url":"https://maps.app.goo.gl/k9fRFDUZV5HCUUQ88?g_st=ipc","address":"Unnamed Rd, Methoni 240 06","categoryIds":["attractions"],"categories":["Must-See Attractions"]},{"id":"mustSeeAttractions_1762cb7f3f45","slug":"archaio-theatro-asklipieioy-epidayroy-1762","kind":"restaurant","name":"Αρχαίο Θέατρο Ασκληπιείου Επιδαύρου","lat":37.59612250456949,"lng":23.079285116251615,"url":"https://maps.app.goo.gl/4dZguixUu49kmP199?g_st=ipc","address":"Επίδαυρος 210 52","categoryIds":["attractions"],"categories":["Must-See Attractions"]}],"nearby":[{"id":"greekRestaurants_dd95a846bd00","slug":"taverna-gramvoysa-dd95","kind":"restaurant","name":"Ταβέρνα Γραμβούσα","lat":35.51332300936157,"lng":23.608418720167336,"url":"https://maps.app.goo.gl/zB6hp23GajJ65U8F9?g_st=ipc","address":"Εμμανουήλ Δεικτάκη 1, Καλυβιανή 734 00","categoryIds":["greek-restaurants"],"categories":["Greek Restaurants"],"distanceKm":7.544444937275396},{"id":"municipalities_4e60225f7fa0","slug":"falasarna-4e60","kind":"municipality","name":"Φαλάσαρνα","lat":35.49,"lng":23.588,"region":"Κρήτη","name_en":"Falasarna","region_en":"Crete","distanceKm":9.924498472839435},{"id":"municipalities_62af137be2d2","slug":"kissamos-62af","kind":"municipality","name":"Κίσσαμος","lat":35.493,"lng":23.653,"region":"Δυτική Κρήτη","name_en":"Kissamos","region_en":"West Crete","distanceKm":11.216649954329354},{"id":"wineriesVineyards_1e78873b8ebe","slug":"pnevmatikaki-s-a-1e78","kind":"restaurant","name":"PNEVMATIKAKI S.A.","lat":35.49514634531768,"lng":23.71327829803601,"url":"https://maps.app.goo.gl/osNQqbqujG8u5Npj7?g_st=ipc","address":"Drapanias 734 00","categoryIds":["wineries-vineyards"],"categories":["Wineries & Vineyards"],"distanceKm":14.64539003850753},{"id":"greekRestaurants_5434fa5002e6","slug":"tavern-restaurant-hotel-arxontas-koutsomatados-5434","kind":"restaurant","name":"Tavern Restaurant Hotel Arxontas Koutsomatados","lat":35.40554475283456,"lng":23.68281950120623,"url":"https://maps.app.goo.gl/tgscAf7VVnueaRex6?g_st=ipc","address":"Κουτσοματαδος 734 00","categoryIds":["greek-restaurants"],"categories":["Greek Restaurants"],"distanceKm":21.110644276548303},{"id":"wineriesVineyards_30791389b0f6","slug":"anoskeli-winery-3079","kind":"restaurant","name":"Anoskeli Winery","lat":35.460142479001455,"lng":23.77578731455054,"url":"https://maps.app.goo.gl/PgqU5uYf8bg9kRur9?g_st=ipc","address":"Ανώσκελη 730 02","categoryIds":["wineries-vineyards"],"categories":["Wineries & Vineyards"],"distanceKm":21.49529567287952}],"sameRegion":[],"mentionedGuides":[],"canonicalSlug":"balos-beach-87fa","enrichment":{"summary_en":"Balos Beach is a curated restaurant in Greece in the Must-See Attractions collection. It is connected to 0 nearby Googlementor picks to help travelers build a stronger local route.","summary_el":"Balos Beach είναι ένα επιλεγμένο σημείο φαγητού στην περιοχή Greece και ανήκει στη συλλογή Must-See Attractions. Συνδέεται με 0 κοντινές προτάσεις του Googlementor για πιο ολοκληρωμένη εμπειρία.","vibe_tags":["curated"],"best_for":["first-time visitors","food lovers"],"visit_moments":["lunch stop","dinner stop"],"practical_note":"Address and direct map link are available for easy turn-by-turn access.","nearby_walkable_count":0,"nearby_count_2km":0,"confidence":0.9},"areaContext":null,"intentContexts":[]},"__N_SSG":true}