{"pageProps":{"entity":{"id":"luxuryDiningRestaurants_771807889c8b","slug":"beastalis-food-for-proud-meat-eaters-7718","kind":"restaurant","name":"BEASTALIS ,Food for proud meat eaters","lat":37.867214606158306,"lng":23.7473035874199,"url":"https://maps.app.goo.gl/2E1n4NVs2CjMsLQo7?g_st=ipc","address":"Κύπρου 9, Γλυφάδα 166 75","categoryIds":["luxury-dining"],"categories":["Luxury Dining"]},"sameCategory":[{"id":"luxuryDiningRestaurants_0dbacc69dd52","slug":"feedel-asador-0dba","kind":"restaurant","name":"FEEDEL ASADOR","lat":37.86621086434499,"lng":23.74871853137983,"url":"https://maps.app.goo.gl/axUbgwvJZkdNUx4n8?g_st=ipc","address":"Ν Ζερβα 24 Και, Κύπρου, Γλυφάδα 166 75","categoryIds":["luxury-dining"],"categories":["Luxury Dining"]},{"id":"luxuryDiningRestaurants_72f0c7381e5c","slug":"caretta-athens-72f0","kind":"restaurant","name":"Caretta Athens","lat":37.8628471518072,"lng":23.74485660521178,"url":"https://maps.app.goo.gl/Uw1vLRNczCvaVvgf8?g_st=ipc","address":"Διαδόχου Παύλου 46, Γλυφάδα 166 75","categoryIds":["luxury-dining"],"categories":["Luxury Dining"]},{"id":"greekRestaurants_2c46fb9be459","slug":"basegrill-2c46","kind":"restaurant","name":"Basegrill","lat":37.860629906056765,"lng":23.752227328267114,"url":"https://maps.app.goo.gl/Mg499qYpRgDUfYMg9","address":"Ζησιμοπούλου 5, Γλυφάδα 166 74","categoryIds":["greek-restaurants","luxury-dining"],"categories":["Greek Restaurants","Luxury Dining"],"legacySlugs":["basegrill-e825"]},{"id":"luxuryDiningRestaurants_7d36e4ca660e","slug":"ark-7d36","kind":"restaurant","name":"Ark","lat":37.85971913916164,"lng":23.74981043696894,"url":"https://maps.app.goo.gl/Dx4oajrWFGZwwetZ9?g_st=ipc","address":"Γρ. Λαμπράκη 2, Γλυφάδα 166 74","categoryIds":["luxury-dining"],"categories":["Luxury Dining"]},{"id":"coffeeBrunchRestaurants_f000d793a460","slug":"bungalow7-athens-f000","kind":"restaurant","name":"Bungalow7 Athens","lat":37.858739347203105,"lng":23.751507417801406,"url":"https://maps.app.goo.gl/46sTr1wF8Q2Bajpu7?g_st=ipc","address":"Λεωφ. Ποσειδώνος 110, Γλυφάδα 166 75","categoryIds":["coffee-brunch","luxury-dining"],"categories":["Coffee & Brunch Spots","Luxury Dining"],"legacySlugs":["bungalow7-athens-3c7a"]},{"id":"luxuryDiningRestaurants_d4685ec9fc7a","slug":"barbarossa-athens-d468","kind":"restaurant","name":"Barbarossa Athens","lat":37.85088920250088,"lng":23.748814418850717,"url":"https://maps.app.goo.gl/oUiPt5pCahzP963D8?g_st=ipc","address":"Λεωφ. Αλκυονίδων 4, Βούλα 166 73","categoryIds":["luxury-dining"],"categories":["Luxury Dining"]},{"id":"fishTavernasRestaurants_eb690c18b7db","slug":"sea-satin-athens-riviera-eb69","kind":"restaurant","name":"Sea Satin Athens Riviera","lat":37.840376863615674,"lng":23.760387360489776,"url":"https://maps.app.goo.gl/1QEDPDZdZC7GT8ne9?g_st=ipc","address":"Λεωφ. Κωνσταντίνου Καραμανλή 14, Βούλα 166 73","categoryIds":["fish-tavernas","luxury-dining"],"categories":["Fish Tavernas","Luxury Dining"],"legacySlugs":["sea-satin-athens-riviera-daf4"]},{"id":"luxuryDiningRestaurants_9dba478c9326","slug":"faidon-s-athens-9dba","kind":"restaurant","name":"FAIDON'S Athens","lat":37.841556503840984,"lng":23.766513107501794,"url":"https://maps.app.goo.gl/keaSEXUAsA2Tk34x9?g_st=ipc","address":"Αγίου Ιωάννου 28, Βούλα 166 73","categoryIds":["luxury-dining"],"categories":["Luxury Dining"]},{"id":"luxuryDiningRestaurants_c1ae11688e19","slug":"drakoulis-dry-raw-butcheries-voula-c1ae","kind":"restaurant","name":"Drakoulis Dry & Raw - Butcheries Voula","lat":37.837831960071576,"lng":23.769665916102717,"url":"https://maps.app.goo.gl/uMQc68wzQ6KRLhmv6?g_st=ipc","address":"Λεωφ. Βασιλέως Παύλου 103, Βούλα 166 73","categoryIds":["luxury-dining"],"categories":["Luxury Dining"]},{"id":"luxuryDiningRestaurants_b47f4027e341","slug":"son-b47f","kind":"restaurant","name":"Son","lat":37.92472593519205,"lng":23.751887900106137,"url":"https://maps.app.goo.gl/CjAYjU4oYoEDKsXh6?g_st=ipc","address":"Leof. El. Venizelou 197, Ilioupoli 163 41","categoryIds":["luxury-dining"],"categories":["Luxury Dining"]},{"id":"luxuryDiningRestaurants_cf5e588a6dce","slug":"estiatorio-ithaki-cf5e","kind":"restaurant","name":"Εστιατόριο Ιθάκη","lat":37.811063360560766,"lng":23.773264732265726,"url":"https://maps.app.goo.gl/bgcHWrkEN1tinWgK8?g_st=ipc","address":"Apollonos, Αθήνας 28, Βουλιαγμένη 166 71","categoryIds":["luxury-dining"],"categories":["Luxury Dining"]},{"id":"fishTavernasRestaurants_a752a7fe8192","slug":"matsuhisa-athens-a752","kind":"restaurant","name":"Matsuhisa Athens","lat":37.806991167366505,"lng":23.7721702530857,"url":"https://maps.app.goo.gl/kX1Hohg5k4FcqjgeA?g_st=ipc","address":"40, Απόλλωνος street, Βουλιαγμένη 166 71","categoryIds":["fish-tavernas","luxury-dining"],"categories":["Fish Tavernas","Luxury Dining"],"legacySlugs":["matsuhisa-athens-c10d"]}],"nearby":[{"id":"familyFriendly_bba3af84c3c6","slug":"bella-vespa-bba3","kind":"restaurant","name":"Bella Vespa","lat":37.86706675735918,"lng":23.747387332761612,"url":"https://maps.app.goo.gl/dpip4AngfBL8xv2M8?g_st=ipc","address":"Κύπρου 11, Γλυφάδα 166 75","categoryIds":["family-friendly","italian"],"categories":["Kid Friendly Locations","Italian Restaurants"],"legacySlugs":["bella-vespa-976a"],"distanceKm":0.018008776937224493},{"id":"coffeeBrunchRestaurants_d0cf8543ac4f","slug":"la-linda-bakery-cafe-d0cf","kind":"restaurant","name":"La Linda Bakery & Café","lat":37.86700115203996,"lng":23.7478274102709,"url":"https://maps.app.goo.gl/2uSwHrZcryhig7ebA?g_st=ipc","address":"Κύπρου 13, Γλυφάδα 166 75","categoryIds":["coffee-brunch"],"categories":["Coffee & Brunch Spots"],"distanceKm":0.05174634005878537},{"id":"luxuryDiningRestaurants_0dbacc69dd52","slug":"feedel-asador-0dba","kind":"restaurant","name":"FEEDEL ASADOR","lat":37.86621086434499,"lng":23.74871853137983,"url":"https://maps.app.goo.gl/axUbgwvJZkdNUx4n8?g_st=ipc","address":"Ν Ζερβα 24 Και, Κύπρου, Γλυφάδα 166 75","categoryIds":["luxury-dining"],"categories":["Luxury Dining"],"distanceKm":0.16698572413725424},{"id":"cheapEatsRestaurants_4792fbe09c71","slug":"zahoulis-glyfada-4792","kind":"restaurant","name":"ZAHOULIS GLYFADA","lat":37.86453214322605,"lng":23.747876477019613,"url":"https://maps.app.goo.gl/mDh3F8ASwiDrm4yK9?g_st=ipc","address":"Γεωρ. Κονδύλη 7, Γλυφάδα 166 75","categoryIds":["cheap-eats"],"categories":["Gyros & Cheap Eats"],"distanceKm":0.30248603746530095},{"id":"monasteriesChurches_7e1015acfe83","slug":"ieros-mitropolitikos-naos-agion-konstantinoy-kai-elenis-glyfados-7e10","kind":"restaurant","name":"Ιερός Μητροπολιτικός Ναός Αγίων Κωνσταντίνου και Ελένης Γλυφάδος","lat":37.86486928057967,"lng":23.745526823345948,"url":"https://maps.app.goo.gl/qTQwxJXWuuhNBZ4H6?g_st=ipc","address":"Λεωφ. Ποσειδώνος 55, Γλυφάδα 166 75","categoryIds":["monasteries-churches"],"categories":["Monasteries & Spiritual Sites"],"distanceKm":0.3038698210499797},{"id":"fishTavernasRestaurants_fd7ed352bb9f","slug":"kapetan-giorgis-o-mytilinios-fd7e","kind":"restaurant","name":"Καπετάν Γιώργης «Ο Μυτιληνιός»","lat":37.86441144968363,"lng":23.748467238824272,"url":"https://maps.app.goo.gl/SNmz2TBABsNaydEj9?g_st=ipc","address":"Κωνσταντινουπόλεως 9, Γλυφάδα 166 75","categoryIds":["fish-tavernas"],"categories":["Fish Tavernas"],"distanceKm":0.32800797954663174},{"id":"dessertsRestaurants_b3c46904a396","slug":"zacharoplasteia-kosmikon-glyfada-b3c4","kind":"restaurant","name":"ΖΑΧΑΡΟΠΛΑΣΤΕΙΑ ΚΟΣΜΙΚΟΝ ΓΛΥΦΑΔΑ","lat":37.86337786046336,"lng":23.74796656462487,"url":"https://maps.app.goo.gl/1fokhebPfhs4GEHC9?g_st=ipc","address":"ΠΛΑΤΕΙΑ Β.ΚΑΤΡΑΚΗ 6, Γλυφάδα 166 75","categoryIds":["desserts"],"categories":["Dessert Shops"],"distanceKm":0.4305779425566617},{"id":"italianRestaurants_dd5b148ca8d7","slug":"peccati-di-gola-dd5b","kind":"restaurant","name":"Peccati Di Gola","lat":37.86427445144013,"lng":23.751331713919253,"url":"https://maps.app.goo.gl/o1MzXXTU18xSPfb69?g_st=ipc","address":"Κύπρου 50, Γλυφάδα 166 75","categoryIds":["italian"],"categories":["Italian Restaurants"],"distanceKm":0.48157762865835724},{"id":"dessertsRestaurants_be9aa2b3d746","slug":"zacharoplasteia-konstantinidis-be9a","kind":"restaurant","name":"ΖΑΧΑΡΟΠΛΑΣΤΕΙΑ ΚΩΝΣΤΑΝΤΙΝΙΔΗΣ","lat":37.86285457304868,"lng":23.747625446803166,"url":"https://maps.app.goo.gl/g6zb8a7yvG1oTafe7?g_st=ipc","address":"Λεωφ. Ποσειδώνος 67, Γλυφάδα 166 75","categoryIds":["desserts"],"categories":["Dessert Shops"],"distanceKm":0.4856361608512677},{"id":"coffeeBrunchRestaurants_2219681181b1","slug":"moyzilo-cheiropoiites-pites-2219","kind":"restaurant","name":"Μουζίλο Χειροποίητες Πίτες","lat":37.863579478184825,"lng":23.751077862250096,"url":"https://maps.app.goo.gl/BjHAhdumoxMHfZrP7?g_st=ipc","address":"Δούσμανη 13, Γλυφάδα 166 75","categoryIds":["coffee-brunch"],"categories":["Coffee & Brunch Spots"],"distanceKm":0.5226432428571435},{"id":"italianRestaurants_c1362c021208","slug":"itali-co-c136","kind":"restaurant","name":"ITALI.CO","lat":37.86253909414944,"lng":23.747999477664532,"url":"https://maps.app.goo.gl/pCnDdDLDMjkN2CGv6?g_st=ipc","address":"Ανδρέα Παπανδρέου 3, Γλυφάδα 166 75","categoryIds":["italian"],"categories":["Italian Restaurants"],"distanceKm":0.5234698676942133},{"id":"luxuryDiningRestaurants_72f0c7381e5c","slug":"caretta-athens-72f0","kind":"restaurant","name":"Caretta Athens","lat":37.8628471518072,"lng":23.74485660521178,"url":"https://maps.app.goo.gl/Uw1vLRNczCvaVvgf8?g_st=ipc","address":"Διαδόχου Παύλου 46, Γλυφάδα 166 75","categoryIds":["luxury-dining"],"categories":["Luxury Dining"],"distanceKm":0.5310239069863779},{"id":"coffeeBrunchRestaurants_fbea8c421ce3","slug":"caretta-athens-fbea","kind":"restaurant","name":"Caretta Athens","lat":37.862846234971734,"lng":23.74485632954315,"url":"https://maps.app.goo.gl/PACnRoSTwLJJ2zwm9?g_st=ipc","address":"Diadochou Pavlou 46, Glifada 166 75","categoryIds":["coffee-brunch"],"categories":["Coffee & Brunch Spots"],"distanceKm":0.5311269310376537},{"id":"dessertsRestaurants_69cd6eee7bdc","slug":"feticcio-69cd","kind":"restaurant","name":"Feticcio","lat":37.86242143862677,"lng":23.7483896053031,"url":"https://maps.app.goo.gl/DZAdZa4SXmpc2YmZ9?g_st=ipc","address":"Ανδρέα Παπανδρέου 4, Γλυφάδα 166 75","categoryIds":["desserts"],"categories":["Dessert Shops"],"distanceKm":0.5414352213691179},{"id":"familyFriendly_55f46ad3d361","slug":"sea-turtle-rescue-centre-55f4","kind":"restaurant","name":"Sea Turtle Rescue Centre","lat":37.863977076270096,"lng":23.741869224495424,"url":"https://maps.app.goo.gl/rnhMSdAUACk8DJcQ6?g_st=ic","address":"3rd Glyfada Marina, Αθήνα 166 75","categoryIds":["family-friendly"],"categories":["Kid Friendly Locations"],"distanceKm":0.5976371405727093},{"id":"fishTavernasRestaurants_09bf347d2df8","slug":"astakos-09bf","kind":"restaurant","name":"Astakos","lat":37.861679317741114,"lng":23.746806965342177,"url":"https://maps.app.goo.gl/ZCrtkSHsj9hx9EuQA?g_st=ipc","address":"Διαδόχου Παύλου 46, Γλυφάδα 166 75","categoryIds":["fish-tavernas"],"categories":["Fish Tavernas"],"distanceKm":0.6170380058007272},{"id":"dessertsRestaurants_2ea0c1d8df4a","slug":"routina-glyfada-2ea0","kind":"restaurant","name":"Routina Glyfada","lat":37.86189651923641,"lng":23.7499341335772,"url":"https://maps.app.goo.gl/sSMfazw5iP79eG8K7?g_st=ipc","address":"Δούσμανη 8, Γλυφάδα 166 75","categoryIds":["desserts"],"categories":["Dessert Shops"],"distanceKm":0.634832667089577},{"id":"asianRestaurants_f6ce39f326eb","slug":"noodle-bar-glyfada-f6ce","kind":"restaurant","name":"NOODLE BAR ΓΛΥΦΑΔΑ","lat":37.872037331445135,"lng":23.752155686687118,"url":"https://maps.app.goo.gl/GoKuSs69HC1RbxyBA?g_st=ipc","address":"Ξενοφώντος 20, Γλυφάδα 166 75","categoryIds":["asian"],"categories":["Asian Restaurants"],"distanceKm":0.6848184017376798},{"id":"dessertsRestaurants_cdd2ff99e09f","slug":"choureal-choux-profiterole-cdd2","kind":"restaurant","name":"Choureal - Choux & Profiterole","lat":37.86175419711277,"lng":23.7510964996929,"url":"https://maps.app.goo.gl/jqVCKVDpx8nte58k7?g_st=ipc","address":"Lazaraki 39, Glifada 166 75","categoryIds":["desserts"],"categories":["Dessert Shops"],"distanceKm":0.6924714463928064},{"id":"greekRestaurants_b64cf8867729","slug":"tefariki-b64c","kind":"restaurant","name":"Τεφαρίκι","lat":37.871857113105406,"lng":23.752753345977908,"url":"https://maps.app.goo.gl/mcH8XPhdX39hW6V59","address":"Ξενοφώντος 28, Γλυφάδα 166 75","categoryIds":["greek-restaurants"],"categories":["Greek Restaurants"],"distanceKm":0.7037937069682484},{"id":"dessertsRestaurants_18a065b2a830","slug":"despina-patisserie-18a0","kind":"restaurant","name":"Despina Patisserie","lat":37.861200491297915,"lng":23.749911676405425,"url":"https://maps.app.goo.gl/2bahw7piY4dbXkYo7?g_st=ipc","address":"Leof. Poseidonos 83, Glifada 166 75","categoryIds":["desserts"],"categories":["Dessert Shops"],"distanceKm":0.706845311657837},{"id":"greekRestaurants_0d2e578d4137","slug":"sasmos-kritiko-estiatorio-0d2e","kind":"restaurant","name":"Σασμός Κρητικό Εστιατόριο","lat":37.86096099153773,"lng":23.750381646450872,"url":"https://maps.app.goo.gl/hFF1UKLboDX66HUH8","address":"Γρ. Λαμπράκη 1-3, Γλυφάδα 166 75","categoryIds":["greek-restaurants"],"categories":["Greek Restaurants"],"distanceKm":0.746023921362325},{"id":"familyFriendly_11e87a91baef","slug":"plateia-chariton-11e8","kind":"restaurant","name":"Πλατεία Χαρίτων","lat":37.86415490115138,"lng":23.75493366426452,"url":"https://maps.app.goo.gl/eBpgr4RX9Y42hXEw6?g_st=ipc","address":"Σεμέλης 1, Γλυφάδα 166 74","categoryIds":["family-friendly"],"categories":["Kid Friendly Locations"],"distanceKm":0.751247356415699},{"id":"coffeeBrunchRestaurants_bf37b14fbfdf","slug":"kool-food-and-coffee-bf37","kind":"restaurant","name":"KOOL Food and Coffee","lat":37.8617153280559,"lng":23.75264950039194,"url":"https://maps.app.goo.gl/zAtPpG6k1DNtijDy5?g_st=ipc","address":"Leof. Dimarchou Aggelou Metaxa 22, Glifada 166 74","categoryIds":["coffee-brunch"],"categories":["Coffee & Brunch Spots"],"distanceKm":0.7708136766016753}],"sameRegion":[],"mentionedGuides":[],"canonicalSlug":"beastalis-food-for-proud-meat-eaters-7718","enrichment":{"summary_en":"BEASTALIS ,Food for proud meat eaters is a curated restaurant in Γλυφάδα 166 75 in the Luxury Dining collection. It is connected to 24 nearby Googlementor picks to help travelers build a stronger local route.","summary_el":"BEASTALIS ,Food for proud meat eaters είναι ένα επιλεγμένο σημείο φαγητού στην περιοχή Γλυφάδα 166 75 και ανήκει στη συλλογή Luxury Dining. Συνδέεται με 24 κοντινές προτάσεις του Googlementor για πιο ολοκληρωμένη εμπειρία.","vibe_tags":["curated","premium-dining"],"best_for":["first-time visitors","food lovers","special occasions"],"visit_moments":["lunch stop","dinner stop"],"practical_note":"Address and direct map link are available for easy turn-by-turn access.","nearby_walkable_count":24,"nearby_count_2km":67,"confidence":0.98},"areaContext":{"slug":"glyfada","name":"Glyfada","nameEl":"Γλυφάδα"},"intentContexts":[{"href":"/luxury-dining/glyfada","label":"Luxury Dining in Glyfada","categorySlug":"luxury-dining","categoryName":"Luxury Dining","areaSlug":"glyfada","areaName":"Glyfada","areaNameEl":"Γλυφάδα"}]},"__N_SSG":true}