{"pageProps":{"entity":{"id":"burgersRestaurants_82d2f41d9265","slug":"big-nick-82d2","kind":"restaurant","name":"Big Nick","lat":37.956445331565305,"lng":23.73566615673783,"url":"https://maps.app.goo.gl/j5eRwkA5Uf2bwVHs7?g_st=ipc","address":"Λεωφόρος Βουλιαγμένης 145, Αθήνα 116 31","categoryIds":["burgers","vegetarian"],"categories":["Burger Spots","Vegetarian Friendly Restaurants"],"legacySlugs":["big-nick-ce09"]},"sameCategory":[{"id":"vegetarianRestaurants_74f8ca9bcb55","slug":"dinette-dafni-74f8","kind":"restaurant","name":"Dinette Dafni","lat":37.949260684351316,"lng":23.73612865746863,"url":"https://maps.app.goo.gl/kkxVViHsfrAhDtz38?g_st=ipc","address":"Μιχαήλ Καραολή 1-3, Αθήνα 172 35","categoryIds":["vegetarian"],"categories":["Vegetarian Friendly Restaurants"]},{"id":"coffeeBrunchRestaurants_88ec9d6dfbbc","slug":"joshua-tree-cafe-88ec","kind":"restaurant","name":"Joshua Tree Cafe","lat":37.96618895456632,"lng":23.73475215870415,"url":"https://maps.app.goo.gl/hxko2CRaz8QbMJPc8?g_st=ipc","address":"Αναπαύσεως 13, Αθήνα 116 36","categoryIds":["coffee-brunch","vegetarian"],"categories":["Coffee & Brunch Spots","Vegetarian Friendly Restaurants"],"legacySlugs":["joshua-tree-cafe-e75c"]},{"id":"vegetarianRestaurants_6bddca4a5310","slug":"the-room-mets-6bdd","kind":"restaurant","name":"THE ROOM METS","lat":37.96677955241959,"lng":23.737885963446566,"url":"https://maps.app.goo.gl/stBGTxofrCxpCP4q7?g_st=ipc","address":"Μαρκ. Μουσούρου 22, Αθήνα 116 36","categoryIds":["vegetarian"],"categories":["Vegetarian Friendly Restaurants"]},{"id":"vegetarianRestaurants_2e588abb0db5","slug":"baba-ghanoush-2e58","kind":"restaurant","name":"Baba Ghanoush","lat":37.96544673051708,"lng":23.74367426912522,"url":"https://maps.app.goo.gl/TVzEkkpCr1SQ2ZUEA?g_st=ipc","address":"Εμπεδοκλέους 25 - 27, Αθήνα 116 35","categoryIds":["vegetarian"],"categories":["Vegetarian Friendly Restaurants"]},{"id":"coffeeBrunchRestaurants_85c9b3242244","slug":"this-is-loco-85c9","kind":"restaurant","name":"This is Loco","lat":37.96542578565319,"lng":23.726906270555997,"url":"https://maps.app.goo.gl/DKCmfLqp6KdRCVPg6?g_st=ipc","address":"Φαλήρου 47, Αθήνα 117 42","categoryIds":["coffee-brunch","vegetarian"],"categories":["Coffee & Brunch Spots","Vegetarian Friendly Restaurants"],"legacySlugs":["this-is-loco-0b77"]},{"id":"vegetarianRestaurants_0ae45380f9c5","slug":"veganaki-0ae4","kind":"restaurant","name":"Veganaki","lat":37.96756765452738,"lng":23.732928786701812,"url":"https://maps.app.goo.gl/t4BDCPnwuYDPfBZS9?g_st=ipc","address":"Αθανασίου Διάκου 38 (38, Αθήνα 117 43","categoryIds":["vegetarian"],"categories":["Vegetarian Friendly Restaurants"]},{"id":"vegetarianRestaurants_4db58e18de0e","slug":"peas-vegan-4db5","kind":"restaurant","name":"Peas Vegan","lat":37.965309081383936,"lng":23.72648212033699,"url":"https://maps.app.goo.gl/8AeCWeh7LczgaD87A?g_st=ipc","address":"Φαλήρου 40, Αθήνα 117 42","categoryIds":["vegetarian"],"categories":["Vegetarian Friendly Restaurants"]},{"id":"vegetarianRestaurants_663d79e21a0f","slug":"noa-poke-koukaki-663d","kind":"restaurant","name":"Noa Poke Koukaki","lat":37.962721066064105,"lng":23.72328239582356,"url":"https://maps.app.goo.gl/2BHN8JbCEv2oz4LT8?g_st=ipc","address":"Φαλήρου 84, Αθήνα 117 41","categoryIds":["vegetarian"],"categories":["Vegetarian Friendly Restaurants"]},{"id":"burgersRestaurants_bebf6534ac83","slug":"tarantino-burgers-athens-bebf","kind":"restaurant","name":"Tarantino Burgers Athens","lat":37.96648556958662,"lng":23.727729975927073,"url":"https://maps.app.goo.gl/SzYTBZRaHtH1zEgv6?g_st=ipc","address":"Δημητρακοπούλου 17, Αθήνα 117 42","categoryIds":["burgers"],"categories":["Burger Spots"]},{"id":"vegetarianRestaurants_aff422e1c3ba","slug":"mama-tierra-acropolis-vegan-street-food-aff4","kind":"restaurant","name":"Mama Tierra Acropolis - Vegan street food","lat":37.967546083723775,"lng":23.729864462543613,"url":"https://maps.app.goo.gl/3M9tmest5ooaQwtE8?g_st=ipc","address":"Χατζηχρήστου 29, Αθήνα 117 42","categoryIds":["vegetarian"],"categories":["Vegetarian Friendly Restaurants"]},{"id":"burgersRestaurants_ad6cf86d44bd","slug":"sam-burgers-ad6c","kind":"restaurant","name":"Sam burgers","lat":37.96388468249238,"lng":23.72312062221316,"url":"https://maps.app.goo.gl/pYEUc4KHraPYUmvN8?g_st=ipc","address":"Δημητρακοπούλου 82, Αθήνα 117 41","categoryIds":["burgers"],"categories":["Burger Spots"]},{"id":"cheapEatsRestaurants_ccda7a47a1b9","slug":"falafel-bar-to-revithi-ccda","kind":"restaurant","name":"falafel bar ΤΟ ΡΕΒΙΘΙ","lat":37.96631483519238,"lng":23.7261110398094,"url":"https://maps.app.goo.gl/4FqJYg2raYZvXHja7?g_st=ipc","address":"Παρθενώνος 1, Αθήνα 117 42","categoryIds":["cheap-eats","vegetarian"],"categories":["Gyros & Cheap Eats","Vegetarian Friendly Restaurants"],"legacySlugs":["falafel-bar-to-revithi-dec0"]}],"nearby":[{"id":"italianRestaurants_bdaaf75d6c5e","slug":"canarino-bdaa","kind":"restaurant","name":"Canarino","lat":37.95905367625766,"lng":23.73382645635927,"url":"https://maps.app.goo.gl/kPu5BDkNuumunei99?g_st=ipc","address":"Ηλία Ηλιού 28, Αθήνα 117 43","categoryIds":["italian"],"categories":["Italian Restaurants"],"distanceKm":0.33186654406150207},{"id":"asianRestaurants_245947f00892","slug":"one-piece-sushi-noodlebar-2459","kind":"restaurant","name":"One Piece Sushi & NoodleBar","lat":37.95987156768248,"lng":23.736223837796196,"url":"https://maps.app.goo.gl/haanYsUxepJjZsmTA?g_st=ipc","address":"Ilia Iliou 6, Μενεκράτους 39, Αθήνα 116 36","categoryIds":["asian"],"categories":["Asian Restaurants"],"distanceKm":0.3841046540158585},{"id":"cheapEatsRestaurants_cf76698c40fb","slug":"o-achilleas-cheiropoiitos-gyros-cf76","kind":"restaurant","name":"Ο Αχιλλέας (χειροποίητος γύρος)","lat":37.95973976836696,"lng":23.733064950731986,"url":"https://maps.app.goo.gl/SrhYjUikLgP2R2HT7?g_st=ipc","address":"Σπινθάρου 18, Αθήνα 117 43","categoryIds":["cheap-eats"],"categories":["Gyros & Cheap Eats"],"distanceKm":0.43151234049566023},{"id":"luxuryDiningRestaurants_bb06ffef1662","slug":"jerar-bb06","kind":"restaurant","name":"Jerár","lat":37.951578580834756,"lng":23.735160182054084,"url":"https://maps.app.goo.gl/FdaHgzGN8Q8h9ubz8?g_st=ipc","address":"Αγίας Βαρβάρας 55, Δάφνη Αττικής 172 35","categoryIds":["luxury-dining"],"categories":["Luxury Dining"],"distanceKm":0.5429733145205073},{"id":"cheapEatsRestaurants_17e24777d3f9","slug":"o-giatros-tis-peinas-17e2","kind":"restaurant","name":"Ο Γιατρός της Πείνας","lat":37.9576250215062,"lng":23.729472460111847,"url":"https://maps.app.goo.gl/Rbxz8a7b6mXRVXtX9?g_st=ipc","address":"Ηλία Ηλιού 59, Αθήνα 117 44","categoryIds":["cheap-eats"],"categories":["Gyros & Cheap Eats"],"distanceKm":0.5586458278737582},{"id":"cheapEatsRestaurants_59f1048e980a","slug":"to-steki-toy-kosta-59f1","kind":"restaurant","name":"Το Στέκι του Κώστα","lat":37.95121107984788,"lng":23.735124045238276,"url":"https://maps.app.goo.gl/gtmBLN9nUzctuFYM8?g_st=ipc","address":"Αγίας Βαρβάρας 59, Δάφνη Αττικής 172 35","categoryIds":["cheap-eats"],"categories":["Gyros & Cheap Eats"],"distanceKm":0.5839598441440796},{"id":"municipalities_0eb5ad956816","slug":"neos-kosmos-0eb5","kind":"municipality","name":"Νέος Κόσμος","lat":37.9563,"lng":23.7289,"region":"Κέντρο Αθήνας","name_en":"Neos Kosmos","region_en":"Athens Center","distanceKm":0.59344218288968},{"id":"greekRestaurants_33a0b55abdc4","slug":"to-trikyklo-33a0","kind":"restaurant","name":"Το Τρικυκλο","lat":37.96243041130632,"lng":23.732361770965667,"url":"https://maps.app.goo.gl/iQ4V71S2t14KAPNM9","address":"Πυθέου 34-Θ.Γεωμετρου 1, Πυθέου 34, Αθήνα 117 43","categoryIds":["greek-restaurants"],"categories":["Greek Restaurants"],"distanceKm":0.7258306189446264},{"id":"greekRestaurants_dcfbb404a98b","slug":"to-ypogeio-toy-marathoniti-dcfb","kind":"restaurant","name":"Το Υπόγειο του Μαραθωνίτη","lat":37.96187332155002,"lng":23.74031744806371,"url":"https://maps.app.goo.gl/pp5rzZKvkv6W1fXL7","address":"Βίνκελμαν 3, Αθήνα 116 32","categoryIds":["greek-restaurants"],"categories":["Greek Restaurants"],"distanceKm":0.728409287859215},{"id":"cheapEatsRestaurants_1640e0da72d1","slug":"smasheat-o-1640","kind":"restaurant","name":"Smasheat'o","lat":37.95001486404743,"lng":23.73773292955517,"url":"https://maps.app.goo.gl/nrXvTuy8yr3sWi7k8?g_st=ipc","address":"Meg. Alexandrou 2, Athina 172 35","categoryIds":["cheap-eats"],"categories":["Gyros & Cheap Eats"],"distanceKm":0.7376403641246897},{"id":"greekRestaurants_b3da8ddd3955","slug":"lostre-koyzina-b3da","kind":"restaurant","name":"Λοστρέ κουζίνα","lat":37.96258323945813,"lng":23.732334829769364,"url":"https://maps.app.goo.gl/T4yBbxnNyvkykNoS9","address":"Πυθέου 32, Αθήνα 117 43","categoryIds":["greek-restaurants"],"categories":["Greek Restaurants"],"distanceKm":0.7423690385219895},{"id":"asianRestaurants_38b8b7a5de82","slug":"garum-athens-38b8","kind":"restaurant","name":"Garum Athens","lat":37.96322815000365,"lng":23.734456659008355,"url":"https://maps.app.goo.gl/MU1e8JQujzPUM5ZN6","address":"Kelsou 10, Athina 116 36","categoryIds":["asian","luxury-dining"],"categories":["Asian Restaurants","Luxury Dining"],"legacySlugs":["garum-athens-dc2b"],"distanceKm":0.7616326114573211},{"id":"coffeeBrunchRestaurants_eb390a2ff655","slug":"ohayo-teahouse-eb39","kind":"restaurant","name":"Ohayo Teahouse","lat":37.949425041480666,"lng":23.734793004377693,"url":"https://maps.app.goo.gl/vkq5bgJaaWXHr76X8?g_st=ipc","address":"Αγίας Βαρβάρας 79, Αθήνα 172 35","categoryIds":["coffee-brunch"],"categories":["Coffee & Brunch Spots"],"distanceKm":0.7843657176126935},{"id":"municipalities_54bb39e9ab94","slug":"dafni-54bb","kind":"municipality","name":"Δάφνη","lat":37.95,"lng":23.732,"aliases":["Dafni","Daphni","Δαφνη","Daphne"],"region":"Νότια Προάστια","name_en":"Dafni","region_en":"Southern Suburbs","distanceKm":0.7854731001622793},{"id":"vegetarianRestaurants_74f8ca9bcb55","slug":"dinette-dafni-74f8","kind":"restaurant","name":"Dinette Dafni","lat":37.949260684351316,"lng":23.73612865746863,"url":"https://maps.app.goo.gl/kkxVViHsfrAhDtz38?g_st=ipc","address":"Μιχαήλ Καραολή 1-3, Αθήνα 172 35","categoryIds":["vegetarian"],"categories":["Vegetarian Friendly Restaurants"],"distanceKm":0.7999248503159453},{"id":"greekRestaurants_e8a12eb29aae","slug":"eylalia-e8a1","kind":"restaurant","name":"Ευλαλία","lat":37.96221703725563,"lng":23.742138763953527,"url":"https://maps.app.goo.gl/HVpdCimDL2uUQGMfA","address":"Φρύνωνος 10, Αθήνα 116 32","categoryIds":["greek-restaurants"],"categories":["Greek Restaurants"],"distanceKm":0.8566800443016094},{"id":"dessertsRestaurants_e43c42b90f2e","slug":"madame-fraise-e43c","kind":"restaurant","name":"Madame Fraise","lat":37.96254401203089,"lng":23.741655782873448,"url":"https://maps.app.goo.gl/Fa8Ak5n35wZADRZJ8?g_st=ipc","address":"Υμηττού 225, Αθήνα 116 32","categoryIds":["desserts"],"categories":["Dessert Shops"],"distanceKm":0.8576861046677179},{"id":"greekRestaurants_5c7530a68c50","slug":"ladokolla-dafnis-5c75","kind":"restaurant","name":"Λαδόκολλα Δάφνης","lat":37.948710278848054,"lng":23.736099857630663,"url":"https://maps.app.goo.gl/DJkwhBF35mfEBRKG7","address":"Λεωφ. Αλ. Παπαναστασίου 8, Δάφνη Αττικής 172 35","categoryIds":["greek-restaurants"],"categories":["Greek Restaurants"],"distanceKm":0.8609388254086894},{"id":"italianRestaurants_297de75e2491","slug":"la-bella-napoli-297d","kind":"restaurant","name":"La Bella Napoli","lat":37.95333874485214,"lng":23.726510881566565,"url":"https://maps.app.goo.gl/viysAA695txjhPLE6?g_st=ipc","address":"Ρουμπέση 64, Αθήνα 172 30","categoryIds":["italian"],"categories":["Italian Restaurants"],"distanceKm":0.8738765532649768},{"id":"cheapEatsRestaurants_15b8f9de5a02","slug":"robin-belgian-streetfood-15b8","kind":"restaurant","name":"Robin Belgian streetfood","lat":37.96249493210435,"lng":23.729203293671816,"url":"https://maps.app.goo.gl/4RTN9WGd3FCHQamG6?g_st=ipc","address":"Θεοδώρητου Βρεσθένης 31, Αθήνα 117 43","categoryIds":["cheap-eats"],"categories":["Gyros & Cheap Eats"],"distanceKm":0.8795160151568525},{"id":"coffeeBrunchRestaurants_c191ebb5fd6a","slug":"teras-athens-c191","kind":"restaurant","name":"Teras Athens","lat":37.96132522695651,"lng":23.727704519576132,"url":"https://maps.app.goo.gl/Q7ocWz9NPgB5Zoaa6?g_st=ipc","address":"Θεοδώρητου Βρεσθένης 45, Αθήνα 117 43","categoryIds":["coffee-brunch"],"categories":["Coffee & Brunch Spots"],"distanceKm":0.8841134518740751},{"id":"greekRestaurants_11dff068e9ea","slug":"taverna-toy-vardi-11df","kind":"restaurant","name":"Ταβέρνα του Βαρδή","lat":37.95570603338151,"lng":23.74583290711746,"url":"https://maps.app.goo.gl/6RAXFnJTA2DTzwA88","address":"Καισαρείας 9, Υμηττός 172 37","categoryIds":["greek-restaurants"],"categories":["Greek Restaurants"],"distanceKm":0.8951551012860032},{"id":"cheapEatsRestaurants_258b939a478f","slug":"psitopoleio-to-empeiro-258b","kind":"restaurant","name":"Ψητοπωλείο Το Έμπειρο","lat":37.96275771902048,"lng":23.72923609945131,"url":"https://maps.app.goo.gl/kpwhPwcxrACr1psm9?g_st=ipc","address":"Ηρακλέους 28, Αθήνα 117 43","categoryIds":["cheap-eats"],"categories":["Gyros & Cheap Eats"],"distanceKm":0.9002569689638854},{"id":"coffeeBrunchRestaurants_95dcd35af657","slug":"artopoieio-zacharoplasteio-arto-zymia-95dc","kind":"restaurant","name":"Αρτοποιείο Ζαχαροπλαστείο \"Αρτο..ζυμιά\"","lat":37.96420038301339,"lng":23.731208987347678,"url":"https://maps.app.goo.gl/FBqvEkq9TKnNFmzu9?g_st=ipc","address":"Αγλαονίκης 22, Αθήνα 117 43","categoryIds":["coffee-brunch","desserts"],"categories":["Coffee & Brunch Spots","Dessert Shops"],"legacySlugs":["artopoieio-zacharoplasteio-arto-zymia-afb8"],"distanceKm":0.9467280136069941}],"sameRegion":[],"mentionedGuides":[],"canonicalSlug":"big-nick-82d2","enrichment":{"summary_en":"Big Nick is a curated restaurant in Αθήνα 116 31 in the Burger Spots collection. It is connected to 15 nearby Googlementor picks to help travelers build a stronger local route.","summary_el":"Big Nick είναι ένα επιλεγμένο σημείο φαγητού στην περιοχή Αθήνα 116 31 και ανήκει στη συλλογή Burger Spots. Συνδέεται με 15 κοντινές προτάσεις του Googlementor για πιο ολοκληρωμένη εμπειρία.","vibe_tags":["curated"],"best_for":["first-time visitors","food lovers"],"visit_moments":["lunch stop","dinner stop"],"practical_note":"Address and direct map link are available for easy turn-by-turn access.","nearby_walkable_count":15,"nearby_count_2km":231,"confidence":0.98},"areaContext":{"slug":"neos-kosmos","name":"Neos Kosmos","nameEl":"Νέος Κόσμος"},"intentContexts":[{"href":"/burgers/neos-kosmos","label":"Burger Spots in Neos Kosmos","categorySlug":"burgers","categoryName":"Burger Spots","areaSlug":"neos-kosmos","areaName":"Neos Kosmos","areaNameEl":"Νέος Κόσμος"},{"href":"/vegetarian/neos-kosmos","label":"Vegetarian Friendly Restaurants in Neos Kosmos","categorySlug":"vegetarian","categoryName":"Vegetarian Friendly Restaurants","areaSlug":"neos-kosmos","areaName":"Neos Kosmos","areaNameEl":"Νέος Κόσμος"}]},"__N_SSG":true}