{"pageProps":{"entity":{"id":"luxuryDiningRestaurants_84da05872d04","slug":"delta-restaurant-84da","kind":"restaurant","name":"Delta Restaurant","lat":37.939081506016144,"lng":23.69146940163584,"url":"https://maps.app.goo.gl/GSgBvngfewJdVtkA7?g_st=ipc","address":"Λεωφ. Ανδρέα Συγγρού 364, Αθήνα 176 74","categoryIds":["luxury-dining"],"categories":["Luxury Dining"]},"sameCategory":[{"id":"luxuryDiningRestaurants_8af90b11228b","slug":"e-o-pan-asian-restaurant-athens-8af9","kind":"restaurant","name":"e&o Pan-Asian Restaurant Athens","lat":37.94077150497406,"lng":23.696879786243304,"url":"https://maps.app.goo.gl/nAwF6RqCeQF6rY2P9?g_st=ipc","address":"Λεωφ. Ανδρέα Συγγρού 385, Παλαιό Φάληρο 175 64","categoryIds":["luxury-dining"],"categories":["Luxury Dining"]},{"id":"asianRestaurants_6ef4181fa78e","slug":"kenko-japanese-restaurant-6ef4","kind":"restaurant","name":"Kenko Japanese Restaurant","lat":37.94729381865282,"lng":23.715042181127906,"url":"https://maps.app.goo.gl/XHTSnCRdEDq5dRxc7?g_st=ipc","address":"Λεωφ. Ελ. Βενιζέλου 22, Νέα Σμύρνη 171 21","categoryIds":["asian","luxury-dining"],"categories":["Asian Restaurants","Luxury Dining"],"legacySlugs":["kenko-japanese-restaurant-c964"]},{"id":"luxuryDiningRestaurants_223cae9767cf","slug":"nest-rooftop-monte-kastella-223c","kind":"restaurant","name":"ΝΕΣΤ Rooftop - Monte Kastella","lat":37.93966255701075,"lng":23.661584217897186,"url":"https://maps.app.goo.gl/KrWjCjHhBZcKtAsU9?g_st=ipc","address":"Λεωφ. Αλ. Παπαναστασίου 109, Πειραιάς 185 33","categoryIds":["luxury-dining","rooftop-lounges"],"categories":["Luxury Dining","Rooftop Lounges"],"legacySlugs":["nest-rooftop-monte-kastella-d731"]},{"id":"fishTavernasRestaurants_159bf25520a5","slug":"varoulko-seaside-restaurant-159b","kind":"restaurant","name":"Varoulko Seaside Restaurant","lat":37.93728962950612,"lng":23.658502308499486,"url":"https://maps.app.goo.gl/hXejEzhnCFuwNgQb8?g_st=ipc","address":"Ακτή Κουμουνδούρου 54, Πειραιάς 185 33","categoryIds":["fish-tavernas","luxury-dining"],"categories":["Fish Tavernas","Luxury Dining"],"legacySlugs":["varoulko-seaside-restaurant-e7d4"]},{"id":"luxuryDiningRestaurants_b29116d56a30","slug":"herve-restaurant-b291","kind":"restaurant","name":"Herve Restaurant","lat":37.96670241575443,"lng":23.709370285349806,"url":"https://maps.app.goo.gl/o5KA9u8fZnaZ9XMY6?g_st=ipc","address":"Τριών Ιεραρχών 170, Αθήνα 118 52","categoryIds":["luxury-dining"],"categories":["Luxury Dining"]},{"id":"luxuryDiningRestaurants_e93ed529fdfa","slug":"hams-clams-e93e","kind":"restaurant","name":"Hams & Clams","lat":37.93313157813386,"lng":23.64744436080488,"url":"https://maps.app.goo.gl/KsnmFZ1WnGooiyEV7?g_st=ipc","address":"Λιμάνι, Μαρίνα Ζέας, Πειραιάς 185 37","categoryIds":["luxury-dining"],"categories":["Luxury Dining"]},{"id":"luxuryDiningRestaurants_bb06ffef1662","slug":"jerar-bb06","kind":"restaurant","name":"Jerár","lat":37.951578580834756,"lng":23.735160182054084,"url":"https://maps.app.goo.gl/FdaHgzGN8Q8h9ubz8?g_st=ipc","address":"Αγίας Βαρβάρας 55, Δάφνη Αττικής 172 35","categoryIds":["luxury-dining"],"categories":["Luxury Dining"]},{"id":"luxuryDiningRestaurants_449388b6e901","slug":"gallina-athens-4493","kind":"restaurant","name":"Gallina Athens","lat":37.964508186769734,"lng":23.726121733406966,"url":"https://maps.app.goo.gl/zkqCQmDUHjdt7RX4A?g_st=ipc","address":"Μαρκ. Μπότσαρη 49, Αθήνα 117 42","categoryIds":["luxury-dining"],"categories":["Luxury Dining"]},{"id":"luxuryDiningRestaurants_ef48010de0b4","slug":"mitsis-n-u-piraeus-port-ef48","kind":"restaurant","name":"Mitsis N'U Piraeus Port","lat":37.946256281878604,"lng":23.642735306655823,"url":"https://maps.app.goo.gl/3DKm52Lh2ApKNN1X8?g_st=ipc","address":"Αριστείδου 16-20, Πειραιάς 185 31","categoryIds":["luxury-dining"],"categories":["Luxury Dining"]},{"id":"luxuryDiningRestaurants_3c6581cd9485","slug":"esthio-athens-3c65","kind":"restaurant","name":"Esthio Athens","lat":37.96676654589047,"lng":23.72827244889686,"url":"https://maps.app.goo.gl/Ldu5GaEmi8GWuxbX6?g_st=ipc","address":"Δημητρακοπούλου 7, Αθήνα 117 42","categoryIds":["luxury-dining"],"categories":["Luxury Dining"]},{"id":"luxuryDiningRestaurants_08d018b1cd7a","slug":"manimani-08d0","kind":"restaurant","name":"ΜΑΝΗΜΑΝΗ","lat":37.96669521915854,"lng":23.72836820432756,"url":"https://maps.app.goo.gl/XJabCFiZNQjmGZzb7?g_st=ipc","address":"Φαλήρου 10, Αθήνα 117 42","categoryIds":["luxury-dining"],"categories":["Luxury Dining"]},{"id":"luxuryDiningRestaurants_8f9976dae124","slug":"point-a-acropolis-point-8f99","kind":"restaurant","name":"POINT A (Acropolis Point)","lat":37.968415622994755,"lng":23.72706617377212,"url":"https://maps.app.goo.gl/NiwbpnxKE4g22Tzw6?g_st=ipc","address":"Ροβέρτου Γκάλι 4a, Αθήνα 117 42","categoryIds":["luxury-dining","rooftop-lounges"],"categories":["Luxury Dining","Rooftop Lounges"],"legacySlugs":["point-a-acropolis-point-fcea"]}],"nearby":[{"id":"familyFriendly_a3e2f6188bf1","slug":"kentro-politismoy-idryma-stayros-niarchos-a3e2","kind":"restaurant","name":"Κέντρο Πολιτισμού Ίδρυμα Σταύρος Νιάρχος","lat":37.93985683037055,"lng":23.692122482978903,"url":"https://maps.app.goo.gl/ib2tnNRmM1foX6zd8?g_st=ipc","address":"Λεωφ. Ανδρέα Συγγρού 364, Καλλιθέα 176 74","categoryIds":["family-friendly","attractions"],"categories":["Kid Friendly Locations","Must-See Attractions"],"legacySlugs":["kentro-politismoy-idryma-stayros-niarchos-dc50"],"distanceKm":0.10350176799785533},{"id":"fishTavernasRestaurants_d3ccb775792b","slug":"pezoylas-apo-to-1951-d3cc","kind":"restaurant","name":"ΠΕΖΟΥΛΑΣ (από το 1951)","lat":37.941197029624846,"lng":23.689708276473834,"url":"https://maps.app.goo.gl/wNokkeuemmPoYfgR7?g_st=ipc","address":"Πεισίστρατου 11, Καλλιθέα 176 74","categoryIds":["fish-tavernas"],"categories":["Fish Tavernas"],"distanceKm":0.28140297279800397},{"id":"familyFriendly_2be04a6b1d81","slug":"parko-stayros-niarchos-2be0","kind":"restaurant","name":"Πάρκο Σταύρος Νιάρχος","lat":37.942200854453496,"lng":23.69345667519833,"url":"https://maps.app.goo.gl/8s92kLGvmU1yA3fe8?g_st=ipc","address":"Λεωφ. Ανδρέα Συγγρού 364, Καλλιθέα 176 74","categoryIds":["family-friendly"],"categories":["Kid Friendly Locations"],"distanceKm":0.3881744248502152},{"id":"coffeeBrunchRestaurants_ae83561038ee","slug":"earth-athens-cafe-ae83","kind":"restaurant","name":"Earth Athens Cafe","lat":37.941294659441795,"lng":23.687632862231634,"url":"https://maps.app.goo.gl/ZTYgTAJLEes56zpH6?g_st=ipc","address":"Λεωφ. Ποσειδώνος 16, Αθήνα 176 74","categoryIds":["coffee-brunch"],"categories":["Coffee & Brunch Spots"],"distanceKm":0.4168386042981038},{"id":"coffeeBrunchRestaurants_4b099057dd52","slug":"jardin-all-day-stories-all-day-bar-restaurant-4b09","kind":"restaurant","name":"Jardin All Day Stories ALL DAY BAR RESTAURANT","lat":37.9431877608235,"lng":23.691220347054728,"url":"https://maps.app.goo.gl/6WktKFcLfn3upUnQ6?g_st=ipc","address":"Ναυάρχου Βότση 1, Καλλιθέα 176 74","categoryIds":["coffee-brunch"],"categories":["Coffee & Brunch Spots"],"distanceKm":0.45711675040742966},{"id":"familyFriendly_afbd73fa31fe","slug":"neo-psifiako-planitario-idrymatos-eygenidoy-afbd","kind":"restaurant","name":"Νέο Ψηφιακό Πλανητάριο Ιδρύματος Ευγενίδου","lat":37.939924135926155,"lng":23.69664152972377,"url":"https://maps.app.goo.gl/6jTSzr4LUutvW78x6?g_st=ipc","address":"387 Syggrou Ave. (entrance 11, Πεντέλης st, Αθήνα 175 64","categoryIds":["family-friendly"],"categories":["Kid Friendly Locations"],"distanceKm":0.4631464824196948},{"id":"luxuryDiningRestaurants_8af90b11228b","slug":"e-o-pan-asian-restaurant-athens-8af9","kind":"restaurant","name":"e&o Pan-Asian Restaurant Athens","lat":37.94077150497406,"lng":23.696879786243304,"url":"https://maps.app.goo.gl/nAwF6RqCeQF6rY2P9?g_st=ipc","address":"Λεωφ. Ανδρέα Συγγρού 385, Παλαιό Φάληρο 175 64","categoryIds":["luxury-dining"],"categories":["Luxury Dining"],"distanceKm":0.5103205080399099},{"id":"greekRestaurants_80e12cc840c6","slug":"arsenis-80e1","kind":"restaurant","name":"Arsenis","lat":37.93975062587842,"lng":23.699103162428067,"url":"https://maps.app.goo.gl/gyD8tEfz4zabut3VA","address":"Ζησιμοπούλου 19, Παλαιό Φάληρο 175 64","categoryIds":["greek-restaurants"],"categories":["Greek Restaurants"],"distanceKm":0.6735656043036512},{"id":"asianRestaurants_6469a1c3e3f9","slug":"seoul-house-restaurant-6469","kind":"restaurant","name":"Seoul House Restaurant","lat":37.93747372174057,"lng":23.69891697936759,"url":"https://maps.app.goo.gl/ibEXR2ZExidRVduY6?g_st=ipc","address":"Ζησιμοπούλου 40, Παλαιό Φάληρο 175 64","categoryIds":["asian"],"categories":["Asian Restaurants"],"distanceKm":0.6771525312326737},{"id":"italianRestaurants_47773e592b01","slug":"vitello-trattoria-romana-4777","kind":"restaurant","name":"Vitello Trattoria Romana","lat":37.93748817614671,"lng":23.699162197380616,"url":"https://maps.app.goo.gl/QapvvUw9jwdJSAM69?g_st=ipc","address":"Ζησιμοπούλου 41, Παλαιό Φάληρο 175 64","categoryIds":["italian"],"categories":["Italian Restaurants"],"distanceKm":0.6975073277169228},{"id":"cheapEatsRestaurants_a8d42456619d","slug":"k-grill-a8d4","kind":"restaurant","name":"K Grill","lat":37.94385577895444,"lng":23.685146441261658,"url":"https://maps.app.goo.gl/jm56NTQ4kCuysLqy9?g_st=ipc","address":"Λεωφ. Ελ. Βενιζέλου 330, Καλλιθέα 176 75","categoryIds":["cheap-eats"],"categories":["Gyros & Cheap Eats"],"distanceKm":0.7676414266150389},{"id":"cheapEatsRestaurants_5a582036089f","slug":"soyvlakia-o-leyteris-5a58","kind":"restaurant","name":"Σουβλάκια Ο Λευτέρης","lat":37.9462875556964,"lng":23.690611255358668,"url":"https://maps.app.goo.gl/ZYkxvzMHun71tMk86?g_st=ipc","address":"Ξενοφώντος 146, Καλλιθέα 176 74","categoryIds":["cheap-eats"],"categories":["Gyros & Cheap Eats"],"distanceKm":0.8048020521515229},{"id":"greekRestaurants_8f822e8ac2ff","slug":"koytoyki-kalypso-8f82","kind":"restaurant","name":"Κουτούκι Καλυψώ","lat":37.94264199335833,"lng":23.700097006546933,"url":"https://maps.app.goo.gl/rZqTMGc8sQwmZ4zq9","address":"Πεντέλης 41-43, Παλαιό Φάληρο 175 64","categoryIds":["greek-restaurants"],"categories":["Greek Restaurants"],"distanceKm":0.8539102720022554},{"id":"dessertsRestaurants_4a419c4649f4","slug":"zacharoplasteia-kosmikon-p-faliro-4a41","kind":"restaurant","name":"ΖΑΧΑΡΟΠΛΑΣΤΕΙΑ ΚΟΣΜΙΚΟΝ Π.ΦΑΛΗΡΟ","lat":37.93261968622875,"lng":23.696837541827062,"url":"https://maps.app.goo.gl/JkkxEzmScmoGgm2v7?g_st=ipc","address":"Αγίου Αλεξάνδρου, Ζησιμοπούλου &, Παλαιό Φάληρο 175 61","categoryIds":["desserts"],"categories":["Dessert Shops"],"distanceKm":0.8590166083151216},{"id":"fishTavernasRestaurants_074f55a0dc1f","slug":"argoyra-074f","kind":"restaurant","name":"Άργουρα","lat":37.94571544668026,"lng":23.686046120341317,"url":"https://maps.app.goo.gl/1kvNDFxr5cv6uWZC9?g_st=ipc","address":"Αγησιλάου 49, Καλλιθέα 176 75","categoryIds":["fish-tavernas"],"categories":["Fish Tavernas"],"distanceKm":0.8776763061098284},{"id":"dessertsRestaurants_39196d9bee61","slug":"fatto-a-mano-3919","kind":"restaurant","name":"Fatto a Mano","lat":37.93356989313718,"lng":23.69912680674615,"url":"https://maps.app.goo.gl/6dQNxoEQLFVCyt9ZA?g_st=ipc","address":"Ζησιμοπούλου 86, Παλαιό Φάληρο 175 64","categoryIds":["desserts"],"categories":["Dessert Shops"],"distanceKm":0.9091615824712129},{"id":"fishTavernasRestaurants_85d0b9f93ad9","slug":"psipsina-athinaiki-psarotaverna-85d0","kind":"restaurant","name":"Ψιψίνα - Αθηναϊκή Ψαροταβέρνα","lat":37.932530674886344,"lng":23.698986064990937,"url":"https://maps.app.goo.gl/Acz6F4ajfzUYXq7y7?g_st=ipc","address":"Colonel Zisimopoulos, 96, Athina 175 61","categoryIds":["fish-tavernas"],"categories":["Fish Tavernas"],"distanceKm":0.982419784585513},{"id":"greekRestaurants_30ac8464e0c3","slug":"kyr-aristos-30ac","kind":"restaurant","name":"Κυρ Αρίστος","lat":37.932597935183146,"lng":23.699203294233197,"url":"https://maps.app.goo.gl/EQaiuBpPZq633dxa7?g_st=ipc","address":"Zisimopoulou 96, Paleo Faliro 175 64","categoryIds":["greek-restaurants"],"categories":["Greek Restaurants"],"distanceKm":0.9898425850281254},{"id":"greekRestaurants_842cd50fd946","slug":"mpampis-taverna-842c","kind":"restaurant","name":"Μπάμπης Ταβέρνα","lat":37.93493015100239,"lng":23.70154955498321,"url":"https://maps.app.goo.gl/SyFUZSdaS3SB5Mm48","address":"Λεωφ. Αμφιθέας 73, Παλαιό Φάληρο 175 64","categoryIds":["greek-restaurants"],"categories":["Greek Restaurants"],"distanceKm":0.9972743210052804},{"id":"italianRestaurants_fb4db3d6df69","slug":"akakios-makaronadiko-fb4d","kind":"restaurant","name":"Ακάκιος μακαρονάδικο","lat":37.932532942991465,"lng":23.699425438393305,"url":"https://maps.app.goo.gl/Mjwxjxeqf2KWt2Hq5?g_st=ipc","address":"Αγίας Τριάδος 1, Παλαιό Φάληρο 175 64","categoryIds":["italian"],"categories":["Italian Restaurants"],"distanceKm":1.0084980132554762},{"id":"italianRestaurants_a8f55f60daad","slug":"napolitivo-a8f5","kind":"restaurant","name":"Napolitivo","lat":37.931139363113324,"lng":23.68556698847028,"url":"https://maps.app.goo.gl/iJWXQzLD79YWLeji9?g_st=ipc","address":"Λεωφ. Ποσειδώνος 702, Παλαιό Φάληρο 175 61","categoryIds":["italian"],"categories":["Italian Restaurants"],"distanceKm":1.0236532902967082},{"id":"fishTavernasRestaurants_a7fb3513622e","slug":"liogerma-tis-athinas-a7fb","kind":"restaurant","name":"Λιόγερμα της Αθήνας","lat":37.938563581924875,"lng":23.703200039765804,"url":"https://maps.app.goo.gl/uLKm2p4zN326i9gP8?g_st=ipc","address":"Νέστορος 21, Παλαιό Φάληρο 175 61","categoryIds":["fish-tavernas"],"categories":["Fish Tavernas"],"distanceKm":1.0303389777515106},{"id":"cheapEatsRestaurants_ae7b67ea9782","slug":"psitopoleio-o-lampros-ae7b","kind":"restaurant","name":"Ψητοπωλείο \"ο Λάμπρος\"","lat":37.93861571899796,"lng":23.703296381437085,"url":"https://maps.app.goo.gl/ufBXQHiqa3CEJ7PJ7?g_st=ipc","address":"Νέστορος 21, Παλαιό Φάληρο 175 61","categoryIds":["cheap-eats"],"categories":["Gyros & Cheap Eats"],"distanceKm":1.0384689948318777},{"id":"mustSeeAttractions_7720a421889c","slug":"marina-floisvoy-7720","kind":"restaurant","name":"Μαρίνα Φλοίσβου","lat":37.9311951612676,"lng":23.68504538337465,"url":"https://maps.app.goo.gl/vxdQs7SscGUC98hY9?g_st=ipc","address":"Flisvos Marina, Αθήνα 175 61","categoryIds":["attractions"],"categories":["Must-See Attractions"],"distanceKm":1.0423038599194279}],"sameRegion":[],"mentionedGuides":[],"canonicalSlug":"delta-restaurant-84da","enrichment":{"summary_en":"Delta Restaurant is a curated restaurant in Αθήνα 176 74 in the Luxury Dining collection. It is connected to 11 nearby Googlementor picks to help travelers build a stronger local route.","summary_el":"Delta Restaurant είναι ένα επιλεγμένο σημείο φαγητού στην περιοχή Αθήνα 176 74 και ανήκει στη συλλογή Luxury Dining. Συνδέεται με 11 κοντινές προτάσεις του Googlementor για πιο ολοκληρωμένη εμπειρία.","vibe_tags":["curated","premium-dining"],"best_for":["first-time visitors","food lovers","special occasions"],"visit_moments":["lunch stop","dinner stop"],"practical_note":"Address and direct map link are available for easy turn-by-turn access.","nearby_walkable_count":11,"nearby_count_2km":62,"confidence":0.98},"areaContext":{"slug":"freattyda","name":"Freattyda","nameEl":"Φρεαττύδα"},"intentContexts":[{"href":"/luxury-dining/freattyda","label":"Luxury Dining in Freattyda","categorySlug":"luxury-dining","categoryName":"Luxury Dining","areaSlug":"freattyda","areaName":"Freattyda","areaNameEl":"Φρεαττύδα"}]},"__N_SSG":true}