{"pageProps":{"entity":{"id":"vegetarianRestaurants_74f8ca9bcb55","slug":"dinette-dafni-74f8","kind":"restaurant","name":"Dinette Dafni","lat":37.949260684351316,"lng":23.73612865746863,"url":"https://maps.app.goo.gl/kkxVViHsfrAhDtz38?g_st=ipc","address":"Μιχαήλ Καραολή 1-3, Αθήνα 172 35","categoryIds":["vegetarian"],"categories":["Vegetarian Friendly Restaurants"]},"sameCategory":[{"id":"burgersRestaurants_82d2f41d9265","slug":"big-nick-82d2","kind":"restaurant","name":"Big Nick","lat":37.956445331565305,"lng":23.73566615673783,"url":"https://maps.app.goo.gl/j5eRwkA5Uf2bwVHs7?g_st=ipc","address":"Λεωφόρος Βουλιαγμένης 145, Αθήνα 116 31","categoryIds":["burgers","vegetarian"],"categories":["Burger Spots","Vegetarian Friendly Restaurants"],"legacySlugs":["big-nick-ce09"]},{"id":"vegetarianRestaurants_663d79e21a0f","slug":"noa-poke-koukaki-663d","kind":"restaurant","name":"Noa Poke Koukaki","lat":37.962721066064105,"lng":23.72328239582356,"url":"https://maps.app.goo.gl/2BHN8JbCEv2oz4LT8?g_st=ipc","address":"Φαλήρου 84, Αθήνα 117 41","categoryIds":["vegetarian"],"categories":["Vegetarian Friendly Restaurants"]},{"id":"coffeeBrunchRestaurants_88ec9d6dfbbc","slug":"joshua-tree-cafe-88ec","kind":"restaurant","name":"Joshua Tree Cafe","lat":37.96618895456632,"lng":23.73475215870415,"url":"https://maps.app.goo.gl/hxko2CRaz8QbMJPc8?g_st=ipc","address":"Αναπαύσεως 13, Αθήνα 116 36","categoryIds":["coffee-brunch","vegetarian"],"categories":["Coffee & Brunch Spots","Vegetarian Friendly Restaurants"],"legacySlugs":["joshua-tree-cafe-e75c"]},{"id":"vegetarianRestaurants_2e588abb0db5","slug":"baba-ghanoush-2e58","kind":"restaurant","name":"Baba Ghanoush","lat":37.96544673051708,"lng":23.74367426912522,"url":"https://maps.app.goo.gl/TVzEkkpCr1SQ2ZUEA?g_st=ipc","address":"Εμπεδοκλέους 25 - 27, Αθήνα 116 35","categoryIds":["vegetarian"],"categories":["Vegetarian Friendly Restaurants"]},{"id":"vegetarianRestaurants_6bddca4a5310","slug":"the-room-mets-6bdd","kind":"restaurant","name":"THE ROOM METS","lat":37.96677955241959,"lng":23.737885963446566,"url":"https://maps.app.goo.gl/stBGTxofrCxpCP4q7?g_st=ipc","address":"Μαρκ. Μουσούρου 22, Αθήνα 116 36","categoryIds":["vegetarian"],"categories":["Vegetarian Friendly Restaurants"]},{"id":"vegetarianRestaurants_06ce84bd30cd","slug":"mother-vegan-bistro-06ce","kind":"restaurant","name":"Mother Vegan Bistro","lat":37.962693218314804,"lng":23.721538252984118,"url":"https://maps.app.goo.gl/TZgz9fcY4M4aZZQD6?g_st=ipc","address":"Δημητρακοπούλου, Αγίου Νικολάου 95, Αθήνα 117 41","categoryIds":["vegetarian"],"categories":["Vegetarian Friendly Restaurants"]},{"id":"coffeeBrunchRestaurants_85c9b3242244","slug":"this-is-loco-85c9","kind":"restaurant","name":"This is Loco","lat":37.96542578565319,"lng":23.726906270555997,"url":"https://maps.app.goo.gl/DKCmfLqp6KdRCVPg6?g_st=ipc","address":"Φαλήρου 47, Αθήνα 117 42","categoryIds":["coffee-brunch","vegetarian"],"categories":["Coffee & Brunch Spots","Vegetarian Friendly Restaurants"],"legacySlugs":["this-is-loco-0b77"]},{"id":"vegetarianRestaurants_4db58e18de0e","slug":"peas-vegan-4db5","kind":"restaurant","name":"Peas Vegan","lat":37.965309081383936,"lng":23.72648212033699,"url":"https://maps.app.goo.gl/8AeCWeh7LczgaD87A?g_st=ipc","address":"Φαλήρου 40, Αθήνα 117 42","categoryIds":["vegetarian"],"categories":["Vegetarian Friendly Restaurants"]},{"id":"coffeeBrunchRestaurants_10b5704edcd7","slug":"karminio-all-day-eatery-10b5","kind":"restaurant","name":"KARMINIO - All Day Eatery","lat":37.963365261808825,"lng":23.721069408577183,"url":"https://maps.app.goo.gl/B47HWPSnhF6mtY1M8?g_st=ipc","address":"Βεΐκου 86, Αθήνα 117 41","categoryIds":["coffee-brunch","vegetarian"],"categories":["Coffee & Brunch Spots","Vegetarian Friendly Restaurants"],"legacySlugs":["karminio-all-day-eatery-44c1"]},{"id":"vegetarianRestaurants_0ae45380f9c5","slug":"veganaki-0ae4","kind":"restaurant","name":"Veganaki","lat":37.96756765452738,"lng":23.732928786701812,"url":"https://maps.app.goo.gl/t4BDCPnwuYDPfBZS9?g_st=ipc","address":"Αθανασίου Διάκου 38 (38, Αθήνα 117 43","categoryIds":["vegetarian"],"categories":["Vegetarian Friendly Restaurants"]},{"id":"cheapEatsRestaurants_ccda7a47a1b9","slug":"falafel-bar-to-revithi-ccda","kind":"restaurant","name":"falafel bar ΤΟ ΡΕΒΙΘΙ","lat":37.96631483519238,"lng":23.7261110398094,"url":"https://maps.app.goo.gl/4FqJYg2raYZvXHja7?g_st=ipc","address":"Παρθενώνος 1, Αθήνα 117 42","categoryIds":["cheap-eats","vegetarian"],"categories":["Gyros & Cheap Eats","Vegetarian Friendly Restaurants"],"legacySlugs":["falafel-bar-to-revithi-dec0"]},{"id":"vegetarianRestaurants_aff422e1c3ba","slug":"mama-tierra-acropolis-vegan-street-food-aff4","kind":"restaurant","name":"Mama Tierra Acropolis - Vegan street food","lat":37.967546083723775,"lng":23.729864462543613,"url":"https://maps.app.goo.gl/3M9tmest5ooaQwtE8?g_st=ipc","address":"Χατζηχρήστου 29, Αθήνα 117 42","categoryIds":["vegetarian"],"categories":["Vegetarian Friendly Restaurants"]}],"nearby":[{"id":"greekRestaurants_5c7530a68c50","slug":"ladokolla-dafnis-5c75","kind":"restaurant","name":"Λαδόκολλα Δάφνης","lat":37.948710278848054,"lng":23.736099857630663,"url":"https://maps.app.goo.gl/DJkwhBF35mfEBRKG7","address":"Λεωφ. Αλ. Παπαναστασίου 8, Δάφνη Αττικής 172 35","categoryIds":["greek-restaurants"],"categories":["Greek Restaurants"],"distanceKm":0.06125437530902748},{"id":"coffeeBrunchRestaurants_eb390a2ff655","slug":"ohayo-teahouse-eb39","kind":"restaurant","name":"Ohayo Teahouse","lat":37.949425041480666,"lng":23.734793004377693,"url":"https://maps.app.goo.gl/vkq5bgJaaWXHr76X8?g_st=ipc","address":"Αγίας Βαρβάρας 79, Αθήνα 172 35","categoryIds":["coffee-brunch"],"categories":["Coffee & Brunch Spots"],"distanceKm":0.11853183785161105},{"id":"cheapEatsRestaurants_1640e0da72d1","slug":"smasheat-o-1640","kind":"restaurant","name":"Smasheat'o","lat":37.95001486404743,"lng":23.73773292955517,"url":"https://maps.app.goo.gl/nrXvTuy8yr3sWi7k8?g_st=ipc","address":"Meg. Alexandrou 2, Athina 172 35","categoryIds":["cheap-eats"],"categories":["Gyros & Cheap Eats"],"distanceKm":0.16376796526113338},{"id":"coffeeBrunchRestaurants_77dac76c5346","slug":"madania-77da","kind":"restaurant","name":"Madania","lat":37.94780401530034,"lng":23.73687705670489,"url":"https://maps.app.goo.gl/SN98TxjvUzYYXpvq9?g_st=ipc","address":"Leof. Agiou Dimitriou 17 &, Ηροδότου, Αγ. Δημήτριος Αττικής 173 43","categoryIds":["coffee-brunch"],"categories":["Coffee & Brunch Spots"],"distanceKm":0.17476269661863245},{"id":"familyFriendly_727aa4faed66","slug":"hado-dafni-727a","kind":"restaurant","name":"HADO Δάφνη","lat":37.94808909976108,"lng":23.73774466226219,"url":"https://maps.app.goo.gl/DDga87nVticqm9qYA?g_st=ipc","address":"Μπουμπουλίνας 6, Αγ. Δημήτριος Αττικής 173 43","categoryIds":["family-friendly"],"categories":["Kid Friendly Locations"],"distanceKm":0.19248293399765684},{"id":"cheapEatsRestaurants_59f1048e980a","slug":"to-steki-toy-kosta-59f1","kind":"restaurant","name":"Το Στέκι του Κώστα","lat":37.95121107984788,"lng":23.735124045238276,"url":"https://maps.app.goo.gl/gtmBLN9nUzctuFYM8?g_st=ipc","address":"Αγίας Βαρβάρας 59, Δάφνη Αττικής 172 35","categoryIds":["cheap-eats"],"categories":["Gyros & Cheap Eats"],"distanceKm":0.23408037857206765},{"id":"luxuryDiningRestaurants_bb06ffef1662","slug":"jerar-bb06","kind":"restaurant","name":"Jerár","lat":37.951578580834756,"lng":23.735160182054084,"url":"https://maps.app.goo.gl/FdaHgzGN8Q8h9ubz8?g_st=ipc","address":"Αγίας Βαρβάρας 55, Δάφνη Αττικής 172 35","categoryIds":["luxury-dining"],"categories":["Luxury Dining"],"distanceKm":0.2713670769482517},{"id":"coffeeBrunchRestaurants_41c6675d394b","slug":"lokal-athens-41c6","kind":"restaurant","name":"ΛΟΚΑΛ ΑΘΕΝΣ","lat":37.94681394109403,"lng":23.736018711734893,"url":"https://maps.app.goo.gl/cBZUFc3qKk2urDcJ7?g_st=ipc","address":"Λεωφ. Αγίου Δημητρίου 33, Αγ. Δημήτριος Αττικής 173 43","categoryIds":["coffee-brunch"],"categories":["Coffee & Brunch Spots"],"distanceKm":0.27223618918584896},{"id":"municipalities_54bb39e9ab94","slug":"dafni-54bb","kind":"municipality","name":"Δάφνη","lat":37.95,"lng":23.732,"aliases":["Dafni","Daphni","Δαφνη","Daphne"],"region":"Νότια Προάστια","name_en":"Dafni","region_en":"Southern Suburbs","distanceKm":0.37122969475015516},{"id":"dessertsRestaurants_bf8ca0a3720e","slug":"elli-s-cakes-bf8c","kind":"restaurant","name":"Elli's Cakes","lat":37.9448495085085,"lng":23.734073926930343,"url":"https://maps.app.goo.gl/eufNFz1Bu9hgqeNm6?g_st=ipc","address":"Λεωφ. Αγίου Δημητρίου 40, Αγ. Δημήτριος Αττικής 173 41","categoryIds":["desserts"],"categories":["Dessert Shops"],"distanceKm":0.522544025139644},{"id":"greekRestaurants_191784dd5c83","slug":"ta-filetakia-1917","kind":"restaurant","name":"Τα φιλετάκια","lat":37.94824819005281,"lng":23.729579675166935,"url":"https://maps.app.goo.gl/tBGQqYJbzo48VPWv9","address":"Εθνάρχου Μακαρίου 126, Δάφνη Αττικής 172 34","categoryIds":["greek-restaurants"],"categories":["Greek Restaurants"],"distanceKm":0.5851733384385374},{"id":"italianRestaurants_22324beef805","slug":"pizza-days-agioy-dimitrioy-2232","kind":"restaurant","name":"Pizza Days - Αγίου Δημητρίου","lat":37.9436201391912,"lng":23.733022003629234,"url":"https://maps.app.goo.gl/mj45NkH8L5jqeHD58?g_st=ipc","address":"Ανδρέα Παπανδρέου 2, Αγ. Δημήτριος Αττικής 173 41","categoryIds":["italian"],"categories":["Italian Restaurants"],"distanceKm":0.6838043267097397},{"id":"burgersRestaurants_82d2f41d9265","slug":"big-nick-82d2","kind":"restaurant","name":"Big Nick","lat":37.956445331565305,"lng":23.73566615673783,"url":"https://maps.app.goo.gl/j5eRwkA5Uf2bwVHs7?g_st=ipc","address":"Λεωφόρος Βουλιαγμένης 145, Αθήνα 116 31","categoryIds":["burgers","vegetarian"],"categories":["Burger Spots","Vegetarian Friendly Restaurants"],"legacySlugs":["big-nick-ce09"],"distanceKm":0.7999248503159453},{"id":"italianRestaurants_7df507160f43","slug":"de-michelle-7df5","kind":"restaurant","name":"DE MICHELLE","lat":37.94606996265572,"lng":23.727087729280314,"url":"https://maps.app.goo.gl/iqvRwdhG4FanUzaEA?g_st=ipc","address":"Μητροπολίτου Ευθυβούλη 17, Νέα Σμύρνη 171 24","categoryIds":["italian"],"categories":["Italian Restaurants"],"distanceKm":0.8685275845117029},{"id":"cheapEatsRestaurants_a6f267f71448","slug":"psitopoleio-o-kostas-a6f2","kind":"restaurant","name":"Ψητοπωλείο Ο Κώστας","lat":37.94774148940973,"lng":23.74608370924349,"url":"https://maps.app.goo.gl/8n9ne3gHR6APgQwh6?g_st=ipc","address":"Ηλιουπόλεως 157, Υμηττός 172 36","categoryIds":["cheap-eats"],"categories":["Gyros & Cheap Eats"],"distanceKm":0.8890970813099638},{"id":"italianRestaurants_297de75e2491","slug":"la-bella-napoli-297d","kind":"restaurant","name":"La Bella Napoli","lat":37.95333874485214,"lng":23.726510881566565,"url":"https://maps.app.goo.gl/viysAA695txjhPLE6?g_st=ipc","address":"Ρουμπέση 64, Αθήνα 172 30","categoryIds":["italian"],"categories":["Italian Restaurants"],"distanceKm":0.9574828466073411},{"id":"municipalities_0eb5ad956816","slug":"neos-kosmos-0eb5","kind":"municipality","name":"Νέος Κόσμος","lat":37.9563,"lng":23.7289,"region":"Κέντρο Αθήνας","name_en":"Neos Kosmos","region_en":"Athens Center","distanceKm":1.0071653006075227},{"id":"cheapEatsRestaurants_b9d0dc3d0a7f","slug":"mayropipero-b9d0","kind":"restaurant","name":"Μαυροπίπερο","lat":37.939871957691295,"lng":23.73599315534295,"url":"https://maps.app.goo.gl/kLQRksA1KxobJdFA6?g_st=ipc","address":"Στρατάρχου Αλεξάνδρου Παπάγου 41, Αγ. Δημήτριος Αττικής 173 43","categoryIds":["cheap-eats"],"categories":["Gyros & Cheap Eats"],"distanceKm":1.044046387803288},{"id":"italianRestaurants_d26e71c0baaa","slug":"p3-pizza-pasta-piazza-d26e","kind":"restaurant","name":"P3 • Pizza Pasta Piazza","lat":37.95458478436311,"lng":23.74640491373037,"url":"https://maps.app.goo.gl/RxyTMGLyt4d7KQ4T7?g_st=ipc","address":"Πλ. Υμηττού 15, Υμηττός 172 37","categoryIds":["italian"],"categories":["Italian Restaurants"],"distanceKm":1.078111359746793},{"id":"cheapEatsRestaurants_17e24777d3f9","slug":"o-giatros-tis-peinas-17e2","kind":"restaurant","name":"Ο Γιατρός της Πείνας","lat":37.9576250215062,"lng":23.729472460111847,"url":"https://maps.app.goo.gl/Rbxz8a7b6mXRVXtX9?g_st=ipc","address":"Ηλία Ηλιού 59, Αθήνα 117 44","categoryIds":["cheap-eats"],"categories":["Gyros & Cheap Eats"],"distanceKm":1.0980109817702994},{"id":"italianRestaurants_bdaaf75d6c5e","slug":"canarino-bdaa","kind":"restaurant","name":"Canarino","lat":37.95905367625766,"lng":23.73382645635927,"url":"https://maps.app.goo.gl/kPu5BDkNuumunei99?g_st=ipc","address":"Ηλία Ηλιού 28, Αθήνα 117 43","categoryIds":["italian"],"categories":["Italian Restaurants"],"distanceKm":1.107481251250982},{"id":"greekRestaurants_11dff068e9ea","slug":"taverna-toy-vardi-11df","kind":"restaurant","name":"Ταβέρνα του Βαρδή","lat":37.95570603338151,"lng":23.74583290711746,"url":"https://maps.app.goo.gl/6RAXFnJTA2DTzwA88","address":"Καισαρείας 9, Υμηττός 172 37","categoryIds":["greek-restaurants"],"categories":["Greek Restaurants"],"distanceKm":1.1124812534931474},{"id":"cheapEatsRestaurants_11e58e7bd1c7","slug":"pita-pan-11e5","kind":"restaurant","name":"Pita Pan","lat":37.93966105014638,"lng":23.74003701406881,"url":"https://maps.app.goo.gl/ub6T2bWkrrx9QZt69?g_st=ipc","address":"Παρ. Λεωφ. Βουλιαγμένης 276, Αγ. Δημήτριος Αττικής 173 43","categoryIds":["cheap-eats"],"categories":["Gyros & Cheap Eats"],"distanceKm":1.1211000666340496},{"id":"dessertsRestaurants_65e04c3f641c","slug":"cinnabon-athens-metro-mall-65e0","kind":"restaurant","name":"Cinnabon (Athens Metro Mall)","lat":37.93941612015106,"lng":23.739972879470894,"url":"https://maps.app.goo.gl/71DTBLWMjXBGonps5?g_st=ipc","address":"Παρ. Λεωφ. Βουλιαγμένης 276, Αγ. Δημήτριος Αττικής 173 43","categoryIds":["desserts"],"categories":["Dessert Shops"],"distanceKm":1.1453938816707165}],"sameRegion":[],"mentionedGuides":[],"canonicalSlug":"dinette-dafni-74f8","enrichment":{"summary_en":"Dinette Dafni is a curated restaurant in Αθήνα 172 35 in the Vegetarian Friendly Restaurants collection. It is connected to 13 nearby Googlementor picks to help travelers build a stronger local route.","summary_el":"Dinette Dafni είναι ένα επιλεγμένο σημείο φαγητού στην περιοχή Αθήνα 172 35 και ανήκει στη συλλογή Vegetarian Friendly Restaurants. Συνδέεται με 13 κοντινές προτάσεις του Googlementor για πιο ολοκληρωμένη εμπειρία.","vibe_tags":["curated"],"best_for":["first-time visitors","food lovers"],"visit_moments":["lunch stop","dinner stop"],"practical_note":"Address and direct map link are available for easy turn-by-turn access.","nearby_walkable_count":13,"nearby_count_2km":103,"confidence":0.98},"areaContext":{"slug":"dafni","name":"Dafni","nameEl":"Δάφνη"},"intentContexts":[{"href":"/vegetarian/dafni","label":"Vegetarian Friendly Restaurants in Dafni","categorySlug":"vegetarian","categoryName":"Vegetarian Friendly Restaurants","areaSlug":"dafni","areaName":"Dafni","areaNameEl":"Δάφνη"}]},"__N_SSG":true}