{"pageProps":{"entity":{"id":"municipalities_8789afaef2a4","slug":"drama-8789","kind":"municipality","name":"Δράμα","lat":41.151,"lng":24.145,"region":"Ανατολική Μακεδονία και Θράκη","name_en":"Drama","region_en":"Eastern Macedonia & Thrace"},"sameCategory":[],"nearby":[{"id":"dessertsRestaurants_6dd39e58dc31","slug":"ntinos-patisserie-6dd3","kind":"restaurant","name":"Ntinos Patisserie","lat":41.151585513355016,"lng":24.14300415927613,"url":"https://maps.app.goo.gl/HZ2MFbKvrx1G3nXf9?g_st=ipc","address":"El. Venizelou 93, Drama 661 00","categoryIds":["desserts"],"categories":["Dessert Shops"],"distanceKm":0.1793407635039333},{"id":"familyFriendly_df83d6806c13","slug":"oneiroypoli-dramas-df83","kind":"restaurant","name":"Ονειρούπολη Δράμας","lat":41.147983932052774,"lng":24.146200919467475,"url":"https://maps.app.goo.gl/hQZWfg9QfnFeMyBTA?g_st=ipc","address":"Drama 661 00","categoryIds":["family-friendly"],"categories":["Kid Friendly Locations"],"distanceKm":0.35012102948280033},{"id":"dessertsRestaurants_fa96f575f727","slug":"armenoville-fa96","kind":"restaurant","name":"Armenovílle","lat":41.14370182931695,"lng":24.14876446334483,"url":"https://maps.app.goo.gl/7nzHrRoeVuv244XT6?g_st=ipc","address":"1is Iouliou 6, Drama 661 00","categoryIds":["desserts"],"categories":["Dessert Shops"],"distanceKm":0.8705853251012166},{"id":"wineriesVineyards_21e4fc1e860b","slug":"wine-art-estate-21e4","kind":"restaurant","name":"\"Wine Art\" Estate","lat":41.10253195746925,"lng":24.17303276432893,"url":"https://maps.app.goo.gl/kuEE1xd8ov4WsHDd9?g_st=ipc","address":"p. mela 2, Mikrochori 661 00","categoryIds":["wineries-vineyards"],"categories":["Wineries & Vineyards"],"distanceKm":5.878658554711322},{"id":"wineriesVineyards_554af4e222d0","slug":"oenogenesis-s-a-554a","kind":"restaurant","name":"OENOGENESIS S.A.","lat":41.11655968127127,"lng":24.244269125370955,"url":"https://maps.app.goo.gl/bnEeezvifVHw7rFq7?g_st=ipc","address":"Επί επαρχιακής οδού Δοξάτο-Αδριανή, Adriani 661 00","categoryIds":["wineries-vineyards"],"categories":["Wineries & Vineyards"],"distanceKm":9.153343540466798},{"id":"wineriesVineyards_a9a7cc1f9625","slug":"estates-costa-lazaridi-drama-a9a7","kind":"restaurant","name":"Estates Costa Lazaridi Drama","lat":41.13086312258315,"lng":24.259959410750362,"url":"https://maps.app.goo.gl/Kw5f3uTchrYrtq7G7?g_st=ipc","address":"Epar.Od. Platamona - Adrianis 47, Adriani 661 00","categoryIds":["wineries-vineyards"],"categories":["Wineries & Vineyards"],"distanceKm":9.883694575107734},{"id":"wineriesVineyards_0cdfcd6ce302","slug":"nico-lazaridi-chateau-nico-lazaridi-oinopoieio-nikoy-lazaridi-0cdf","kind":"restaurant","name":"NICO LAZARIDI Château Nico Lazaridi - Οινοποιείο Νίκου Λαζαρίδη","lat":41.129507803067504,"lng":24.279792635578804,"url":"https://maps.app.goo.gl/WKD1nyVBu5sjxUqV8?g_st=ipc","address":"Κοινότητα Αγοράς, Δράμα, Agora 660 32","categoryIds":["wineries-vineyards"],"categories":["Wineries & Vineyards"],"distanceKm":11.537888639629305},{"id":"coffeeBrunchRestaurants_1e661ed95ce8","slug":"river-cafe-1e66","kind":"restaurant","name":"River Cafe","lat":41.06113826137017,"lng":24.26515962969056,"url":"https://maps.app.goo.gl/MD2gmED1xtQRvMJS6?g_st=ipc","address":"Άνω Κεφαλάρι 660 32","categoryIds":["coffee-brunch"],"categories":["Coffee & Brunch Spots"],"distanceKm":14.184451207235938},{"id":"wineriesVineyards_3da11558d51a","slug":"ktima-pavlidis-3da1","kind":"restaurant","name":"Ktima Pavlidis","lat":41.20099538103468,"lng":23.95247116441372,"url":"https://maps.app.goo.gl/7JsSGRBJR1mceRNE9?g_st=ipc","address":"Kokinogeia 662 00","categoryIds":["wineries-vineyards"],"categories":["Wineries & Vineyards"],"distanceKm":17.045783136755},{"id":"wineriesVineyards_eb4eefea1ef8","slug":"oenops-wines-eb4e","kind":"restaurant","name":"OENOPS WINES","lat":41.18716398837062,"lng":23.94513089525479,"url":"https://maps.app.goo.gl/FMCPZ5ZmPNoWEBFVA?g_st=ipc","address":"3ο χλμ επαρχιακής οδού Προσοτσάνης, Kokkinogia 662 00","categoryIds":["wineries-vineyards"],"categories":["Wineries & Vineyards"],"distanceKm":17.20638049535294},{"id":"mustSeeAttractions_e57cfb521268","slug":"archaeological-site-of-philippi-e57c","kind":"restaurant","name":"Archaeological Site of Philippi","lat":41.012686338997746,"lng":24.287678993251607,"url":"https://maps.app.goo.gl/1Uc3YFqdrM7dERMj7?g_st=ipc","address":"EO Dramas Kavalas, Filippi 640 03","categoryIds":["attractions"],"categories":["Must-See Attractions"],"distanceKm":19.48200089840005},{"id":"coffeeBrunchRestaurants_3f658622b548","slug":"sklaris-3f65","kind":"restaurant","name":"Sklaris","lat":40.972805070668926,"lng":24.140591861373508,"url":"https://maps.app.goo.gl/1UACMfNmgegpjXm16?g_st=ipc","address":"Serron 17, Ag. Christoforos 640 01","categoryIds":["coffee-brunch"],"categories":["Coffee & Brunch Spots"],"distanceKm":19.817818563642422},{"id":"mustSeeAttractions_d9c422353054","slug":"aggitis-river-cave-d9c4","kind":"restaurant","name":"Aggitis River cave","lat":41.21974670515024,"lng":23.89452873558432,"url":"https://maps.app.goo.gl/qtxP37nP5GgrXXV27?g_st=ipc","address":"Πηγές, Aggitis 662 00","categoryIds":["attractions"],"categories":["Must-See Attractions"],"distanceKm":22.3107240664437},{"id":"municipalities_48180ac7ab6a","slug":"kavala-4818","kind":"municipality","name":"Καβάλα","lat":40.937,"lng":24.406,"region":"Κεντρική Μακεδονία","name_en":"Kavala","region_en":"Central Macedonia","distanceKm":32.331694984891364},{"id":"dessertsRestaurants_429ae1be11cf","slug":"evangelou-confectionary-429a","kind":"restaurant","name":"Evangelou Confectionary","lat":40.93760506506312,"lng":24.410866727456785,"url":"https://maps.app.goo.gl/RP9XvJeTKjnB3SyW7?g_st=ipc","address":"P. Mela 6, Kavala 653 02","categoryIds":["desserts"],"categories":["Dessert Shops"],"distanceKm":32.56025505185614},{"id":"dessertsRestaurants_63113ea4bb9d","slug":"ntinos-patisserie-6311","kind":"restaurant","name":"Ntinos Patisserie","lat":40.93677597847986,"lng":24.41089117085129,"url":"https://maps.app.goo.gl/k1igYo9JRosLStDy7?g_st=ipc","address":"El. Venizelou 25, Kavala 653 02","categoryIds":["desserts"],"categories":["Dessert Shops"],"distanceKm":32.62899679983965},{"id":"rooftopLoungesRestaurants_bb49421d891b","slug":"swell-roof-garden-bb49","kind":"restaurant","name":"Swell Roof Garden","lat":40.93644468023091,"lng":24.41131352952831,"url":"https://maps.app.goo.gl/u2rtEnenzWiQA1C79?g_st=ipc","address":"El. Venizelou 17, Kavala 653 02","categoryIds":["rooftop-lounges"],"categories":["Rooftop Lounges"],"distanceKm":32.68013541782656},{"id":"dessertsRestaurants_45b658e0e38d","slug":"marantidis-konstantinos-45b6","kind":"restaurant","name":"Marantidis Konstantinos","lat":40.940415746394464,"lng":24.418722029538895,"url":"https://maps.app.goo.gl/DuCK5b9RjUfShnnG8?g_st=ipc","address":"Sappeon 7, Kavala 652 01","categoryIds":["desserts"],"categories":["Dessert Shops"],"distanceKm":32.79060905204215},{"id":"municipalities_10b14dbcbc1b","slug":"xanthi-10b1","kind":"municipality","name":"Ξάνθη","lat":41.14,"lng":24.885,"region":"Ανατολική Μακεδονία και Θράκη","name_en":"Xanthi","region_en":"Eastern Macedonia & Thrace","distanceKm":61.975304680936354},{"id":"municipalities_25a63b7a432c","slug":"thasos-25a6","kind":"municipality","name":"Θάσος","lat":40.751,"lng":24.708,"region":"Ανατολική Μακεδονία και Θράκη","name_en":"Thasos","region_en":"Eastern Macedonia & Thrace","distanceKm":64.91409593396773},{"id":"municipalities_b35c4092fc93","slug":"komotini-b35c","kind":"municipality","name":"Κομοτηνή","lat":41.1236,"lng":25.412,"region":"Ανατολική Μακεδονία και Θράκη","name_en":"Komotini","region_en":"Eastern Macedonia & Thrace","distanceKm":106.14748439572263},{"id":"municipalities_6919fbdafc9e","slug":"samothraki-6919","kind":"municipality","name":"Σαμοθράκη","lat":40.556,"lng":25.526,"region":"Ανατολική Μακεδονία και Θράκη","name_en":"Samothraki","region_en":"Eastern Macedonia & Thrace","distanceKm":133.6695791430756},{"id":"municipalities_d9c8f1d08440","slug":"alexandroypoli-d9c8","kind":"municipality","name":"Αλεξανδρούπολη","lat":40.85,"lng":25.873,"region":"Ανατολική Μακεδονία και Θράκη","name_en":"Alexandroupoli","region_en":"Eastern Macedonia & Thrace","distanceKm":148.8219893264321},{"id":"municipalities_246c9a1bf42b","slug":"orestiada-246c","kind":"municipality","name":"Ορεστιάδα","lat":41.5,"lng":26.53,"region":"Ανατολική Μακεδονία και Θράκη","name_en":"Orestiada","region_en":"Eastern Macedonia & Thrace","distanceKm":202.89576788972252}],"sameRegion":[{"id":"municipalities_10b14dbcbc1b","slug":"xanthi-10b1","kind":"municipality","name":"Ξάνθη","lat":41.14,"lng":24.885,"region":"Ανατολική Μακεδονία και Θράκη","name_en":"Xanthi","region_en":"Eastern Macedonia & Thrace"},{"id":"municipalities_246c9a1bf42b","slug":"orestiada-246c","kind":"municipality","name":"Ορεστιάδα","lat":41.5,"lng":26.53,"region":"Ανατολική Μακεδονία και Θράκη","name_en":"Orestiada","region_en":"Eastern Macedonia & Thrace"},{"id":"municipalities_25a63b7a432c","slug":"thasos-25a6","kind":"municipality","name":"Θάσος","lat":40.751,"lng":24.708,"region":"Ανατολική Μακεδονία και Θράκη","name_en":"Thasos","region_en":"Eastern Macedonia & Thrace"},{"id":"municipalities_6919fbdafc9e","slug":"samothraki-6919","kind":"municipality","name":"Σαμοθράκη","lat":40.556,"lng":25.526,"region":"Ανατολική Μακεδονία και Θράκη","name_en":"Samothraki","region_en":"Eastern Macedonia & Thrace"},{"id":"municipalities_b35c4092fc93","slug":"komotini-b35c","kind":"municipality","name":"Κομοτηνή","lat":41.1236,"lng":25.412,"region":"Ανατολική Μακεδονία και Θράκη","name_en":"Komotini","region_en":"Eastern Macedonia & Thrace"},{"id":"municipalities_d9c8f1d08440","slug":"alexandroypoli-d9c8","kind":"municipality","name":"Αλεξανδρούπολη","lat":40.85,"lng":25.873,"region":"Ανατολική Μακεδονία και Θράκη","name_en":"Alexandroupoli","region_en":"Eastern Macedonia & Thrace"}],"mentionedGuides":[{"slug":"acropolis-complete-guide","title":"Visiting the Acropolis & Acropolis Museum"},{"slug":"athens-day-trips-guide-el","title":"Καλύτερες Ημερήσιες Εκδρομές από την Αθήνα"}],"canonicalSlug":"drama-8789","enrichment":{"summary_en":"Δράμα is a curated neighborhood area in Ανατολική Μακεδονία και Θράκη. It is connected to 2 nearby Googlementor picks to help travelers build a stronger local route.","summary_el":"Δράμα είναι ένα επιλεγμένο σημείο ενδιαφέροντος στην περιοχή Ανατολική Μακεδονία και Θράκη. Συνδέεται με 2 κοντινές προτάσεις του Googlementor για πιο ολοκληρωμένη εμπειρία.","vibe_tags":["local-neighborhood","base-for-exploring"],"best_for":["first-time visitors","walk-and-explore days","return visitors"],"visit_moments":["late morning walks","sunset exploration"],"practical_note":"2 curated places are within walkable distance from this area center.","nearby_walkable_count":2,"nearby_count_2km":3,"confidence":0.55},"areaContext":null,"intentContexts":[]},"__N_SSG":true}