{"pageProps":{"entity":{"id":"greekRestaurants_1f74ff05ff24","slug":"estiatorio-filippoy-1f74","kind":"restaurant","name":"Εστιατόριο Φιλίππου","lat":37.979221094535326,"lng":23.744501065071557,"url":"https://maps.app.goo.gl/Zq4cnAxJ4Dx6qQUq8","address":"Ξενοκράτους 19, Αθήνα 106 75","categoryIds":["greek-restaurants"],"categories":["Greek Restaurants"]},"sameCategory":[{"id":"greekRestaurants_b892553ca459","slug":"i-dexameni-paradosiako-kafeneio-b892","kind":"restaurant","name":"Η Δεξαμενή| παραδοσιακό καφενείο","lat":37.97904976951895,"lng":23.7417447741282,"url":"https://maps.app.goo.gl/LtHtTEpZMdDdqe3S8","address":"Πλ. Δεξαμενής, Αθήνα 106 73","categoryIds":["greek-restaurants"],"categories":["Greek Restaurants"]},{"id":"burgersRestaurants_bfe01035e2db","slug":"agora-select-bfe0","kind":"restaurant","name":"Agora Select","lat":37.97626574663726,"lng":23.751456733864202,"url":"https://maps.app.goo.gl/GxR6tX8MHegtVPLA7?g_st=ipc","address":"Χατζηγιάννη Μέξη 8 και, Κων/νου Βεντήρη 9, Αθήνα 115 28","categoryIds":["burgers","greek-restaurants"],"categories":["Burger Spots","Greek Restaurants"],"legacySlugs":["agora-select-aecd"]},{"id":"greekRestaurants_04415057069a","slug":"mayros-gatos-0441","kind":"restaurant","name":"Μαύρος Γάτος","lat":37.97162418889942,"lng":23.74471067108262,"url":"https://maps.app.goo.gl/aCqxbn2mAS63MWhA9","address":"Πολέμωνος 4, Αθήνα 116 35","categoryIds":["greek-restaurants"],"categories":["Greek Restaurants"]},{"id":"greekRestaurants_52e671578a6f","slug":"karavitis-52e6","kind":"restaurant","name":"Καραβίτης","lat":37.97158436368886,"lng":23.743633373686446,"url":"https://maps.app.goo.gl/8qs2pU39Ev8Bi4Gu6","address":"Παυσανίου 4, Αθήνα 116 35","categoryIds":["greek-restaurants"],"categories":["Greek Restaurants"]},{"id":"greekRestaurants_6dfb86c3c849","slug":"lontza-tis-geitonias-6dfb","kind":"restaurant","name":"Λόντζα της Γειτονιάς","lat":37.98528728518512,"lng":23.737900936097155,"url":"https://maps.app.goo.gl/KuXHrJwbKRvdajxz5","address":"Χαρ. Τρικούπη 76, Αθήνα 106 80","categoryIds":["greek-restaurants"],"categories":["Greek Restaurants"]},{"id":"greekRestaurants_3eb28aec894c","slug":"ayli-geysi-poleion-3eb2","kind":"restaurant","name":"Αυλη Γευση-πωλείον","lat":37.98655857103421,"lng":23.737630934967044,"url":"https://maps.app.goo.gl/BGHehjaYVZctQ5Mv6","address":"Μεθώνης 43, Αθήνα 106 81","categoryIds":["greek-restaurants"],"categories":["Greek Restaurants"]},{"id":"greekRestaurants_be06a546e935","slug":"giantes-be06","kind":"restaurant","name":"Γιάντες","lat":37.98561482975353,"lng":23.735926375159003,"url":"https://maps.app.goo.gl/LuGL5j7KgtCFWxmA8","address":"Βαλτετσίου 44, Αθήνα 106 81","categoryIds":["greek-restaurants","luxury-dining"],"categories":["Greek Restaurants","Luxury Dining"],"legacySlugs":["giantes-2f3a"]},{"id":"greekRestaurants_eb74ce369d8c","slug":"skalakia-eb74","kind":"restaurant","name":"Σκαλάκια","lat":37.97743768834,"lng":23.756590141442583,"url":"https://maps.app.goo.gl/awU151ZstgomSVZZ8","address":"Διονυσίου Αιγινήτου 32, Αθήνα 115 28","categoryIds":["greek-restaurants"],"categories":["Greek Restaurants"]},{"id":"greekRestaurants_399d4f103d60","slug":"pakoymel-399d","kind":"restaurant","name":"Pακουμελ","lat":37.98611213872367,"lng":23.7356153825947,"url":"https://maps.app.goo.gl/ES9bhy4RguonMm8G8","address":"Εμμανουήλ Μπενάκη 71, Αθήνα 106 81","categoryIds":["greek-restaurants"],"categories":["Greek Restaurants"]},{"id":"cheapEatsRestaurants_c3e978d4eac2","slug":"5f-c3e9","kind":"restaurant","name":"5Φ","lat":37.97277642269308,"lng":23.753966804299914,"url":"https://maps.app.goo.gl/Jtpipww8tzt83Z1fA?g_st=ipc","address":"Diocharous 31 &, Κλεισούρας, Αθήνα 161 21","categoryIds":["cheap-eats","greek-restaurants"],"categories":["Gyros & Cheap Eats","Greek Restaurants"],"legacySlugs":["5f-7edc"]},{"id":"greekRestaurants_82fedd8f5eb8","slug":"aylak-politiki-kouzina-82fe","kind":"restaurant","name":"Aylak Politiki Kouzina","lat":37.986296240543886,"lng":23.73577500465613,"url":"https://maps.app.goo.gl/8H5UM5CTNGhY6tCz8","address":"Εμμανουήλ Μπενάκη 73, Αθήνα 106 81","categoryIds":["greek-restaurants"],"categories":["Greek Restaurants"]},{"id":"greekRestaurants_f2230e55c586","slug":"o-platanos-f223","kind":"restaurant","name":"Ο Πλάτανος","lat":37.98012652047389,"lng":23.757043689219586,"url":"https://maps.app.goo.gl/GVj14ysF6cMr9ZoA6","address":"Σεβαστείας 6, Αθήνα 115 28","categoryIds":["greek-restaurants"],"categories":["Greek Restaurants"]}],"nearby":[{"id":"luxuryDiningRestaurants_16ebd8c6efae","slug":"forte-charitos-restaurant-16eb","kind":"restaurant","name":"Forte Charitos Restaurant","lat":37.97881342237638,"lng":23.745155145341098,"url":"https://maps.app.goo.gl/LvCPT5L2JR5q3a5TA?g_st=ipc","address":"Χάρητος 43, Αθήνα 106 76","categoryIds":["luxury-dining"],"categories":["Luxury Dining"],"distanceKm":0.07308550198841314},{"id":"italianRestaurants_3be4af98c471","slug":"trattoria-capanna-3be4","kind":"restaurant","name":"Trattoria Capanna","lat":37.978619151360974,"lng":23.74496219249258,"url":"https://maps.app.goo.gl/TbrGKuznviUTnbH8A?g_st=ipc","address":"Πλουτάρχου 38, Αθήνα 106 75","categoryIds":["italian","luxury-dining"],"categories":["Italian Restaurants","Luxury Dining"],"legacySlugs":["trattoria-capanna-78fc"],"distanceKm":0.07818922448827888},{"id":"italianRestaurants_468953c2e15e","slug":"malconi-s-italian-restaurant-4689","kind":"restaurant","name":"Malconi's Italian Restaurant","lat":37.9782776822669,"lng":23.744765633446125,"url":"https://maps.app.goo.gl/q6QEwwnvQiVfYob8A?g_st=ipc","address":"Patriarhou Ioakim 43 &, Πλουτάρχου 23, Αθήνα 106 75","categoryIds":["italian"],"categories":["Italian Restaurants"],"distanceKm":0.10743507091054075},{"id":"luxuryDiningRestaurants_ed36498bd60c","slug":"woowoo-athens-ed36","kind":"restaurant","name":"WooWoo Athens","lat":37.97826618328873,"lng":23.744714006159654,"url":"https://maps.app.goo.gl/gH4BTnSVsyBMroV17?g_st=ipc","address":"Πατριάρχου Ιωακείμ 43, Αθήνα 106 75","categoryIds":["luxury-dining"],"categories":["Luxury Dining"],"distanceKm":0.10780912157710408},{"id":"coffeeBrunchRestaurants_6c5755f458a3","slug":"vasilissa-melissa-athina-6c57","kind":"restaurant","name":"Βασίλισσα μέλισσα Αθήνα","lat":37.97835486257647,"lng":23.745084929463765,"url":"https://maps.app.goo.gl/gMvoN4EZdoGpDeZ47?g_st=ipc","address":"Πατριάρχου Ιωακείμ 45, Αθήνα 106 76","categoryIds":["coffee-brunch"],"categories":["Coffee & Brunch Spots"],"distanceKm":0.10907107848249571},{"id":"luxuryDiningRestaurants_dc35227b76dd","slug":"iodio-dc35","kind":"restaurant","name":"Iodio","lat":37.97846718508711,"lng":23.7434152762831,"url":"https://maps.app.goo.gl/xJsngrNWcKcLy6AB6?g_st=ipc","address":"Λουκιανού 36, Αθήνα 106 75","categoryIds":["luxury-dining"],"categories":["Luxury Dining"],"distanceKm":0.12682442226355678},{"id":"dessertsRestaurants_01136de60da9","slug":"l-arte-del-gelato-0113","kind":"restaurant","name":"L’arte del gelato","lat":37.97826235491174,"lng":23.745310264522946,"url":"https://maps.app.goo.gl/EjfGShRdB64dNF5s7?g_st=ipc","address":"Πατριάρχου Ιωακείμ 48-50, Αθήνα 106 76","categoryIds":["desserts"],"categories":["Dessert Shops"],"distanceKm":0.12804446743955075},{"id":"luxuryDiningRestaurants_b803a88d407f","slug":"zurbaran-athens-b803","kind":"restaurant","name":"Zurbaran Athens","lat":37.97801172701077,"lng":23.744349686117033,"url":"https://maps.app.goo.gl/rXKGxv9snP1gaFVh9?g_st=ipc","address":"Πατριάρχου Ιωακείμ 38, Αθήνα 106 75","categoryIds":["luxury-dining"],"categories":["Luxury Dining"],"distanceKm":0.13512850136454138},{"id":"burgersRestaurants_349cb9dc8b75","slug":"smash-n-bun-349c","kind":"restaurant","name":"Smash'n Bun","lat":37.97817483675376,"lng":23.745292656199194,"url":"https://maps.app.goo.gl/4n21xowaSG1Zg8d79?g_st=ipc","address":"Πατριάρχου Ιωακείμ 48, Αθήνα 106 76","categoryIds":["burgers"],"categories":["Burger Spots"],"distanceKm":0.13545649668091214},{"id":"dessertsRestaurants_e77e22a5c2ea","slug":"patisserie-despina-e77e","kind":"restaurant","name":"Patisserie Despina","lat":37.97835834410638,"lng":23.74575820284903,"url":"https://maps.app.goo.gl/RjyUkSTj6TwcuZnn6?g_st=ipc","address":"Patriarchou Ioakim 56, Athina 106 76","categoryIds":["desserts"],"categories":["Dessert Shops"],"distanceKm":0.14609632825975408},{"id":"luxuryDiningRestaurants_4207b64cfee5","slug":"ronin-4207","kind":"restaurant","name":"Ronin","lat":37.97868261628751,"lng":23.74283922763361,"url":"https://maps.app.goo.gl/7nmcpWX3r9sBfd248?g_st=ipc","address":"Ξανθίππου 2, Αθήνα 106 75","categoryIds":["luxury-dining"],"categories":["Luxury Dining"],"distanceKm":0.15748331656326994},{"id":"italianRestaurants_5bb1f8760120","slug":"brunello-5bb1","kind":"restaurant","name":"Brunello","lat":37.97774328484756,"lng":23.74346729703624,"url":"https://maps.app.goo.gl/71Ffa4D3sz17HHuJ7?g_st=ipc","address":"Λουκιανού 21b, Αθήνα 106 75","categoryIds":["italian"],"categories":["Italian Restaurants"],"distanceKm":0.18765003406741082},{"id":"luxuryDiningRestaurants_313a938ef96e","slug":"st-george-lycabettus-lifestyle-hotel-313a","kind":"restaurant","name":"St George Lycabettus Lifestyle Hotel","lat":37.979411883866305,"lng":23.742302492612982,"url":"https://maps.app.goo.gl/Nw5wbke6z4TMJnQi8?g_st=ipc","address":"Κλεομένους 2, Αθήνα 106 75","categoryIds":["luxury-dining"],"categories":["Luxury Dining"],"distanceKm":0.19386367231864296},{"id":"luxuryDiningRestaurants_d4cce740d47c","slug":"rooftop-terrace-on-top-of-st-george-hotel-d4cc","kind":"restaurant","name":"Rooftop Terrace on top of St. George Hotel","lat":37.97925289319014,"lng":23.74214536289671,"url":"https://maps.app.goo.gl/NWNaSroxE1Lncry6A?g_st=ipc","address":"Αθήνα 106 75","categoryIds":["luxury-dining","rooftop-lounges"],"categories":["Luxury Dining","Rooftop Lounges"],"legacySlugs":["rooftop-terrace-on-top-of-st-george-hotel-9716"],"distanceKm":0.20650191643366664},{"id":"coffeeBrunchRestaurants_f33248e61009","slug":"prasini-tenta-lykavittos-f332","kind":"restaurant","name":"Πράσινη Τέντα, Λυκαβηττός","lat":37.980853849375265,"lng":23.74311999324442,"url":"https://maps.app.goo.gl/Ra6VkFbWmNNsbYnu8?g_st=ipc","address":"Μονοπάτι Λυκαβηττού, Αθήνα 114 71","categoryIds":["coffee-brunch","rooftop-lounges"],"categories":["Coffee & Brunch Spots","Rooftop Lounges"],"legacySlugs":["prasini-tenta-lykavittos-3190"],"distanceKm":0.2182065173818941},{"id":"italianRestaurants_0a253e52c51e","slug":"gorlomi-0a25","kind":"restaurant","name":"Gorlomi","lat":37.97728908184003,"lng":23.74514067416134,"url":"https://maps.app.goo.gl/XB7Fy2Zdva4f5Hrv6?g_st=ipc","address":"Πλουτάρχου 9, Αθήνα 106 75","categoryIds":["italian","luxury-dining"],"categories":["Italian Restaurants","Luxury Dining"],"legacySlugs":["gorlomi-6cf0"],"distanceKm":0.22202424078371774},{"id":"cheapEatsRestaurants_61f60bc4ea81","slug":"beeftekopolis-61f6","kind":"restaurant","name":"Beeftekopolis","lat":37.97774283666473,"lng":23.746360813383102,"url":"https://maps.app.goo.gl/j2KRM4BYgZPKkWer5?g_st=ipc","address":"Marasli 23, Athina 106 76","categoryIds":["cheap-eats"],"categories":["Gyros & Cheap Eats"],"distanceKm":0.2314938896206519},{"id":"greekRestaurants_b892553ca459","slug":"i-dexameni-paradosiako-kafeneio-b892","kind":"restaurant","name":"Η Δεξαμενή| παραδοσιακό καφενείο","lat":37.97904976951895,"lng":23.7417447741282,"url":"https://maps.app.goo.gl/LtHtTEpZMdDdqe3S8","address":"Πλ. Δεξαμενής, Αθήνα 106 73","categoryIds":["greek-restaurants"],"categories":["Greek Restaurants"],"distanceKm":0.2423325884974865},{"id":"coffeeBrunchRestaurants_218e6a31a50d","slug":"poco-a-poco-218e","kind":"restaurant","name":"Poco a poco","lat":37.977055798633465,"lng":23.743703400457175,"url":"https://maps.app.goo.gl/hkFGzq8fmpCWam4f8?g_st=ipc","address":"Loukianou 13, Athina 106 75","categoryIds":["coffee-brunch"],"categories":["Coffee & Brunch Spots"],"distanceKm":0.25071534100790877},{"id":"municipalities_0cae2c00b932","slug":"kolonaki-0cae","kind":"municipality","name":"Κολωνάκι","lat":37.9769,"lng":23.7436,"aliases":["Kolonaki"],"region":"Κέντρο Αθήνας","name_en":"Kolonaki","region_en":"Athens Center","distanceKm":0.2699072412087797},{"id":"luxuryDiningRestaurants_e28089becd81","slug":"nido-athens-e280","kind":"restaurant","name":"NiDo Athens","lat":37.977919345579465,"lng":23.741770246682712,"url":"https://maps.app.goo.gl/okbeASGTeSTwszzP7?g_st=ipc","address":"Λεβέντη 5, Αθήνα 106 73","categoryIds":["luxury-dining"],"categories":["Luxury Dining"],"distanceKm":0.2797163891248335},{"id":"luxuryDiningRestaurants_2ecaca7a8cdf","slug":"brutus-tavern-2eca","kind":"restaurant","name":"Brutus Tavern","lat":37.9778313193549,"lng":23.741690006593426,"url":"https://maps.app.goo.gl/9gWFrAvvmqBKsy2bA?g_st=ipc","address":"Λεβέντη 3, Αθήνα 106 73","categoryIds":["luxury-dining"],"categories":["Luxury Dining"],"distanceKm":0.2908382480924254},{"id":"luxuryDiningRestaurants_44502c11c3d7","slug":"orizontes-lycabettus-4450","kind":"restaurant","name":"Orizontes Lycabettus","lat":37.98180885773441,"lng":23.743545726263044,"url":"https://maps.app.goo.gl/aRWFTJLNa9obfB379?g_st=ipc","address":"Αριστίππου 1, Αθήνα 106 76","categoryIds":["luxury-dining","rooftop-lounges"],"categories":["Luxury Dining","Rooftop Lounges"],"legacySlugs":["orizontes-lycabettus-8840"],"distanceKm":0.29968122642443923},{"id":"monasteriesChurches_55ac212b36ef","slug":"ieros-naos-agioy-georgioy-lykavittoy-55ac","kind":"restaurant","name":"Ιερός Ναός Αγίου Γεωργίου Λυκαβηττού","lat":37.981958638170035,"lng":23.74338468366007,"url":"https://maps.app.goo.gl/V1br63hybrfVnEiCA?g_st=ipc","address":"Αθήνα 114 71","categoryIds":["monasteries-churches"],"categories":["Monasteries & Spiritual Sites"],"distanceKm":0.3197402922484977}],"sameRegion":[],"mentionedGuides":[],"canonicalSlug":"estiatorio-filippoy-1f74","enrichment":{"summary_en":"Εστιατόριο Φιλίππου is a curated restaurant in Αθήνα 106 75 in the Greek Restaurants collection. It is connected to 74 nearby Googlementor picks to help travelers build a stronger local route.","summary_el":"Εστιατόριο Φιλίππου είναι ένα επιλεγμένο σημείο φαγητού στην περιοχή Αθήνα 106 75 και ανήκει στη συλλογή Greek Restaurants. Συνδέεται με 74 κοντινές προτάσεις του Googlementor για πιο ολοκληρωμένη εμπειρία.","vibe_tags":["curated"],"best_for":["first-time visitors","food lovers"],"visit_moments":["lunch stop","dinner stop"],"practical_note":"Address and direct map link are available for easy turn-by-turn access.","nearby_walkable_count":74,"nearby_count_2km":571,"confidence":0.98},"areaContext":{"slug":"kolonaki","name":"Kolonaki","nameEl":"Κολωνάκι"},"intentContexts":[{"href":"/greek-restaurants/kolonaki","label":"Greek Restaurants in Kolonaki","categorySlug":"greek-restaurants","categoryName":"Greek Restaurants","areaSlug":"kolonaki","areaName":"Kolonaki","areaNameEl":"Κολωνάκι"}]},"__N_SSG":true}