{"pageProps":{"entity":{"id":"greekRestaurants_7ff4b23f5102","slug":"extravaganza-7ff4","kind":"restaurant","name":"Extravaganza","lat":40.639336618089786,"lng":22.940241453783848,"url":"https://maps.app.goo.gl/j6N8yd7wQi8DJTxU8?g_st=ipc","address":"Επισκοπου Αμβροσιου 8, Θεσσαλονίκη 546 30","categoryIds":["greek-restaurants"],"categories":["Greek Restaurants"]},"sameCategory":[{"id":"greekRestaurants_776ec954209f","slug":"maestranza-skg-776e","kind":"restaurant","name":"Maestranza.skg","lat":40.6389335540748,"lng":22.939948700094217,"url":"https://maps.app.goo.gl/9dU4LoJrsfE8osv2A?g_st=ipc","address":"Ptolemeon 29Β, Thessaloniki 546 30","categoryIds":["greek-restaurants","luxury-dining"],"categories":["Greek Restaurants","Luxury Dining"],"legacySlugs":["maestranza-skg-4bd7"]},{"id":"greekRestaurants_03068c7e0a94","slug":"o-loytros-0306","kind":"restaurant","name":"Ο Λουτρός","lat":40.638466462915126,"lng":22.94314610009663,"url":"https://maps.app.goo.gl/4ZWFM4EN2V31EBwc7?g_st=ipc","address":"El. Venizelou 55, Thessaloniki 546 31","categoryIds":["greek-restaurants"],"categories":["Greek Restaurants"]},{"id":"greekRestaurants_20a08b488f9b","slug":"verges-lagies-20a0","kind":"restaurant","name":"Βέργες Λάγιες","lat":40.639047485030176,"lng":22.943515702588808,"url":"https://maps.app.goo.gl/ArjVMDpRBXxzMQ7h9?g_st=ipc","address":"Ελ. Βενιζέλου 63, Θεσσαλονίκη 546 31","categoryIds":["greek-restaurants"],"categories":["Greek Restaurants"]},{"id":"greekRestaurants_8f48f269fd50","slug":"koru-inspired-cuisine-8f48","kind":"restaurant","name":"KORU INSPIRED CUISINE","lat":40.6419170569474,"lng":22.93912654198058,"url":"https://maps.app.goo.gl/z6JvmY8nTC7yzJmFA?g_st=ipc","address":"Ολύμπου 15, Θεσσαλονίκη 546 30","categoryIds":["greek-restaurants"],"categories":["Greek Restaurants"]},{"id":"greekRestaurants_ef089e0b68dd","slug":"i-royga-ef08","kind":"restaurant","name":"Η Ρούγα","lat":40.63643483313158,"lng":22.940620107093462,"url":"https://maps.app.goo.gl/doL5QTrJdXUeuhcb9?g_st=ipc","address":"Καρίπη 28, Θεσσαλονίκη 546 24","categoryIds":["greek-restaurants"],"categories":["Greek Restaurants"]},{"id":"greekRestaurants_08b616cef0f8","slug":"kontrampanto-contrabando-08b6","kind":"restaurant","name":"Κοντραμπάντο - Contrabando","lat":40.63847586677097,"lng":22.944230425632455,"url":"https://maps.app.goo.gl/PyWZCYYPtYAB62wz7?g_st=ipc","address":"Γκαρμπολά 2, Θεσσαλονίκη 546 31","categoryIds":["greek-restaurants"],"categories":["Greek Restaurants"]},{"id":"greekRestaurants_34eb138bccb6","slug":"paradosiako-kafeneio-stoy-mitsoy-34eb","kind":"restaurant","name":"Παραδοσιακό Καφενείο \"Στου Μήτσου\"","lat":40.636086191912526,"lng":22.942334253020217,"url":"https://maps.app.goo.gl/ZPKuMKk4XbPFHKGh9?g_st=ipc","address":"Βλάλη 11, Θεσσαλονίκη 546 24","categoryIds":["greek-restaurants"],"categories":["Greek Restaurants"]},{"id":"greekRestaurants_a6c1730c289f","slug":"akadimia-art-restaurant-a6c1","kind":"restaurant","name":"Ακαδημία art restaurant","lat":40.635868351005776,"lng":22.938600197259788,"url":"https://maps.app.goo.gl/tXw3izdEArtABRbT7?g_st=ipc","address":"Αγ. Μηνά 3, Θεσσαλονίκη 546 25","categoryIds":["greek-restaurants"],"categories":["Greek Restaurants"]},{"id":"greekRestaurants_468e8ef769c7","slug":"i-kanoyla-468e","kind":"restaurant","name":"Η Κάνουλα","lat":40.63902723791725,"lng":22.945280279447754,"url":"https://maps.app.goo.gl/1wLZCLzQxy3PPNvc7?g_st=ipc","address":"Τάσκου Παπαγεωργίου 4, Θεσσαλονίκη 546 31","categoryIds":["greek-restaurants"],"categories":["Greek Restaurants"]},{"id":"greekRestaurants_9bcc793811d6","slug":"wonderwall-fun-dining-9bcc","kind":"restaurant","name":"WonderWall Fun Dining","lat":40.63522269434939,"lng":22.937190668731127,"url":"https://maps.app.goo.gl/gWA1A2nYg5nMyK6r8?g_st=ipc","address":"Αἰγύπτου 11, Θεσσαλονίκη 546 25","categoryIds":["greek-restaurants"],"categories":["Greek Restaurants"]},{"id":"greekRestaurants_5762dafe8770","slug":"giannoyla-5762","kind":"restaurant","name":"Γιαννούλα","lat":40.640039548951144,"lng":22.946778249418276,"url":"https://maps.app.goo.gl/bG2X8oAd5FzPwzKJ9?g_st=ipc","address":"Κασσάνδρου 50, Θεσσαλονίκη 546 33","categoryIds":["greek-restaurants"],"categories":["Greek Restaurants"]},{"id":"greekRestaurants_4c3b01ea4aaf","slug":"bazagiazi-4c3b","kind":"restaurant","name":"Bazagiazi","lat":40.63449745236604,"lng":22.94197317773979,"url":"https://maps.app.goo.gl/aQvcxn9tCqZ7ihHN7?g_st=ipc","address":"Vasileos Irakleiou 35, Thessaloniki 546 24","categoryIds":["greek-restaurants"],"categories":["Greek Restaurants"]}],"nearby":[{"id":"greekRestaurants_776ec954209f","slug":"maestranza-skg-776e","kind":"restaurant","name":"Maestranza.skg","lat":40.6389335540748,"lng":22.939948700094217,"url":"https://maps.app.goo.gl/9dU4LoJrsfE8osv2A?g_st=ipc","address":"Ptolemeon 29Β, Thessaloniki 546 30","categoryIds":["greek-restaurants","luxury-dining"],"categories":["Greek Restaurants","Luxury Dining"],"legacySlugs":["maestranza-skg-4bd7"],"distanceKm":0.05117515128466587},{"id":"dessertsRestaurants_0eed40d3488f","slug":"helios-pastry-shop-0eed","kind":"restaurant","name":"Helios Pastry Shop","lat":40.639377492095335,"lng":22.93909008861793,"url":"https://maps.app.goo.gl/wxVoFxomNfq7egVX7?g_st=ipc","address":"Adigonidon 7, Thessaloniki 546 30","categoryIds":["desserts"],"categories":["Dessert Shops"],"distanceKm":0.09725544545093018},{"id":"cheapEatsRestaurants_41498834b457","slug":"crats-fried-chicken-egnatia-4149","kind":"restaurant","name":"Crats Fried Chicken Egnatia","lat":40.63898844732417,"lng":22.938638631354078,"url":"https://maps.app.goo.gl/ck9L5Pz4C9MGKVbV7?g_st=ipc","address":"Egnatia 27, Thessaloniki 546 30","categoryIds":["cheap-eats"],"categories":["Gyros & Cheap Eats"],"distanceKm":0.14067457380381407},{"id":"coffeeBrunchRestaurants_cb81e6db9390","slug":"the-caravan-cafe-brunch-cb81","kind":"restaurant","name":"The Caravan Cafe | Brunch","lat":40.637809490842486,"lng":22.9414945910073,"url":"https://maps.app.goo.gl/zZG88R3tqQ4iE2m6A?g_st=ipc","address":"Βαμβακά 3, Thessaloniki 546 31","categoryIds":["coffee-brunch"],"categories":["Coffee & Brunch Spots"],"distanceKm":0.20003871771659715},{"id":"coffeeBrunchRestaurants_fb908cdb56f2","slug":"beetroot-fb90","kind":"restaurant","name":"Beetroot","lat":40.637551412889685,"lng":22.939748987657307,"url":"https://maps.app.goo.gl/v2Xnqi1U2R9tS4bz7?g_st=ipc","address":"Siggrou 8, Thessaloniki 546 25","categoryIds":["coffee-brunch"],"categories":["Coffee & Brunch Spots"],"distanceKm":0.20280837472685823},{"id":"municipalities_0655c442ea28","slug":"ladadika-0655","kind":"municipality","name":"Λαδάδικα","lat":40.6375,"lng":22.9398,"region":"Θεσσαλονίκη","name_en":"Ladadika","region_en":"Thessaloniki","distanceKm":0.2075918640437006},{"id":"luxuryDiningRestaurants_615ed60929b5","slug":"l-albero-615e","kind":"restaurant","name":"L'Albero","lat":40.6387415311347,"lng":22.94294998162837,"url":"https://maps.app.goo.gl/X4RLEkPp4XfoJhpx9?g_st=ipc","address":"Filippou 17, Thessaloniki 546 31","categoryIds":["luxury-dining"],"categories":["Luxury Dining"],"distanceKm":0.23792625756669167},{"id":"cheapEatsRestaurants_763f0b4ef33d","slug":"pizza-poselli-763f","kind":"restaurant","name":"Pízza Poselli","lat":40.63738632422352,"lng":22.938994583377827,"url":"https://maps.app.goo.gl/msSh5RZw3k81mKHWA?g_st=ipc","address":"Vilara 2, Thessaloniki 546 25","categoryIds":["cheap-eats","italian"],"categories":["Gyros & Cheap Eats","Italian Restaurants"],"legacySlugs":["pizza-poselli-5cd4"],"distanceKm":0.24103620285156596},{"id":"cheapEatsRestaurants_a9f190908032","slug":"i-vromiara-the-gourmet-street-food-thessaloniki-a9f1","kind":"restaurant","name":"Η Βρωμιάρα - The Gourmet Street Food | Θεσσαλονικη","lat":40.63730784042486,"lng":22.939114096509012,"url":"https://maps.app.goo.gl/Z7BYjUBJYcnFTaEm9?g_st=ipc","address":"Siggrou 7, Thessaloniki 546 25","categoryIds":["cheap-eats"],"categories":["Gyros & Cheap Eats"],"distanceKm":0.24482545750210746},{"id":"cheapEatsRestaurants_6807fa813ea0","slug":"porkitto-gyradiko-soyvlaki-stefanoy-parthena-thessaloniki-6807","kind":"restaurant","name":"PORKITTO - ΓΥΡΑΔΙΚΟ - ΣΟΥΒΛΑΚΙ - ΣΤΕΦΑΝΟΥ ΠΑΡΘΕΝΑ - ΘΕΣΣΑΛΟΝΙΚΗ","lat":40.64044750261407,"lng":22.942776573082938,"url":"https://maps.app.goo.gl/GvH8vhGT4BrR9x9WA?g_st=ipc","address":"Καραολή και Δημητρίου 52, Thessaloniki 546 30","categoryIds":["cheap-eats"],"categories":["Gyros & Cheap Eats"],"distanceKm":0.24700955881489509},{"id":"coffeeBrunchRestaurants_ad2114e7ac37","slug":"bannie-ad21","kind":"restaurant","name":"Bannie","lat":40.63708508226566,"lng":22.94022952790158,"url":"https://maps.app.goo.gl/Gn3B2PxeEE5tHcph8?g_st=ipc","address":"Ionos Dragoumi 35, Thessaloniki 546 25","categoryIds":["coffee-brunch"],"categories":["Coffee & Brunch Spots"],"distanceKm":0.2503613831332957},{"id":"asianRestaurants_694015c62c4a","slug":"asian-house-6940","kind":"restaurant","name":"Asian House","lat":40.63703399499959,"lng":22.939883592923085,"url":"https://maps.app.goo.gl/uTVSPYHZ31yXdaY57?g_st=ipc","address":"Καποδιστρίου 7 &, Paikou, Thessaloniki 546 25","categoryIds":["asian"],"categories":["Asian Restaurants"],"distanceKm":0.2578144227625175},{"id":"burgersRestaurants_d27855febf5e","slug":"cantina-manara-d278","kind":"restaurant","name":"Cantina Manara","lat":40.6371113197463,"lng":22.93922534676657,"url":"https://maps.app.goo.gl/51NLWv682h6DK989A?g_st=ipc","address":"Στοά, Ermou 1, Thessaloniki 546 25","categoryIds":["burgers","cheap-eats"],"categories":["Burger Spots","Gyros & Cheap Eats"],"legacySlugs":["cantina-manara-3308"],"distanceKm":0.2618749260150877},{"id":"greekRestaurants_03068c7e0a94","slug":"o-loytros-0306","kind":"restaurant","name":"Ο Λουτρός","lat":40.638466462915126,"lng":22.94314610009663,"url":"https://maps.app.goo.gl/4ZWFM4EN2V31EBwc7?g_st=ipc","address":"El. Venizelou 55, Thessaloniki 546 31","categoryIds":["greek-restaurants"],"categories":["Greek Restaurants"],"distanceKm":0.2634958956940063},{"id":"cheapEatsRestaurants_e0434e3ff629","slug":"kyr-giorgis-e043","kind":"restaurant","name":"Kyr Giorgis","lat":40.63768120747627,"lng":22.942676100417227,"url":"https://maps.app.goo.gl/BFLYuybZSdJEwfK87?g_st=ipc","address":"Βενιζέλου 54, Thessaloniki 546 31","categoryIds":["cheap-eats"],"categories":["Gyros & Cheap Eats"],"distanceKm":0.27583539571161675},{"id":"greekRestaurants_20a08b488f9b","slug":"verges-lagies-20a0","kind":"restaurant","name":"Βέργες Λάγιες","lat":40.639047485030176,"lng":22.943515702588808,"url":"https://maps.app.goo.gl/ArjVMDpRBXxzMQ7h9?g_st=ipc","address":"Ελ. Βενιζέλου 63, Θεσσαλονίκη 546 31","categoryIds":["greek-restaurants"],"categories":["Greek Restaurants"],"distanceKm":0.27813763027780136},{"id":"cheapEatsRestaurants_97b044a97fc0","slug":"mangia-mi-97b0","kind":"restaurant","name":"MANGIA MI","lat":40.63806065407829,"lng":22.943092100104018,"url":"https://maps.app.goo.gl/swPLtX8A41RYYYN68?g_st=ipc","address":"El. Venizelou 60, Thessaloniki 546 31","categoryIds":["cheap-eats"],"categories":["Gyros & Cheap Eats"],"distanceKm":0.2792597526060341},{"id":"greekRestaurants_8f48f269fd50","slug":"koru-inspired-cuisine-8f48","kind":"restaurant","name":"KORU INSPIRED CUISINE","lat":40.6419170569474,"lng":22.93912654198058,"url":"https://maps.app.goo.gl/z6JvmY8nTC7yzJmFA?g_st=ipc","address":"Ολύμπου 15, Θεσσαλονίκη 546 30","categoryIds":["greek-restaurants"],"categories":["Greek Restaurants"],"distanceKm":0.3019590438795115},{"id":"cheapEatsRestaurants_9e348b58c806","slug":"plateia-bit-pazar-9e34","kind":"restaurant","name":"Plateia Bit pazar","lat":40.63891956491642,"lng":22.94393646377273,"url":"https://maps.app.goo.gl/HfoTaA81WJgTcqWp6?g_st=ipc","address":"Προσφυγική Αγορά 16 Β, Thessaloniki 546 31","categoryIds":["cheap-eats"],"categories":["Gyros & Cheap Eats"],"distanceKm":0.3152063950295093},{"id":"cheapEatsRestaurants_e80e8a708de9","slug":"salento-wood-fired-street-food-e80e","kind":"restaurant","name":"Salento Wood Fired Street Food","lat":40.639269734572295,"lng":22.943990430297482,"url":"https://maps.app.goo.gl/6mWAWHUbEwXuAb589?g_st=ipc","address":"El. Venizelou 76, Thessaloniki 546 31","categoryIds":["cheap-eats","italian"],"categories":["Gyros & Cheap Eats","Italian Restaurants"],"legacySlugs":["salento-wood-fired-street-food-39b7"],"distanceKm":0.3164165247852486},{"id":"greekRestaurants_ef089e0b68dd","slug":"i-royga-ef08","kind":"restaurant","name":"Η Ρούγα","lat":40.63643483313158,"lng":22.940620107093462,"url":"https://maps.app.goo.gl/doL5QTrJdXUeuhcb9?g_st=ipc","address":"Καρίπη 28, Θεσσαλονίκη 546 24","categoryIds":["greek-restaurants"],"categories":["Greek Restaurants"],"distanceKm":0.32424179085227517},{"id":"burgersRestaurants_90d16bd5f050","slug":"pratina-burger-project-90d1","kind":"restaurant","name":"PRATINA Burger Project","lat":40.63713764523389,"lng":22.937597600102066,"url":"https://maps.app.goo.gl/rE8kgxhDvdzbh9hw7","address":"Veroias 5, Thessaloniki 546 25","categoryIds":["burgers","cheap-eats"],"categories":["Burger Spots","Gyros & Cheap Eats"],"legacySlugs":["pratina-burger-project-47ac"],"distanceKm":0.3309900546377278},{"id":"asianRestaurants_8419e93bcb2d","slug":"ikigai-the-dumpling-experience-8419","kind":"restaurant","name":"Ikigai - The Dumpling Experience","lat":40.637093410026516,"lng":22.93763984161015,"url":"https://maps.app.goo.gl/zEYfCsMm5fXf8Dd78?g_st=ipc","address":"Veroias 5, Thessaloniki 546 25","categoryIds":["asian"],"categories":["Asian Restaurants"],"distanceKm":0.3322746898003231},{"id":"coffeeBrunchRestaurants_1c6ae917ccf8","slug":"romantzo-1c6a","kind":"restaurant","name":"Romantzo","lat":40.637344096207045,"lng":22.93721658740342,"url":"https://maps.app.goo.gl/xTf6UJFe7tcY4vHU7?g_st=ipc","address":"Veroias 2, Thessaloniki 546 25","categoryIds":["coffee-brunch"],"categories":["Coffee & Brunch Spots"],"distanceKm":0.3379831326558232}],"sameRegion":[],"mentionedGuides":[],"canonicalSlug":"extravaganza-7ff4","enrichment":{"summary_en":"Extravaganza is a curated restaurant in Θεσσαλονίκη 546 30 in the Greek Restaurants collection. It is connected to 112 nearby Googlementor picks to help travelers build a stronger local route.","summary_el":"Extravaganza είναι ένα επιλεγμένο σημείο φαγητού στην περιοχή Θεσσαλονίκη 546 30 και ανήκει στη συλλογή Greek Restaurants. Συνδέεται με 112 κοντινές προτάσεις του Googlementor για πιο ολοκληρωμένη εμπειρία.","vibe_tags":["curated"],"best_for":["first-time visitors","food lovers"],"visit_moments":["lunch stop","dinner stop"],"practical_note":"Address and direct map link are available for easy turn-by-turn access.","nearby_walkable_count":112,"nearby_count_2km":267,"confidence":0.98},"areaContext":{"slug":"ladadika","name":"Ladadika","nameEl":"Λαδάδικα"},"intentContexts":[{"href":"/greek-restaurants/ladadika","label":"Greek Restaurants in Ladadika","categorySlug":"greek-restaurants","categoryName":"Greek Restaurants","areaSlug":"ladadika","areaName":"Ladadika","areaNameEl":"Λαδάδικα"}]},"__N_SSG":true}