{"pageProps":{"entity":{"id":"coffeeBrunchRestaurants_0ae149633aed","slug":"folk-0ae1","kind":"restaurant","name":"Folk.","lat":37.97880874771429,"lng":23.72797999271096,"url":"https://maps.app.goo.gl/6T8xDeGdNhWe15Wy8?g_st=ipc","address":"Βύσσης 2, Αθήνα 105 51","categoryIds":["coffee-brunch"],"categories":["Coffee & Brunch Spots"]},"sameCategory":[{"id":"coffeeBrunchRestaurants_efaa63d4fa10","slug":"dope-efaa","kind":"restaurant","name":"Dope","lat":37.97832305246442,"lng":23.72690477526337,"url":"https://maps.app.goo.gl/JomysUEbYVtYn2KN6?g_st=ipc","address":"Βύσσης 25, Αθήνα 105 51","categoryIds":["coffee-brunch"],"categories":["Coffee & Brunch Spots"]},{"id":"coffeeBrunchRestaurants_ed24a7ddbf8d","slug":"the-makers-ed24","kind":"restaurant","name":"The Makers","lat":37.979293464451835,"lng":23.729075477305056,"url":"https://maps.app.goo.gl/ckVaWVRSL5xpfiAs8?g_st=ipc","address":"Πραξιτέλους 37, Αθήνα 105 60","categoryIds":["coffee-brunch"],"categories":["Coffee & Brunch Spots"]},{"id":"coffeeBrunchRestaurants_1535869ba0db","slug":"bookbar-by-kaktos-1535","kind":"restaurant","name":"BOOKBAR by Kaktos","lat":37.97778372453625,"lng":23.727694162578636,"url":"https://maps.app.goo.gl/nkivf4z4Dxrwg4Su6?g_st=ipc","address":"Αιόλου 39, Αθήνα 105 51","categoryIds":["coffee-brunch"],"categories":["Coffee & Brunch Spots"]},{"id":"coffeeBrunchRestaurants_3bd143dc0b3c","slug":"anana-coffee-food-3bd1","kind":"restaurant","name":"Anana Coffee|Food","lat":37.9790791623964,"lng":23.72939339771832,"url":"https://maps.app.goo.gl/LVwtjjfHm1ZP7KNd9?g_st=ipc","address":"Πραξιτέλους 33, Αθήνα 105 60","categoryIds":["coffee-brunch","vegetarian"],"categories":["Coffee & Brunch Spots","Vegetarian Friendly Restaurants"],"legacySlugs":["anana-coffee-food-aa80"]},{"id":"coffeeBrunchRestaurants_89fa6586b876","slug":"naked-athens-89fa","kind":"restaurant","name":"Naked Athens","lat":37.977383627962844,"lng":23.728247966730684,"url":"https://maps.app.goo.gl/hTG8NPLsUHzhqPFg6?g_st=ipc","address":"Πλ. Αγίας Ειρήνης 2, Αθήνα 105 60","categoryIds":["coffee-brunch"],"categories":["Coffee & Brunch Spots"]},{"id":"coffeeBrunchRestaurants_03891d56076e","slug":"odori-0389","kind":"restaurant","name":"Odori","lat":37.97922436265169,"lng":23.729754698272135,"url":"https://maps.app.goo.gl/Wa5G5txL7dyLZjDX9?g_st=ipc","address":"Σκουλενίου 2, Αθήνα 105 61","categoryIds":["coffee-brunch","italian"],"categories":["Coffee & Brunch Spots","Italian Restaurants"],"legacySlugs":["odori-0301"]},{"id":"coffeeBrunchRestaurants_ab1d021ea45b","slug":"muse-bistro-ab1d","kind":"restaurant","name":"Muse Bistro","lat":37.97978388430184,"lng":23.72982150044081,"url":"https://maps.app.goo.gl/S3SNQHHwiWFuHc2N6?g_st=ipc","address":"Aristidou 3, Athina 105 59","categoryIds":["coffee-brunch"],"categories":["Coffee & Brunch Spots"]},{"id":"coffeeBrunchRestaurants_42325721148a","slug":"proof-nanobakery-4232","kind":"restaurant","name":"Proof Nanobakery","lat":37.97713063610252,"lng":23.72693618230377,"url":"https://maps.app.goo.gl/5N9VVMFGHUvfL6ec9?g_st=ipc","address":"Αγίας Ειρήνης 8, Αθήνα 105 51","categoryIds":["coffee-brunch"],"categories":["Coffee & Brunch Spots"]},{"id":"coffeeBrunchRestaurants_dda6cb75ebfa","slug":"snob-athens-luxury-rooms-espresso-gastro-bar-dda6","kind":"restaurant","name":"SNOB Athens Luxury Rooms & Espresso Gastro Bar","lat":37.97706349386115,"lng":23.726726410113187,"url":"https://maps.app.goo.gl/Z7rJpaKMWG44Coit8?g_st=ipc","address":"Αγίας Ειρήνης 17, Αθήνα 105 51","categoryIds":["coffee-brunch"],"categories":["Coffee & Brunch Spots"]},{"id":"coffeeBrunchRestaurants_8d3de33104cf","slug":"the-brunch-factory-8d3d","kind":"restaurant","name":"The Brunch Factory","lat":37.977341602927304,"lng":23.726205472467996,"url":"https://maps.app.goo.gl/CB8h73sPXUiPQmTu7?g_st=ipc","address":"Αθηνάς 11, Αθήνα 105 54","categoryIds":["coffee-brunch"],"categories":["Coffee & Brunch Spots"]},{"id":"coffeeBrunchRestaurants_9ae1dd6e7d5a","slug":"psomas-n-mokka-kafekopteio-a-e-e-9ae1","kind":"restaurant","name":"ΨΩΜΑΣ, Ν., \"ΜΟΚΚΑ ΚΑΦΕΚΟΠΤΕΙΟ\" Α.Ε.Ε.","lat":37.98083447984655,"lng":23.727407040678795,"url":"https://maps.app.goo.gl/oAY3rXKoej3BQGy39?g_st=ipc","address":"Αθηνάς 44, Αθήνα 105 51","categoryIds":["coffee-brunch"],"categories":["Coffee & Brunch Spots"]},{"id":"coffeeBrunchRestaurants_268ab51f91a8","slug":"smak-zymeria-268a","kind":"restaurant","name":"Smak Ζυμερία","lat":37.97751180003605,"lng":23.730066447556442,"url":"https://maps.app.goo.gl/dAYcRqw7bHXmUKJz6?g_st=ipc","address":"Ρόμβης 21, Αθήνα 105 60","categoryIds":["coffee-brunch"],"categories":["Coffee & Brunch Spots"]}],"nearby":[{"id":"cheapEatsRestaurants_753d5449336c","slug":"la-pizzetta-753d","kind":"restaurant","name":"La Pizzetta","lat":37.97847520528142,"lng":23.728112025622647,"url":"https://maps.app.goo.gl/K4gKpgJyy7hobcQQ6?g_st=ipc","address":"Αιόλου 56, Αθήνα 105 60","categoryIds":["cheap-eats"],"categories":["Gyros & Cheap Eats"],"distanceKm":0.038851749047008215},{"id":"luxuryDiningRestaurants_e80ec81a6e88","slug":"ateno-cook-deli-e80e","kind":"restaurant","name":"Ateno Cook & Deli","lat":37.97838376630937,"lng":23.72811686512798,"url":"https://maps.app.goo.gl/f7xcdqi6HEkGGDrXA?g_st=ipc","address":"Αιόλου 52 &, Μιλτιάδου, Αθήνα 105 60","categoryIds":["luxury-dining"],"categories":["Luxury Dining"],"distanceKm":0.048754772461267894},{"id":"cheapEatsRestaurants_73b2f6130df6","slug":"groovy-ham-73b2","kind":"restaurant","name":"Groovy Ham","lat":37.978434992498535,"lng":23.728303604469694,"url":"https://maps.app.goo.gl/bFq352ScX4ijnYoH8?g_st=ipc","address":"Μιλτιάδου 22, Αθήνα 105 60","categoryIds":["cheap-eats"],"categories":["Gyros & Cheap Eats"],"distanceKm":0.05031625601182623},{"id":"burgersRestaurants_d55e3b1fc4f6","slug":"one-burger-d55e","kind":"restaurant","name":"ONE BURGER","lat":37.97831953861062,"lng":23.727493287060057,"url":"https://maps.app.goo.gl/N76y7HGoU6TuZHcW8?g_st=ipc","address":"Αγάθωνος 7, Αθήνα 105 51","categoryIds":["burgers"],"categories":["Burger Spots"],"distanceKm":0.0691294704371244},{"id":"cheapEatsRestaurants_0155944d18e6","slug":"feyrouz-athens-0155","kind":"restaurant","name":"Feyrouz_Athens","lat":37.97815189918129,"lng":23.727647148068286,"url":"https://maps.app.goo.gl/vF2fcE6pnayp7atp8?g_st=ipc","address":"Καρόρη 23 και, Αγάθωνος 1, Αθήνα 105 51","categoryIds":["cheap-eats","vegetarian"],"categories":["Gyros & Cheap Eats","Vegetarian Friendly Restaurants"],"legacySlugs":["feyrouz-athens-e417"],"distanceKm":0.07864900320229772},{"id":"cheapEatsRestaurants_e6b3f1094174","slug":"krispy-by-jackaroo-e6b3","kind":"restaurant","name":"Krispy by Jackaroo","lat":37.97957426393904,"lng":23.728377000107947,"url":"https://maps.app.goo.gl/R1wrCFqhDWYwJViQ7?g_st=ipc","address":"Evripidou 15, Athina 105 60","categoryIds":["cheap-eats"],"categories":["Gyros & Cheap Eats"],"distanceKm":0.0919591662355014},{"id":"coffeeBrunchRestaurants_efaa63d4fa10","slug":"dope-efaa","kind":"restaurant","name":"Dope","lat":37.97832305246442,"lng":23.72690477526337,"url":"https://maps.app.goo.gl/JomysUEbYVtYn2KN6?g_st=ipc","address":"Βύσσης 25, Αθήνα 105 51","categoryIds":["coffee-brunch"],"categories":["Coffee & Brunch Spots"],"distanceKm":0.10861916408413977},{"id":"coffeeBrunchRestaurants_ed24a7ddbf8d","slug":"the-makers-ed24","kind":"restaurant","name":"The Makers","lat":37.979293464451835,"lng":23.729075477305056,"url":"https://maps.app.goo.gl/ckVaWVRSL5xpfiAs8?g_st=ipc","address":"Πραξιτέλους 37, Αθήνα 105 60","categoryIds":["coffee-brunch"],"categories":["Coffee & Brunch Spots"],"distanceKm":0.11011009185259923},{"id":"cheapEatsRestaurants_72f8dec93abe","slug":"i-volvi-72f8","kind":"restaurant","name":"Η Βόλβη","lat":37.97981742118138,"lng":23.72787228689906,"url":"https://maps.app.goo.gl/x2HbvpDyfiYLua7z6?g_st=ipc","address":"Ευριπίδου 24-26, Αθήνα 105 51","categoryIds":["cheap-eats"],"categories":["Gyros & Cheap Eats"],"distanceKm":0.11255594665687357},{"id":"coffeeBrunchRestaurants_1535869ba0db","slug":"bookbar-by-kaktos-1535","kind":"restaurant","name":"BOOKBAR by Kaktos","lat":37.97778372453625,"lng":23.727694162578636,"url":"https://maps.app.goo.gl/nkivf4z4Dxrwg4Su6?g_st=ipc","address":"Αιόλου 39, Αθήνα 105 51","categoryIds":["coffee-brunch"],"categories":["Coffee & Brunch Spots"],"distanceKm":0.11669823296429313},{"id":"cheapEatsRestaurants_16ba629709d2","slug":"just-pita-16ba","kind":"restaurant","name":"Just Pita","lat":37.97840949020096,"lng":23.726739666799467,"url":"https://maps.app.goo.gl/hyeDVXAzDsSq1RQz5?g_st=ipc","address":"Αθηνάς 18, Αθήνα 105 51","categoryIds":["cheap-eats"],"categories":["Gyros & Cheap Eats"],"distanceKm":0.11742812436574454},{"id":"cheapEatsRestaurants_b7a4db625995","slug":"mozzart-pizza-center-b7a4","kind":"restaurant","name":"Mozzart Pizza Center","lat":37.97910186394194,"lng":23.729304129555086,"url":"https://maps.app.goo.gl/QMAXfCna6DxXHDpcA?g_st=ipc","address":"Chrisospiliotissis 1, Athina 105 60","categoryIds":["cheap-eats"],"categories":["Gyros & Cheap Eats"],"distanceKm":0.12054763999196291},{"id":"coffeeBrunchRestaurants_3bd143dc0b3c","slug":"anana-coffee-food-3bd1","kind":"restaurant","name":"Anana Coffee|Food","lat":37.9790791623964,"lng":23.72939339771832,"url":"https://maps.app.goo.gl/LVwtjjfHm1ZP7KNd9?g_st=ipc","address":"Πραξιτέλους 33, Αθήνα 105 60","categoryIds":["coffee-brunch","vegetarian"],"categories":["Coffee & Brunch Spots","Vegetarian Friendly Restaurants"],"legacySlugs":["anana-coffee-food-aa80"],"distanceKm":0.1274789862776321},{"id":"vegetarianRestaurants_c42b13d2db7e","slug":"shedia-home-cafe-restaurant-giftshop-c42b","kind":"restaurant","name":"Shedia Home - Cafe, Restaurant & Giftshop","lat":37.977833037817305,"lng":23.72875153673485,"url":"https://maps.app.goo.gl/9Dfe1mtSN788EyGb7?g_st=ipc","address":"Κολοκοτρώνη 56, Αθήνα 105 60","categoryIds":["vegetarian"],"categories":["Vegetarian Friendly Restaurants"],"distanceKm":0.12784390129896336},{"id":"luxuryDiningRestaurants_ad3f43513fe8","slug":"hasapika-central-market-ad3f","kind":"restaurant","name":"Hasapika Central Market","lat":37.98004920672925,"lng":23.72784326093664,"url":"https://maps.app.goo.gl/zfVsdMVE9KLHsZKR7?g_st=ipc","address":"Αριστογείτονος 1, Αθήνα 105 51","categoryIds":["luxury-dining"],"categories":["Luxury Dining"],"distanceKm":0.1384523884891897},{"id":"cheapEatsRestaurants_0371c77b2517","slug":"tsiknaboom-0371","kind":"restaurant","name":"TsiknaBoom","lat":37.97906604032225,"lng":23.726418827071747,"url":"https://maps.app.goo.gl/DxnAjbtDdfK3oFbr9?g_st=ipc","address":"Παλλάδος 2-4, Αθήνα 105 54","categoryIds":["cheap-eats"],"categories":["Gyros & Cheap Eats"],"distanceKm":0.13979190128183877},{"id":"greekRestaurants_193dd3b500da","slug":"to-paradosiako-193d","kind":"restaurant","name":"Το Παραδοσιακό","lat":37.977707115390295,"lng":23.728787167486587,"url":"https://maps.app.goo.gl/NeJoupJj8mkFs1fXA","address":"Κολοκοτρώνη 59, Αθήνα 105 60","categoryIds":["greek-restaurants"],"categories":["Greek Restaurants"],"distanceKm":0.14145852290464922},{"id":"greekRestaurants_c16ca9f65dbe","slug":"oinomageireio-i-ipeiros-c16c","kind":"restaurant","name":"Οινομαγειρείο Η Ήπειρος","lat":37.980081996854445,"lng":23.728018952835075,"url":"https://maps.app.goo.gl/Ksa1sT3W1xvTwody6","address":"Φιλοποίμενος 4, Αθήνα 105 51","categoryIds":["greek-restaurants"],"categories":["Greek Restaurants"],"distanceKm":0.14162001908971544},{"id":"cheapEatsRestaurants_c89c11621856","slug":"kapsa-c89c","kind":"restaurant","name":"Κάψα","lat":37.9791128198558,"lng":23.729644254058044,"url":"https://maps.app.goo.gl/GnCnbQadKKWk2pSs5?g_st=ipc","address":"Σκουλενίου 4, Αθήνα 105 61","categoryIds":["cheap-eats"],"categories":["Gyros & Cheap Eats"],"distanceKm":0.14973638832175404},{"id":"dessertsRestaurants_02af5db1ffaa","slug":"overoll-croissanterie-02af","kind":"restaurant","name":"Overoll Croissanterie","lat":37.9788693032848,"lng":23.729688539887693,"url":"https://maps.app.goo.gl/eMRJKRxLBxxiGu628?g_st=ipc","address":"Πραξιτέλους 27, Αθήνα 105 60","categoryIds":["desserts"],"categories":["Dessert Shops"],"distanceKm":0.1499021793050412},{"id":"dessertsRestaurants_d96257796e81","slug":"kokkion-monastiraki-d962","kind":"restaurant","name":"Kokkion Μοναστηράκι","lat":37.97829626511462,"lng":23.72638522814765,"url":"https://maps.app.goo.gl/FfAWG58apt6AFDPU7?g_st=ipc","address":"Πρωτογένους 2, Αθήνα 105 54","categoryIds":["desserts"],"categories":["Dessert Shops"],"distanceKm":0.15094832778208736},{"id":"cheapEatsRestaurants_86cc4f5a9e30","slug":"kosta-souvlaki-86cc","kind":"restaurant","name":"Kosta Souvlaki","lat":37.97741645492704,"lng":23.72799295408667,"url":"https://maps.app.goo.gl/Hxj6uVgcEgiQuTDv8?g_st=ipc","address":"Πλ. Αγίας Ειρήνης 2, Αθήνα 105 60","categoryIds":["cheap-eats"],"categories":["Gyros & Cheap Eats"],"distanceKm":0.15482006250422373},{"id":"rooftopLoungesRestaurants_e13e9020f860","slug":"horostasio-e13e","kind":"restaurant","name":"Horostasio","lat":37.979148709346994,"lng":23.729708422545425,"url":"https://maps.app.goo.gl/z4BDM28nzQm5DRAz5?g_st=ipc","address":"Σκουλενίου 2B, Αθήνα 105 61","categoryIds":["rooftop-lounges"],"categories":["Rooftop Lounges"],"distanceKm":0.15613839962821285},{"id":"greekRestaurants_0010dafcf3e9","slug":"manari-taverna-0010","kind":"restaurant","name":"Manári Taverna","lat":37.97931896525327,"lng":23.72965489387422,"url":"https://maps.app.goo.gl/o8x2B33WaG8QRBXq8","address":"Πλ. Αγίων Θεοδώρων 3, Αθήνα 105 61","categoryIds":["greek-restaurants"],"categories":["Greek Restaurants"],"distanceKm":0.15738283501494227}],"sameRegion":[],"mentionedGuides":[],"canonicalSlug":"folk-0ae1","enrichment":{"summary_en":"Folk. is a curated restaurant in Αθήνα 105 51 in the Coffee & Brunch Spots collection. It is connected to 310 nearby Googlementor picks to help travelers build a stronger local route.","summary_el":"Folk. είναι ένα επιλεγμένο σημείο φαγητού στην περιοχή Αθήνα 105 51 και ανήκει στη συλλογή Coffee & Brunch Spots. Συνδέεται με 310 κοντινές προτάσεις του Googlementor για πιο ολοκληρωμένη εμπειρία.","vibe_tags":["curated","daytime-favorite"],"best_for":["first-time visitors","food lovers"],"visit_moments":["early morning","late brunch"],"practical_note":"Address and direct map link are available for easy turn-by-turn access.","nearby_walkable_count":310,"nearby_count_2km":635,"confidence":0.98},"areaContext":{"slug":"monastiraki","name":"Monastiraki","nameEl":"Μοναστηράκι"},"intentContexts":[{"href":"/brunch/monastiraki","label":"Coffee & Brunch Spots in Monastiraki","categorySlug":"brunch","categoryName":"Coffee & Brunch Spots","areaSlug":"monastiraki","areaName":"Monastiraki","areaNameEl":"Μοναστηράκι"}]},"__N_SSG":true}