{"pageProps":{"entity":{"id":"cheapEatsRestaurants_bf1d972f9838","slug":"gyradiko-bf1d","kind":"restaurant","name":"Gyradiko","lat":40.615031188130764,"lng":22.97695657295727,"url":"https://maps.app.goo.gl/6Bmdb1UVvVyTyyNdA?g_st=ipc","address":"Grigoriou Lampraki 125, Thessaloniki 543 51","categoryIds":["cheap-eats"],"categories":["Gyros & Cheap Eats"]},"sameCategory":[{"id":"cheapEatsRestaurants_543fb752ef8d","slug":"souvlatzidiko-543f","kind":"restaurant","name":"Souvlatzidiko","lat":40.615140054166176,"lng":22.976602700104493,"url":"https://maps.app.goo.gl/dKu85q9fYtc6krXf7?g_st=ipc","address":"Διαγορα, με Λαμπρακη, Thessaloniki 543 51","categoryIds":["cheap-eats"],"categories":["Gyros & Cheap Eats"]},{"id":"cheapEatsRestaurants_8f3b208739c0","slug":"funky-s-thessaloniki-8f3b","kind":"restaurant","name":"Funky's Thessaloniki","lat":40.615543107651526,"lng":22.974915159309568,"url":"https://maps.app.goo.gl/QNUEoQzqLuXtrpVc7?g_st=ipc","address":"Grigoriou Lampraki 110, Thessaloniki 543 51","categoryIds":["cheap-eats","italian"],"categories":["Gyros & Cheap Eats","Italian Restaurants"],"legacySlugs":["funky-s-thessaloniki-ef2b"]},{"id":"cheapEatsRestaurants_2468c5a59712","slug":"petridis-and-sons-grill-house-2468","kind":"restaurant","name":"Petridis And Sons - Grill House","lat":40.61189681851916,"lng":22.984212166296615,"url":"https://maps.app.goo.gl/qmEdiZfcHrQAp8pU7?g_st=ipc","address":"Grigoriou Lampraki 206, Thessaloniki 555 34","categoryIds":["cheap-eats"],"categories":["Gyros & Cheap Eats"]},{"id":"cheapEatsRestaurants_1de3117b26db","slug":"omega-grill-1de3","kind":"restaurant","name":"Ωμέγα Grill","lat":40.6085969632586,"lng":22.97871142955339,"url":"https://maps.app.goo.gl/Jp9h1Xe2kPqJT7td9?g_st=ipc","address":"Αμφιπόλεως 34, Thessaloniki 544 54","categoryIds":["cheap-eats"],"categories":["Gyros & Cheap Eats"]},{"id":"cheapEatsRestaurants_3c28289caa25","slug":"giotis-3c28","kind":"restaurant","name":"Giotis","lat":40.60922266804071,"lng":22.97064673048183,"url":"https://maps.app.goo.gl/EWmSLiCCxYM2N33x6?g_st=ipc","address":"Mark. Mpotsari 150, Thessaloniki 544 53","categoryIds":["cheap-eats"],"categories":["Gyros & Cheap Eats"]},{"id":"cheapEatsRestaurants_8ba579af851d","slug":"steakhouse-costas-8ba5","kind":"restaurant","name":"Steakhouse Costas","lat":40.607757700164754,"lng":22.984167654560377,"url":"https://maps.app.goo.gl/vkLu33M5Ct15FeXa6?g_st=ipc","address":"Emmanouil Fili 15, Pilea 555 34","categoryIds":["cheap-eats"],"categories":["Gyros & Cheap Eats"]},{"id":"cheapEatsRestaurants_c619a7c97409","slug":"to-kokoraki-c619","kind":"restaurant","name":"ΤΟ ΚΟΚΟΡΑΚΙ","lat":40.6088349903696,"lng":22.967918512345722,"url":"https://maps.app.goo.gl/KNA3DuGAxNV9SYMs8?g_st=ipc","address":"Mark. Mpotsari 105, Thessaloniki 544 53","categoryIds":["cheap-eats","greek-restaurants"],"categories":["Gyros & Cheap Eats","Greek Restaurants"],"legacySlugs":["to-kokoraki-5da1"]},{"id":"cheapEatsRestaurants_f51539f3f3fe","slug":"kostas-f515","kind":"restaurant","name":"Kostas","lat":40.608571752720515,"lng":22.967969048628863,"url":"https://maps.app.goo.gl/bUnuC1Vh9ysa2VhL6?g_st=ipc","address":"Mark. Mpotsari 120, Thessaloniki 546 43","categoryIds":["cheap-eats"],"categories":["Gyros & Cheap Eats"]},{"id":"cheapEatsRestaurants_d5f34328ce60","slug":"grn-toympa-d5f3","kind":"restaurant","name":"ΓΡΝ Τούμπα","lat":40.606092536657584,"lng":22.971298180015925,"url":"https://maps.app.goo.gl/xNHbtpHz8gpf4vYR6?g_st=ipc","address":"Michail Chourmouzi 41, Thessaloniki 544 53","categoryIds":["cheap-eats"],"categories":["Gyros & Cheap Eats"]},{"id":"cheapEatsRestaurants_9e983ad5e812","slug":"prassas-9e98","kind":"restaurant","name":"Prassas","lat":40.60822104515919,"lng":22.96538292733955,"url":"https://maps.app.goo.gl/cajfpJVBkeREe7FNA?g_st=ipc","address":"Mark. Mpotsari 89, Thessaloniki 546 44","categoryIds":["cheap-eats"],"categories":["Gyros & Cheap Eats"]},{"id":"cheapEatsRestaurants_0c3a0f831178","slug":"food-truck-park-skg-0c3a","kind":"restaurant","name":"Food Truck Park SKG","lat":40.609281906480575,"lng":22.989500884434833,"url":"https://maps.app.goo.gl/hfoXLoQmnjaHwpUB7?g_st=ipc","address":"Kapetan Ntogra 31, Pilea 555 35","categoryIds":["cheap-eats"],"categories":["Gyros & Cheap Eats"]},{"id":"cheapEatsRestaurants_1eaaf4657a81","slug":"thanasis-sons-1eaa","kind":"restaurant","name":"Thanasis & Sons","lat":40.60379888554604,"lng":22.969062086462387,"url":"https://maps.app.goo.gl/osKm1rqFwwfzqdrLA?g_st=ipc","address":"Al. Papanastasiou 133, Thessaloniki 542 50","categoryIds":["cheap-eats"],"categories":["Gyros & Cheap Eats"]}],"nearby":[{"id":"cheapEatsRestaurants_543fb752ef8d","slug":"souvlatzidiko-543f","kind":"restaurant","name":"Souvlatzidiko","lat":40.615140054166176,"lng":22.976602700104493,"url":"https://maps.app.goo.gl/dKu85q9fYtc6krXf7?g_st=ipc","address":"Διαγορα, με Λαμπρακη, Thessaloniki 543 51","categoryIds":["cheap-eats"],"categories":["Gyros & Cheap Eats"],"distanceKm":0.032229486297088356},{"id":"greekRestaurants_5c376770db26","slug":"kafeneion-to-dallaveri-5c37","kind":"restaurant","name":"Kafeneion To Dallaveri","lat":40.61571484515384,"lng":22.976632129539492,"url":"https://maps.app.goo.gl/6CZnkJNTLRD3MjRz7?g_st=ipc","address":"Diagora 51, Thessaloniki 543 51","categoryIds":["greek-restaurants"],"categories":["Greek Restaurants"],"distanceKm":0.0808015127397111},{"id":"dessertsRestaurants_99d685460c3f","slug":"bombolo-99d6","kind":"restaurant","name":"BOMBOLO","lat":40.614466360968855,"lng":22.977765505829847,"url":"https://maps.app.goo.gl/z5pR8EZkJS12MpdQ9?g_st=ipc","address":"Grigoriou Lampraki 150, Thessaloniki 543 51","categoryIds":["desserts"],"categories":["Dessert Shops"],"distanceKm":0.09277311355419861},{"id":"cheapEatsRestaurants_8f3b208739c0","slug":"funky-s-thessaloniki-8f3b","kind":"restaurant","name":"Funky's Thessaloniki","lat":40.615543107651526,"lng":22.974915159309568,"url":"https://maps.app.goo.gl/QNUEoQzqLuXtrpVc7?g_st=ipc","address":"Grigoriou Lampraki 110, Thessaloniki 543 51","categoryIds":["cheap-eats","italian"],"categories":["Gyros & Cheap Eats","Italian Restaurants"],"legacySlugs":["funky-s-thessaloniki-ef2b"],"distanceKm":0.18147004694309482},{"id":"fishTavernasRestaurants_482591e75ff4","slug":"kritamos-meze-bar-4825","kind":"restaurant","name":"Kritamos Meze-Bar","lat":40.61409377580344,"lng":22.97473899193856,"url":"https://maps.app.goo.gl/PC1XeAa9i5F1wcwX7?g_st=ipc","address":"Tirolois 38, Thessaloniki 543 51","categoryIds":["fish-tavernas"],"categories":["Fish Tavernas"],"distanceKm":0.21424887795197595},{"id":"dessertsRestaurants_6236474f11ab","slug":"siropiasta-michailidis-6236","kind":"restaurant","name":"Siropiasta Michailidis","lat":40.61392951977613,"lng":22.979367441197244,"url":"https://maps.app.goo.gl/3YNsRZFm5KexaNhJ7?g_st=ipc","address":"Grigoriou Lampraki 160, Thessaloniki 543 52","categoryIds":["desserts"],"categories":["Dessert Shops"],"distanceKm":0.23752451810846964},{"id":"greekRestaurants_d088423c78a1","slug":"sygchrono-kafeneion-o-tzertzeles-d088","kind":"restaurant","name":"Σύγχρονο Καφενείον ο Τζερτζελές","lat":40.617294004272665,"lng":22.977421178943235,"url":"https://maps.app.goo.gl/E8KAZpAFgpwoquHv9?g_st=ipc","address":"Καθηγητού Νικολάου Ανδριώτη 13, Θεσσαλονίκη 543 51","categoryIds":["greek-restaurants"],"categories":["Greek Restaurants"],"distanceKm":0.2546513792724477},{"id":"greekRestaurants_4d78fe3c61be","slug":"rou-leisure-gatherings-4d78","kind":"restaurant","name":"Rou Leisure Gatherings","lat":40.61281592695175,"lng":22.975955444197268,"url":"https://maps.app.goo.gl/ms5wLYa1p3XXEfE18?g_st=ipc","address":"Πραξαγόρα 22, Θεσσαλονίκη 543 51","categoryIds":["greek-restaurants"],"categories":["Greek Restaurants"],"distanceKm":0.2604178650182618},{"id":"coffeeBrunchRestaurants_9fa36f8be04c","slug":"rou-leisure-gatherings-9fa3","kind":"restaurant","name":"Rou Leisure Gatherings","lat":40.612773277438485,"lng":22.97595730543709,"url":"https://maps.app.goo.gl/GxRckrquv1sShJp28?g_st=ipc","address":"Praxagora 22, Thessaloniki 543 51","categoryIds":["coffee-brunch"],"categories":["Coffee & Brunch Spots"],"distanceKm":0.2648580511739702},{"id":"greekRestaurants_c29be60e5285","slug":"choirofreno-c29b","kind":"restaurant","name":"Χοιρόφρενο","lat":40.61678728213184,"lng":22.972877458653127,"url":"https://maps.app.goo.gl/fCEBNZq73XUBc6R68?g_st=ipc","address":"Ικαρίας 5, Θεσσαλονίκη 543 51","categoryIds":["greek-restaurants"],"categories":["Greek Restaurants"],"distanceKm":0.3958237314530279},{"id":"dessertsRestaurants_84006bf7f4fa","slug":"sugarini-8400","kind":"restaurant","name":"Sugarini","lat":40.61332571258828,"lng":22.981104601509724,"url":"https://maps.app.goo.gl/m9owYPpFDRCrPtgq6?g_st=ipc","address":"Grigoriou Lampraki 169, Thessaloniki 543 52","categoryIds":["desserts"],"categories":["Dessert Shops"],"distanceKm":0.3981905274515177},{"id":"asianRestaurants_fa15bba13e7a","slug":"asian-house-fa15","kind":"restaurant","name":"Asian House","lat":40.61406863205144,"lng":22.96925982276085,"url":"https://maps.app.goo.gl/RZUt6eATfNjJBVMW9?g_st=ipc","address":"Kleanthous 49, Thessaloniki 544 53","categoryIds":["asian"],"categories":["Asian Restaurants"],"distanceKm":0.6584304703338325},{"id":"municipalities_5bdb3c34c767","slug":"toympa-5bdb","kind":"municipality","name":"Τούμπα","lat":40.61,"lng":22.9725,"region":"Θεσσαλονίκη","name_en":"Toumpa","region_en":"Thessaloniki","distanceKm":0.6741596899758397},{"id":"greekRestaurants_d9762e9f6ad6","slug":"to-neon-estiatorio-d976","kind":"restaurant","name":"ΤΟ ΝΕΟΝ εστιατόριο","lat":40.61224067227643,"lng":22.98407750802401,"url":"https://maps.app.goo.gl/fkULAaU3UcrpCHGRA?g_st=ipc","address":"Γρηγορίου Λαμπράκη 205 & Δημ.Τσιαπάνου 25-29, Άνω Τούμπα 543 52","categoryIds":["greek-restaurants"],"categories":["Greek Restaurants"],"distanceKm":0.6764426321521034},{"id":"dessertsRestaurants_7728725cae0c","slug":"zacharoplasteio-ilios-kleanthoys-hlios-pastry-shop-kleanthous-7728","kind":"restaurant","name":"ΖΑΧΑΡΟΠΛΑΣΤΕΙΟ ΗΛΙΟΣ ΚΛΕΑΝΘΟΥΣ /Hlios Pastry Shop Kleanthous","lat":40.61382568960551,"lng":22.969099400369018,"url":"https://maps.app.goo.gl/tNhNJReBE4oYvZx6A?g_st=ipc","address":"Kleanthous 60, Thessaloniki 544 53","categoryIds":["desserts"],"categories":["Dessert Shops"],"distanceKm":0.6766258875899653},{"id":"italianRestaurants_57f0e6de9174","slug":"trattoria-santa-rita-57f0","kind":"restaurant","name":"Trattoria Santa Rita","lat":40.612086768976745,"lng":22.969846546876834,"url":"https://maps.app.goo.gl/tJ95kQkAp73h9qDi8?g_st=ipc","address":"Malakopis 19, Thessaloniki 544 53","categoryIds":["italian"],"categories":["Italian Restaurants"],"distanceKm":0.6836537078053573},{"id":"burgersRestaurants_5cdf5651be04","slug":"dunk-smash-burgers-5cdf","kind":"restaurant","name":"Dunk Smash Burgers","lat":40.614049656844195,"lng":22.968949553843263,"url":"https://maps.app.goo.gl/ECaRWM59W66g3f6h8?g_st=ipc","address":"Peston 82, Thessaloniki 544 53","categoryIds":["burgers"],"categories":["Burger Spots"],"distanceKm":0.6846180781578025},{"id":"burgersRestaurants_d1aa1b03e041","slug":"evora-eatery-d1aa","kind":"restaurant","name":"Evora Eatery","lat":40.616537415041016,"lng":22.969055137519607,"url":"https://maps.app.goo.gl/nXZzhY9yFR2kDUGA9?g_st=ipc","address":"Diogenous 13, Thessaloniki 544 53","categoryIds":["burgers"],"categories":["Burger Spots"],"distanceKm":0.6876461915209785},{"id":"greekRestaurants_0677d6c362a6","slug":"evora-eatery-0677","kind":"restaurant","name":"Εβόρα Eatery","lat":40.61655136125546,"lng":22.969054811212995,"url":"https://maps.app.goo.gl/K4Cnh5DSvkNE3ttK8?g_st=ipc","address":"Διογένους 13, Θεσσαλονίκη 544 53","categoryIds":["greek-restaurants"],"categories":["Greek Restaurants"],"distanceKm":0.6880521705319066},{"id":"italianRestaurants_26ce0faec041","slug":"raffaele-pizza-pasta-26ce","kind":"restaurant","name":"Raffaele Pizza & Pasta","lat":40.609052469541666,"lng":22.97944908191486,"url":"https://maps.app.goo.gl/t8jAxdhgPG7fRJcE7?g_st=ipc","address":"Αμφιπόλεως 45, Thessaloniki 544 54","categoryIds":["italian"],"categories":["Italian Restaurants"],"distanceKm":0.6973021881904958},{"id":"cheapEatsRestaurants_2468c5a59712","slug":"petridis-and-sons-grill-house-2468","kind":"restaurant","name":"Petridis And Sons - Grill House","lat":40.61189681851916,"lng":22.984212166296615,"url":"https://maps.app.goo.gl/qmEdiZfcHrQAp8pU7?g_st=ipc","address":"Grigoriou Lampraki 206, Thessaloniki 555 34","categoryIds":["cheap-eats"],"categories":["Gyros & Cheap Eats"],"distanceKm":0.7046699808082665},{"id":"greekRestaurants_2b555dc83271","slug":"soyvlakia-o-giannis-2b55","kind":"restaurant","name":"Σουβλάκια \"Ο Γιάννης\"","lat":40.61367230211868,"lng":22.968664986882153,"url":"https://maps.app.goo.gl/rGd5Se34NDg2Q9er5?g_st=ipc","address":"Κλεάνθους 54, Θεσσαλονίκη 544 53","categoryIds":["greek-restaurants"],"categories":["Greek Restaurants"],"distanceKm":0.7160096019837797},{"id":"cheapEatsRestaurants_1de3117b26db","slug":"omega-grill-1de3","kind":"restaurant","name":"Ωμέγα Grill","lat":40.6085969632586,"lng":22.97871142955339,"url":"https://maps.app.goo.gl/Jp9h1Xe2kPqJT7td9?g_st=ipc","address":"Αμφιπόλεως 34, Thessaloniki 544 54","categoryIds":["cheap-eats"],"categories":["Gyros & Cheap Eats"],"distanceKm":0.7306272024546193},{"id":"greekRestaurants_7a4337bc20a6","slug":"akrovatis-7a43","kind":"restaurant","name":"Ακροβάτης","lat":40.61307041653645,"lng":22.9677238002552,"url":"https://maps.app.goo.gl/kcK7ME3teiYGRent6?g_st=ipc","address":"Papafi 113, Thessaloniki 544 53","categoryIds":["greek-restaurants"],"categories":["Greek Restaurants"],"distanceKm":0.8092560277635045}],"sameRegion":[],"mentionedGuides":[],"canonicalSlug":"gyradiko-bf1d","enrichment":{"summary_en":"Gyradiko is a curated restaurant in Thessaloniki 543 51 in the Gyros & Cheap Eats collection. It is connected to 23 nearby Googlementor picks to help travelers build a stronger local route.","summary_el":"Gyradiko είναι ένα επιλεγμένο σημείο φαγητού στην περιοχή Thessaloniki 543 51 και ανήκει στη συλλογή Gyros & Cheap Eats. Συνδέεται με 23 κοντινές προτάσεις του Googlementor για πιο ολοκληρωμένη εμπειρία.","vibe_tags":["curated","budget-friendly"],"best_for":["first-time visitors","food lovers","budget travelers"],"visit_moments":["lunch stop","dinner stop"],"practical_note":"Address and direct map link are available for easy turn-by-turn access.","nearby_walkable_count":23,"nearby_count_2km":78,"confidence":0.98},"areaContext":{"slug":"toympa","name":"Toumpa","nameEl":"Τούμπα"},"intentContexts":[{"href":"/cheap-eats/toympa","label":"Gyros & Cheap Eats in Toumpa","categorySlug":"cheap-eats","categoryName":"Gyros & Cheap Eats","areaSlug":"toympa","areaName":"Toumpa","areaNameEl":"Τούμπα"}]},"__N_SSG":true}