{"pageProps":{"entity":{"id":"coffeeBrunchRestaurants_946f8ff0112c","slug":"hippy-hippo-946f","kind":"restaurant","name":"Hippy Hippo","lat":37.96338312245576,"lng":23.724161260955565,"url":"https://maps.app.goo.gl/dGXFqUaPgJg6izKF7?g_st=ipc","address":"Αναστασίου Ζίννη 37, Αθήνα 117 41","categoryIds":["coffee-brunch"],"categories":["Coffee & Brunch Spots"]},"sameCategory":[{"id":"coffeeBrunchRestaurants_6154e62b6cd6","slug":"mpel-rey-6154","kind":"restaurant","name":"Μπελ Ρεϋ","lat":37.96239606904346,"lng":23.722769926662476,"url":"https://maps.app.goo.gl/zGZShvHird8bq92Q9?g_st=ipc","address":"Φαλήρου 88, Αθήνα 117 41","categoryIds":["coffee-brunch"],"categories":["Coffee & Brunch Spots"]},{"id":"coffeeBrunchRestaurants_93d5a5bf934a","slug":"bite-box-93d5","kind":"restaurant","name":"Bite Box","lat":37.963687328724134,"lng":23.72159915102945,"url":"https://maps.app.goo.gl/szSB6mZP4tWEA46h7?g_st=ipc","address":"Βεΐκου 84, Αθήνα 117 41","categoryIds":["coffee-brunch"],"categories":["Coffee & Brunch Spots"]},{"id":"coffeeBrunchRestaurants_10b5704edcd7","slug":"karminio-all-day-eatery-10b5","kind":"restaurant","name":"KARMINIO - All Day Eatery","lat":37.963365261808825,"lng":23.721069408577183,"url":"https://maps.app.goo.gl/B47HWPSnhF6mtY1M8?g_st=ipc","address":"Βεΐκου 86, Αθήνα 117 41","categoryIds":["coffee-brunch","vegetarian"],"categories":["Coffee & Brunch Spots","Vegetarian Friendly Restaurants"],"legacySlugs":["karminio-all-day-eatery-44c1"]},{"id":"coffeeBrunchRestaurants_a5c0f29b5820","slug":"tempo-social-club-a5c0","kind":"restaurant","name":"Tempo Social Club","lat":37.96527397578301,"lng":23.726786075207272,"url":"https://maps.app.goo.gl/uU1H3HFYf7VVqpjy9?g_st=ipc","address":"Φαλήρου 49, Αθήνα 117 42","categoryIds":["coffee-brunch"],"categories":["Coffee & Brunch Spots"]},{"id":"coffeeBrunchRestaurants_85c9b3242244","slug":"this-is-loco-85c9","kind":"restaurant","name":"This is Loco","lat":37.96542578565319,"lng":23.726906270555997,"url":"https://maps.app.goo.gl/DKCmfLqp6KdRCVPg6?g_st=ipc","address":"Φαλήρου 47, Αθήνα 117 42","categoryIds":["coffee-brunch","vegetarian"],"categories":["Coffee & Brunch Spots","Vegetarian Friendly Restaurants"],"legacySlugs":["this-is-loco-0b77"]},{"id":"coffeeBrunchRestaurants_c191ebb5fd6a","slug":"teras-athens-c191","kind":"restaurant","name":"Teras Athens","lat":37.96132522695651,"lng":23.727704519576132,"url":"https://maps.app.goo.gl/Q7ocWz9NPgB5Zoaa6?g_st=ipc","address":"Θεοδώρητου Βρεσθένης 45, Αθήνα 117 43","categoryIds":["coffee-brunch"],"categories":["Coffee & Brunch Spots"]},{"id":"coffeeBrunchRestaurants_43a4eab28734","slug":"omsom-koukaki-43a4","kind":"restaurant","name":"Omsom koukaki","lat":37.96237188971574,"lng":23.719324269228586,"url":"https://maps.app.goo.gl/JSsTgH7xa3anCw4c9?g_st=ipc","address":"Βεΐκου 110, Αθήνα 117 41","categoryIds":["coffee-brunch"],"categories":["Coffee & Brunch Spots"]},{"id":"coffeeBrunchRestaurants_bdf81375a84e","slug":"ere-athens-bdf8","kind":"restaurant","name":"ERE Athens","lat":37.96787420182931,"lng":23.725296301158785,"url":"https://maps.app.goo.gl/rRZaQcETgQQjdrzg7?g_st=ipc","address":"Ερεχθείου 30, Αθήνα 117 42","categoryIds":["coffee-brunch"],"categories":["Coffee & Brunch Spots"]},{"id":"coffeeBrunchRestaurants_60b919ea4202","slug":"artopoiotis-o-takis-60b9","kind":"restaurant","name":"Αρτοποιότης Ο Τάκης","lat":37.96774042832454,"lng":23.72678404932504,"url":"https://maps.app.goo.gl/kz81zzmehsyvYBbQ6?g_st=ipc","address":"Μισαραλιώτου 14, Αθήνα 117 42","categoryIds":["coffee-brunch"],"categories":["Coffee & Brunch Spots"]},{"id":"coffeeBrunchRestaurants_01aaff71bf45","slug":"pancake-cake-acropolis-01aa","kind":"restaurant","name":"Pancake & CAKE Acropolis","lat":37.967897348905204,"lng":23.726566946010575,"url":"https://maps.app.goo.gl/QuHwWVBbtZh2gYY18?g_st=ipc","address":"Καρυάτιδων 15, Αθήνα 117 42","categoryIds":["coffee-brunch"],"categories":["Coffee & Brunch Spots"]},{"id":"coffeeBrunchRestaurants_3cb499b8df33","slug":"drupes-spritzeria-3cb4","kind":"restaurant","name":"Drupes Spritzeria","lat":37.96781101754338,"lng":23.726828197185508,"url":"https://maps.app.goo.gl/3UEtVFAU3pPvguxJA?g_st=ipc","address":"Ζήτρου 20, Αθήνα 117 42","categoryIds":["coffee-brunch"],"categories":["Coffee & Brunch Spots"]},{"id":"coffeeBrunchRestaurants_da9d2fc56763","slug":"acai-verao-athens-da9d","kind":"restaurant","name":"Açaí Verão Athens","lat":37.966845247384065,"lng":23.728622894774116,"url":"https://maps.app.goo.gl/zSWkUCcCMEwv3K5Y7?g_st=ipc","address":"Φαλήρου 6, Αθήνα 117 42","categoryIds":["coffee-brunch"],"categories":["Coffee & Brunch Spots"]}],"nearby":[{"id":"italianRestaurants_5abecb9e2aaa","slug":"voylkanizater-5abe","kind":"restaurant","name":"Βουλκανιζατέρ","lat":37.96367095489114,"lng":23.724556596700353,"url":"https://maps.app.goo.gl/HebUjJkB8SUt6Xp36?g_st=ipc","address":"Οδυσσέα Ανδρούτσου 17, Αθήνα 117 41","categoryIds":["italian"],"categories":["Italian Restaurants"],"distanceKm":0.04717525652589828},{"id":"asianRestaurants_a89412856273","slug":"koyasan-in-koukaki-a894","kind":"restaurant","name":"Koyasan in koukaki","lat":37.96291366771106,"lng":23.723242897494586,"url":"https://maps.app.goo.gl/4sTjgzzfABYKexbx6?g_st=ipc","address":"17 & Ο, Ζαν Μωρεάς, Γεωρ. Ανδρούτσου, Αθήνα 117 41","categoryIds":["asian"],"categories":["Asian Restaurants"],"distanceKm":0.09595208379227835},{"id":"vegetarianRestaurants_663d79e21a0f","slug":"noa-poke-koukaki-663d","kind":"restaurant","name":"Noa Poke Koukaki","lat":37.962721066064105,"lng":23.72328239582356,"url":"https://maps.app.goo.gl/2BHN8JbCEv2oz4LT8?g_st=ipc","address":"Φαλήρου 84, Αθήνα 117 41","categoryIds":["vegetarian"],"categories":["Vegetarian Friendly Restaurants"],"distanceKm":0.10656364835725776},{"id":"burgersRestaurants_ad6cf86d44bd","slug":"sam-burgers-ad6c","kind":"restaurant","name":"Sam burgers","lat":37.96388468249238,"lng":23.72312062221316,"url":"https://maps.app.goo.gl/pYEUc4KHraPYUmvN8?g_st=ipc","address":"Δημητρακοπούλου 82, Αθήνα 117 41","categoryIds":["burgers"],"categories":["Burger Spots"],"distanceKm":0.10692569738811726},{"id":"cheapEatsRestaurants_104db32dd905","slug":"jackaroo-104d","kind":"restaurant","name":"Jackaroo","lat":37.96222285381352,"lng":23.7252636942005,"url":"https://maps.app.goo.gl/obvLVFRy5Vbt8DPS6?g_st=ipc","address":"Καλλιρρόης 73, Αθήνα 117 45","categoryIds":["cheap-eats"],"categories":["Gyros & Cheap Eats"],"distanceKm":0.1612011723125567},{"id":"coffeeBrunchRestaurants_6154e62b6cd6","slug":"mpel-rey-6154","kind":"restaurant","name":"Μπελ Ρεϋ","lat":37.96239606904346,"lng":23.722769926662476,"url":"https://maps.app.goo.gl/zGZShvHird8bq92Q9?g_st=ipc","address":"Φαλήρου 88, Αθήνα 117 41","categoryIds":["coffee-brunch"],"categories":["Coffee & Brunch Spots"],"distanceKm":0.16408520804578386},{"id":"dessertsRestaurants_f792b1129076","slug":"flour-of-youth-f792","kind":"restaurant","name":"Flour Of Youth","lat":37.96404409092071,"lng":23.722471600259,"url":"https://maps.app.goo.gl/FibffjzNDReT3bDx7?g_st=ipc","address":"Βεΐκου 91, Αθήνα 117 41","categoryIds":["desserts"],"categories":["Dessert Shops"],"distanceKm":0.1653572835653702},{"id":"cheapEatsRestaurants_f167ae0efa67","slug":"kalyvas-oikogeneiako-psitopoleio-f167","kind":"restaurant","name":"Καλύβας οικογενειακό ψητοπωλείο","lat":37.962881286635515,"lng":23.721970322127277,"url":"https://maps.app.goo.gl/tfkKpGgKP9PAqPWX9?g_st=ipc","address":"Dimitrakopoulou 91-93, G Olymbiou 10, Athina 117 41","categoryIds":["cheap-eats"],"categories":["Gyros & Cheap Eats"],"distanceKm":0.20001431440772727},{"id":"luxuryDiningRestaurants_449388b6e901","slug":"gallina-athens-4493","kind":"restaurant","name":"Gallina Athens","lat":37.964508186769734,"lng":23.726121733406966,"url":"https://maps.app.goo.gl/zkqCQmDUHjdt7RX4A?g_st=ipc","address":"Μαρκ. Μπότσαρη 49, Αθήνα 117 42","categoryIds":["luxury-dining"],"categories":["Luxury Dining"],"distanceKm":0.21257578823188533},{"id":"coffeeBrunchRestaurants_93d5a5bf934a","slug":"bite-box-93d5","kind":"restaurant","name":"Bite Box","lat":37.963687328724134,"lng":23.72159915102945,"url":"https://maps.app.goo.gl/szSB6mZP4tWEA46h7?g_st=ipc","address":"Βεΐκου 84, Αθήνα 117 41","categoryIds":["coffee-brunch"],"categories":["Coffee & Brunch Spots"],"distanceKm":0.22714364050058863},{"id":"dessertsRestaurants_565a86e193ac","slug":"loukoumania-koukaki-565a","kind":"restaurant","name":"Loukoumania Koukaki","lat":37.96292938267619,"lng":23.721586647006472,"url":"https://maps.app.goo.gl/ZLLgE9gFjGjPVqBp7?g_st=ipc","address":"Δημητρακοπούλου 102, Αθήνα 117 41","categoryIds":["desserts"],"categories":["Dessert Shops"],"distanceKm":0.2312784902589031},{"id":"mexicanRestaurants_b734434ef46c","slug":"el-burro-tacos-y-tequila-b734","kind":"restaurant","name":"El burro tacos y tequila","lat":37.962922862445566,"lng":23.7215865155236,"url":"https://maps.app.goo.gl/5kJKHTBcWjkVftX99?g_st=ipc","address":"Δημητρακοπούλου 102, Αθήνα 117 41","categoryIds":["mexican"],"categories":["Mexican Restaurants"],"distanceKm":0.23144898580663087},{"id":"vegetarianRestaurants_06ce84bd30cd","slug":"mother-vegan-bistro-06ce","kind":"restaurant","name":"Mother Vegan Bistro","lat":37.962693218314804,"lng":23.721538252984118,"url":"https://maps.app.goo.gl/TZgz9fcY4M4aZZQD6?g_st=ipc","address":"Δημητρακοπούλου, Αγίου Νικολάου 95, Αθήνα 117 41","categoryIds":["vegetarian"],"categories":["Vegetarian Friendly Restaurants"],"distanceKm":0.24240981165136424},{"id":"municipalities_616efd2a0d9b","slug":"koykaki-616e","kind":"municipality","name":"Κουκάκι","lat":37.9647,"lng":23.7264,"aliases":["Kukaki"],"region":"Κέντρο Αθήνας","name_en":"Koukaki","region_en":"Athens Center","distanceKm":0.2448674072842772},{"id":"coffeeBrunchRestaurants_10b5704edcd7","slug":"karminio-all-day-eatery-10b5","kind":"restaurant","name":"KARMINIO - All Day Eatery","lat":37.963365261808825,"lng":23.721069408577183,"url":"https://maps.app.goo.gl/B47HWPSnhF6mtY1M8?g_st=ipc","address":"Βεΐκου 86, Αθήνα 117 41","categoryIds":["coffee-brunch","vegetarian"],"categories":["Coffee & Brunch Spots","Vegetarian Friendly Restaurants"],"legacySlugs":["karminio-all-day-eatery-44c1"],"distanceKm":0.2710592804528616},{"id":"cheapEatsRestaurants_5e8824ccc538","slug":"kalamaki-bar-5e88","kind":"restaurant","name":"Kalamaki Bar","lat":37.9654765831714,"lng":23.725752010856876,"url":"https://maps.app.goo.gl/vMhM3YojNKaURqwX8?g_st=ipc","address":"Δημητρακοπούλου και, Δράκου 15, Αθήνα 117 42","categoryIds":["cheap-eats"],"categories":["Gyros & Cheap Eats"],"distanceKm":0.2713574150362918},{"id":"cheapEatsRestaurants_d094097525b6","slug":"senor-picante-d094","kind":"restaurant","name":"Señor Picante","lat":37.965308606012925,"lng":23.726477821309263,"url":"https://maps.app.goo.gl/bZNApSKDTgmvuiXB7?g_st=ipc","address":"Φαλήρου 40, Αθήνα 117 42","categoryIds":["cheap-eats","mexican"],"categories":["Gyros & Cheap Eats","Mexican Restaurants"],"legacySlugs":["senor-picante-fbd3"],"distanceKm":0.29509808958460143},{"id":"vegetarianRestaurants_4db58e18de0e","slug":"peas-vegan-4db5","kind":"restaurant","name":"Peas Vegan","lat":37.965309081383936,"lng":23.72648212033699,"url":"https://maps.app.goo.gl/8AeCWeh7LczgaD87A?g_st=ipc","address":"Φαλήρου 40, Αθήνα 117 42","categoryIds":["vegetarian"],"categories":["Vegetarian Friendly Restaurants"],"distanceKm":0.29539589562890345},{"id":"greekRestaurants_2cc5d772f006","slug":"onos-taverna-2cc5","kind":"restaurant","name":"Onos Taverna","lat":37.96571079116367,"lng":23.725945276440267,"url":"https://maps.app.goo.gl/ur5XrAoMuE8FsR5c6","address":"Δράκου 14, Αθήνα 117 42","categoryIds":["greek-restaurants"],"categories":["Greek Restaurants"],"distanceKm":0.3024071009200838},{"id":"coffeeBrunchRestaurants_a5c0f29b5820","slug":"tempo-social-club-a5c0","kind":"restaurant","name":"Tempo Social Club","lat":37.96527397578301,"lng":23.726786075207272,"url":"https://maps.app.goo.gl/uU1H3HFYf7VVqpjy9?g_st=ipc","address":"Φαλήρου 49, Αθήνα 117 42","categoryIds":["coffee-brunch"],"categories":["Coffee & Brunch Spots"],"distanceKm":0.31169687604217355},{"id":"asianRestaurants_be2d9e8cfa29","slug":"kuchisabishii-sakaba-be2d","kind":"restaurant","name":"Kuchisabishii Sakaba","lat":37.965507796335324,"lng":23.72667501899547,"url":"https://maps.app.goo.gl/mwPcNGYBVTJSy6C59?g_st=ic","address":"Falirou 36, Athina 117 42","categoryIds":["asian"],"categories":["Asian Restaurants"],"distanceKm":0.3230759498541903},{"id":"asianRestaurants_83a81f921b31","slug":"tuk-tuk-thai-street-food-83a8","kind":"restaurant","name":"TUK TUK THAI STREET FOOD","lat":37.96606521122011,"lng":23.725716482971748,"url":"https://maps.app.goo.gl/dLSj52rnQDPAbaGg8?g_st=ipc","address":"Βεΐκου 40, Αθήνα 117 42","categoryIds":["asian"],"categories":["Asian Restaurants"],"distanceKm":0.3279208465874224},{"id":"coffeeBrunchRestaurants_85c9b3242244","slug":"this-is-loco-85c9","kind":"restaurant","name":"This is Loco","lat":37.96542578565319,"lng":23.726906270555997,"url":"https://maps.app.goo.gl/DKCmfLqp6KdRCVPg6?g_st=ipc","address":"Φαλήρου 47, Αθήνα 117 42","categoryIds":["coffee-brunch","vegetarian"],"categories":["Coffee & Brunch Spots","Vegetarian Friendly Restaurants"],"legacySlugs":["this-is-loco-0b77"],"distanceKm":0.33090540445794153},{"id":"cheapEatsRestaurants_abe36348d52a","slug":"guarantee-abe3","kind":"restaurant","name":"Guarantee","lat":37.96613348579953,"lng":23.726193428667294,"url":"https://maps.app.goo.gl/k43yGuJ8dK72yJAh8?g_st=ipc","address":"Βεΐκου 41, Αθήνα 117 42","categoryIds":["cheap-eats"],"categories":["Gyros & Cheap Eats"],"distanceKm":0.35393100111800374}],"sameRegion":[],"mentionedGuides":[],"canonicalSlug":"hippy-hippo-946f","enrichment":{"summary_en":"Hippy Hippo is a curated restaurant in Αθήνα 117 41 in the Coffee & Brunch Spots collection. It is connected to 80 nearby Googlementor picks to help travelers build a stronger local route.","summary_el":"Hippy Hippo είναι ένα επιλεγμένο σημείο φαγητού στην περιοχή Αθήνα 117 41 και ανήκει στη συλλογή Coffee & Brunch Spots. Συνδέεται με 80 κοντινές προτάσεις του Googlementor για πιο ολοκληρωμένη εμπειρία.","vibe_tags":["curated","daytime-favorite"],"best_for":["first-time visitors","food lovers"],"visit_moments":["early morning","late brunch"],"practical_note":"Address and direct map link are available for easy turn-by-turn access.","nearby_walkable_count":80,"nearby_count_2km":498,"confidence":0.98},"areaContext":{"slug":"koykaki","name":"Koukaki","nameEl":"Κουκάκι"},"intentContexts":[{"href":"/brunch/koykaki","label":"Coffee & Brunch Spots in Koukaki","categorySlug":"brunch","categoryName":"Coffee & Brunch Spots","areaSlug":"koykaki","areaName":"Koukaki","areaNameEl":"Κουκάκι"}]},"__N_SSG":true}