{"pageProps":{"entity":{"id":"monasteriesChurches_680860666634","slug":"iera-moni-koimiseos-tis-theotokoy-kleiston-6808","kind":"restaurant","name":"Ιερά Μονή Κοιμήσεως της Θεοτόκου Κλειστών","lat":38.13109301050575,"lng":23.65695380658108,"url":"https://maps.app.goo.gl/BjSRHN6tAZGnfJ9p8?g_st=ipc","address":"Φυλή 133 41","categoryIds":["monasteries-churches"],"categories":["Monasteries & Spiritual Sites"]},"sameCategory":[{"id":"monasteriesChurches_03a62bb89dba","slug":"iera-moni-agioy-kyprianoy-03a6","kind":"restaurant","name":"Ιερά Μονή Αγίου Κυπριανού","lat":38.11439120183363,"lng":23.677888094487148,"url":"https://maps.app.goo.gl/4CSBCi4A57QqcY1JA?g_st=ipc","address":"μονη, Αγ. Κυπριανού, Φυλή 133 51","categoryIds":["monasteries-churches"],"categories":["Monasteries & Spiritual Sites"]},{"id":"monasteriesChurches_5170cd1cd8e1","slug":"monastiri-agias-eirinis-chrysovalantoy-5170","kind":"restaurant","name":"Μοναστήρι Αγίας Ειρήνης Χρυσοβαλάντου","lat":38.0757087984453,"lng":23.784060169292047,"url":"https://maps.app.goo.gl/Kmbb6BYr6fSV4pFRA?g_st=ipc","address":"Δημητσάνας 1, Λυκόβρυση 141 23","categoryIds":["monasteries-churches"],"categories":["Monasteries & Spiritual Sites"]},{"id":"monasteriesChurches_9012455a363d","slug":"iera-moni-dafnioy-9012","kind":"restaurant","name":"Ιερά Μονή Δαφνίου","lat":38.012995167161115,"lng":23.63601896606369,"url":"https://maps.app.goo.gl/idE6eKcfBqTpZbE78?g_st=ipc","address":"Ιερά Οδός, Χαϊδάρι 124 61","categoryIds":["monasteries-churches","attractions"],"categories":["Monasteries & Spiritual Sites","Must-See Attractions"],"legacySlugs":["iera-moni-dafnioy-2115"]},{"id":"monasteriesChurches_7d585aed6cfa","slug":"ieros-naos-koimiseos-tis-theotokoy-panagitsa-7d58","kind":"restaurant","name":"Ιερός Ναός Κοιμήσεως της Θεοτόκου (Παναγίτσα)","lat":38.01727711784317,"lng":23.744778782538283,"url":"https://maps.app.goo.gl/RDMFUG49GBgqceAu8?g_st=ipc","address":"Ανδρεόπουλου 2, Αθήνα 111 41","categoryIds":["monasteries-churches"],"categories":["Monasteries & Spiritual Sites"]},{"id":"monasteriesChurches_8565772cb25f","slug":"ieros-naos-metamorfosis-toy-sotiros-8565","kind":"restaurant","name":"Ιερός Ναός Μεταμόρφωσης του Σωτήρος","lat":38.074902566685026,"lng":23.819660581938585,"url":"https://maps.app.goo.gl/aHzFfMJMwLVAE89e9?g_st=ipc","address":"Κολοκοτρώνη, Κηφισιά 145 62","categoryIds":["monasteries-churches"],"categories":["Monasteries & Spiritual Sites"]},{"id":"monasteriesChurches_0be61b94a0f8","slug":"ieros-naos-agias-marinas-ekalis-0be6","kind":"restaurant","name":"Ιερός Ναός Αγίας Μαρίνας Εκάλης","lat":38.10774629476024,"lng":23.837173739444502,"url":"https://maps.app.goo.gl/rDcWxEZj5h9aqKaW6?g_st=ipc","address":"Λεωφ. Θησέως 54, Εκάλη 145 78","categoryIds":["monasteries-churches"],"categories":["Monasteries & Spiritual Sites"]},{"id":"monasteriesChurches_caa9124a394d","slug":"ieros-naos-agion-isidoron-lykavittoy-caa9","kind":"restaurant","name":"Ιερός Ναός Αγίων Ισιδώρων Λυκαβηττού","lat":37.982296617522,"lng":23.742795127887568,"url":"https://maps.app.goo.gl/vi4b8bvA5jdYKcqf9?g_st=ipc","address":"Μονοπατι Λυκαβηττου, Αθήνα 114 71","categoryIds":["monasteries-churches","attractions"],"categories":["Monasteries & Spiritual Sites","Must-See Attractions"],"legacySlugs":["ieros-naos-agion-isidoron-lykavittoy-361f"]},{"id":"monasteriesChurches_d3d098c448a4","slug":"ieros-naos-agias-eirinis-d3d0","kind":"restaurant","name":"Ιερός Ναός Αγίας Ειρήνης","lat":37.977134855411386,"lng":23.727779375021544,"url":"https://maps.app.goo.gl/JehgGspdoWfwue8w5?g_st=ipc","address":"Αιόλου 36, Αθήνα 105 60","categoryIds":["monasteries-churches"],"categories":["Monasteries & Spiritual Sites"]},{"id":"monasteriesChurches_55ac212b36ef","slug":"ieros-naos-agioy-georgioy-lykavittoy-55ac","kind":"restaurant","name":"Ιερός Ναός Αγίου Γεωργίου Λυκαβηττού","lat":37.981958638170035,"lng":23.74338468366007,"url":"https://maps.app.goo.gl/V1br63hybrfVnEiCA?g_st=ipc","address":"Αθήνα 114 71","categoryIds":["monasteries-churches"],"categories":["Monasteries & Spiritual Sites"]},{"id":"monasteriesChurches_a960e0dee86b","slug":"iera-moni-panagias-gorgoepikooy-a960","kind":"restaurant","name":"Ιερά Μονή Παναγίας Γοργοεπηκόου","lat":38.06149256664941,"lng":23.467831046678143,"url":"https://maps.app.goo.gl/vNnKum91S5s8eiVu8?g_st=ipc","address":"Μακεδονομάχων, Μάνδρα-Ειδύλλια 196 00","categoryIds":["monasteries-churches"],"categories":["Monasteries & Spiritual Sites"]},{"id":"monasteriesChurches_4b11b4e1cf5d","slug":"ieros-naos-agioy-dionysioy-areopagitoy-polioychoy-athinon-4b11","kind":"restaurant","name":"Ιερός Ναός Αγίου Διονυσίου Αρεοπαγίτου, Πολιούχου Αθηνών","lat":37.97972265813733,"lng":23.73873188558116,"url":"https://maps.app.goo.gl/m2sqAvFCJXsVJyjB8?g_st=ipc","address":"Σκουφά 34, Αθήνα 106 72","categoryIds":["monasteries-churches"],"categories":["Monasteries & Spiritual Sites"]},{"id":"monasteriesChurches_33b82b7e9f7b","slug":"ieros-panepistimiakos-naos-eisodion-tis-theotokoy-kapnikarea-33b8","kind":"restaurant","name":"Ιερός Πανεπιστημιακός Ναός Εισοδίων της Θεοτόκου (Καπνικαρέα)","lat":37.97637980025147,"lng":23.72861650689245,"url":"https://maps.app.goo.gl/7LkLpxAa7L7V3fr8A?g_st=ipc","address":"Πλ. Καπνικαρέας 3, Αθήνα 105 63","categoryIds":["monasteries-churches"],"categories":["Monasteries & Spiritual Sites"]}],"nearby":[{"id":"monasteriesChurches_03a62bb89dba","slug":"iera-moni-agioy-kyprianoy-03a6","kind":"restaurant","name":"Ιερά Μονή Αγίου Κυπριανού","lat":38.11439120183363,"lng":23.677888094487148,"url":"https://maps.app.goo.gl/4CSBCi4A57QqcY1JA?g_st=ipc","address":"μονη, Αγ. Κυπριανού, Φυλή 133 51","categoryIds":["monasteries-churches"],"categories":["Monasteries & Spiritual Sites"],"distanceKm":2.6081590620142543},{"id":"familyFriendly_d9ebf8b00250","slug":"athlitiko-parko-parnithas-kai-moyseio-palaion-epaggelmaton-d9eb","kind":"restaurant","name":"Αθλητικό Πάρκο Πάρνηθας και Μουσείο Παλαιών Επαγγελμάτων","lat":38.11083610723094,"lng":23.69169674427175,"url":"https://maps.app.goo.gl/J7UHi8dDFoMJKKUh7?g_st=ipc","address":"Ρόδων, Άνω Λιόσια 133 43","categoryIds":["family-friendly"],"categories":["Kid Friendly Locations"],"distanceKm":3.782936543110155},{"id":"municipalities_c865ad4efc46","slug":"fyli-c865","kind":"municipality","name":"Φυλή","lat":38.0833,"lng":23.6667,"region":"Δυτική Αττική","name_en":"Fyli","region_en":"West Attica","distanceKm":5.382320723862484},{"id":"mustSeeAttractions_f8a8945256eb","slug":"ethnikos-drymos-parnithas-f8a8","kind":"restaurant","name":"Εθνικός Δρυμός Πάρνηθας","lat":38.15998271976968,"lng":23.71947970128565,"url":"https://maps.app.goo.gl/vhNTNbS2nJx1YD8n8?g_st=ipc","address":"Πάρνηθα 136 72","categoryIds":["attractions"],"categories":["Must-See Attractions"],"distanceKm":6.341633454578181},{"id":"italianRestaurants_764eadc47084","slug":"pizza-days-ano-liosion-764e","kind":"restaurant","name":"Pizza Days - Άνω Λιοσίων","lat":38.08738762293733,"lng":23.705019354443774,"url":"https://maps.app.goo.gl/j8oAF5aTcAufPq229?g_st=ipc","address":"Πηνειού 38, Άνω Λιόσια 133 41","categoryIds":["italian"],"categories":["Italian Restaurants"],"distanceKm":6.4267289549304545},{"id":"greekRestaurants_9919fac2ca6c","slug":"mezedopoleio-aney-oron-9919","kind":"restaurant","name":"Μεζεδοπωλείο Άνευ Όρων","lat":38.07817620964211,"lng":23.702197123618852,"url":"https://maps.app.goo.gl/hQsQJwctvni6scyCA","address":"Δημαρχείου 8, Άνω Λιόσια 133 41","categoryIds":["greek-restaurants"],"categories":["Greek Restaurants"],"distanceKm":7.091795496661892},{"id":"coffeeBrunchRestaurants_ba1c57c3e046","slug":"katafygio-mpafi-ba1c","kind":"restaurant","name":"Καταφύγιο Μπάφι","lat":38.16746990651998,"lng":23.726972151660846,"url":"https://maps.app.goo.gl/h8ni4KMpRSPF4Zzu5?g_st=ipc","address":"Πάρνηθος, Αθήνα 136 72","categoryIds":["coffee-brunch"],"categories":["Coffee & Brunch Spots"],"distanceKm":7.338174219008878},{"id":"greekRestaurants_5d8a4cf10a66","slug":"o-laios-taverna-5d8a","kind":"restaurant","name":"Ο Λάιος Ταβέρνα","lat":38.10626654490386,"lng":23.736261492242534,"url":"https://maps.app.goo.gl/r5ZTDusqKfZ21E9b8","address":"Λεωφ. Κωνσταντίνου Καραμανλή 6, Αχαρνές 136 72","categoryIds":["greek-restaurants"],"categories":["Greek Restaurants"],"distanceKm":7.466943366472248},{"id":"dessertsRestaurants_0891a505b36b","slug":"galaktopoleio-stamoy-0891","kind":"restaurant","name":"Γαλακτοπωλείο Στάμου","lat":38.11472562186031,"lng":23.74537333629416,"url":"https://maps.app.goo.gl/4FRYPvoU2rB5btZX8?g_st=ipc","address":"Θρακομακεδόνων 154, Αχαρνές 136 79","categoryIds":["desserts"],"categories":["Dessert Shops"],"distanceKm":7.9458017897283515},{"id":"coffeeBrunchRestaurants_3e87c6ffcc50","slug":"bueno-3e87","kind":"restaurant","name":"Bueno","lat":38.101108774458396,"lng":23.743311119938365,"url":"https://maps.app.goo.gl/nWns9tgS4rLXo1Dm9?g_st=ipc","address":"Λεωφ. Κωνσταντίνου Καραμανλή 53, Αχαρνές 136 72","categoryIds":["coffee-brunch"],"categories":["Coffee & Brunch Spots"],"distanceKm":8.257863411209831},{"id":"dessertsRestaurants_4106b45265a3","slug":"bueno-4106","kind":"restaurant","name":"Bueno","lat":38.101101437687646,"lng":23.743308167267262,"url":"https://maps.app.goo.gl/3f4yVgyuCXzvh6Ac6?g_st=ipc","address":"Leof. Kon/nou Karamanli 53, Acharnes 136 72","categoryIds":["desserts"],"categories":["Dessert Shops"],"distanceKm":8.257956863130214},{"id":"greekRestaurants_3985a63bf69c","slug":"taverna-pappas-3985","kind":"restaurant","name":"Ταβέρνα Παππάς","lat":38.13707378465122,"lng":23.751130974888763,"url":"https://maps.app.goo.gl/cf1v4bYNnpWbWW7u9","address":"Θεσσαλονίκης 2, Αχαρνές 136 76","categoryIds":["greek-restaurants"],"categories":["Greek Restaurants"],"distanceKm":8.26375918782384},{"id":"italianRestaurants_27d92444b722","slug":"goloso-acharnes-27d9","kind":"restaurant","name":"GOLOSO - ΑΧΑΡΝΕΣ","lat":38.09475606530576,"lng":23.739483205778253,"url":"https://maps.app.goo.gl/fx2nPPeJ6gGMBbSBA","address":"Agiou Eleftheriou 18, Acharnes 136 74","categoryIds":["italian"],"categories":["Italian Restaurants"],"distanceKm":8.273955720961732},{"id":"municipalities_f5c02f2a2ecc","slug":"acharnes-f5c0","kind":"municipality","name":"Αχαρνές","lat":38.0833,"lng":23.7333,"region":"Βόρεια/Ανατολικά","name_en":"Acharnes","region_en":"North/East","distanceKm":8.535980200569925},{"id":"municipalities_e0afc01f23ce","slug":"aspropyrgos-e0af","kind":"municipality","name":"Ασπρόπυργος","lat":38.0667,"lng":23.6,"region":"Δυτική Αττική","name_en":"Aspropyrgos","region_en":"West Attica","distanceKm":8.723848012049636},{"id":"greekRestaurants_ecad8f17d794","slug":"taverna-kitsaronas-ecad","kind":"restaurant","name":"Ταβέρνα Κιτσαρώνας","lat":38.081090797205825,"lng":23.73517147403274,"url":"https://maps.app.goo.gl/CdrwzhJ6AF8GwRvr7","address":"Π. Μελά 8, Αχαρνές 136 75","categoryIds":["greek-restaurants"],"categories":["Greek Restaurants"],"distanceKm":8.817599732141668},{"id":"dessertsRestaurants_48328c9fc5f0","slug":"galaktopoleio-stamoy-4832","kind":"restaurant","name":"Γαλακτοπωλείο ΣΤΑΜΟΥ","lat":38.07926600844486,"lng":23.73816605072715,"url":"https://maps.app.goo.gl/kVZvesD6UgeQooPB9?g_st=ipc","address":"Κωνσταντινουπόλεως 307, Αχαρνές 136 74","categoryIds":["desserts"],"categories":["Dessert Shops"],"distanceKm":9.148976094905763},{"id":"dessertsRestaurants_8a872edfde79","slug":"galaktopoleio-stamoy-8a87","kind":"restaurant","name":"Γαλακτοπωλείο ΣΤΑΜΟΥ","lat":38.06113010578425,"lng":23.71402739614515,"url":"https://maps.app.goo.gl/yspbknaZbJ3DjmUr6?g_st=ipc","address":"Λ, Φυλής 70, Καματερό 134 51","categoryIds":["desserts"],"categories":["Dessert Shops"],"distanceKm":9.244718420385784},{"id":"familyFriendly_2b5afed6feac","slug":"aidonakia-playcity-2b5a","kind":"restaurant","name":"Αηδονάκια PlayCity","lat":38.09606577414195,"lng":23.75333886341834,"url":"https://maps.app.goo.gl/66tZd4g5Ha8fLC1g6?g_st=ipc","address":"Ξενοδοχοϋπαλλήλων 22, Αχαρνές 136 72","categoryIds":["family-friendly"],"categories":["Kid Friendly Locations"],"distanceKm":9.288474262406153},{"id":"cheapEatsRestaurants_7db196676e19","slug":"karaflas-7db1","kind":"restaurant","name":"Καράφλας","lat":38.07655628972639,"lng":23.739456286868005,"url":"https://maps.app.goo.gl/DzK7LaFGANeLebDQ7?g_st=ipc","address":"Φιλαδέλφειας 56-58, Αχαρνές 136 71","categoryIds":["cheap-eats"],"categories":["Gyros & Cheap Eats"],"distanceKm":9.427958812746418},{"id":"coffeeBrunchRestaurants_032174c082b8","slug":"terra-petra-0321","kind":"restaurant","name":"Terra Petra","lat":38.044831606976764,"lng":23.672941058577717,"url":"https://maps.app.goo.gl/NkdERDh1FhW3YswW7?g_st=ipc","address":"Ανατολικής Ρωμυλίας 1, Πετρούπολη 132 31","categoryIds":["coffee-brunch"],"categories":["Coffee & Brunch Spots"],"distanceKm":9.69334179520148},{"id":"cheapEatsRestaurants_d7c29e2a0475","slug":"soyvlakia-o-pinis-d7c2","kind":"restaurant","name":"ΣΟΥΒΛΑΚΙΑ \"Ο ΠΙΝΗΣ\"","lat":38.059665035702054,"lng":23.588228176039767,"url":"https://maps.app.goo.gl/jR5vQVFM7HLTQP8n9?g_st=ipc","address":"Σαλαμίνος 39, Ασπρόπυργος 193 00","categoryIds":["cheap-eats"],"categories":["Gyros & Cheap Eats"],"distanceKm":9.962502319384539},{"id":"cheapEatsRestaurants_372f0ee727b9","slug":"rigani-thymari-372f","kind":"restaurant","name":"Ρίγανη θυμάρι","lat":38.06157357464134,"lng":23.72960229805207,"url":"https://maps.app.goo.gl/Up1hU92hpZRnvgdJ8?g_st=ipc","address":"Αγίας Άννης 37, Αχαρνές 136 75","categoryIds":["cheap-eats"],"categories":["Gyros & Cheap Eats"],"distanceKm":10.008560565341048},{"id":"cheapEatsRestaurants_c98ce12d9800","slug":"f-g-k-fagito-gia-kollimenoys-c98c","kind":"restaurant","name":"Φ.Γ.Κ. Φαγητό Για Κολλημένους","lat":38.042711505406885,"lng":23.682873455447876,"url":"https://maps.app.goo.gl/52UR7h68kqnaDZDr7?g_st=ipc","address":"25ης Μαρτίου 66, Πετρούπολη 132 31","categoryIds":["cheap-eats"],"categories":["Gyros & Cheap Eats"],"distanceKm":10.085986799366932}],"sameRegion":[],"mentionedGuides":[],"canonicalSlug":"iera-moni-koimiseos-tis-theotokoy-kleiston-6808","enrichment":{"summary_en":"Ιερά Μονή Κοιμήσεως της Θεοτόκου Κλειστών is a curated restaurant in Greece in the Monasteries & Spiritual Sites collection. It is connected to 0 nearby Googlementor picks to help travelers build a stronger local route.","summary_el":"Ιερά Μονή Κοιμήσεως της Θεοτόκου Κλειστών είναι ένα επιλεγμένο σημείο φαγητού στην περιοχή Greece και ανήκει στη συλλογή Monasteries & Spiritual Sites. Συνδέεται με 0 κοντινές προτάσεις του Googlementor για πιο ολοκληρωμένη εμπειρία.","vibe_tags":["curated"],"best_for":["first-time visitors","food lovers"],"visit_moments":["lunch stop","dinner stop"],"practical_note":"Address and direct map link are available for easy turn-by-turn access.","nearby_walkable_count":0,"nearby_count_2km":0,"confidence":0.9},"areaContext":null,"intentContexts":[]},"__N_SSG":true}