{"pageProps":{"entity":{"id":"familyFriendly_c02221112b03","slug":"keramario-paradosiaki-taverna-kai-xenones-c022","kind":"restaurant","name":"Κεραμαριό Παραδοσιακή Ταβέρνα και Ξενώνες","lat":39.40971777314896,"lng":21.605805073179642,"url":"https://maps.app.goo.gl/39GhkgeydgX7Y7Z5A?g_st=ipc","address":"Συνοικισμός Κεραμαριό, Δρακότρυπα, Mouzaki 430 60","categoryIds":["family-friendly"],"categories":["Kid Friendly Locations"]},"sameCategory":[{"id":"familyFriendly_a4d875b2fad3","slug":"the-mill-of-the-elves-a4d8","kind":"restaurant","name":"The Mill of the Elves","lat":39.5462653378013,"lng":21.758814753478795,"url":"https://maps.app.goo.gl/HiNCRKX6yM5iQQuv6?g_st=ipc","address":"Πάρκο Ματσόπουλου, Trikala 421 00","categoryIds":["family-friendly"],"categories":["Kid Friendly Locations"]},{"id":"familyFriendly_f9db02b0c4d4","slug":"saint-george-athletic-park-f9db","kind":"restaurant","name":"Saint George Athletic Park","lat":39.54375380003077,"lng":21.786690732349854,"url":"https://maps.app.goo.gl/pwB8sxfXU5yLbEHY9?g_st=ipc","address":"Trikala 421 00","categoryIds":["family-friendly"],"categories":["Kid Friendly Locations"]},{"id":"coffeeBrunchRestaurants_0e2616bd7fc7","slug":"saloon-park-0e26","kind":"restaurant","name":"Saloon Park","lat":38.90092398449493,"lng":21.77279442117925,"url":"https://maps.app.goo.gl/ou4ZLrrH5JymyBSH7?g_st=ipc","address":"3ο χιλ Καρπενησίου Προυσσου, Karpenisi 361 00","categoryIds":["coffee-brunch","family-friendly"],"categories":["Coffee & Brunch Spots","Kid Friendly Locations"],"legacySlugs":["saloon-park-ea50"]},{"id":"familyFriendly_851fdc1f68b5","slug":"parapotamio-parko-artas-851f","kind":"restaurant","name":"Παραποτάμιο Πάρκο Άρτας","lat":39.16127581116029,"lng":20.996020576304343,"url":"https://maps.app.goo.gl/2QGxoFpihPsqFc2W8?g_st=ic","address":"Περιφερειακή Οδός και, Periferiaki odos Afxentiou 1, Arta 471 00","categoryIds":["family-friendly"],"categories":["Kid Friendly Locations"]},{"id":"familyFriendly_fca4b1834b63","slug":"play-hall-fca4","kind":"restaurant","name":"PLAY HALL","lat":39.65033321631473,"lng":20.865657018209728,"url":"https://maps.app.goo.gl/SFFV3HjpyPgVaZLc9?g_st=ipc","address":"Leof. Geor. Gennimata, Ioannina 452 21","categoryIds":["family-friendly"],"categories":["Kid Friendly Locations"]},{"id":"familyFriendly_ba29547bfcac","slug":"ktima-vrysi-polychoros-ekdiloseon-ba29","kind":"restaurant","name":"Κτήμα Βρύση - Πολυχώρος εκδηλώσεων","lat":39.776305858514846,"lng":22.305702369995416,"url":"https://maps.app.goo.gl/Jsmn7XMyr6zE6XDc6?g_st=ipc","address":"Τύρναβος 401 00","categoryIds":["family-friendly"],"categories":["Kid Friendly Locations"]},{"id":"familyFriendly_d18c51f19172","slug":"the-park-of-mushrooms-d18c","kind":"restaurant","name":"The Park of Mushrooms","lat":40.085707982229366,"lng":21.437328929556166,"url":"https://maps.app.goo.gl/8bk7HjJdaK7izqGE6?g_st=ipc","address":"Taliadouri 77, Grevena 511 00","categoryIds":["family-friendly"],"categories":["Kid Friendly Locations"]},{"id":"familyFriendly_f1559b4827bb","slug":"sarakatsaniki-stani-f155","kind":"restaurant","name":"Σαρακατσάνικη Στάνη","lat":39.93486554028431,"lng":20.916784074474684,"url":"https://maps.app.goo.gl/hz7v5UJ8xo3K6aLE7?g_st=ic","address":"Γυφτόκαμπος Σκαμνέλι, Skamnelli 440 10","categoryIds":["family-friendly"],"categories":["Kid Friendly Locations"]},{"id":"familyFriendly_61814ffe8685","slug":"olympus-forest-park-6181","kind":"restaurant","name":"Olympus Forest Park","lat":39.936757899181885,"lng":22.59765175900559,"url":"https://maps.app.goo.gl/fhjCwYn9Hozz3TG16?g_st=ipc","address":"Pyrgetos 414 47","categoryIds":["family-friendly"],"categories":["Kid Friendly Locations"]},{"id":"familyFriendly_adaa2f8a1e5a","slug":"vagonetto-adaa","kind":"restaurant","name":"Vagonetto","lat":38.63219190812368,"lng":22.37159554223315,"url":"https://maps.app.goo.gl/FxXNY1FFj7tEZcaq9?g_st=ipc","address":"51 km National Road Lamia-Amfissa, Amfissa 331 00","categoryIds":["family-friendly"],"categories":["Kid Friendly Locations"]},{"id":"familyFriendly_ef01ab8f9ddc","slug":"rafting-no-limits-gr-ef01","kind":"restaurant","name":"Rafting No Limits GR","lat":40.057225940419336,"lng":20.627015564275286,"url":"https://maps.app.goo.gl/JMXqaxKVD3CmU7Ft8?g_st=ipc","address":"BOURAZANI Konitsa, BOURAZANi KONITSA 441 00","categoryIds":["family-friendly"],"categories":["Kid Friendly Locations"]},{"id":"familyFriendly_cfb0c8ab9a64","slug":"hado-volos-cfb0","kind":"restaurant","name":"HADO Volos","lat":39.36503171785606,"lng":22.930285891313282,"url":"https://maps.app.goo.gl/iHrSULP8wTnmG78AA?g_st=ipc","address":"Sachtouri 3, Volos 383 34","categoryIds":["family-friendly"],"categories":["Kid Friendly Locations"]}],"nearby":[{"id":"greekRestaurants_e1de0bee0ebd","slug":"keramario-paradosiaki-taverna-kai-xenones-e1de","kind":"restaurant","name":"Κεραμαριό Παραδοσιακή Ταβέρνα και Ξενώνες","lat":39.40976571213919,"lng":21.605813579538015,"url":"https://maps.app.goo.gl/HUAcASzHASVLXdf47?g_st=ipc","address":"Συνοικισμός Κεραμαριό, Δρακότρυπα, Μουζάκι 430 60","categoryIds":["greek-restaurants"],"categories":["Greek Restaurants"],"distanceKm":0.005380433991440788},{"id":"greekRestaurants_b94b2692a8d1","slug":"to-tsardaki-b94b","kind":"restaurant","name":"Το Τσαρδάκι","lat":39.30937703175282,"lng":21.77717104145515,"url":"https://maps.app.goo.gl/Ck9v9r2bKUh2Hna58?g_st=ipc","address":"Επαρ.Οδ. Καρδίτσας - Καστανιάς, Τσαρδάκι 431 00","categoryIds":["greek-restaurants"],"categories":["Greek Restaurants"],"distanceKm":18.481018486019146},{"id":"greekRestaurants_b186598b2d40","slug":"taverna-panagioti-b186","kind":"restaurant","name":"Ταβέρνα Παναγιώτη","lat":39.541635723436364,"lng":21.466393475033236,"url":"https://maps.app.goo.gl/RrdMMxZMehGgm2NN8?g_st=ipc","address":"Περτούλι 420 32","categoryIds":["greek-restaurants"],"categories":["Greek Restaurants"],"distanceKm":18.93008839477354},{"id":"greekRestaurants_ce05e10df439","slug":"paradosiaki-taverna-niavis-ce05","kind":"restaurant","name":"Παραδοσιακή Ταβέρνα «Νιαβής»","lat":39.53051553053187,"lng":21.44604031294683,"url":"https://maps.app.goo.gl/VNjfxWHa2gV5L7d77?g_st=ipc","address":"Νεραϊδοχωρίου, Τρίκαλα 421 00","categoryIds":["greek-restaurants"],"categories":["Greek Restaurants"],"distanceKm":19.19609388500673},{"id":"familyFriendly_a4d875b2fad3","slug":"the-mill-of-the-elves-a4d8","kind":"restaurant","name":"The Mill of the Elves","lat":39.5462653378013,"lng":21.758814753478795,"url":"https://maps.app.goo.gl/HiNCRKX6yM5iQQuv6?g_st=ipc","address":"Πάρκο Ματσόπουλου, Trikala 421 00","categoryIds":["family-friendly"],"categories":["Kid Friendly Locations"],"distanceKm":20.074804753255496},{"id":"municipalities_b4d73a932ebe","slug":"trikala-b4d7","kind":"municipality","name":"Τρίκαλα","lat":39.555,"lng":21.767,"region":"Θεσσαλία","name_en":"Trikala","region_en":"Thessaly","distanceKm":21.26866349557022},{"id":"greekRestaurants_6061ec9bd174","slug":"mezedokamomata-6061","kind":"restaurant","name":"Μεζεδοκαμώματα","lat":39.557518520300846,"lng":21.766766768830163,"url":"https://maps.app.goo.gl/dQpJGQzyaRUqPvee7?g_st=ipc","address":"Υψηλάντου 16, Τρίκαλα 421 00","categoryIds":["greek-restaurants"],"categories":["Greek Restaurants"],"distanceKm":21.469099693022414},{"id":"greekRestaurants_846c365b6b10","slug":"taverna-katogi-846c","kind":"restaurant","name":"ΤΑΒΕΡΝΑ ΚΑΤΩΓΙ","lat":39.557459431229404,"lng":21.767052390581174,"url":"https://maps.app.goo.gl/1Ms5yTQVGkoNajR96?g_st=ipc","address":"Καραϊσκάκη 58, Τρίκαλα 421 00","categoryIds":["greek-restaurants"],"categories":["Greek Restaurants"],"distanceKm":21.479858079362884},{"id":"greekRestaurants_f649a658c1a6","slug":"palia-istoria-f649","kind":"restaurant","name":"Παλιά Ιστορία","lat":39.5572767649798,"lng":21.767626743862994,"url":"https://maps.app.goo.gl/eEZjduvaMobWwx338?g_st=ipc","address":"Υψηλάντου, Τρίκαλα 421 00","categoryIds":["greek-restaurants"],"categories":["Greek Restaurants"],"distanceKm":21.49615131809712},{"id":"familyFriendly_f9db02b0c4d4","slug":"saint-george-athletic-park-f9db","kind":"restaurant","name":"Saint George Athletic Park","lat":39.54375380003077,"lng":21.786690732349854,"url":"https://maps.app.goo.gl/pwB8sxfXU5yLbEHY9?g_st=ipc","address":"Trikala 421 00","categoryIds":["family-friendly"],"categories":["Kid Friendly Locations"],"distanceKm":21.521338740645536},{"id":"wineriesVineyards_e97e72184f55","slug":"tsililis-k-s-a-distillery-estate-theopetra-e97e","kind":"restaurant","name":"TSILILIS K. S.A. Distillery & Estate Theopetra","lat":39.61912675215486,"lng":21.740677017641424,"url":"https://maps.app.goo.gl/SFX3z7LyEVrtDLUN8?g_st=ipc","address":"Epar.Od. Trikalon-Rizomatos 31, Raxa 421 00","categoryIds":["wineries-vineyards"],"categories":["Wineries & Vineyards"],"distanceKm":26.001134973540573}],"sameRegion":[],"mentionedGuides":[],"canonicalSlug":"keramario-paradosiaki-taverna-kai-xenones-c022","enrichment":{"summary_en":"Κεραμαριό Παραδοσιακή Ταβέρνα και Ξενώνες is a curated restaurant in Mouzaki 430 60 in the Kid Friendly Locations collection. It is connected to 1 nearby Googlementor picks to help travelers build a stronger local route.","summary_el":"Κεραμαριό Παραδοσιακή Ταβέρνα και Ξενώνες είναι ένα επιλεγμένο σημείο φαγητού στην περιοχή Mouzaki 430 60 και ανήκει στη συλλογή Kid Friendly Locations. Συνδέεται με 1 κοντινές προτάσεις του Googlementor για πιο ολοκληρωμένη εμπειρία.","vibe_tags":["curated","family-ready"],"best_for":["first-time visitors","food lovers","families"],"visit_moments":["lunch stop","dinner stop"],"practical_note":"Address and direct map link are available for easy turn-by-turn access.","nearby_walkable_count":1,"nearby_count_2km":1,"confidence":0.9},"areaContext":null,"intentContexts":[]},"__N_SSG":true}