{"pageProps":{"entity":{"id":"greekRestaurants_861670467b0c","slug":"kiki-s-tavern-8616","kind":"restaurant","name":"Kiki's Tavern","lat":37.48594819746461,"lng":25.360347133569928,"url":"https://maps.app.goo.gl/dr5jrhG3zQV2KahR8?g_st=ipc","address":"Κυκλαδες μυκονος, Αγ. Σώστης 846 00","categoryIds":["greek-restaurants"],"categories":["Greek Restaurants"]},"sameCategory":[{"id":"greekRestaurants_fd2d9ae97a1c","slug":"taverna-limnios-fd2d","kind":"restaurant","name":"Ταβέρνα Λημνιός","lat":37.470033111393306,"lng":25.320588998237778,"url":"https://maps.app.goo.gl/LoJPibjGdzyxuBco6?g_st=ipc","address":"Άγιος Στέφανος 0, Αγ. Στέφανος 846 00","categoryIds":["greek-restaurants"],"categories":["Greek Restaurants"]},{"id":"greekRestaurants_72c19d32a8b6","slug":"local-bbq-souvlaki-mykonos-delivery-72c1","kind":"restaurant","name":"Local BBQ & Souvlaki Mykonos - Delivery","lat":37.44672138479704,"lng":25.33835911787914,"url":"https://maps.app.goo.gl/smobAtRLSyc56rHg8?g_st=ipc","address":"Argyraina, Επαρ.Οδ. Μυκόνου-'Ανω Μεριάς 1422, Μύκονος 846 00","categoryIds":["greek-restaurants"],"categories":["Greek Restaurants"]},{"id":"greekRestaurants_e4bc58632d82","slug":"i-mortissa-e4bc","kind":"restaurant","name":"Η Μόρτισσα","lat":37.445499840376385,"lng":25.33915107946274,"url":"https://maps.app.goo.gl/N1vfxuYLu3Ld3pfT6?g_st=ipc","address":"Αγιου Γεωργίου Αργύραινα, Μύκονος 846 00","categoryIds":["greek-restaurants"],"categories":["Greek Restaurants"]},{"id":"greekRestaurants_f7c457ab18f6","slug":"rizes-mykonos-folkore-farmstead-f7c4","kind":"restaurant","name":"RIZES Mykonos - Folkore Farmstead","lat":37.45817265669343,"lng":25.40349643556608,"url":"https://maps.app.goo.gl/PJSn3dijenQzfVKcA?g_st=ipc","address":"Maou, Άνω Μερά 846 00","categoryIds":["greek-restaurants"],"categories":["Greek Restaurants"]},{"id":"greekRestaurants_38ad3b7a8b6d","slug":"oti-apomeine-38ad","kind":"restaurant","name":"Οτι Απόμεινε","lat":37.44787622617612,"lng":25.39114702118571,"url":"https://maps.app.goo.gl/FKEVGaJFP958nDfq6?g_st=ipc","address":"Άνω Μερά 846 00","categoryIds":["greek-restaurants"],"categories":["Greek Restaurants"]},{"id":"greekRestaurants_e3103759958a","slug":"amades-mykonos-e310","kind":"restaurant","name":"Αμάδες Μύκονος","lat":37.44719522572323,"lng":25.32858432213716,"url":"https://maps.app.goo.gl/cASBbZQCjQukNFg88?g_st=ipc","address":"Καμπάνη 2, Μύκονος 846 00","categoryIds":["greek-restaurants"],"categories":["Greek Restaurants"]},{"id":"greekRestaurants_aef3c7ab6fff","slug":"raya-restaurant-aef3","kind":"restaurant","name":"Raya Restaurant","lat":37.447203705932054,"lng":25.32781079619138,"url":"https://maps.app.goo.gl/o2CmGDpmsR1Y7FaG8?g_st=ipc","address":"Akti Kampani, Mykonos,Kyklades, Greece, Mikonos","categoryIds":["greek-restaurants"],"categories":["Greek Restaurants"]},{"id":"greekRestaurants_d1b39b4f3e00","slug":"amethystos-mykonos-d1b3","kind":"restaurant","name":"Amethystos Mykonos","lat":37.43458136770975,"lng":25.342119704198275,"url":"https://maps.app.goo.gl/AKNrBroi1VZKtHvZ7?g_st=ipc","address":"Μύκονος 846 00","categoryIds":["greek-restaurants"],"categories":["Greek Restaurants"]},{"id":"greekRestaurants_4f8fc805eb7d","slug":"to-karteri-4f8f","kind":"restaurant","name":"Το καρτερι","lat":37.432738323612284,"lng":25.341244801500245,"url":"https://maps.app.goo.gl/ZPLYvNbeUn9uhSA56?g_st=ipc","address":"Προς Παρανταις, Μύκονος 846 00","categoryIds":["greek-restaurants"],"categories":["Greek Restaurants"]},{"id":"greekRestaurants_5401b7812885","slug":"xarathymio-5401","kind":"restaurant","name":"Ξαραθυμιο","lat":37.43064695338044,"lng":25.34483466442765,"url":"https://maps.app.goo.gl/k93muyVGMB9vZMRS6?g_st=ipc","address":"Skalado 846 00","categoryIds":["greek-restaurants"],"categories":["Greek Restaurants"]},{"id":"greekRestaurants_d2f8ae2f57fa","slug":"lounda-pikantiki-gwnia-d2f8","kind":"restaurant","name":"Lounda Pikantiki Gwnia","lat":37.42680560196533,"lng":25.33370246443575,"url":"https://maps.app.goo.gl/QdG8cnBoWYdPGKcT8?g_st=ipc","address":"Unnamed Rd, Ψαρρού 846 00","categoryIds":["greek-restaurants"],"categories":["Greek Restaurants"]},{"id":"greekRestaurants_566686612459","slug":"to-apomero-5666","kind":"restaurant","name":"To Apomero","lat":37.42477406853952,"lng":25.32149373228756,"url":"https://maps.app.goo.gl/4yepbmXBXgqmqxi48?g_st=ipc","address":"Ορνός 846 00","categoryIds":["greek-restaurants"],"categories":["Greek Restaurants"]}],"nearby":[{"id":"fishTavernasRestaurants_d5334aaf38d0","slug":"kiki-s-tavern-d533","kind":"restaurant","name":"Kiki's Tavern","lat":37.48580571700608,"lng":25.36037551259411,"url":"https://maps.app.goo.gl/zDFvBri1oSmdB6aV8?g_st=ipc","address":"Κυκλαδες μυκονος, Ag. Sostis 846 00","categoryIds":["fish-tavernas"],"categories":["Fish Tavernas"],"distanceKm":0.01603975918168505},{"id":"fishTavernasRestaurants_198b2ec0807d","slug":"pelao-tavern-198b","kind":"restaurant","name":"Pelao Tavern","lat":37.47762741859572,"lng":25.360085295125813,"url":"https://maps.app.goo.gl/xEc3zgbQENWmj7bk8?g_st=ipc","address":"Stopelao@gmail.com, Πάνορμος 846 00","categoryIds":["fish-tavernas"],"categories":["Fish Tavernas"],"distanceKm":0.9255168224931407},{"id":"luxuryDiningRestaurants_60ad37649fda","slug":"principote-mykonos-60ad","kind":"restaurant","name":"Principote Mykonos","lat":37.47661163546428,"lng":25.359897401386203,"url":"https://maps.app.goo.gl/Ru8EWbLUas6Xvf7K9?g_st=ipc","address":"Panormos Beach, Mikonos 846 00","categoryIds":["luxury-dining"],"categories":["Luxury Dining"],"distanceKm":1.0389364998338653},{"id":"luxuryDiningRestaurants_8d846343f376","slug":"alemagou-8d84","kind":"restaurant","name":"Alemagou","lat":37.4646482904714,"lng":25.380862426799272,"url":"https://maps.app.goo.gl/CFqVN5ZTnDi5b6gYA?g_st=ipc","address":"Greece, Mikonos","categoryIds":["luxury-dining"],"categories":["Luxury Dining"],"distanceKm":2.98111385589257},{"id":"dessertsRestaurants_a10d2504f9c7","slug":"n-ice-cream-mykonos-a10d","kind":"restaurant","name":"N'ice Cream Mykonos","lat":37.45205375388753,"lng":25.358864338055778,"url":"https://maps.app.goo.gl/JpGxtdjqrzWaKvb36?g_st=ipc","address":"Κλούβας 846 00","categoryIds":["desserts"],"categories":["Dessert Shops"],"distanceKm":3.771161348632444},{"id":"greekRestaurants_fd2d9ae97a1c","slug":"taverna-limnios-fd2d","kind":"restaurant","name":"Ταβέρνα Λημνιός","lat":37.470033111393306,"lng":25.320588998237778,"url":"https://maps.app.goo.gl/LoJPibjGdzyxuBco6?g_st=ipc","address":"Άγιος Στέφανος 0, Αγ. Στέφανος 846 00","categoryIds":["greek-restaurants"],"categories":["Greek Restaurants"],"distanceKm":3.9294309335053605},{"id":"asianRestaurants_022225397aac","slug":"zuma-mykonos-0222","kind":"restaurant","name":"Zuma Mykonos","lat":37.45854067158448,"lng":25.32953811092672,"url":"https://maps.app.goo.gl/nhnQHRdFpemqgYAX8?g_st=ipc","address":"Mykonos 846 00","categoryIds":["asian"],"categories":["Asian Restaurants"],"distanceKm":4.084123887137388},{"id":"familyFriendly_03f29a25699e","slug":"funbox-03f2","kind":"restaurant","name":"Funbox","lat":37.450143269337566,"lng":25.34837194743214,"url":"https://maps.app.goo.gl/BEmUn1htaDH92gUZ7?g_st=ic","address":"Famelis Spiros, Mikonos 846 00","categoryIds":["family-friendly"],"categories":["Kid Friendly Locations"],"distanceKm":4.119213973044082},{"id":"mexicanRestaurants_ef3256c8f86b","slug":"appaloosa-bar-restaurant-ef32","kind":"restaurant","name":"Appaloosa Bar Restaurant","lat":37.45234589794245,"lng":25.38409135881813,"url":"https://maps.app.goo.gl/x9fF3ksZjKbckcRR9?g_st=ipc","address":"Άνω Μερά 846 00","categoryIds":["mexican"],"categories":["Mexican Restaurants"],"distanceKm":4.283908319682581},{"id":"fishTavernasRestaurants_0347c26ff2c2","slug":"fokos-taverna-0347","kind":"restaurant","name":"Fokos Taverna","lat":37.48058147464832,"lng":25.4091552850878,"url":"https://maps.app.goo.gl/NuKJCrD5oxJ47mE18?g_st=ipc","address":"Fokos Φωκός, Ano Mera 846 00","categoryIds":["fish-tavernas"],"categories":["Fish Tavernas"],"distanceKm":4.347814814839876},{"id":"coffeeBrunchRestaurants_7d7ce290df83","slug":"dalu-7d7c","kind":"restaurant","name":"Dalu","lat":37.44946196330255,"lng":25.332037598705416,"url":"https://maps.app.goo.gl/qaooHUUn5SotjYdJA?g_st=ipc","address":"Dalu, Mikonos 846 00","categoryIds":["coffee-brunch"],"categories":["Coffee & Brunch Spots"],"distanceKm":4.764685126189287},{"id":"greekRestaurants_72c19d32a8b6","slug":"local-bbq-souvlaki-mykonos-delivery-72c1","kind":"restaurant","name":"Local BBQ & Souvlaki Mykonos - Delivery","lat":37.44672138479704,"lng":25.33835911787914,"url":"https://maps.app.goo.gl/smobAtRLSyc56rHg8?g_st=ipc","address":"Argyraina, Επαρ.Οδ. Μυκόνου-'Ανω Μεριάς 1422, Μύκονος 846 00","categoryIds":["greek-restaurants"],"categories":["Greek Restaurants"],"distanceKm":4.774031582543739},{"id":"greekRestaurants_e4bc58632d82","slug":"i-mortissa-e4bc","kind":"restaurant","name":"Η Μόρτισσα","lat":37.445499840376385,"lng":25.33915107946274,"url":"https://maps.app.goo.gl/N1vfxuYLu3Ld3pfT6?g_st=ipc","address":"Αγιου Γεωργίου Αργύραινα, Μύκονος 846 00","categoryIds":["greek-restaurants"],"categories":["Greek Restaurants"],"distanceKm":4.871182652156137},{"id":"greekRestaurants_f7c457ab18f6","slug":"rizes-mykonos-folkore-farmstead-f7c4","kind":"restaurant","name":"RIZES Mykonos - Folkore Farmstead","lat":37.45817265669343,"lng":25.40349643556608,"url":"https://maps.app.goo.gl/PJSn3dijenQzfVKcA?g_st=ipc","address":"Maou, Άνω Μερά 846 00","categoryIds":["greek-restaurants"],"categories":["Greek Restaurants"],"distanceKm":4.902966612929912},{"id":"greekRestaurants_38ad3b7a8b6d","slug":"oti-apomeine-38ad","kind":"restaurant","name":"Οτι Απόμεινε","lat":37.44787622617612,"lng":25.39114702118571,"url":"https://maps.app.goo.gl/FKEVGaJFP958nDfq6?g_st=ipc","address":"Άνω Μερά 846 00","categoryIds":["greek-restaurants"],"categories":["Greek Restaurants"],"distanceKm":5.030980881248633},{"id":"mexicanRestaurants_c15838bdee62","slug":"azul-condesa-mykonos-c158","kind":"restaurant","name":"Azul Condesa Mykonos","lat":37.445318743092045,"lng":25.33424731325651,"url":"https://maps.app.goo.gl/PtCSKGqYbgCdSXyz5?g_st=ipc","address":"Πετειναρος, Μύκονος 846 00","categoryIds":["mexican"],"categories":["Mexican Restaurants"],"distanceKm":5.071148553776859},{"id":"fishTavernasRestaurants_07e9864c5c78","slug":"tsaf-07e9","kind":"restaurant","name":"Tsaf","lat":37.44718665279816,"lng":25.39108104189754,"url":"https://maps.app.goo.gl/kJps23htN4HRkisa6?g_st=ipc","address":"Πλατεία Ανω μερας, Ano Mera 846 00","categoryIds":["fish-tavernas"],"categories":["Fish Tavernas"],"distanceKm":5.092573344917295},{"id":"luxuryDiningRestaurants_cc0b0cabfb61","slug":"drakoulis-dry-raw-mykonos-cc0b","kind":"restaurant","name":"Drakoulis Dry & Raw Mykonos","lat":37.447121066093636,"lng":25.329034852890235,"url":"https://maps.app.goo.gl/K5Lrunurc26by6vJ6?g_st=ipc","address":"Mykonos 846 00","categoryIds":["luxury-dining"],"categories":["Luxury Dining"],"distanceKm":5.126085284386121},{"id":"greekRestaurants_e3103759958a","slug":"amades-mykonos-e310","kind":"restaurant","name":"Αμάδες Μύκονος","lat":37.44719522572323,"lng":25.32858432213716,"url":"https://maps.app.goo.gl/cASBbZQCjQukNFg88?g_st=ipc","address":"Καμπάνη 2, Μύκονος 846 00","categoryIds":["greek-restaurants"],"categories":["Greek Restaurants"],"distanceKm":5.140715348354211},{"id":"municipalities_094e7414e11a","slug":"mykonos-094e","kind":"municipality","name":"Μύκονος","lat":37.4467,"lng":25.3289,"aliases":["Mikonos","Μύκονα","Μυκονος","Mykonos","Myconos"],"region":"Κυκλάδες","name_en":"Mykonos","region_en":"Cyclades","distanceKm":5.171962011669761},{"id":"greekRestaurants_aef3c7ab6fff","slug":"raya-restaurant-aef3","kind":"restaurant","name":"Raya Restaurant","lat":37.447203705932054,"lng":25.32781079619138,"url":"https://maps.app.goo.gl/o2CmGDpmsR1Y7FaG8?g_st=ipc","address":"Akti Kampani, Mykonos,Kyklades, Greece, Mikonos","categoryIds":["greek-restaurants"],"categories":["Greek Restaurants"],"distanceKm":5.177474150683831},{"id":"fishTavernasRestaurants_27b9fb6e85c7","slug":"captain-s-food-for-sharing-27b9","kind":"restaurant","name":"Captain's - Food for Sharing","lat":37.44729761897664,"lng":25.32716222892849,"url":"https://maps.app.goo.gl/cVYzE7woRBCoPvRG9?g_st=ipc","address":"Mykonos Waterfront, Mikonos 846 00","categoryIds":["fish-tavernas"],"categories":["Fish Tavernas"],"distanceKm":5.200804748074148},{"id":"fishTavernasRestaurants_f9baec1ee464","slug":"kounelas-fish-tavern-f9ba","kind":"restaurant","name":"Kounelas Fish Tavern","lat":37.447078731895196,"lng":25.327109291093613,"url":"https://maps.app.goo.gl/zGu4QC3RAJ8qwFzE6?g_st=ipc","address":"ODOS SVORONOU, Mikonos 846 00","categoryIds":["fish-tavernas"],"categories":["Fish Tavernas"],"distanceKm":5.223560415528379},{"id":"luxuryDiningRestaurants_acb4788667d5","slug":"noema-acb4","kind":"restaurant","name":"Noema","lat":37.44557471142449,"lng":25.32948165492457,"url":"https://maps.app.goo.gl/Zjd8gVv5zkQ4UZxa9?g_st=ipc","address":"Panachra, Mikonos 846 00","categoryIds":["luxury-dining"],"categories":["Luxury Dining"],"distanceKm":5.251170931193688}],"sameRegion":[],"mentionedGuides":[],"canonicalSlug":"kiki-s-tavern-8616","enrichment":{"summary_en":"Kiki's Tavern is a curated restaurant in Αγ. Σώστης 846 00 in the Greek Restaurants collection. It is connected to 1 nearby Googlementor picks to help travelers build a stronger local route.","summary_el":"Kiki's Tavern είναι ένα επιλεγμένο σημείο φαγητού στην περιοχή Αγ. Σώστης 846 00 και ανήκει στη συλλογή Greek Restaurants. Συνδέεται με 1 κοντινές προτάσεις του Googlementor για πιο ολοκληρωμένη εμπειρία.","vibe_tags":["curated"],"best_for":["first-time visitors","food lovers"],"visit_moments":["lunch stop","dinner stop"],"practical_note":"Address and direct map link are available for easy turn-by-turn access.","nearby_walkable_count":1,"nearby_count_2km":3,"confidence":0.9},"areaContext":{"slug":"mykonos","name":"Mykonos","nameEl":"Μύκονος"},"intentContexts":[{"href":"/greek-restaurants/mykonos","label":"Greek Restaurants in Mykonos","categorySlug":"greek-restaurants","categoryName":"Greek Restaurants","areaSlug":"mykonos","areaName":"Mykonos","areaNameEl":"Μύκονος"}]},"__N_SSG":true}