{"pageProps":{"entity":{"id":"municipalities_b35c4092fc93","slug":"komotini-b35c","kind":"municipality","name":"Κομοτηνή","lat":41.1236,"lng":25.412,"region":"Ανατολική Μακεδονία και Θράκη","name_en":"Komotini","region_en":"Eastern Macedonia & Thrace"},"sameCategory":[],"nearby":[{"id":"cheapEatsRestaurants_4b8e8b2c6c54","slug":"king-food-4b8e","kind":"restaurant","name":"King Food","lat":41.119343380363595,"lng":25.40306406826728,"url":"https://maps.app.goo.gl/YaQiwsqM5G144MKZ8?g_st=ipc","address":"Kilkis 12-14, Komotini 691 00","categoryIds":["cheap-eats"],"categories":["Gyros & Cheap Eats"],"distanceKm":0.8856108979879386},{"id":"greekRestaurants_e8c6c63d9264","slug":"kapsoyli-e8c6","kind":"restaurant","name":"καψούλι","lat":41.116926466455745,"lng":25.401623976597524,"url":"https://maps.app.goo.gl/Z1dAApwmcfN1vv1z9?g_st=ipc","address":"Μαρώνειας 29, Κομοτηνή 691 32","categoryIds":["greek-restaurants"],"categories":["Greek Restaurants"],"distanceKm":1.1428488350257249},{"id":"municipalities_10b14dbcbc1b","slug":"xanthi-10b1","kind":"municipality","name":"Ξάνθη","lat":41.14,"lng":24.885,"region":"Ανατολική Μακεδονία και Θράκη","name_en":"Xanthi","region_en":"Eastern Macedonia & Thrace","distanceKm":44.17481001107653},{"id":"municipalities_d9c8f1d08440","slug":"alexandroypoli-d9c8","kind":"municipality","name":"Αλεξανδρούπολη","lat":40.85,"lng":25.873,"region":"Ανατολική Μακεδονία και Θράκη","name_en":"Alexandroupoli","region_en":"Eastern Macedonia & Thrace","distanceKm":49.222254427084756},{"id":"municipalities_6919fbdafc9e","slug":"samothraki-6919","kind":"municipality","name":"Σαμοθράκη","lat":40.556,"lng":25.526,"region":"Ανατολική Μακεδονία και Θράκη","name_en":"Samothraki","region_en":"Eastern Macedonia & Thrace","distanceKm":63.838660245344094},{"id":"municipalities_25a63b7a432c","slug":"thasos-25a6","kind":"municipality","name":"Θάσος","lat":40.751,"lng":24.708,"region":"Ανατολική Μακεδονία και Θράκη","name_en":"Thasos","region_en":"Eastern Macedonia & Thrace","distanceKm":72.20474866951378},{"id":"municipalities_246c9a1bf42b","slug":"orestiada-246c","kind":"municipality","name":"Ορεστιάδα","lat":41.5,"lng":26.53,"region":"Ανατολική Μακεδονία και Θράκη","name_en":"Orestiada","region_en":"Eastern Macedonia & Thrace","distanceKm":102.32699851247158},{"id":"municipalities_8789afaef2a4","slug":"drama-8789","kind":"municipality","name":"Δράμα","lat":41.151,"lng":24.145,"region":"Ανατολική Μακεδονία και Θράκη","name_en":"Drama","region_en":"Eastern Macedonia & Thrace","distanceKm":106.14748439572263}],"sameRegion":[{"id":"municipalities_10b14dbcbc1b","slug":"xanthi-10b1","kind":"municipality","name":"Ξάνθη","lat":41.14,"lng":24.885,"region":"Ανατολική Μακεδονία και Θράκη","name_en":"Xanthi","region_en":"Eastern Macedonia & Thrace"},{"id":"municipalities_246c9a1bf42b","slug":"orestiada-246c","kind":"municipality","name":"Ορεστιάδα","lat":41.5,"lng":26.53,"region":"Ανατολική Μακεδονία και Θράκη","name_en":"Orestiada","region_en":"Eastern Macedonia & Thrace"},{"id":"municipalities_25a63b7a432c","slug":"thasos-25a6","kind":"municipality","name":"Θάσος","lat":40.751,"lng":24.708,"region":"Ανατολική Μακεδονία και Θράκη","name_en":"Thasos","region_en":"Eastern Macedonia & Thrace"},{"id":"municipalities_6919fbdafc9e","slug":"samothraki-6919","kind":"municipality","name":"Σαμοθράκη","lat":40.556,"lng":25.526,"region":"Ανατολική Μακεδονία και Θράκη","name_en":"Samothraki","region_en":"Eastern Macedonia & Thrace"},{"id":"municipalities_8789afaef2a4","slug":"drama-8789","kind":"municipality","name":"Δράμα","lat":41.151,"lng":24.145,"region":"Ανατολική Μακεδονία και Θράκη","name_en":"Drama","region_en":"Eastern Macedonia & Thrace"},{"id":"municipalities_d9c8f1d08440","slug":"alexandroypoli-d9c8","kind":"municipality","name":"Αλεξανδρούπολη","lat":40.85,"lng":25.873,"region":"Ανατολική Μακεδονία και Θράκη","name_en":"Alexandroupoli","region_en":"Eastern Macedonia & Thrace"}],"mentionedGuides":[],"canonicalSlug":"komotini-b35c","enrichment":{"summary_en":"Κομοτηνή is a curated neighborhood area in Ανατολική Μακεδονία και Θράκη. It is connected to 0 nearby Googlementor picks to help travelers build a stronger local route.","summary_el":"Κομοτηνή είναι ένα επιλεγμένο σημείο ενδιαφέροντος στην περιοχή Ανατολική Μακεδονία και Θράκη. Συνδέεται με 0 κοντινές προτάσεις του Googlementor για πιο ολοκληρωμένη εμπειρία.","vibe_tags":["local-neighborhood","base-for-exploring"],"best_for":["first-time visitors","walk-and-explore days","return visitors"],"visit_moments":["late morning walks","sunset exploration"],"practical_note":"0 curated places are within walkable distance from this area center.","nearby_walkable_count":0,"nearby_count_2km":2,"confidence":0.55},"areaContext":null,"intentContexts":[]},"__N_SSG":true}