{"pageProps":{"entity":{"id":"municipalities_89f092af4fdd","slug":"limnos-89f0","kind":"municipality","name":"Λήμνος","lat":39.911,"lng":25.236,"region":"Βόρειο Αιγαίο","name_en":"Lemnos","region_en":"North Aegean"},"sameCategory":[],"nearby":[{"id":"greekRestaurants_207ce585e372","slug":"ennoia-po-chs-207c","kind":"restaurant","name":"Έννοια Πο'χς","lat":39.91619952692809,"lng":25.26615920965088,"url":"https://maps.app.goo.gl/Vo6exv2Lo4vvZm3q6?g_st=ipc","address":"Λύχνα 814 01","categoryIds":["greek-restaurants"],"categories":["Greek Restaurants"],"distanceKm":2.636393319785696},{"id":"fishTavernasRestaurants_782c004f6a18","slug":"glykanisos-782c","kind":"restaurant","name":"Glykanisos","lat":39.89189656070638,"lng":25.20287613011476,"url":"https://maps.app.goo.gl/tCAL6L44HZbqrniJ6?g_st=ipc","address":"Unnamed Road, Limnos 814 00","categoryIds":["fish-tavernas"],"categories":["Fish Tavernas"],"distanceKm":3.534979791907652},{"id":"fishTavernasRestaurants_872df0d46026","slug":"tavern-restaurant-giannakaros-872d","kind":"restaurant","name":"Tavern Restaurant GIANNAKAROS","lat":39.94049535145995,"lng":25.283557993247516,"url":"https://maps.app.goo.gl/Y8y6JAFkf3x52TAJA?g_st=ipc","address":"ΛΙΜΑΝΑΚΙ, Kotsinas 814 01","categoryIds":["fish-tavernas"],"categories":["Fish Tavernas"],"distanceKm":5.2156447251588895},{"id":"greekRestaurants_6eb435657203","slug":"o-meraklis-6eb4","kind":"restaurant","name":"Ο Μερακλής","lat":39.867735919635514,"lng":25.173635790362066,"url":"https://maps.app.goo.gl/Aytx8mWcw3gfndXg8?g_st=ipc","address":"Τσιμάνδρια 814 00","categoryIds":["greek-restaurants"],"categories":["Greek Restaurants"],"distanceKm":7.173154632069387},{"id":"greekRestaurants_5899d919db96","slug":"taverna-man-tella-5899","kind":"restaurant","name":"Ταβέρνα Μαν-Τέλλα","lat":39.939715902807876,"lng":25.14007617212637,"url":"https://maps.app.goo.gl/h7jXmADnqFj6jdww8?g_st=ipc","address":"Σαρδές 814 00","categoryIds":["greek-restaurants"],"categories":["Greek Restaurants"],"distanceKm":8.78087709441615},{"id":"greekRestaurants_0d79ffe3d8c0","slug":"taverna-andreas-0d79","kind":"restaurant","name":"Ταβέρνα Αndreas","lat":39.86355491006773,"lng":25.323066847103735,"url":"https://maps.app.goo.gl/FVABP5vjSdC5ptdh7?g_st=ipc","address":"Unnamed Road, Καμίνια 814 01","categoryIds":["greek-restaurants"],"categories":["Greek Restaurants"],"distanceKm":9.111348812288474},{"id":"fishTavernasRestaurants_038ab4889bb3","slug":"taverna-flomari-038a","kind":"restaurant","name":"Taverna Flomari","lat":39.98832919487252,"lng":25.155079152226218,"url":"https://maps.app.goo.gl/G6hKXeSWoodnwXMF6?g_st=ipc","address":"Gomati Beach, Limnos 814 01","categoryIds":["fish-tavernas"],"categories":["Fish Tavernas"],"distanceKm":11.023505552132457},{"id":"greekRestaurants_bcfe0c24d0b9","slug":"taverna-flomari-bcfe","kind":"restaurant","name":"Taverna Flomari","lat":39.9883429210675,"lng":25.15508018878464,"url":"https://maps.app.goo.gl/wJXUERDBm4i5UHSQ9?g_st=ipc","address":"Gomati Beach, Λήμνος 814 01","categoryIds":["greek-restaurants"],"categories":["Greek Restaurants"],"distanceKm":11.024640415322805},{"id":"coffeeBrunchRestaurants_996e363973c7","slug":"karavi-beach-bar-996e","kind":"restaurant","name":"Karavi Beach Bar","lat":39.85090912842053,"lng":25.123611423243542,"url":"https://maps.app.goo.gl/6JePMXECkf2soAvE9?g_st=ipc","address":"Nea Koutali 814 01","categoryIds":["coffee-brunch"],"categories":["Coffee & Brunch Spots"],"distanceKm":11.688186161761415},{"id":"fishTavernasRestaurants_3f01da32250d","slug":"barbounaki-lemnos-3f01","kind":"restaurant","name":"Barbounaki | Lemnos","lat":39.922645057066866,"lng":25.071051886904925,"url":"https://maps.app.goo.gl/Y8MNEpBKf9pJKHNg8?g_st=ipc","address":"Λημνος, Αγιος Ιωαννης, Kaspakas 814 00","categoryIds":["fish-tavernas"],"categories":["Fish Tavernas"],"distanceKm":14.12688994009579},{"id":"fishTavernasRestaurants_31d05d8989b3","slug":"riza-31d0","kind":"restaurant","name":"Rizá","lat":39.884706865069624,"lng":25.06758130540464,"url":"https://maps.app.goo.gl/mjn9nrVY8o8u2BtBA?g_st=ipc","address":"Ιωάννη ξυραδη, Mirina 814 00","categoryIds":["fish-tavernas"],"categories":["Fish Tavernas"],"distanceKm":14.661838088684695},{"id":"fishTavernasRestaurants_50ee9738a03b","slug":"giannakaros-50ee","kind":"restaurant","name":"Giannakaros","lat":39.84054300748565,"lng":25.08178620013765,"url":"https://maps.app.goo.gl/pXxiEsVASm4fz94F7?g_st=ipc","address":"Παραλία Θάνους 814 00","categoryIds":["fish-tavernas"],"categories":["Fish Tavernas"],"distanceKm":15.31535208611174},{"id":"coffeeBrunchRestaurants_869f5a48d72d","slug":"isalos-869f","kind":"restaurant","name":"Ίσαλος","lat":39.87908391847142,"lng":25.06099156906446,"url":"https://maps.app.goo.gl/c8yCK9js6cNHpCoA9?g_st=ipc","address":"Navarchou Kountourioti 44, Mirina 814 00","categoryIds":["coffee-brunch"],"categories":["Coffee & Brunch Spots"],"distanceKm":15.346142430203923},{"id":"coffeeBrunchRestaurants_068b0da95bfe","slug":"to-sokaki-068b","kind":"restaurant","name":"Το Σοκάκι","lat":39.8775422598192,"lng":25.06020004123801,"url":"https://maps.app.goo.gl/XpuXpx6W5o54Ee8g9?g_st=ipc","address":"Π.Κυδά 95, Mirina 814 00","categoryIds":["coffee-brunch"],"categories":["Coffee & Brunch Spots"],"distanceKm":15.452384238338448},{"id":"coffeeBrunchRestaurants_97411cb6d764","slug":"beach-bar-pantelis-9741","kind":"restaurant","name":"Beach Bar Pantelis","lat":39.842026669826275,"lng":25.07833979185058,"url":"https://maps.app.goo.gl/GU9DYNTRrV3ugcbq6?g_st=ipc","address":"Λημνος, Thanos 814 00","categoryIds":["coffee-brunch"],"categories":["Coffee & Brunch Spots"],"distanceKm":15.4862974744855},{"id":"dessertsRestaurants_f7fc652adf76","slug":"m-m-cafe-f7fc","kind":"restaurant","name":"M&M cafe","lat":39.874546870141494,"lng":25.06021064657425,"url":"https://maps.app.goo.gl/SJcXoVQYWqcw91ws8?g_st=ipc","address":"Παλαιο λιμανι, Mirina 814 00","categoryIds":["desserts"],"categories":["Dessert Shops"],"distanceKm":15.535381561001063},{"id":"fishTavernasRestaurants_ec6f8deb686c","slug":"romeo-restaurant-ec6f","kind":"restaurant","name":"Romeo Restaurant","lat":39.877624727759105,"lng":25.0589103454787,"url":"https://maps.app.goo.gl/gcPprUPwwjyMys6K6?g_st=ipc","address":"Navarchou Kountourioti 4, Mirina 814 00","categoryIds":["fish-tavernas"],"categories":["Fish Tavernas"],"distanceKm":15.55699786845782},{"id":"greekRestaurants_8eab656c1491","slug":"i-eleni-8eab","kind":"restaurant","name":"Η Ελένη","lat":39.981893765467724,"lng":25.40667892238782,"url":"https://maps.app.goo.gl/DULQ8y35UGJe91Vp9?g_st=ipc","address":"Παναγία 814 01","categoryIds":["greek-restaurants"],"categories":["Greek Restaurants"],"distanceKm":16.548132561137884},{"id":"fishTavernasRestaurants_16a4e67c3c63","slug":"agios-charalampos-taverna-16a4","kind":"restaurant","name":"Άγιος Χαράλαμπος Ταβέρνα","lat":40.01540251451066,"lng":25.41273241641246,"url":"https://maps.app.goo.gl/TDkDp1LztBnJyFX67?g_st=ipc","address":"Λημνος, Plaka 814 01","categoryIds":["fish-tavernas"],"categories":["Fish Tavernas"],"distanceKm":19.016830610075484},{"id":"greekRestaurants_a414563c8db5","slug":"agios-charalampos-taverna-a414","kind":"restaurant","name":"Άγιος Χαράλαμπος Ταβέρνα","lat":40.01545133045331,"lng":25.41273378484273,"url":"https://maps.app.goo.gl/vEMTZ2YkAnNc2a7e7?g_st=ipc","address":"Λημνος, Πλάκα 814 01","categoryIds":["greek-restaurants"],"categories":["Greek Restaurants"],"distanceKm":19.020232823482047},{"id":"municipalities_3ce43969ff54","slug":"lesvos-3ce4","kind":"municipality","name":"Λέσβος","lat":39.165,"lng":26.28,"aliases":["Λεσβος","Μυτιλήνη","Μυτιληνη"],"region":"Βόρειο Αιγαίο","name_en":"Lesvos","region_en":"North Aegean","distanceKm":122.04746069848134},{"id":"municipalities_212cd83a627d","slug":"mytilini-212c","kind":"municipality","name":"Μυτιλήνη","lat":39.1117,"lng":26.5544,"region":"Βόρειο Αιγαίο","name_en":"Mytilene","region_en":"North Aegean","distanceKm":143.84138580125972},{"id":"municipalities_4af77743f0e9","slug":"chios-4af7","kind":"municipality","name":"Χίος","lat":38.367,"lng":26.135,"aliases":["Χιος","Xios"],"region":"Βόρειο Αιγαίο","name_en":"Chios","region_en":"North Aegean","distanceKm":188.37756380297006},{"id":"municipalities_d661e87e8af2","slug":"oinoysses-d661","kind":"municipality","name":"Οινούσσες","lat":38.38,"lng":26.35,"region":"Βόρειο Αιγαίο","name_en":"Oinousses","region_en":"North Aegean","distanceKm":195.47048092811804}],"sameRegion":[{"id":"municipalities_212cd83a627d","slug":"mytilini-212c","kind":"municipality","name":"Μυτιλήνη","lat":39.1117,"lng":26.5544,"region":"Βόρειο Αιγαίο","name_en":"Mytilene","region_en":"North Aegean"},{"id":"municipalities_3ce43969ff54","slug":"lesvos-3ce4","kind":"municipality","name":"Λέσβος","lat":39.165,"lng":26.28,"aliases":["Λεσβος","Μυτιλήνη","Μυτιληνη"],"region":"Βόρειο Αιγαίο","name_en":"Lesvos","region_en":"North Aegean"},{"id":"municipalities_4af77743f0e9","slug":"chios-4af7","kind":"municipality","name":"Χίος","lat":38.367,"lng":26.135,"aliases":["Χιος","Xios"],"region":"Βόρειο Αιγαίο","name_en":"Chios","region_en":"North Aegean"},{"id":"municipalities_928b419eccb6","slug":"samos-928b","kind":"municipality","name":"Σάμος","lat":37.754,"lng":26.977,"aliases":["Σαμος"],"region":"Βόρειο Αιγαίο","name_en":"Samos","region_en":"North Aegean"},{"id":"municipalities_d661e87e8af2","slug":"oinoysses-d661","kind":"municipality","name":"Οινούσσες","lat":38.38,"lng":26.35,"region":"Βόρειο Αιγαίο","name_en":"Oinousses","region_en":"North Aegean"},{"id":"municipalities_e4734598fcc4","slug":"ikaria-e473","kind":"municipality","name":"Ικαρία","lat":37.6167,"lng":26.1667,"aliases":["Ικαρια"],"region":"Βόρειο Αιγαίο","name_en":"Ikaria","region_en":"North Aegean"}],"mentionedGuides":[],"canonicalSlug":"limnos-89f0","enrichment":{"summary_en":"Λήμνος is a curated neighborhood area in Βόρειο Αιγαίο. It is connected to 0 nearby Googlementor picks to help travelers build a stronger local route.","summary_el":"Λήμνος είναι ένα επιλεγμένο σημείο ενδιαφέροντος στην περιοχή Βόρειο Αιγαίο. Συνδέεται με 0 κοντινές προτάσεις του Googlementor για πιο ολοκληρωμένη εμπειρία.","vibe_tags":["local-neighborhood","base-for-exploring"],"best_for":["first-time visitors","walk-and-explore days","return visitors"],"visit_moments":["late morning walks","sunset exploration"],"practical_note":"0 curated places are within walkable distance from this area center.","nearby_walkable_count":0,"nearby_count_2km":0,"confidence":0.55},"areaContext":null,"intentContexts":[]},"__N_SSG":true}