{"pageProps":{"entity":{"id":"wineriesVineyards_387acae649dd","slug":"lykos-winery-387a","kind":"restaurant","name":"Lykos Winery","lat":38.40318852137616,"lng":23.75129901619749,"url":"https://maps.app.goo.gl/N8pQEWcDemQKLK6N6?g_st=ipc","address":"ΜΑΛΑΚΩΝΤΑΣ 0, Eretria 340 08","categoryIds":["wineries-vineyards"],"categories":["Wineries & Vineyards"]},"sameCategory":[{"id":"wineriesVineyards_3edb4c37dc1f","slug":"estates-costa-lazaridi-oenotria-land-3edb","kind":"restaurant","name":"Estates Costa Lazaridi - Oenotria Land","lat":38.23173089487007,"lng":23.870908077071547,"url":"https://maps.app.goo.gl/aoRwmKxMU5cHCnRX6?g_st=ipc","address":"2nd km Kapandriti Kalamos road, Kapandriti, 19014, 190 14","categoryIds":["wineries-vineyards"],"categories":["Wineries & Vineyards"]},{"id":"familyFriendly_840d2fe28674","slug":"ktima-kokotoy-840d","kind":"restaurant","name":"ΚΤΗΜΑ ΚΟΚΟΤΟΥ","lat":38.12312970101472,"lng":23.891798090837362,"url":"https://maps.app.goo.gl/9xRLBKhZXYMexEQX8?g_st=ipc","address":"Κτήμα Γ. Κοκοτού 1, Σταμάτα 145 75","categoryIds":["family-friendly","wineries-vineyards"],"categories":["Kid Friendly Locations","Wineries & Vineyards"],"legacySlugs":["ktima-kokotoy-a927"]},{"id":"wineriesVineyards_07784b315d36","slug":"oinopoieio-zegginis-0778","kind":"restaurant","name":"Οινοποιείο Ζεγγίνης","lat":38.14341389755598,"lng":23.983053677151467,"url":"https://maps.app.goo.gl/ZRuTWvGbiLUcFQZw7?g_st=ipc","address":"Λεωφόρος Κάτω Σουλίου 62, Μαραθώνας 190 07","categoryIds":["wineries-vineyards"],"categories":["Wineries & Vineyards"]},{"id":"wineriesVineyards_91ab76f741da","slug":"ktima-moyson-muses-estate-91ab","kind":"restaurant","name":"Κτήμα Μουσών / Muses Estate","lat":38.310939635727244,"lng":23.111723523497265,"url":"https://maps.app.goo.gl/s6vXZTgfmnzvhcm38?g_st=ipc","address":"Άσκρη 320 02","categoryIds":["wineries-vineyards"],"categories":["Wineries & Vineyards"]},{"id":"wineriesVineyards_262c7717edc1","slug":"oinopoieio-papagiannakos-262c","kind":"restaurant","name":"Οινοποιείο Παπαγιαννάκος","lat":37.90457982525897,"lng":23.983420618508436,"url":"https://maps.app.goo.gl/nRd1KxMycS9cXqd6A?g_st=ipc","address":"Πυθαγόρα, Μαρκόπουλο Μεσογαίας 190 03","categoryIds":["wineries-vineyards"],"categories":["Wineries & Vineyards"]},{"id":"wineriesVineyards_fb04a0d726bd","slug":"oinopoieio-prifti-fb04","kind":"restaurant","name":"Οινοποιείο Πρίφτη","lat":37.742934639668164,"lng":24.024928046003534,"url":"https://maps.app.goo.gl/s9SpDZV9kTGdK3aE6?g_st=ipc","address":"Μαρκάτι 190 01","categoryIds":["wineries-vineyards"],"categories":["Wineries & Vineyards"]},{"id":"wineriesVineyards_1ba3565ec57e","slug":"parissis-winery-1ba3","kind":"restaurant","name":"Parissis Winery","lat":39.18153615640374,"lng":23.469914268213092,"url":"https://maps.app.goo.gl/xFt7L59eLpWAg6GJ8?g_st=ipc","address":"Unnamed Road, Σκιάθος 370 02","categoryIds":["wineries-vineyards"],"categories":["Wineries & Vineyards"]},{"id":"wineriesVineyards_542024b64466","slug":"ktima-papargyrioy-5420","kind":"restaurant","name":"Κτήμα Παπαργυρίου","lat":38.018936342010846,"lng":22.689015035366058,"url":"https://maps.app.goo.gl/CGseBU489tpRFbra7?g_st=ipc","address":"Lalioti Corinthias, Κιάτο 202 00","categoryIds":["wineries-vineyards"],"categories":["Wineries & Vineyards"]},{"id":"wineriesVineyards_02d00923574f","slug":"lafazanis-winery-02d0","kind":"restaurant","name":"Lafazanis Winery","lat":37.81366330913366,"lng":22.765441857507405,"url":"https://maps.app.goo.gl/A2t4w3k9kTA2cB6j9?g_st=ipc","address":"Θέση Κεφαλάρι, Αρχαίες Κλεωνές 205 00","categoryIds":["wineries-vineyards"],"categories":["Wineries & Vineyards"]},{"id":"wineriesVineyards_cc81df8a9ab1","slug":"argyriou-winery-cc81","kind":"restaurant","name":"Argyriou Winery","lat":38.639456665967444,"lng":22.535200421052764,"url":"https://maps.app.goo.gl/PAYKP7CHeiCivtki7?g_st=ipc","address":"Polydroso Parnassus, Parnassus 330 51","categoryIds":["wineries-vineyards"],"categories":["Wineries & Vineyards"]},{"id":"wineriesVineyards_b00a536153f6","slug":"semeli-estate-ktima-semeli-b00a","kind":"restaurant","name":"Semeli Estate | Κτήμα Σεμέλη","lat":37.87119800007677,"lng":22.67941642720224,"url":"https://maps.app.goo.gl/zETqXnjPfU3pMwmA8?g_st=ipc","address":"Επαρ.Οδ. Κιάτου - Νεμέας, Κούτσι 205 00","categoryIds":["wineries-vineyards"],"categories":["Wineries & Vineyards"]},{"id":"wineriesVineyards_44279fa455a5","slug":"gaia-winery-nemea-4427","kind":"restaurant","name":"Gaia Winery Nemea","lat":37.85612300690931,"lng":22.670580052988402,"url":"https://maps.app.goo.gl/ZgmCy9JQ7Vrkbz1r9?g_st=ipc","address":"Κούτσι 205 00","categoryIds":["wineries-vineyards"],"categories":["Wineries & Vineyards"]}],"nearby":[{"id":"fishTavernasRestaurants_63c1df7c960e","slug":"remetzo-63c1","kind":"restaurant","name":"Ρεμέτζο","lat":38.39112282038602,"lng":23.797236892149673,"url":"https://maps.app.goo.gl/oqv397oz79KFz6w69?g_st=ipc","address":"Λεωφ. Αρχαίου Θεάτρου 42, Ερέτρια 340 08","categoryIds":["fish-tavernas"],"categories":["Fish Tavernas"],"distanceKm":4.222143868580236},{"id":"municipalities_6af6e7b2b379","slug":"eretria-6af6","kind":"municipality","name":"Ερέτρια","lat":38.39,"lng":23.8,"region":"Στερεά Ελλάδα","name_en":"Eretria","region_en":"Central Greece","distanceKm":4.490357462833494},{"id":"greekRestaurants_ec2a8b2c83d9","slug":"koytoyki-pame-stoy-nikola-ec2a","kind":"restaurant","name":"Κουτουκι Παμε στου Νικολα","lat":38.43629094885433,"lng":23.630485450987354,"url":"https://maps.app.goo.gl/MKQYaTiNZDJ9y8cf9?g_st=ipc","address":"Αγίου Αλεξάνδρου, Χαλκίδα 341 00","categoryIds":["greek-restaurants"],"categories":["Greek Restaurants"],"distanceKm":11.150210388206037},{"id":"fishTavernasRestaurants_89f946397ea9","slug":"to-limanaki-tis-amarynthoy-89f9","kind":"restaurant","name":"Το Λιμανάκι Της Αμαρύνθου","lat":38.391630088057546,"lng":23.87976016192821,"url":"https://maps.app.goo.gl/123Yma2QRjswTuuD9?g_st=ipc","address":"Μιαούλη, Αμάρυνθος 340 06","categoryIds":["fish-tavernas"],"categories":["Fish Tavernas"],"distanceKm":11.268391200378352},{"id":"fishTavernasRestaurants_21394a13a305","slug":"gorgona-di-stefano-amarythos-oyzeri-psarotaverna-2139","kind":"restaurant","name":"Gorgona Di Stefano Amarythos Oυζερι Psarotaverna","lat":38.391896520308414,"lng":23.883711972578777,"url":"https://maps.app.goo.gl/Q3hYqnNSaAEfk5UH8?g_st=ipc","address":"Κων/νου Καραμανλή 2, Αμάρυνθος 340 06","categoryIds":["fish-tavernas"],"categories":["Fish Tavernas"],"distanceKm":11.607330869258778},{"id":"municipalities_a230abd1223f","slug":"oropos-a230","kind":"municipality","name":"Ωρωπός","lat":38.3,"lng":23.7833,"region":"Ανατολικά Προάστια","name_en":"Oropos","region_en":"Eastern Suburbs","distanceKm":11.808496475722546},{"id":"fishTavernasRestaurants_4cf95cf3a3a2","slug":"to-koytoyki-toy-perikli-4cf9","kind":"restaurant","name":"Το κουτούκι του Περικλή","lat":38.43468667088763,"lng":23.62151189556845,"url":"https://maps.app.goo.gl/nQGXrzboUPgm58NX9?g_st=ipc","address":"Νέα Λάμψακος 341 00","categoryIds":["fish-tavernas"],"categories":["Fish Tavernas"],"distanceKm":11.837068926646111},{"id":"fishTavernasRestaurants_3fe79490cff3","slug":"kapetanios-3fe7","kind":"restaurant","name":"Καπετάνιος","lat":38.43674651836107,"lng":23.6218638887793,"url":"https://maps.app.goo.gl/JQSmhWPQjaPxMKdR8?g_st=ipc","address":"Παραλία Λαμψάκου 341 00","categoryIds":["fish-tavernas"],"categories":["Fish Tavernas"],"distanceKm":11.877580916535548},{"id":"fishTavernasRestaurants_4a843009a81f","slug":"to-kyma-toy-loyka-4a84","kind":"restaurant","name":"Το κύμα του Λουκά","lat":38.43818318214878,"lng":23.621937029677294,"url":"https://maps.app.goo.gl/EE6oa72MB34puz5e8?g_st=ipc","address":"Δημοσθένη, Τόσκα, Νέα Λάμψακος 341 00","categoryIds":["fish-tavernas"],"categories":["Fish Tavernas"],"distanceKm":11.9226031131991},{"id":"fishTavernasRestaurants_068b7509beb9","slug":"oyzeri-akrogiali-068b","kind":"restaurant","name":"Ουζερί \"Ακρογιάλι\"","lat":38.440313479921635,"lng":23.621738281701006,"url":"https://maps.app.goo.gl/iJW3zjT5zf2LYsK16?g_st=ipc","address":"λοχία Ρωμιόπουλου 13, Χαλκίδα Νέα Λάμψακος 341 00","categoryIds":["fish-tavernas"],"categories":["Fish Tavernas"],"distanceKm":12.018106005154106},{"id":"greekRestaurants_fb8150b1b5bf","slug":"taverna-o-litsas-fb81","kind":"restaurant","name":"Ταβέρνα Ο Λίτσας","lat":38.2808566827325,"lng":23.792798463384955,"url":"https://maps.app.goo.gl/DPJMb7ZiPi9MTzov7","address":"Λεωφ. Αθηνών Ωρωπού, Μήλεσι Αττικής 190 11","categoryIds":["greek-restaurants"],"categories":["Greek Restaurants"],"distanceKm":14.075937898863657},{"id":"dessertsRestaurants_e25beda95d12","slug":"goynaropoylos-zacharoplasteio-chalkida-e25b","kind":"restaurant","name":"Γουναρόπουλος Ζαχαροπλαστείο Χαλκίδα","lat":38.45806653194968,"lng":23.60520387236345,"url":"https://maps.app.goo.gl/39U8rhLgnjvKYTTX9?g_st=ipc","address":"Μαυρογένους 5, Χαλκίδα 341 00","categoryIds":["desserts"],"categories":["Dessert Shops"],"distanceKm":14.113134689792764},{"id":"municipalities_e657fbc0371a","slug":"chalkida-e657","kind":"municipality","name":"Χαλκίδα","lat":38.4639,"lng":23.6022,"aliases":["Χαλκιδα","Xalkida"],"region":"Στερεά Ελλάδα","name_en":"Chalkida","region_en":"Central Greece","distanceKm":14.636666081720147},{"id":"fishTavernasRestaurants_ee92835c0d0d","slug":"oyzeri-apanemo-ee92","kind":"restaurant","name":"Ουζερί Απάνεμο","lat":38.473971555271454,"lng":23.603700122583223,"url":"https://maps.app.goo.gl/EU5w8nGgmktzo3Gq8?g_st=ipc","address":"Εθ. Συμφιλίωσης 78, Χαλκίδα 341 00","categoryIds":["fish-tavernas"],"categories":["Fish Tavernas"],"distanceKm":15.07338357059592},{"id":"fishTavernasRestaurants_4f23c2a6f3c3","slug":"to-thalami-4f23","kind":"restaurant","name":"ΤΟ ΘΑΛΑΜΙ","lat":38.47386855302924,"lng":23.60361544187376,"url":"https://maps.app.goo.gl/DTL79NVCVS4exKdr9?g_st=ipc","address":"Εθ. Συμφιλίωσης, Χαλκίδα 341 00","categoryIds":["fish-tavernas"],"categories":["Fish Tavernas"],"distanceKm":15.073707156140621},{"id":"dessertsRestaurants_73e2ff50a505","slug":"mpiskotoglyko-73e2","kind":"restaurant","name":"Μπισκοτόγλυκο","lat":38.46497241983079,"lng":23.593940230340603,"url":"https://maps.app.goo.gl/f4tbuwUVqXzkbZJv7?g_st=ipc","address":"Καραμουρτζούνη 32, Χαλκίδα 341 00","categoryIds":["desserts"],"categories":["Dessert Shops"],"distanceKm":15.331591889489557},{"id":"italianRestaurants_221ef1307bb3","slug":"lupo-trattoria-221e","kind":"restaurant","name":"Lupo Trattoria","lat":38.46311896550072,"lng":23.590229926533073,"url":"https://maps.app.goo.gl/DESesA1yAU2maSDx7?g_st=ipc","address":"Βουδούρη 6, Χαλκίδα 341 00","categoryIds":["italian"],"categories":["Italian Restaurants"],"distanceKm":15.531802145259327},{"id":"fishTavernasRestaurants_1ff7d4a34160","slug":"vrachos-1ff7","kind":"restaurant","name":"Βράχος","lat":38.4643775006023,"lng":23.588227655624095,"url":"https://maps.app.goo.gl/dCAASevZrACGwEgU7?g_st=ipc","address":"Αρχιεπισκόπου Μακαρίου 13, Ξηρόβρυση 341 00","categoryIds":["fish-tavernas"],"categories":["Fish Tavernas"],"distanceKm":15.749352540609063},{"id":"fishTavernasRestaurants_2ed9da451033","slug":"teskos-2ed9","kind":"restaurant","name":"ΤΕΣΚΟΣ","lat":38.513309644695795,"lng":23.63544291330188,"url":"https://maps.app.goo.gl/fFb2Q8BVpKvPF6gTA?g_st=ipc","address":"Αγίου Νικολάου 42, Νέα Αρτάκη 346 00","categoryIds":["fish-tavernas"],"categories":["Fish Tavernas"],"distanceKm":15.865150319840337},{"id":"familyFriendly_0acb8f4f4e6f","slug":"mia-fora-ki-enan-kairo-the-greeks-0acb","kind":"restaurant","name":"Μια φορά κι έναν καιρό - the Greeks","lat":38.25621870422675,"lng":23.68492152014709,"url":"https://maps.app.goo.gl/g4HUGMwd4cCRvGvE8?g_st=ipc","address":"Παναγίας Γρηγορούσης, Αυλώνας 190 11","categoryIds":["family-friendly"],"categories":["Kid Friendly Locations"],"distanceKm":17.337647562009852},{"id":"greekRestaurants_e4ab2f008904","slug":"paradosiako-kafeneio-kotsannitsa-e4ab","kind":"restaurant","name":"Παραδοσιακό Καφενείο ΚωτσΑνΝίτσα","lat":38.23932131119346,"lng":23.792367425380203,"url":"https://maps.app.goo.gl/QsRPY3vUeGKY5wLB6","address":"Λεωφόρος Αθηνών Χαλκίδος, Μαλακάσα 190 11","categoryIds":["greek-restaurants"],"categories":["Greek Restaurants"],"distanceKm":18.570083279810554},{"id":"greekRestaurants_eab29c812967","slug":"to-syntrivani-perifanos-eab2","kind":"restaurant","name":"Το Συντριβάνι-Περήφανος","lat":38.239213748428575,"lng":23.795988231331933,"url":"https://maps.app.goo.gl/jUCxRPxswFJerx5H9","address":"Λεωφόρος Αθηνών, Μαλακάσα 190 11","categoryIds":["greek-restaurants"],"categories":["Greek Restaurants"],"distanceKm":18.645298005722527},{"id":"familyFriendly_1a17238d519a","slug":"adventure-park-1a17","kind":"restaurant","name":"Adventure Park","lat":38.23252814955923,"lng":23.80993374825537,"url":"https://maps.app.goo.gl/uqiE3UGiFvDWS7Da8?g_st=ipc","address":"Επαρ.Οδ. Μαλακάσας-Μαρκόπουλου, Μαλακάσα 190 11","categoryIds":["family-friendly"],"categories":["Kid Friendly Locations"],"distanceKm":19.653938312085263},{"id":"greekRestaurants_6d77d03fd815","slug":"kali-kardia-6d77","kind":"restaurant","name":"Καλή Καρδιά","lat":38.56948818591032,"lng":23.85240444441089,"url":"https://maps.app.goo.gl/PRdRKPuUB7qffyj18?g_st=ipc","address":"Καμπιά 340 14","categoryIds":["greek-restaurants"],"categories":["Greek Restaurants"],"distanceKm":20.478849402197973}],"sameRegion":[],"mentionedGuides":[],"canonicalSlug":"lykos-winery-387a","enrichment":{"summary_en":"Lykos Winery is a curated restaurant in Eretria 340 08 in the Wineries & Vineyards collection. It is connected to 0 nearby Googlementor picks to help travelers build a stronger local route.","summary_el":"Lykos Winery είναι ένα επιλεγμένο σημείο φαγητού στην περιοχή Eretria 340 08 και ανήκει στη συλλογή Wineries & Vineyards. Συνδέεται με 0 κοντινές προτάσεις του Googlementor για πιο ολοκληρωμένη εμπειρία.","vibe_tags":["curated","wine-moment"],"best_for":["first-time visitors","food lovers"],"visit_moments":["lunch stop","dinner stop"],"practical_note":"Address and direct map link are available for easy turn-by-turn access.","nearby_walkable_count":0,"nearby_count_2km":0,"confidence":0.9},"areaContext":null,"intentContexts":[]},"__N_SSG":true}