{"pageProps":{"entity":{"id":"fishTavernasRestaurants_d1da2c677cc7","slug":"mavromatis-d1da","kind":"restaurant","name":"Mavromatis","lat":36.88606447717142,"lng":27.309477185520073,"url":"https://maps.app.goo.gl/msTJXXzwPB9WeT5y5?g_st=ipc","address":"Vasileos Georgiou V', Kos 853 00","categoryIds":["fish-tavernas"],"categories":["Fish Tavernas"]},"sameCategory":[{"id":"fishTavernasRestaurants_86ac9cfdbba1","slug":"barbouni-86ac","kind":"restaurant","name":"Barbouni","lat":36.89866949363194,"lng":27.286449875003193,"url":"https://maps.app.goo.gl/h4RrYHzL4aEiHani7?g_st=ipc","address":"26 G, Geor. Averof st, Kos 853 00","categoryIds":["fish-tavernas"],"categories":["Fish Tavernas"]},{"id":"fishTavernasRestaurants_e81adc52e910","slug":"agkyra-fish-restaurant-in-kos-town-e81a","kind":"restaurant","name":"Agkyra Fish Restaurant in Kos Town","lat":36.90011061296023,"lng":27.285534090346363,"url":"https://maps.app.goo.gl/KGXyYVAfE8JET5vr6?g_st=ipc","address":"Dimokritou, Kos 853 00","categoryIds":["fish-tavernas"],"categories":["Fish Tavernas"]},{"id":"fishTavernasRestaurants_1d3fc9d83bcf","slug":"anemos-restaurant-1d3f","kind":"restaurant","name":"Anemos Restaurant","lat":36.78756037978204,"lng":27.14925448197459,"url":"https://maps.app.goo.gl/ETfcRkUohCySZ7987?g_st=ipc","address":"Kardamaina 853 02","categoryIds":["fish-tavernas"],"categories":["Fish Tavernas"]},{"id":"fishTavernasRestaurants_4004def7cd13","slug":"fish-tavern-lampi-4004","kind":"restaurant","name":"FISH TAVERN LAMPI","lat":37.36640737144112,"lng":26.576359128489035,"url":"https://maps.app.goo.gl/PxsWuCmfXd3XNHAx7?g_st=ipc","address":"Patmos 855 00","categoryIds":["fish-tavernas"],"categories":["Fish Tavernas"]},{"id":"fishTavernasRestaurants_973cb4eff711","slug":"almyra-973c","kind":"restaurant","name":"Almyra","lat":36.57689109395972,"lng":26.38668535748424,"url":"https://maps.app.goo.gl/8xxh7iRxAnHBuD868?g_st=ipc","address":"Ανάληψη 859 00","categoryIds":["fish-tavernas"],"categories":["Fish Tavernas"]},{"id":"fishTavernasRestaurants_7e035939a6db","slug":"traditional-cafe-symi-7e03","kind":"restaurant","name":"Traditional Cafe Symi","lat":36.447396932123645,"lng":28.225462639664087,"url":"https://maps.app.goo.gl/bB5NM791bDAKeYYP8?g_st=ipc","address":"Nea Agora 109, Rodos 851 00","categoryIds":["fish-tavernas"],"categories":["Fish Tavernas"]},{"id":"fishTavernasRestaurants_21b0c4363779","slug":"pizanias-the-sea-star-21b0","kind":"restaurant","name":"Pizanias The Sea Star","lat":36.44219184483265,"lng":28.227392660524885,"url":"https://maps.app.goo.gl/bmjrpg6PxNfVuRyLA?g_st=ipc","address":"Sofokleous 24, Rodos 851 31","categoryIds":["fish-tavernas"],"categories":["Fish Tavernas"]},{"id":"fishTavernasRestaurants_5c524a0645d5","slug":"taverna-to-steki-5c52","kind":"restaurant","name":"Taverna To Steki","lat":36.21481289800798,"lng":28.116223331846093,"url":"https://maps.app.goo.gl/uGAqX7jPtUdH564r6?g_st=ipc","address":"Mezedopwleio To steki, Archaggelos 851 02","categoryIds":["fish-tavernas"],"categories":["Fish Tavernas"]},{"id":"fishTavernasRestaurants_3329c5f3ac04","slug":"perigiali-sea-food-restaurant-3329","kind":"restaurant","name":"Perigiali Sea Food Restaurant","lat":36.20335875535593,"lng":28.1401896188144,"url":"https://maps.app.goo.gl/BQHAxew1vaRjgSqj8?g_st=ipc","address":"Archangelos 851 02","categoryIds":["fish-tavernas"],"categories":["Fish Tavernas"]},{"id":"fishTavernasRestaurants_b4d1c19f6fe6","slug":"askas-restaurant-b4d1","kind":"restaurant","name":"Askas Restaurant","lat":36.90689335338981,"lng":25.97877118696508,"url":"https://maps.app.goo.gl/aQ4u4RqjucDESjM66?g_st=ipc","address":"Epar.Od. Katapola-Thalarias, Paralia Tholarion 840 08","categoryIds":["fish-tavernas"],"categories":["Fish Tavernas"]},{"id":"fishTavernasRestaurants_da1220f4c7c3","slug":"limani-restaurant-da12","kind":"restaurant","name":"Limani Restaurant","lat":36.901162221052765,"lng":25.976288792173918,"url":"https://maps.app.goo.gl/CFKDV9FzeK4koTmt5?g_st=ipc","address":"Αιγιάλη 840 08","categoryIds":["fish-tavernas"],"categories":["Fish Tavernas"]},{"id":"fishTavernasRestaurants_66fa6dbae79f","slug":"amorgialos-66fa","kind":"restaurant","name":"Amorgialos","lat":36.90135301074789,"lng":25.97627688507805,"url":"https://maps.app.goo.gl/XzSf26up7JduLUrV9?g_st=ipc","address":"αιγιαλη, αμοργος 840 08","categoryIds":["fish-tavernas"],"categories":["Fish Tavernas"]}],"nearby":[{"id":"dessertsRestaurants_970ac0b21043","slug":"gelateria-nonno-enzo-970a","kind":"restaurant","name":"Gelateria Nonno Enzo","lat":36.89292607123432,"lng":27.29412898356443,"url":"https://maps.app.goo.gl/h4veUyYdxhyumq1b7?g_st=ipc","address":"Vasileos Georgiou V' 7, Kos 853 00","categoryIds":["desserts"],"categories":["Dessert Shops"],"distanceKm":1.5637311635543496},{"id":"greekRestaurants_657796817a74","slug":"mom-s-kitchen-6577","kind":"restaurant","name":"MOM'S KITCHEN","lat":36.89405035289658,"lng":27.290210141099532,"url":"https://maps.app.goo.gl/ytaQukqzhdm73UXj7?g_st=ipc","address":"Ναυκλήρου 13, Κως 853 00","categoryIds":["greek-restaurants"],"categories":["Greek Restaurants"],"distanceKm":1.9298934782719637},{"id":"greekRestaurants_6a7cb041b6a3","slug":"lofaki-bar-restaurant-6a7c","kind":"restaurant","name":"Lofaki Bar Restaurant","lat":36.86930721267751,"lng":27.301216496116595,"url":"https://maps.app.goo.gl/5rrtKqr7UWXvM3gQ7?g_st=ipc","address":"Agios Nektarios, Κως 853 00","categoryIds":["greek-restaurants"],"categories":["Greek Restaurants"],"distanceKm":2.0029597436114694},{"id":"municipalities_23af7cf13cb7","slug":"kos-23af","kind":"municipality","name":"Κως","lat":36.892,"lng":27.287,"aliases":["Kos","Κώς","Κω","Κος"],"region":"Δωδεκάνησα","name_en":"Kos","region_en":"Dodecanese","distanceKm":2.1051161820067064},{"id":"dessertsRestaurants_89c58fd42061","slug":"hans-gretel-kos-89c5","kind":"restaurant","name":"Hans & Gretel | Kos","lat":36.89661462547778,"lng":27.285723193546904,"url":"https://maps.app.goo.gl/rQDc5X2QHbgntYvk8?g_st=ipc","address":"Kanari 4, Kos 853 00","categoryIds":["desserts"],"categories":["Dessert Shops"],"distanceKm":2.4163459758865664},{"id":"fishTavernasRestaurants_86ac9cfdbba1","slug":"barbouni-86ac","kind":"restaurant","name":"Barbouni","lat":36.89866949363194,"lng":27.286449875003193,"url":"https://maps.app.goo.gl/h4RrYHzL4aEiHani7?g_st=ipc","address":"26 G, Geor. Averof st, Kos 853 00","categoryIds":["fish-tavernas"],"categories":["Fish Tavernas"],"distanceKm":2.4815441335529362},{"id":"greekRestaurants_ac3620c081a5","slug":"paradosiako-mezedopoleio-patriko-patriko-ac36","kind":"restaurant","name":"Παραδοσιακό Μεζεδοπωλείο Πατρικό, Patriko","lat":36.89739810614618,"lng":27.284779736766605,"url":"https://maps.app.goo.gl/UDQufYxBg1Qoohua9?g_st=ipc","address":"Αλικαρνασσού 35, Κως 853 00","categoryIds":["greek-restaurants"],"categories":["Greek Restaurants"],"distanceKm":2.5322308084424754},{"id":"greekRestaurants_a93aa32752f0","slug":"lampros-steakhouse-a93a","kind":"restaurant","name":"Lampros Steakhouse","lat":36.896322136693854,"lng":27.283402198970883,"url":"https://maps.app.goo.gl/Sh3PpX1qM4Rdx2rU8?g_st=ipc","address":"Ψαρών, Κως 853 00","categoryIds":["greek-restaurants"],"categories":["Greek Restaurants"],"distanceKm":2.5842143513974656},{"id":"fishTavernasRestaurants_e81adc52e910","slug":"agkyra-fish-restaurant-in-kos-town-e81a","kind":"restaurant","name":"Agkyra Fish Restaurant in Kos Town","lat":36.90011061296023,"lng":27.285534090346363,"url":"https://maps.app.goo.gl/KGXyYVAfE8JET5vr6?g_st=ipc","address":"Dimokritou, Kos 853 00","categoryIds":["fish-tavernas"],"categories":["Fish Tavernas"],"distanceKm":2.640651509928569},{"id":"italianRestaurants_3c7247930b69","slug":"pizzeria-mamarosa-3c72","kind":"restaurant","name":"Pizzeria MamaRosa","lat":36.89985042997736,"lng":27.283591451459408,"url":"https://maps.app.goo.gl/obmeLmF2dusw8e6LA?g_st=ipc","address":"Κανάρη 48, Κως 853 00","categoryIds":["italian"],"categories":["Italian Restaurants"],"distanceKm":2.7656910961406873},{"id":"italianRestaurants_0e8f8291b62e","slug":"pizzeria-mamarosa-0e8f","kind":"restaurant","name":"Pizzeria MamaRosa","lat":36.899851240204136,"lng":27.283589360751858,"url":"https://maps.app.goo.gl/74rh4sPu3LvCHuk77?g_st=ipc","address":"Kanari 48, Kos 853 00","categoryIds":["italian"],"categories":["Italian Restaurants"],"distanceKm":2.7658957741545103},{"id":"coffeeBrunchRestaurants_d1e128561b78","slug":"mylos-beach-bar-kos-d1e1","kind":"restaurant","name":"Mylos Beach Bar Kos","lat":36.910338645379476,"lng":27.282292405147036,"url":"https://maps.app.goo.gl/6uVUCsAW9roKZ7jd6?g_st=ipc","address":"Akti Zouroudi, Kos 853 00","categoryIds":["coffee-brunch"],"categories":["Coffee & Brunch Spots"],"distanceKm":3.6234066980638535},{"id":"coffeeBrunchRestaurants_6c5cf7a87a7e","slug":"ammos-beach-cocktail-bar-kos-6c5c","kind":"restaurant","name":"Ammos Beach Cocktail Bar Kos","lat":36.87331617313251,"lng":27.35149999959042,"url":"https://maps.app.goo.gl/AMMGdvJMkRwqCrFP6?g_st=ipc","address":"Psalidi, Kos 853 00","categoryIds":["coffee-brunch"],"categories":["Coffee & Brunch Spots"],"distanceKm":3.9974789242252844},{"id":"mustSeeAttractions_ef451c3fb153","slug":"asclepieion-at-kos-ef45","kind":"restaurant","name":"Asclepieion at Kos","lat":36.87634063821304,"lng":27.25929156442587,"url":"https://maps.app.goo.gl/KY1PY5mwkiEPn6JS6?g_st=ipc","address":"Kos 853 00","categoryIds":["attractions"],"categories":["Must-See Attractions"],"distanceKm":4.592737763747625},{"id":"municipalities_3aeefc631d3e","slug":"peykakia-3aee","kind":"municipality","name":"Πευκάκια","lat":36.858,"lng":27.265,"region":"Κως","name_en":"Pefkakia","region_en":"Kos","distanceKm":5.038989042196371},{"id":"dessertsRestaurants_bbd3b3b571f4","slug":"special-zipari-bbd3","kind":"restaurant","name":"Special Zipari","lat":36.87693633011065,"lng":27.208733925340766,"url":"https://maps.app.goo.gl/y1ujiW8koq2bhg1NA?g_st=ipc","address":"Zipari 853 00","categoryIds":["desserts"],"categories":["Dessert Shops"],"distanceKm":9.017654970478661},{"id":"greekRestaurants_8485c6e3a6b4","slug":"olympia-zia-8485","kind":"restaurant","name":"Olympia Zia","lat":36.846359220438664,"lng":27.20601879367517,"url":"https://maps.app.goo.gl/R49wPJn6AyfTkV788?g_st=ipc","address":"Λαγουδι Ζία 853 00","categoryIds":["greek-restaurants"],"categories":["Greek Restaurants"],"distanceKm":10.207849227832213},{"id":"coffeeBrunchRestaurants_224b4f18bc1d","slug":"metoxi-cafe-224b","kind":"restaurant","name":"Metoxi Cafe","lat":36.84261561910303,"lng":27.207757730254055,"url":"https://maps.app.goo.gl/xLPQPWyVrDszRuA8A?g_st=ipc","address":"Κως ζια, Lagoudi Zia 853 00","categoryIds":["coffee-brunch"],"categories":["Coffee & Brunch Spots"],"distanceKm":10.258144929499984},{"id":"greekRestaurants_7709915bb0d1","slug":"oromedon-7709","kind":"restaurant","name":"Ωρομέδων","lat":36.84611734603098,"lng":27.20392445508704,"url":"https://maps.app.goo.gl/mZnsac8ZMBoCsgqg6?g_st=ipc","address":"Επαρ.Οδ. Ζιπάριου-Ασφενδιού, Λαγουδι Ζία 853 00","categoryIds":["greek-restaurants"],"categories":["Greek Restaurants"],"distanceKm":10.387632753422269},{"id":"greekRestaurants_b918155cc589","slug":"taverna-zia-b918","kind":"restaurant","name":"Ταβέρνα Ζιά","lat":36.84395435587276,"lng":27.204103754260537,"url":"https://maps.app.goo.gl/s7wipUzwGwhGaAfw7?g_st=ipc","address":"Λαγουδι Ζία 853 00","categoryIds":["greek-restaurants"],"categories":["Greek Restaurants"],"distanceKm":10.478579763606728},{"id":"municipalities_7277cdde3ccf","slug":"zia-7277","kind":"municipality","name":"Ζιά","lat":36.8285,"lng":27.2144,"region":"Κως","name_en":"Zia","region_en":"Kos","distanceKm":10.607883780693399},{"id":"fishTavernasRestaurants_1d3fc9d83bcf","slug":"anemos-restaurant-1d3f","kind":"restaurant","name":"Anemos Restaurant","lat":36.78756037978204,"lng":27.14925448197459,"url":"https://maps.app.goo.gl/ETfcRkUohCySZ7987?g_st=ipc","address":"Kardamaina 853 02","categoryIds":["fish-tavernas"],"categories":["Fish Tavernas"],"distanceKm":17.98022732500029},{"id":"greekRestaurants_6c6e03362962","slug":"ayli-6c6e","kind":"restaurant","name":"Αυλή","lat":36.7827762709017,"lng":27.143380768775845,"url":"https://maps.app.goo.gl/moQsTZ9NgNoeFoC59?g_st=ipc","address":"Central square, Καρδάμαινα 853 02","categoryIds":["greek-restaurants"],"categories":["Greek Restaurants"],"distanceKm":18.719481770112253},{"id":"coffeeBrunchRestaurants_2788ef940f49","slug":"lovly-bar-2788","kind":"restaurant","name":"Lovly Bar","lat":36.8298552621884,"lng":27.052523615328724,"url":"https://maps.app.goo.gl/tqo3zEFB2jssR8Md9?g_st=ipc","address":"Mastihari","categoryIds":["coffee-brunch"],"categories":["Coffee & Brunch Spots"],"distanceKm":23.70010622497599}],"sameRegion":[],"mentionedGuides":[],"canonicalSlug":"mavromatis-d1da","enrichment":{"summary_en":"Mavromatis is a curated restaurant in Kos 853 00 in the Fish Tavernas collection. It is connected to 0 nearby Googlementor picks to help travelers build a stronger local route.","summary_el":"Mavromatis είναι ένα επιλεγμένο σημείο φαγητού στην περιοχή Kos 853 00 και ανήκει στη συλλογή Fish Tavernas. Συνδέεται με 0 κοντινές προτάσεις του Googlementor για πιο ολοκληρωμένη εμπειρία.","vibe_tags":["curated","seafood-local"],"best_for":["first-time visitors","food lovers"],"visit_moments":["lunch stop","dinner stop"],"practical_note":"Address and direct map link are available for easy turn-by-turn access.","nearby_walkable_count":0,"nearby_count_2km":2,"confidence":0.9},"areaContext":{"slug":"kos","name":"Kos","nameEl":"Κως"},"intentContexts":[]},"__N_SSG":true}