{"pageProps":{"entity":{"id":"vegetarianRestaurants_e61f564cf6f0","slug":"melitini-e61f","kind":"restaurant","name":"Melitini","lat":36.46251191786666,"lng":25.380930558895514,"url":"https://maps.app.goo.gl/diHJtayCn8kgFPxW7?g_st=ipc","address":"Oia 847 02","categoryIds":["vegetarian"],"categories":["Vegetarian Friendly Restaurants"]},"sameCategory":[{"id":"vegetarianRestaurants_b8ffd99027d0","slug":"amorgos-organic-b8ff","kind":"restaurant","name":"Amorgos Organic","lat":36.82494496537346,"lng":25.86937679325385,"url":"https://maps.app.goo.gl/LLqFWY5v6jQQxyzV9?g_st=ipc","address":"Epar.Od. Katapolon-Mavris Mitis, Rachidi 840 08","categoryIds":["vegetarian"],"categories":["Vegetarian Friendly Restaurants"]},{"id":"vegetarianRestaurants_fcbe4baf2c7e","slug":"falafel-fcbe","kind":"restaurant","name":"Falafel","lat":36.90090309185306,"lng":25.976584244849658,"url":"https://maps.app.goo.gl/aKeeZyXVaADfNUQU9?g_st=ipc","address":"Ormos Egialis 840 08","categoryIds":["vegetarian"],"categories":["Vegetarian Friendly Restaurants"]},{"id":"vegetarianRestaurants_01ab7c5f61ba","slug":"seminario-01ab","kind":"restaurant","name":"SEMINARIO","lat":37.4442691864213,"lng":24.94407924993465,"url":"https://maps.app.goo.gl/67qtbde9XNL2VBgVA?g_st=ipc","address":"Kiparissou 7, Ermoupoli 841 00","categoryIds":["vegetarian"],"categories":["Vegetarian Friendly Restaurants"]},{"id":"vegetarianRestaurants_325f7a0c0fd0","slug":"pernera-vegan-restaurant-fairtrade-coffee-shop-market-325f","kind":"restaurant","name":"Pernera Vegan Restaurant & Fairtrade Coffee Shop & Market","lat":37.32400648961271,"lng":26.54252733878879,"url":"https://maps.app.goo.gl/N2k56TsPjEKAnPtL9?g_st=ipc","address":"Σκάλα 855 00","categoryIds":["vegetarian"],"categories":["Vegetarian Friendly Restaurants"]},{"id":"vegetarianRestaurants_17922606ce48","slug":"thirdeye-1792","kind":"restaurant","name":"ThirdEye","lat":35.23035637395369,"lng":23.680431168077206,"url":"https://maps.app.goo.gl/3unNAK47vshJHbgj7?g_st=ipc","address":"Griechenland, Epar.Od. Strovlon-Paleochoras 28, Paleochora 730 01","categoryIds":["vegetarian"],"categories":["Vegetarian Friendly Restaurants"]},{"id":"vegetarianRestaurants_5e82930d8565","slug":"coconuts-nuts-specialties-5e82","kind":"restaurant","name":"COCONUTS Nuts & Specialties","lat":37.83974545115199,"lng":23.767343337140883,"url":"https://maps.app.goo.gl/C155rgfingteegQn8?g_st=ipc","address":"Λεωφ. Βασιλέως Παύλου 67, Βούλα 166 73","categoryIds":["vegetarian"],"categories":["Vegetarian Friendly Restaurants"]},{"id":"vegetarianRestaurants_4651fd50cc98","slug":"gi-4651","kind":"restaurant","name":"Γη","lat":37.867754101352695,"lng":23.757082449020576,"url":"https://maps.app.goo.gl/J8MbyuN6xbnsUxi89?g_st=ipc","address":"Γρ. Λαμπράκη 69, Γλυφάδα 166 75","categoryIds":["vegetarian"],"categories":["Vegetarian Friendly Restaurants"]},{"id":"coffeeBrunchRestaurants_8ebbeeadfb00","slug":"jerry-s-8ebb","kind":"restaurant","name":"JERRY’S","lat":37.99081436071943,"lng":23.798622930452883,"url":"https://maps.app.goo.gl/s7TjtfQj1q9s9Tnk8?g_st=ipc","address":"Εθ. Αμύνης 27, Παπάγου 156 69","categoryIds":["coffee-brunch","vegetarian"],"categories":["Coffee & Brunch Spots","Vegetarian Friendly Restaurants"],"legacySlugs":["jerry-s-4010"]},{"id":"vegetarianRestaurants_74f8ca9bcb55","slug":"dinette-dafni-74f8","kind":"restaurant","name":"Dinette Dafni","lat":37.949260684351316,"lng":23.73612865746863,"url":"https://maps.app.goo.gl/kkxVViHsfrAhDtz38?g_st=ipc","address":"Μιχαήλ Καραολή 1-3, Αθήνα 172 35","categoryIds":["vegetarian"],"categories":["Vegetarian Friendly Restaurants"]},{"id":"burgersRestaurants_82d2f41d9265","slug":"big-nick-82d2","kind":"restaurant","name":"Big Nick","lat":37.956445331565305,"lng":23.73566615673783,"url":"https://maps.app.goo.gl/j5eRwkA5Uf2bwVHs7?g_st=ipc","address":"Λεωφόρος Βουλιαγμένης 145, Αθήνα 116 31","categoryIds":["burgers","vegetarian"],"categories":["Burger Spots","Vegetarian Friendly Restaurants"],"legacySlugs":["big-nick-ce09"]},{"id":"vegetarianRestaurants_26aa685f16e1","slug":"fresh-patisserie-26aa","kind":"restaurant","name":"Fresh Patisserie","lat":37.96747222997714,"lng":23.749300179574934,"url":"https://maps.app.goo.gl/M6kixY8DuERoUL8U8?g_st=ipc","address":"Ευτυχίδου 48, Αθήνα 116 34","categoryIds":["vegetarian"],"categories":["Vegetarian Friendly Restaurants"]},{"id":"vegetarianRestaurants_2e588abb0db5","slug":"baba-ghanoush-2e58","kind":"restaurant","name":"Baba Ghanoush","lat":37.96544673051708,"lng":23.74367426912522,"url":"https://maps.app.goo.gl/TVzEkkpCr1SQ2ZUEA?g_st=ipc","address":"Εμπεδοκλέους 25 - 27, Αθήνα 116 35","categoryIds":["vegetarian"],"categories":["Vegetarian Friendly Restaurants"]}],"nearby":[{"id":"luxuryDiningRestaurants_ab3674135abd","slug":"lycabettus-restaurant-ab36","kind":"restaurant","name":"Lycabettus Restaurant","lat":36.4620987049079,"lng":25.379910060169035,"url":"https://maps.app.goo.gl/2mrH4kakyMDha6iV9?g_st=ipc","address":"Nik. Nomikou, Oía 847 02","categoryIds":["luxury-dining"],"categories":["Luxury Dining"],"distanceKm":0.10217533406045115},{"id":"luxuryDiningRestaurants_473c799c8410","slug":"botrini-s-santorini-473c","kind":"restaurant","name":"Botrini's Santorini","lat":36.46201811215205,"lng":25.382543844805166,"url":"https://maps.app.goo.gl/e9tmihEjv2QRq6DKA?g_st=ipc","address":"Main Street, Nik. Nomikou, Oía 847 02","categoryIds":["luxury-dining"],"categories":["Luxury Dining"],"distanceKm":0.15436905219568173},{"id":"cheapEatsRestaurants_de78a5847b53","slug":"pitogyros-traditional-grill-house-gyros-souvlaki-kebab-de78","kind":"restaurant","name":"Pitogyros Traditional Grill House - Gyros, souvlaki, kebab.","lat":36.462570266691884,"lng":25.37797515114607,"url":"https://maps.app.goo.gl/Xyq1DhyUhw2mJaPq9?g_st=ipc","address":"Oia 847 02","categoryIds":["cheap-eats"],"categories":["Gyros & Cheap Eats"],"distanceKm":0.2643759100760069},{"id":"luxuryDiningRestaurants_92281f88cd62","slug":"lauda-restaurant-9228","kind":"restaurant","name":"Lauda Restaurant","lat":36.461955784508554,"lng":25.377938602582883,"url":"https://maps.app.goo.gl/qsriKPJsQcgJ43x46?g_st=ipc","address":"Oia 847 02","categoryIds":["luxury-dining"],"categories":["Luxury Dining"],"distanceKm":0.2746189198532434},{"id":"dessertsRestaurants_ebef2944eed9","slug":"lolita-s-gelato-ebef","kind":"restaurant","name":"Lolita's Gelato","lat":36.46273695850675,"lng":25.376386479037105,"url":"https://maps.app.goo.gl/c2iaJjfqekF4QV9w5?g_st=ipc","address":"Oia 847 02","categoryIds":["desserts"],"categories":["Dessert Shops"],"distanceKm":0.40713737948975914},{"id":"municipalities_55c07bf61bfe","slug":"oia-55c0","kind":"municipality","name":"Οία","lat":36.461,"lng":25.375,"region":"Σαντορίνη","name_en":"Oia","region_en":"Santorini","distanceKm":0.55637130194008},{"id":"luxuryDiningRestaurants_1dc2bd6a8064","slug":"elements-restaurant-bar-1dc2","kind":"restaurant","name":"Elements Restaurant Bar","lat":36.46364006260335,"lng":25.371104539849476,"url":"https://maps.app.goo.gl/ehAKLfSTD13fa851A?g_st=ipc","address":"Oia 847 02","categoryIds":["luxury-dining"],"categories":["Luxury Dining"],"distanceKm":0.887624364359734},{"id":"greekRestaurants_19a1aff10d3b","slug":"lefkes-santorini-19a1","kind":"restaurant","name":"Lefkes ΣΑΝΤΟΡΙΝΗ","lat":36.46311561251902,"lng":25.393685023435904,"url":"https://maps.app.goo.gl/6kjSiC5Bk9fdfy1b8?g_st=ipc","address":"Φοινικιά 847 02","categoryIds":["greek-restaurants"],"categories":["Greek Restaurants"],"distanceKm":1.1425762184544492},{"id":"wineriesVineyards_f66d3d921eed","slug":"domaine-sigalas-f66d","kind":"restaurant","name":"Domaine Sigalas","lat":36.47144515332007,"lng":25.394233805271192,"url":"https://maps.app.goo.gl/kxHf2McGP81at7gq9?g_st=ipc","address":"Baxes, Oia, Santorini 847 02","categoryIds":["wineries-vineyards"],"categories":["Wineries & Vineyards"],"distanceKm":1.5498029637233115},{"id":"fishTavernasRestaurants_088f1a113b0b","slug":"afropsaro-santorini-088f","kind":"restaurant","name":"Afropsaro Santorini","lat":36.44373697181477,"lng":25.4260466585142,"url":"https://maps.app.goo.gl/ocoYehgdG9tZzoCd6?g_st=ipc","address":"Imerovigli 847 00","categoryIds":["fish-tavernas","luxury-dining"],"categories":["Fish Tavernas","Luxury Dining"],"legacySlugs":["afropsaro-santorini-da47"],"distanceKm":4.543204394443125},{"id":"luxuryDiningRestaurants_20e2fea855d8","slug":"varoulko-santorini-within-grace-hotel-20e2","kind":"restaurant","name":"Varoulko Santorini (within Grace Hotel)","lat":36.432959672130295,"lng":25.420955482423597,"url":"https://maps.app.goo.gl/8GTiiHfZwjCgosfT6?g_st=ipc","address":"Imerovigli Thira, Santorini 847 00","categoryIds":["luxury-dining"],"categories":["Luxury Dining"],"distanceKm":4.859508874288308},{"id":"municipalities_a8cf7f89f0ad","slug":"imerovigli-a8cf","kind":"municipality","name":"Ημεροβίγλι","lat":36.4352,"lng":25.4235,"region":"Σαντορίνη","name_en":"Imerovigli","region_en":"Santorini","distanceKm":4.870385622571648},{"id":"wineriesVineyards_3bdee9fa8d03","slug":"mikra-thira-winery-3bde","kind":"restaurant","name":"Mikra Thira Winery","lat":36.43912962546045,"lng":25.33447754994131,"url":"https://maps.app.goo.gl/RYuGtMWu3PcXZLU76?g_st=ipc","address":"Manolas 847 02","categoryIds":["wineries-vineyards"],"categories":["Wineries & Vineyards"],"distanceKm":4.901281610336388},{"id":"greekRestaurants_77983275c7e1","slug":"mama-lena-7798","kind":"restaurant","name":"Mama Lena","lat":36.433282969378894,"lng":25.42330569423746,"url":"https://maps.app.goo.gl/ouhG9hPgQz5MamWj7?g_st=ipc","address":"Imerovigli 847 00","categoryIds":["greek-restaurants"],"categories":["Greek Restaurants"],"distanceKm":4.992909057233849},{"id":"luxuryDiningRestaurants_60ed304175f8","slug":"koukoumavlos-restaurant-60ed","kind":"restaurant","name":"Koukoumavlos Restaurant","lat":36.43146159101605,"lng":25.424418520966256,"url":"https://maps.app.goo.gl/uc1kbLbBqgnUhLot7?g_st=ipc","address":"Imerovigli 847 00","categoryIds":["luxury-dining"],"categories":["Luxury Dining"],"distanceKm":5.201099317693419},{"id":"wineriesVineyards_21a74b37ed66","slug":"vassaltis-vineyards-21a7","kind":"restaurant","name":"Vassaltis Vineyards","lat":36.44254790219748,"lng":25.43767809168264,"url":"https://maps.app.goo.gl/2AtdngotJUgMkr7o8?g_st=ipc","address":"Περιφερειακή οδός, Βουρβούλος 847 00","categoryIds":["wineries-vineyards"],"categories":["Wineries & Vineyards"],"distanceKm":5.539710253818895},{"id":"fishTavernasRestaurants_f0432a23e1ec","slug":"roza-s-f043","kind":"restaurant","name":"Roza's","lat":36.43483486218363,"lng":25.4369605787624,"url":"https://maps.app.goo.gl/E5GA7Cu7XS5a5jut9?g_st=ipc","address":"Vourvoulos Santorini Island, 847 00","categoryIds":["fish-tavernas"],"categories":["Fish Tavernas"],"distanceKm":5.881065889694033},{"id":"luxuryDiningRestaurants_a54c6ec9f1fa","slug":"selene-restaurant-a54c","kind":"restaurant","name":"Selene Restaurant","lat":36.4214954695669,"lng":25.43077555199888,"url":"https://maps.app.goo.gl/WMAKe6khJLqtbDgo7?g_st=ipc","address":"Old catholic monastery, Thira 847 00","categoryIds":["luxury-dining"],"categories":["Luxury Dining"],"distanceKm":6.378186848595941},{"id":"fishTavernasRestaurants_2d350f785ac9","slug":"triana-tavern-2d35","kind":"restaurant","name":"Triana Tavern","lat":36.42013344956067,"lng":25.432032180485958,"url":"https://maps.app.goo.gl/FwBmnh2RPeVaK64U6?g_st=ipc","address":"25is Martiou 405, Thira 847 00","categoryIds":["fish-tavernas"],"categories":["Fish Tavernas"],"distanceKm":6.565140070714987},{"id":"coffeeBrunchRestaurants_2e5d658747f2","slug":"svoronos-bakery-2e5d","kind":"restaurant","name":"Svoronos Bakery","lat":36.419048608663665,"lng":25.432096523213673,"url":"https://maps.app.goo.gl/UiCZYg6Gt2wABcPE8?g_st=ipc","address":"Greece, 25is Martiou, Thira 847 00","categoryIds":["coffee-brunch"],"categories":["Coffee & Brunch Spots"],"distanceKm":6.656232586321007},{"id":"municipalities_d0dfb358cefd","slug":"fira-d0df","kind":"municipality","name":"Φηρά","lat":36.4167,"lng":25.4326,"region":"Σαντορίνη","name_en":"Fira","region_en":"Santorini","distanceKm":6.878432504420421},{"id":"fishTavernasRestaurants_3a6d2de72ff3","slug":"yalos-3a6d","kind":"restaurant","name":"Yalos","lat":36.429358736881454,"lng":25.45892129944303,"url":"https://maps.app.goo.gl/LaFf3b4PU7b9Fdin8?g_st=ipc","address":"Έξω Γιαλός Θήρας 847 00","categoryIds":["fish-tavernas"],"categories":["Fish Tavernas"],"distanceKm":7.890203833598563},{"id":"wineriesVineyards_0d0a1ba0c3f9","slug":"santo-wines-0d0a","kind":"restaurant","name":"Santo Wines","lat":36.38756634157811,"lng":25.436746775584044,"url":"https://maps.app.goo.gl/BfpzWvX44GGmmqF99?g_st=ipc","address":"Πύργος Καλλίστης 847 00","categoryIds":["wineries-vineyards"],"categories":["Wineries & Vineyards"],"distanceKm":9.715341121569995},{"id":"wineriesVineyards_a511a6e649e6","slug":"venetsanos-winery-a511","kind":"restaurant","name":"Venetsanos Winery","lat":36.38233875963969,"lng":25.43152035534749,"url":"https://maps.app.goo.gl/ptjxxz2nqAmMqrjo9?g_st=ipc","address":"Caldera Megalochori, Santorini Island 847 00","categoryIds":["wineries-vineyards"],"categories":["Wineries & Vineyards"],"distanceKm":9.998178965897878}],"sameRegion":[],"mentionedGuides":[],"canonicalSlug":"melitini-e61f","enrichment":{"summary_en":"Melitini is a curated restaurant in Greece in the Vegetarian Friendly Restaurants collection. It is connected to 6 nearby Googlementor picks to help travelers build a stronger local route.","summary_el":"Melitini είναι ένα επιλεγμένο σημείο φαγητού στην περιοχή Greece και ανήκει στη συλλογή Vegetarian Friendly Restaurants. Συνδέεται με 6 κοντινές προτάσεις του Googlementor για πιο ολοκληρωμένη εμπειρία.","vibe_tags":["curated"],"best_for":["first-time visitors","food lovers"],"visit_moments":["lunch stop","dinner stop"],"practical_note":"Address and direct map link are available for easy turn-by-turn access.","nearby_walkable_count":6,"nearby_count_2km":9,"confidence":0.98},"areaContext":{"slug":"oia","name":"Oia","nameEl":"Οία"},"intentContexts":[]},"__N_SSG":true}