{"pageProps":{"entity":{"id":"mustSeeAttractions_5b0540533ca6","slug":"melissani-cave-5b05","kind":"restaurant","name":"Melissani Cave","lat":38.25698727901152,"lng":20.6235483284677,"url":"https://maps.app.goo.gl/DamgwWTndmBhKj5W9?g_st=ipc","address":"Σάμη 280 80","categoryIds":["attractions"],"categories":["Must-See Attractions"]},"sameCategory":[{"id":"mustSeeAttractions_20af350a9d06","slug":"blue-caves-zakynthos-20af","kind":"restaurant","name":"Blue Caves Zakynthos","lat":37.93034342843555,"lng":20.705251154680667,"url":"https://maps.app.goo.gl/aFhekQczUnCUCkXt7?g_st=ipc","address":"Porthmos Zakinthou","categoryIds":["attractions"],"categories":["Must-See Attractions"]},{"id":"mustSeeAttractions_616648db6ed1","slug":"porto-katsiki-6166","kind":"restaurant","name":"Porto Katsiki","lat":38.601119061578444,"lng":20.550313570650722,"url":"https://maps.app.goo.gl/vwCXBmq1Cpbwnz9c6?g_st=ipc","address":"JH32+48, Apollonioi 310 82","categoryIds":["attractions"],"categories":["Must-See Attractions"]},{"id":"mustSeeAttractions_08514e911c7d","slug":"navagio-0851","kind":"restaurant","name":"Navagio","lat":37.85945060305929,"lng":20.624902110473712,"url":"https://maps.app.goo.gl/7zGrDtLoU6SSdcuS9?g_st=ipc","address":"Elatia 290 91","categoryIds":["attractions"],"categories":["Must-See Attractions"]},{"id":"mustSeeAttractions_cf30313c597a","slug":"byzantine-walls-of-nikopolis-cf30","kind":"restaurant","name":"Byzantine Walls of Nikopolis","lat":39.0118446526379,"lng":20.732022944510806,"url":"https://maps.app.goo.gl/VMrzqGqwGc2EoieJ7?g_st=ipc","address":"Unnamed Road, 481 00","categoryIds":["attractions"],"categories":["Must-See Attractions"]},{"id":"mustSeeAttractions_6493befc2e7b","slug":"nicopolis-6493","kind":"restaurant","name":"Nicopolis","lat":39.02636525396993,"lng":20.733626410935955,"url":"https://maps.app.goo.gl/satDDwkecYRf2TSBA?g_st=ipc","address":"Nicopolis 481 00","categoryIds":["attractions"],"categories":["Must-See Attractions"]},{"id":"mustSeeAttractions_ed63de4c6ad6","slug":"paralia-voutoumi-ed63","kind":"restaurant","name":"Paralia Voutoumi","lat":39.15774095957267,"lng":20.227494022688056,"url":"https://maps.app.goo.gl/zBjCseaorqmLUWjo6?g_st=ipc","address":"490 82","categoryIds":["attractions"],"categories":["Must-See Attractions"]},{"id":"mustSeeAttractions_9807d4208c78","slug":"archaeological-site-of-olympia-9807","kind":"restaurant","name":"Archaeological Site of Olympia","lat":37.638459018633775,"lng":21.62988056909868,"url":"https://maps.app.goo.gl/XwgzhKtMosL3r1vr5?g_st=ipc","address":"Archaia Olympia 270 65","categoryIds":["attractions"],"categories":["Must-See Attractions"]},{"id":"mustSeeAttractions_49ba95768f7d","slug":"archaeological-site-of-dodoni-49ba","kind":"restaurant","name":"Archaeological Site of Dodoni","lat":39.54577918295188,"lng":20.784950664414183,"url":"https://maps.app.goo.gl/5eDCvX8HkvWgXBL19?g_st=ipc","address":"Dodoni 455 00","categoryIds":["attractions"],"categories":["Must-See Attractions"]},{"id":"mustSeeAttractions_6898f516936d","slug":"temple-of-apollo-epicurius-at-bassae-of-phigaleia-6898","kind":"restaurant","name":"Temple of Apollo Epicurius at Bassae of Phigaleia","lat":37.42992485152253,"lng":21.900009196247805,"url":"https://maps.app.goo.gl/PVQYbF6evZv9zjAc9?g_st=ipc","address":"Figaleia 270 61","categoryIds":["attractions"],"categories":["Must-See Attractions"]},{"id":"mustSeeAttractions_55879b7962ff","slug":"perama-cave-5587","kind":"restaurant","name":"Perama Cave","lat":39.694982816550095,"lng":20.846498129141942,"url":"https://maps.app.goo.gl/tihw1UrAiri8GoD29?g_st=ipc","address":"19, Spilaiou, Σπηλαίου 19, Πέραμα, Perama 455 00","categoryIds":["attractions"],"categories":["Must-See Attractions"]},{"id":"mustSeeAttractions_95bea16be675","slug":"old-town-of-corfu-95be","kind":"restaurant","name":"Old Town of Corfu","lat":39.62343987783881,"lng":19.92891594231962,"url":"https://maps.app.goo.gl/iFY1Kcc4UwLiyRGc7?g_st=ipc","address":"Corfu 491 00","categoryIds":["attractions"],"categories":["Must-See Attractions"]},{"id":"mustSeeAttractions_ff9d3d24c86f","slug":"ancient-stadium-of-delphi-ff9d","kind":"restaurant","name":"Ancient Stadium of Delphi","lat":38.48261130916093,"lng":22.497897087851854,"url":"https://maps.app.goo.gl/gV2Li4kSvE78UFFC9?g_st=ipc","address":"Delphi 330 54","categoryIds":["attractions"],"categories":["Must-See Attractions"]}],"nearby":[{"id":"greekRestaurants_d9a082ec8fd8","slug":"mpotsolos-d9a0","kind":"restaurant","name":"Mpotsolos","lat":38.170637722639974,"lng":20.58441082443811,"url":"https://maps.app.goo.gl/Eit7JoAgmh3wrcFz6?g_st=ipc","address":"Αγίου Γερασίμου, Αργοστόλι 281 00","categoryIds":["greek-restaurants"],"categories":["Greek Restaurants"],"distanceKm":10.192303925039237},{"id":"municipalities_b8a2e587a20e","slug":"kefalonia-b8a2","kind":"municipality","name":"Κεφαλονιά","lat":38.175,"lng":20.569,"region":"Ιόνιο","name_en":"Kefalonia","region_en":"Ionian Islands","distanceKm":10.287003628728849},{"id":"coffeeBrunchRestaurants_7849cd86ff9a","slug":"myrtillo-7849","kind":"restaurant","name":"myrtillo","lat":38.33016504186232,"lng":20.54543331787743,"url":"https://maps.app.goo.gl/jceQN1dFVGYrVSaFA?g_st=ipc","address":"Divarata 280 81","categoryIds":["coffee-brunch"],"categories":["Coffee & Brunch Spots"],"distanceKm":10.615292170284485},{"id":"greekRestaurants_10b7a0bbe499","slug":"alexandros-restaurant-grill-10b7","kind":"restaurant","name":"Alexandros Restaurant Grill","lat":38.331731624117374,"lng":20.546359556985937,"url":"https://maps.app.goo.gl/KNa3UfEKhAQwUwCPA?g_st=ipc","address":"Myrtos, Διβαράτα 280 81","categoryIds":["greek-restaurants"],"categories":["Greek Restaurants"],"distanceKm":10.698274496730894},{"id":"greekRestaurants_40f2adbc511d","slug":"taverna-kafe-mpar-giorgos-40f2","kind":"restaurant","name":"Ταβέρνα Καφέ- Μπαρ Γιώργος","lat":38.3320186369205,"lng":20.546779123756146,"url":"https://maps.app.goo.gl/Sbn9UvprX6ZZEx9CA?g_st=ipc","address":"Διβαράτα 280 81","categoryIds":["greek-restaurants"],"categories":["Greek Restaurants"],"distanceKm":10.700114393069951},{"id":"wineriesVineyards_76d903b57c64","slug":"orealios-gaea-vine-growers-of-robola-76d9","kind":"restaurant","name":"Orealios Gaea - Vine Growers of Robola","lat":38.16303564266763,"lng":20.590291534978753,"url":"https://maps.app.goo.gl/nZzm6EuiZsKmkSxr7?g_st=ipc","address":"Valsamata 281 00","categoryIds":["wineries-vineyards"],"categories":["Wineries & Vineyards"],"distanceKm":10.843509014160157},{"id":"greekRestaurants_543e8b3ae4ad","slug":"chersonas-543e","kind":"restaurant","name":"Χερσώνας","lat":38.157317085301656,"lng":20.558923068182263,"url":"https://maps.app.goo.gl/D6QaW5icgiUCH7qn7?g_st=ipc","address":"Τρωιανάτα 281 00","categoryIds":["greek-restaurants"],"categories":["Greek Restaurants"],"distanceKm":12.438372826473248},{"id":"fishTavernasRestaurants_2ef1060ceab9","slug":"kalyva-tou-psara-2ef1","kind":"restaurant","name":"Kalyva tou Psara","lat":38.30990002692816,"lng":20.4759773849458,"url":"https://maps.app.goo.gl/usLMqjcjtFy6fTWd6?g_st=ipc","address":"Unnamed Rd, Zola 281 00","categoryIds":["fish-tavernas"],"categories":["Fish Tavernas"],"distanceKm":14.160609228894197},{"id":"greekRestaurants_b66963231ac9","slug":"olive-lounge-restaurant-bar-b669","kind":"restaurant","name":"Olive Lounge Restaurant & Bar","lat":38.13804007743401,"lng":20.556990158259417,"url":"https://maps.app.goo.gl/M3Twb4o792PcM5jR7?g_st=ipc","address":"Unnamed Road, Κάστρο 281 00","categoryIds":["greek-restaurants"],"categories":["Greek Restaurants"],"distanceKm":14.448690461542526},{"id":"greekRestaurants_70a7d97aa28c","slug":"il-borgo-restaurant-70a7","kind":"restaurant","name":"Il Borgo Restaurant","lat":38.138324170776656,"lng":20.555664585879075,"url":"https://maps.app.goo.gl/QVAWEX3QcThcLdsE7?g_st=ipc","address":"Κάστρο Αγίου Γεωργίου, Τραυλιάτα 281 00","categoryIds":["greek-restaurants"],"categories":["Greek Restaurants"],"distanceKm":14.466885572478155},{"id":"greekRestaurants_552dd808e98a","slug":"palia-plaka-552d","kind":"restaurant","name":"Παλιά Πλάκα","lat":38.18548756443184,"lng":20.48462311862845,"url":"https://maps.app.goo.gl/natPFiwtavpA1LPe8?g_st=ipc","address":"Αγνής Μεταξά 2 Agnis, Μεταξά 2, Αργοστόλι 281 00","categoryIds":["greek-restaurants"],"categories":["Greek Restaurants"],"distanceKm":14.508488930057062},{"id":"coffeeBrunchRestaurants_caa1d894f98a","slug":"kafepoleion-caa1","kind":"restaurant","name":"Kafepoleion","lat":38.14255916452544,"lng":20.54310186456745,"url":"https://maps.app.goo.gl/YKFX8hPovFNGt9pDA?g_st=ipc","address":"Κοκύλια, Kefalonia 281 00","categoryIds":["coffee-brunch"],"categories":["Coffee & Brunch Spots"],"distanceKm":14.536587144759949},{"id":"municipalities_51bdb5710c4f","slug":"ithaki-51bd","kind":"municipality","name":"Ιθάκη","lat":38.3667,"lng":20.7167,"region":"Ιόνιο","name_en":"Ithaki","region_en":"Ionian Islands","distanceKm":14.658854386979417},{"id":"dessertsRestaurants_1e491648e63f","slug":"gelato-fresco-italiano-1e49","kind":"restaurant","name":"Gelato fresco italiano","lat":38.17749874571835,"lng":20.48897656776002,"url":"https://maps.app.goo.gl/AFtw3E5Sssatu2m37?g_st=ipc","address":"Ρόκκου, Vergoti 4, Argostoli 281 00","categoryIds":["desserts"],"categories":["Dessert Shops"],"distanceKm":14.708471146291705},{"id":"greekRestaurants_391bc89b168d","slug":"stou-tsagkari-391b","kind":"restaurant","name":"Stou Tsagkari","lat":38.310551214172484,"lng":20.46925238713338,"url":"https://maps.app.goo.gl/eMh53CU5SjwcPttA6?g_st=ipc","address":"Zola 1, Ζολά 281 00","categoryIds":["greek-restaurants"],"categories":["Greek Restaurants"],"distanceKm":14.725628645908607},{"id":"cheapEatsRestaurants_2a50f6b61745","slug":"opsarion-fish-bar-2a50","kind":"restaurant","name":"Οψάριον fish bar","lat":38.17459374377572,"lng":20.491243945671638,"url":"https://maps.app.goo.gl/KSYp7smPeLPMNF7y6?g_st=ipc","address":"Drakopoulou 2, Argostoli 281 00","categoryIds":["cheap-eats"],"categories":["Gyros & Cheap Eats"],"distanceKm":14.749259808490663},{"id":"coffeeBrunchRestaurants_9057c09060eb","slug":"espresso-house-9057","kind":"restaurant","name":"Espresso house","lat":38.17163745193254,"lng":20.492476064422643,"url":"https://maps.app.goo.gl/yzerSoB1WzcjYnKq5?g_st=ipc","address":"Devosetou 15, Argostoli 281 00","categoryIds":["coffee-brunch"],"categories":["Coffee & Brunch Spots"],"distanceKm":14.872813755885907},{"id":"greekRestaurants_f94267b89fc5","slug":"ionio-f942","kind":"restaurant","name":"ΙΟΝΙΟ","lat":38.16468754960506,"lng":20.482617252800203,"url":"https://maps.app.goo.gl/NTkDnVRWMVWvLbLv7?g_st=ipc","address":"Αργοστόλι 281 00","categoryIds":["greek-restaurants"],"categories":["Greek Restaurants"],"distanceKm":16.029630178117046},{"id":"greekRestaurants_fef489007c02","slug":"anna-s-tavern-xasteria-fef4","kind":"restaurant","name":"Anna's Tavern (Xasteria)","lat":38.11938430612937,"lng":20.562853128007966,"url":"https://maps.app.goo.gl/k6iUiCZV7gkf1jreA?g_st=ipc","address":"Κεραμειές 281 00","categoryIds":["greek-restaurants"],"categories":["Greek Restaurants"],"distanceKm":16.194191735535203},{"id":"coffeeBrunchRestaurants_febf410e8642","slug":"costa-costa-beach-bar-febf","kind":"restaurant","name":"Costa Costa Beach Bar","lat":38.15380761963389,"lng":20.4824739703724,"url":"https://maps.app.goo.gl/TgFrHfc8nxYVBh9z7?g_st=ipc","address":"Lassi, Argostoli 281 00","categoryIds":["coffee-brunch"],"categories":["Coffee & Brunch Spots"],"distanceKm":16.839733333863737},{"id":"greekRestaurants_e335ec23f4b7","slug":"esperides-restaurant-e335","kind":"restaurant","name":"Esperides Restaurant","lat":38.11149781925104,"lng":20.52872285695272,"url":"https://maps.app.goo.gl/1uN9PKhytg7Xeum9A?g_st=ipc","address":"Σβορωνάτα 281 00","categoryIds":["greek-restaurants"],"categories":["Greek Restaurants"],"distanceKm":18.177121426143074},{"id":"coffeeBrunchRestaurants_b203c212827d","slug":"remetzo-kafe-b203","kind":"restaurant","name":"Ρεμετζο καφέ","lat":38.14775445639953,"lng":20.7788036615171,"url":"https://maps.app.goo.gl/DJjkbdzn9Sg4yrHY7?g_st=ipc","address":"Metaxa, Kefalonia 280 82","categoryIds":["coffee-brunch"],"categories":["Coffee & Brunch Spots"],"distanceKm":18.20912968357823},{"id":"greekRestaurants_ff8ef7b622ff","slug":"sunset-restaurant-ff8e","kind":"restaurant","name":"Sunset Restaurant","lat":38.147065849821686,"lng":20.783912907033883,"url":"https://maps.app.goo.gl/8Z2amJ2HCnAWKU728?g_st=ipc","address":"Πόρος 280 86","categoryIds":["greek-restaurants"],"categories":["Greek Restaurants"],"distanceKm":18.594428019992378},{"id":"greekRestaurants_a4e07eddd13d","slug":"avithos-preview-taverna-a4e0","kind":"restaurant","name":"Avithos Preview Taverna","lat":38.10278400760593,"lng":20.538006715167594,"url":"https://maps.app.goo.gl/frNsRJR8RcKVup5j6?g_st=ipc","address":"Avithos Beach, Kalligata 281 00","categoryIds":["greek-restaurants"],"categories":["Greek Restaurants"],"distanceKm":18.7059255765371}],"sameRegion":[],"mentionedGuides":[],"canonicalSlug":"melissani-cave-5b05","enrichment":{"summary_en":"Melissani Cave is a curated restaurant in Greece in the Must-See Attractions collection. It is connected to 0 nearby Googlementor picks to help travelers build a stronger local route.","summary_el":"Melissani Cave είναι ένα επιλεγμένο σημείο φαγητού στην περιοχή Greece και ανήκει στη συλλογή Must-See Attractions. Συνδέεται με 0 κοντινές προτάσεις του Googlementor για πιο ολοκληρωμένη εμπειρία.","vibe_tags":["curated"],"best_for":["first-time visitors","food lovers"],"visit_moments":["lunch stop","dinner stop"],"practical_note":"Address and direct map link are available for easy turn-by-turn access.","nearby_walkable_count":0,"nearby_count_2km":0,"confidence":0.9},"areaContext":null,"intentContexts":[]},"__N_SSG":true}