{"pageProps":{"entity":{"id":"familyFriendly_0acb8f4f4e6f","slug":"mia-fora-ki-enan-kairo-the-greeks-0acb","kind":"restaurant","name":"Μια φορά κι έναν καιρό - the Greeks","lat":38.25621870422675,"lng":23.68492152014709,"url":"https://maps.app.goo.gl/g4HUGMwd4cCRvGvE8?g_st=ipc","address":"Παναγίας Γρηγορούσης, Αυλώνας 190 11","categoryIds":["family-friendly"],"categories":["Kid Friendly Locations"]},"sameCategory":[{"id":"familyFriendly_1a17238d519a","slug":"adventure-park-1a17","kind":"restaurant","name":"Adventure Park","lat":38.23252814955923,"lng":23.80993374825537,"url":"https://maps.app.goo.gl/uqiE3UGiFvDWS7Da8?g_st=ipc","address":"Επαρ.Οδ. Μαλακάσας-Μαρκόπουλου, Μαλακάσα 190 11","categoryIds":["family-friendly"],"categories":["Kid Friendly Locations"]},{"id":"familyFriendly_a642c6dd69d1","slug":"limni-mpeletsi-a642","kind":"restaurant","name":"Λίμνη Μπελέτσι","lat":38.21272884882845,"lng":23.804742885101245,"url":"https://maps.app.goo.gl/FTF7uvik6S36p7TQ9?g_st=ipc","address":"Ιπποκράτειος Πολιτεία 190 14","categoryIds":["family-friendly"],"categories":["Kid Friendly Locations"]},{"id":"familyFriendly_49cb6fcc743a","slug":"lakkagkini-sta-kioyrka-49cb","kind":"restaurant","name":"Λακκαγκίνη Στα Κιούρκα","lat":38.205377296617634,"lng":23.828785798413897,"url":"https://maps.app.goo.gl/e2bkfTBofA6k2DW66?g_st=ipc","address":"Αγίας Τριάδος, Αφίδνες 190 14","categoryIds":["family-friendly"],"categories":["Kid Friendly Locations"]},{"id":"familyFriendly_d9ebf8b00250","slug":"athlitiko-parko-parnithas-kai-moyseio-palaion-epaggelmaton-d9eb","kind":"restaurant","name":"Αθλητικό Πάρκο Πάρνηθας και Μουσείο Παλαιών Επαγγελμάτων","lat":38.11083610723094,"lng":23.69169674427175,"url":"https://maps.app.goo.gl/J7UHi8dDFoMJKKUh7?g_st=ipc","address":"Ρόδων, Άνω Λιόσια 133 43","categoryIds":["family-friendly"],"categories":["Kid Friendly Locations"]},{"id":"familyFriendly_03b3e4324315","slug":"northern-suburbs-riding-club-03b3","kind":"restaurant","name":"Northern Suburbs Riding Club","lat":38.120645518273435,"lng":23.786586294729055,"url":"https://maps.app.goo.gl/56QDyzWUMbJuYDJ66?g_st=ic","address":"Tatoiou 137, Acharnes 136 72","categoryIds":["family-friendly"],"categories":["Kid Friendly Locations"]},{"id":"familyFriendly_2b5afed6feac","slug":"aidonakia-playcity-2b5a","kind":"restaurant","name":"Αηδονάκια PlayCity","lat":38.09606577414195,"lng":23.75333886341834,"url":"https://maps.app.goo.gl/66tZd4g5Ha8fLC1g6?g_st=ipc","address":"Ξενοδοχοϋπαλλήλων 22, Αχαρνές 136 72","categoryIds":["family-friendly"],"categories":["Kid Friendly Locations"]},{"id":"familyFriendly_914b28d0bdc8","slug":"playmobil-funpark-914b","kind":"restaurant","name":"PLAYMOBIL FunPark","lat":38.101749739078855,"lng":23.80667805908177,"url":"https://maps.app.goo.gl/iUSz6s7BVEgZACCj9?g_st=ipc","address":"Αμαλιάδος 4, Κηφισιά 145 64","categoryIds":["family-friendly"],"categories":["Kid Friendly Locations"]},{"id":"familyFriendly_53d1fe8092e8","slug":"parko-andrea-papandreoy-53d1","kind":"restaurant","name":"Πάρκο Ανδρέα Παπανδρέου","lat":38.1031196150353,"lng":23.81935226972679,"url":"https://maps.app.goo.gl/DqJ2RQU9EoTQdjWRA?g_st=ipc","address":"146 71, Αισχύλου 18, Νέα Ερυθραία 146 71","categoryIds":["family-friendly"],"categories":["Kid Friendly Locations"]},{"id":"familyFriendly_90a0540fcd7e","slug":"ninja-park-athens-90a0","kind":"restaurant","name":"Ninja Park Athens","lat":38.08643856775193,"lng":23.788809005523504,"url":"https://maps.app.goo.gl/e5jXXHYZC2NhJgZy7?g_st=ipc","address":"Καλυφτάκη 74, Κηφισιά 145 64","categoryIds":["family-friendly"],"categories":["Kid Friendly Locations"]},{"id":"familyFriendly_f33e0651961a","slug":"gymboree-play-music-n-erythraia-f33e","kind":"restaurant","name":"Gymboree Play & Music Ν.Ερυθραία","lat":38.09316691407804,"lng":23.80936117936556,"url":"https://maps.app.goo.gl/azuqAZc93giJTXmj8?g_st=ipc","address":"Τατοΐου 102, Νέα Ερυθραία 146 71","categoryIds":["family-friendly"],"categories":["Kid Friendly Locations"]},{"id":"familyFriendly_993db4ae8c60","slug":"paidikes-ekdiloseis-xenes-glosses-petit-paris-993d","kind":"restaurant","name":"ΠΑΙΔΙΚΕΣ ΕΚΔΗΛΩΣΕΙΣ-ΞΕΝΕΣ ΓΛΩΣΣΕΣ | PETIT PARIS","lat":38.10232524306243,"lng":23.827672622944732,"url":"https://maps.app.goo.gl/4YmyHX6EqG7wK1GEA?g_st=ipc","address":"Κρίνων 2, Νέα Ερυθραία 146 71","categoryIds":["family-friendly"],"categories":["Kid Friendly Locations"]},{"id":"familyFriendly_2b8da1a48e6d","slug":"paradise-park-2b8d","kind":"restaurant","name":"Paradise Park","lat":38.07150243306409,"lng":23.752975610444484,"url":"https://maps.app.goo.gl/gx1m825JjfkqNKfC6?g_st=ipc","address":"Ε.Ο. Κόμβος, Metamorfoseos 100, Acharnes 136 71","categoryIds":["family-friendly"],"categories":["Kid Friendly Locations"]}],"nearby":[{"id":"greekRestaurants_e4ab2f008904","slug":"paradosiako-kafeneio-kotsannitsa-e4ab","kind":"restaurant","name":"Παραδοσιακό Καφενείο ΚωτσΑνΝίτσα","lat":38.23932131119346,"lng":23.792367425380203,"url":"https://maps.app.goo.gl/QsRPY3vUeGKY5wLB6","address":"Λεωφόρος Αθηνών Χαλκίδος, Μαλακάσα 190 11","categoryIds":["greek-restaurants"],"categories":["Greek Restaurants"],"distanceKm":9.569089645099709},{"id":"greekRestaurants_fb8150b1b5bf","slug":"taverna-o-litsas-fb81","kind":"restaurant","name":"Ταβέρνα Ο Λίτσας","lat":38.2808566827325,"lng":23.792798463384955,"url":"https://maps.app.goo.gl/DPJMb7ZiPi9MTzov7","address":"Λεωφ. Αθηνών Ωρωπού, Μήλεσι Αττικής 190 11","categoryIds":["greek-restaurants"],"categories":["Greek Restaurants"],"distanceKm":9.808147312787668},{"id":"municipalities_a230abd1223f","slug":"oropos-a230","kind":"municipality","name":"Ωρωπός","lat":38.3,"lng":23.7833,"region":"Ανατολικά Προάστια","name_en":"Oropos","region_en":"Eastern Suburbs","distanceKm":9.871345288911051},{"id":"greekRestaurants_eab29c812967","slug":"to-syntrivani-perifanos-eab2","kind":"restaurant","name":"Το Συντριβάνι-Περήφανος","lat":38.239213748428575,"lng":23.795988231331933,"url":"https://maps.app.goo.gl/jUCxRPxswFJerx5H9","address":"Λεωφόρος Αθηνών, Μαλακάσα 190 11","categoryIds":["greek-restaurants"],"categories":["Greek Restaurants"],"distanceKm":9.8816085742221},{"id":"coffeeBrunchRestaurants_ba1c57c3e046","slug":"katafygio-mpafi-ba1c","kind":"restaurant","name":"Καταφύγιο Μπάφι","lat":38.16746990651998,"lng":23.726972151660846,"url":"https://maps.app.goo.gl/h8ni4KMpRSPF4Zzu5?g_st=ipc","address":"Πάρνηθος, Αθήνα 136 72","categoryIds":["coffee-brunch"],"categories":["Coffee & Brunch Spots"],"distanceKm":10.5301164790874},{"id":"mustSeeAttractions_f8a8945256eb","slug":"ethnikos-drymos-parnithas-f8a8","kind":"restaurant","name":"Εθνικός Δρυμός Πάρνηθας","lat":38.15998271976968,"lng":23.71947970128565,"url":"https://maps.app.goo.gl/vhNTNbS2nJx1YD8n8?g_st=ipc","address":"Πάρνηθα 136 72","categoryIds":["attractions"],"categories":["Must-See Attractions"],"distanceKm":11.118795093037098},{"id":"familyFriendly_1a17238d519a","slug":"adventure-park-1a17","kind":"restaurant","name":"Adventure Park","lat":38.23252814955923,"lng":23.80993374825537,"url":"https://maps.app.goo.gl/uqiE3UGiFvDWS7Da8?g_st=ipc","address":"Επαρ.Οδ. Μαλακάσας-Μαρκόπουλου, Μαλακάσα 190 11","categoryIds":["family-friendly"],"categories":["Kid Friendly Locations"],"distanceKm":11.23063811901096},{"id":"familyFriendly_a642c6dd69d1","slug":"limni-mpeletsi-a642","kind":"restaurant","name":"Λίμνη Μπελέτσι","lat":38.21272884882845,"lng":23.804742885101245,"url":"https://maps.app.goo.gl/FTF7uvik6S36p7TQ9?g_st=ipc","address":"Ιπποκράτειος Πολιτεία 190 14","categoryIds":["family-friendly"],"categories":["Kid Friendly Locations"],"distanceKm":11.52868537955516},{"id":"familyFriendly_49cb6fcc743a","slug":"lakkagkini-sta-kioyrka-49cb","kind":"restaurant","name":"Λακκαγκίνη Στα Κιούρκα","lat":38.205377296617634,"lng":23.828785798413897,"url":"https://maps.app.goo.gl/e2bkfTBofA6k2DW66?g_st=ipc","address":"Αγίας Τριάδος, Αφίδνες 190 14","categoryIds":["family-friendly"],"categories":["Kid Friendly Locations"],"distanceKm":13.779135336979959},{"id":"monasteriesChurches_680860666634","slug":"iera-moni-koimiseos-tis-theotokoy-kleiston-6808","kind":"restaurant","name":"Ιερά Μονή Κοιμήσεως της Θεοτόκου Κλειστών","lat":38.13109301050575,"lng":23.65695380658108,"url":"https://maps.app.goo.gl/BjSRHN6tAZGnfJ9p8?g_st=ipc","address":"Φυλή 133 41","categoryIds":["monasteries-churches"],"categories":["Monasteries & Spiritual Sites"],"distanceKm":14.126387731311906},{"id":"greekRestaurants_3985a63bf69c","slug":"taverna-pappas-3985","kind":"restaurant","name":"Ταβέρνα Παππάς","lat":38.13707378465122,"lng":23.751130974888763,"url":"https://maps.app.goo.gl/cf1v4bYNnpWbWW7u9","address":"Θεσσαλονίκης 2, Αχαρνές 136 76","categoryIds":["greek-restaurants"],"categories":["Greek Restaurants"],"distanceKm":14.456623250530585},{"id":"greekRestaurants_5df0a2118a6f","slug":"agios-merkoyrios-5df0","kind":"restaurant","name":"Άγιος Μερκούριος","lat":38.1455087216868,"lng":23.79177367608356,"url":"https://maps.app.goo.gl/WBkCLkjPiQY1AwSH6","address":"Ά Φυλακιο Πυροσβεστικής, ΒΑΡΥΜΠΟΜΠΗ 136 73","categoryIds":["greek-restaurants"],"categories":["Greek Restaurants"],"distanceKm":15.45072264252502},{"id":"greekRestaurants_24713ff3cd1e","slug":"taverna-o-makis-afidnes-2471","kind":"restaurant","name":"Ταβέρνα ο Μάκης, Αφίδνες","lat":38.192798626562244,"lng":23.84324387519098,"url":"https://maps.app.goo.gl/wEzHjcfenn2nmLN3A","address":"Λεωφ. Καλλίμαχου 2, Σταθμός Αφιδνών 190 14","categoryIds":["greek-restaurants"],"categories":["Greek Restaurants"],"distanceKm":15.524218276135562},{"id":"greekRestaurants_9800452eacf2","slug":"taverna-thea-9800","kind":"restaurant","name":"Ταβέρνα Θέα","lat":38.144279854273236,"lng":23.79258851371657,"url":"https://maps.app.goo.gl/fYR8XP1Em51pwvSn8","address":"Τατοΐου, Αχαρνές 136 72","categoryIds":["greek-restaurants"],"categories":["Greek Restaurants"],"distanceKm":15.602691102773043},{"id":"monasteriesChurches_03a62bb89dba","slug":"iera-moni-agioy-kyprianoy-03a6","kind":"restaurant","name":"Ιερά Μονή Αγίου Κυπριανού","lat":38.11439120183363,"lng":23.677888094487148,"url":"https://maps.app.goo.gl/4CSBCi4A57QqcY1JA?g_st=ipc","address":"μονη, Αγ. Κυπριανού, Φυλή 133 51","categoryIds":["monasteries-churches"],"categories":["Monasteries & Spiritual Sites"],"distanceKm":15.782475089431873},{"id":"familyFriendly_d9ebf8b00250","slug":"athlitiko-parko-parnithas-kai-moyseio-palaion-epaggelmaton-d9eb","kind":"restaurant","name":"Αθλητικό Πάρκο Πάρνηθας και Μουσείο Παλαιών Επαγγελμάτων","lat":38.11083610723094,"lng":23.69169674427175,"url":"https://maps.app.goo.gl/J7UHi8dDFoMJKKUh7?g_st=ipc","address":"Ρόδων, Άνω Λιόσια 133 43","categoryIds":["family-friendly"],"categories":["Kid Friendly Locations"],"distanceKm":16.176649647433},{"id":"wineriesVineyards_3edb4c37dc1f","slug":"estates-costa-lazaridi-oenotria-land-3edb","kind":"restaurant","name":"Estates Costa Lazaridi - Oenotria Land","lat":38.23173089487007,"lng":23.870908077071547,"url":"https://maps.app.goo.gl/aoRwmKxMU5cHCnRX6?g_st=ipc","address":"2nd km Kapandriti Kalamos road, Kapandriti, 19014, 190 14","categoryIds":["wineries-vineyards"],"categories":["Wineries & Vineyards"],"distanceKm":16.46895425883007},{"id":"greekRestaurants_a2675225a16c","slug":"taverna-galini-a267","kind":"restaurant","name":"Ταβέρνα Γαλήνη","lat":38.21564800607866,"lng":23.86762931136811,"url":"https://maps.app.goo.gl/Fk7koGAZ462ABfY76","address":"Λεωφ. Ειρήνης 8, Πολυδένδρι 190 14","categoryIds":["greek-restaurants"],"categories":["Greek Restaurants"],"distanceKm":16.58313513627009},{"id":"dessertsRestaurants_0891a505b36b","slug":"galaktopoleio-stamoy-0891","kind":"restaurant","name":"Γαλακτοπωλείο Στάμου","lat":38.11472562186031,"lng":23.74537333629416,"url":"https://maps.app.goo.gl/4FRYPvoU2rB5btZX8?g_st=ipc","address":"Θρακομακεδόνων 154, Αχαρνές 136 79","categoryIds":["desserts"],"categories":["Dessert Shops"],"distanceKm":16.59677121668912},{"id":"greekRestaurants_d3d5875fd455","slug":"to-tzaki-d3d5","kind":"restaurant","name":"Το τζάκι","lat":38.21655428611633,"lng":23.86821611372373,"url":"https://maps.app.goo.gl/7wN2L21tT2o7KxCV7","address":"Λεωφ. Ειρήνης 4, Πολυδένδρι 190 14","categoryIds":["greek-restaurants"],"categories":["Greek Restaurants"],"distanceKm":16.605313567350148},{"id":"greekRestaurants_f163a01d5b8e","slug":"taverna-vasilakos-f163","kind":"restaurant","name":"Ταβέρνα Βασιλάκος","lat":38.216929169351175,"lng":23.868895678768617,"url":"https://maps.app.goo.gl/5w23D5PVYwasH98X9","address":"Λεωφ. Ειρήνης 4, Πολυδένδρι 190 14","categoryIds":["greek-restaurants"],"categories":["Greek Restaurants"],"distanceKm":16.651516822201582},{"id":"greekRestaurants_5d8a4cf10a66","slug":"o-laios-taverna-5d8a","kind":"restaurant","name":"Ο Λάιος Ταβέρνα","lat":38.10626654490386,"lng":23.736261492242534,"url":"https://maps.app.goo.gl/r5ZTDusqKfZ21E9b8","address":"Λεωφ. Κωνσταντίνου Καραμανλή 6, Αχαρνές 136 72","categoryIds":["greek-restaurants"],"categories":["Greek Restaurants"],"distanceKm":17.26720640150132},{"id":"wineriesVineyards_387acae649dd","slug":"lykos-winery-387a","kind":"restaurant","name":"Lykos Winery","lat":38.40318852137616,"lng":23.75129901619749,"url":"https://maps.app.goo.gl/N8pQEWcDemQKLK6N6?g_st=ipc","address":"ΜΑΛΑΚΩΝΤΑΣ 0, Eretria 340 08","categoryIds":["wineries-vineyards"],"categories":["Wineries & Vineyards"],"distanceKm":17.337647562009852},{"id":"familyFriendly_03b3e4324315","slug":"northern-suburbs-riding-club-03b3","kind":"restaurant","name":"Northern Suburbs Riding Club","lat":38.120645518273435,"lng":23.786586294729055,"url":"https://maps.app.goo.gl/56QDyzWUMbJuYDJ66?g_st=ic","address":"Tatoiou 137, Acharnes 136 72","categoryIds":["family-friendly"],"categories":["Kid Friendly Locations"],"distanceKm":17.498687778424863}],"sameRegion":[],"mentionedGuides":[],"canonicalSlug":"mia-fora-ki-enan-kairo-the-greeks-0acb","enrichment":{"summary_en":"Μια φορά κι έναν καιρό - the Greeks is a curated restaurant in Αυλώνας 190 11 in the Kid Friendly Locations collection. It is connected to 0 nearby Googlementor picks to help travelers build a stronger local route.","summary_el":"Μια φορά κι έναν καιρό - the Greeks είναι ένα επιλεγμένο σημείο φαγητού στην περιοχή Αυλώνας 190 11 και ανήκει στη συλλογή Kid Friendly Locations. Συνδέεται με 0 κοντινές προτάσεις του Googlementor για πιο ολοκληρωμένη εμπειρία.","vibe_tags":["curated","family-ready"],"best_for":["first-time visitors","food lovers","families"],"visit_moments":["lunch stop","dinner stop"],"practical_note":"Address and direct map link are available for easy turn-by-turn access.","nearby_walkable_count":0,"nearby_count_2km":0,"confidence":0.9},"areaContext":null,"intentContexts":[]},"__N_SSG":true}