{"pageProps":{"entity":{"id":"burgersRestaurants_51cd3df73f20","slug":"mpar-mpee-kioy-freattyda-51cd","kind":"restaurant","name":"Μπαρ Μπεε Κιου - Φρεαττύδα","lat":37.93450645446817,"lng":23.642685440187794,"url":"https://maps.app.goo.gl/UkJPpNzXrBGL944RA?g_st=ipc","address":"Λεωφ. Φρεάττυδος 13, Πειραιάς 185 37","categoryIds":["burgers","cheap-eats"],"categories":["Burger Spots","Gyros & Cheap Eats"],"legacySlugs":["mpar-mpee-kioy-freattyda-b711"]},"sameCategory":[{"id":"cheapEatsRestaurants_ff4578059709","slug":"story-streat-ff45","kind":"restaurant","name":"Story Streat","lat":37.93927555121359,"lng":23.639905760009334,"url":"https://maps.app.goo.gl/EXsQn9E1PkJeJjZU9?g_st=ipc","address":"301 Ακτή Μιαούλη, Enanti Agiou Nikolaou, Πειραιάς 185 35","categoryIds":["cheap-eats"],"categories":["Gyros & Cheap Eats"]},{"id":"cheapEatsRestaurants_338abca2bc3e","slug":"jackaroo-338a","kind":"restaurant","name":"Jackaroo","lat":37.940156634414215,"lng":23.643183475106575,"url":"https://maps.app.goo.gl/QjFk2WWeE9jasgmR8?g_st=ipc","address":"Κολοκοτρώνη 126, Πειραιάς 185 35","categoryIds":["cheap-eats"],"categories":["Gyros & Cheap Eats"]},{"id":"cheapEatsRestaurants_8cc8f7ce2a5d","slug":"kali-pita-8cc8","kind":"restaurant","name":"Καλή Πίτα","lat":37.93904235716474,"lng":23.647494180172405,"url":"https://maps.app.goo.gl/5Uc5sfiitWqftH1u6?g_st=ipc","address":"Ακτή Μουτσοπούλου 10, Πειραιάς 185 35","categoryIds":["cheap-eats"],"categories":["Gyros & Cheap Eats"]},{"id":"cheapEatsRestaurants_976f1c06c63f","slug":"i-vromiara-the-gourmet-street-food-piraeus-976f","kind":"restaurant","name":"Η Βρωμιαρα - The Gourmet Street Food Piraeus","lat":37.94005665661438,"lng":23.649946814929663,"url":"https://maps.app.goo.gl/9bVUq8xDuxLwaLim9?g_st=ipc","address":"Σωτήρος Διός 47, Πειραιάς 185 34","categoryIds":["cheap-eats"],"categories":["Gyros & Cheap Eats"]},{"id":"cheapEatsRestaurants_cd23ca747a49","slug":"jackaroo-cd23","kind":"restaurant","name":"JACKAROO","lat":37.94026416396424,"lng":23.649684152709604,"url":"https://maps.app.goo.gl/7CALFJPovo6YskzUA?g_st=ipc","address":"Σωτήρος Διός 45, Πειραιάς 185 34","categoryIds":["cheap-eats"],"categories":["Gyros & Cheap Eats"]},{"id":"cheapEatsRestaurants_5cd53c0e6d00","slug":"la-jacka-5cd5","kind":"restaurant","name":"La Jacka","lat":37.9421277470468,"lng":23.647527719022438,"url":"https://maps.app.goo.gl/4aXg5d6SUN73hXDt8?g_st=ic","address":"Καραΐσκου 117, Pireas 185 32","categoryIds":["cheap-eats"],"categories":["Gyros & Cheap Eats"]},{"id":"cheapEatsRestaurants_44069571c770","slug":"o-giorgos-4406","kind":"restaurant","name":"Ο Γιώργος","lat":37.94626514113319,"lng":23.644321784628165,"url":"https://maps.app.goo.gl/41PfRyTP8uJ6c3uy9?g_st=ipc","address":"Γούναρη 18 και, Νικήτα, Πειραιάς 185 31","categoryIds":["cheap-eats"],"categories":["Gyros & Cheap Eats"]},{"id":"cheapEatsRestaurants_b825154bd7ab","slug":"systimatiko-soyvlatzidiko-o-karampelas-b825","kind":"restaurant","name":"Συστηματικό Σουβλατζίδικο Ο Καράμπελας","lat":37.94518871094833,"lng":23.654274337068934,"url":"https://maps.app.goo.gl/DkaV9CriKcsiVg296?g_st=ipc","address":"Πύλης 53, Πειραιάς 185 34","categoryIds":["cheap-eats"],"categories":["Gyros & Cheap Eats"]},{"id":"burgersRestaurants_d46a3e1807bd","slug":"what-they-said-d46a","kind":"restaurant","name":"What They Said","lat":37.94935179980419,"lng":23.633928811446484,"url":"https://maps.app.goo.gl/1hcPfQeHfJrzqf8KA","address":"Eth. Antistaseos 37, Drapetsona 186 48","categoryIds":["burgers"],"categories":["Burger Spots"]},{"id":"cheapEatsRestaurants_06c18b2e0a28","slug":"o-polyvios-06c1","kind":"restaurant","name":"ο Πολύβιος","lat":37.94989609662676,"lng":23.635292950073545,"url":"https://maps.app.goo.gl/hykabQee4Gtqnvuk9?g_st=ipc","address":"Αγίου Δημητρίου 28, Πειραιάς 185 45","categoryIds":["cheap-eats"],"categories":["Gyros & Cheap Eats"]},{"id":"burgersRestaurants_108c8d4114f6","slug":"bbc-burger-barbeque-corner-108c","kind":"restaurant","name":"BBC Burger Barbeque Corner","lat":37.952390409927204,"lng":23.625437904614223,"url":"https://maps.app.goo.gl/G6x3d2ZUCEMQrN3k7?g_st=ipc","address":"Ἀναπαύσεως 90, Κερατσίνι 187 55","categoryIds":["burgers"],"categories":["Burger Spots"]},{"id":"burgersRestaurants_4906276397a1","slug":"godgilla-keratsini-4906","kind":"restaurant","name":"GODGILLA ΚΕΡΑΤΣΙΝΙ","lat":37.95895954039208,"lng":23.62512429010796,"url":"https://maps.app.goo.gl/XPM5TwgWvpZmGQUh6?g_st=ipc","address":"Θεόφραστου 54, Κερατσίνι 187 56","categoryIds":["burgers","cheap-eats"],"categories":["Burger Spots","Gyros & Cheap Eats"],"legacySlugs":["godgilla-keratsini-e67b"]}],"nearby":[{"id":"dessertsRestaurants_485012761632","slug":"galaktopoleio-stamoy-peiraia-4850","kind":"restaurant","name":"Γαλακτοπωλείο ΣΤΑΜΟΥ, Πειραιά","lat":37.93559337890928,"lng":23.64309227138255,"url":"https://maps.app.goo.gl/msTiobs8vpLYrcz57?g_st=ipc","address":"Λεωφ. Αφεντούλη 16 &, Πραξιτέλους 243, Πειραιάς 185 36","categoryIds":["desserts"],"categories":["Dessert Shops"],"distanceKm":0.12601692100768572},{"id":"asianRestaurants_48bbff4f4936","slug":"kitschen-48bb","kind":"restaurant","name":"Kitschen","lat":37.936566769814284,"lng":23.63928965922229,"url":"https://maps.app.goo.gl/1zPoyQ3qoTUyktA49?g_st=ipc","address":"Κανάρη 5, Πειραιάς 185 37","categoryIds":["asian"],"categories":["Asian Restaurants"],"distanceKm":0.3757333808944888},{"id":"coffeeBrunchRestaurants_4ee8e575619a","slug":"modish-coffee-graze-and-booze-4ee8","kind":"restaurant","name":"modish coffee, graze and booze","lat":37.936912830564985,"lng":23.639147286687205,"url":"https://maps.app.goo.gl/Fa2QfE64sQhorAFE9?g_st=ipc","address":"Ακτή Μιαούλη 81, Πειραιάς 185 38","categoryIds":["coffee-brunch"],"categories":["Coffee & Brunch Spots"],"distanceKm":0.4097316533618396},{"id":"italianRestaurants_5ab192a29154","slug":"pizza-tros-5ab1","kind":"restaurant","name":"Pizza Tros","lat":37.93310764502524,"lng":23.647126189869965,"url":"https://maps.app.goo.gl/R29dtEiZf13f8My98?g_st=ipc","address":"Μαρίνα Ζέας, Πειραιάς 185 36","categoryIds":["italian"],"categories":["Italian Restaurants"],"distanceKm":0.41937262302811346},{"id":"asianRestaurants_7724da0cbe7e","slug":"ten-modern-asian-7724","kind":"restaurant","name":"Ten Modern Asian","lat":37.93291413644206,"lng":23.647263058130683,"url":"https://maps.app.goo.gl/updMqDsRmH6egHAL7?g_st=ipc","address":"Μαρίνα Ζέας, Πειραιάς 185 36","categoryIds":["asian"],"categories":["Asian Restaurants"],"distanceKm":0.43877598706127463},{"id":"luxuryDiningRestaurants_e93ed529fdfa","slug":"hams-clams-e93e","kind":"restaurant","name":"Hams & Clams","lat":37.93313157813386,"lng":23.64744436080488,"url":"https://maps.app.goo.gl/KsnmFZ1WnGooiyEV7?g_st=ipc","address":"Λιμάνι, Μαρίνα Ζέας, Πειραιάς 185 37","categoryIds":["luxury-dining"],"categories":["Luxury Dining"],"distanceKm":0.44448445006165743},{"id":"italianRestaurants_5214577033fb","slug":"portofino-cucina-italiana-5214","kind":"restaurant","name":"Portofino Cucina Italiana","lat":37.933560056703215,"lng":23.64800969933006,"url":"https://maps.app.goo.gl/V1DfNbY33j2yeRfy7?g_st=ipc","address":"Μαρίνα Ζέας, Πειραιάς 185 36","categoryIds":["italian"],"categories":["Italian Restaurants"],"distanceKm":0.47865721635844105},{"id":"monasteriesChurches_616a7205bceb","slug":"ieros-naos-agioy-nikolaoy-616a","kind":"restaurant","name":"Ιερός Ναός Αγίου Νικολάου","lat":37.93852657714825,"lng":23.640083861716022,"url":"https://maps.app.goo.gl/yhWmXb3651phCnDF8?g_st=ipc","address":"Αγίου Νικολάου 2, Πειραιάς 185 37","categoryIds":["monasteries-churches"],"categories":["Monasteries & Spiritual Sites"],"distanceKm":0.5018755042062305},{"id":"asianRestaurants_4f2a760fc2e5","slug":"rouan-thai-4f2a","kind":"restaurant","name":"Rouan Thai","lat":37.939187297472465,"lng":23.64209685014842,"url":"https://maps.app.goo.gl/s9uo8VDSoDevpowm6?g_st=ipc","address":"Νοταρά 131, Πειραιάς 185 36","categoryIds":["asian"],"categories":["Asian Restaurants"],"distanceKm":0.5230393083839706},{"id":"italianRestaurants_245a69e4c28d","slug":"italida-restaurant-245a","kind":"restaurant","name":"Italida Restaurant","lat":37.939531794803344,"lng":23.64139153468878,"url":"https://maps.app.goo.gl/vJFoPpuhcPupJ3ju7?g_st=ipc","address":"Φιλελλήνων 9, Πειραιάς 185 36","categoryIds":["italian"],"categories":["Italian Restaurants"],"distanceKm":0.5701973287946535},{"id":"greekRestaurants_559e0d9ef868","slug":"marigo-edesmatopoleio-559e","kind":"restaurant","name":"Μαριγώ Εδεσματοπωλείο","lat":37.93961721991741,"lng":23.641779536091324,"url":"https://maps.app.goo.gl/4advyD22Ta7qiUEv7","address":"Φίλωνος 133, Πειραιάς 185 36","categoryIds":["greek-restaurants"],"categories":["Greek Restaurants"],"distanceKm":0.573817506859612},{"id":"cheapEatsRestaurants_ff4578059709","slug":"story-streat-ff45","kind":"restaurant","name":"Story Streat","lat":37.93927555121359,"lng":23.639905760009334,"url":"https://maps.app.goo.gl/EXsQn9E1PkJeJjZU9?g_st=ipc","address":"301 Ακτή Μιαούλη, Enanti Agiou Nikolaou, Πειραιάς 185 35","categoryIds":["cheap-eats"],"categories":["Gyros & Cheap Eats"],"distanceKm":0.5836459502142283},{"id":"cheapEatsRestaurants_338abca2bc3e","slug":"jackaroo-338a","kind":"restaurant","name":"Jackaroo","lat":37.940156634414215,"lng":23.643183475106575,"url":"https://maps.app.goo.gl/QjFk2WWeE9jasgmR8?g_st=ipc","address":"Κολοκοτρώνη 126, Πειραιάς 185 35","categoryIds":["cheap-eats"],"categories":["Gyros & Cheap Eats"],"distanceKm":0.6297876763413114},{"id":"dessertsRestaurants_7b04a6c0e5e9","slug":"loukoumother-s-peiraias-7b04","kind":"restaurant","name":"Loukoumother's Πειραιάς","lat":37.93905157733481,"lng":23.647294517023667,"url":"https://maps.app.goo.gl/n5Dp63fF47u9TZuz6?g_st=ipc","address":"Ακτή Μουτσοπούλου 12, Πειραιάς 185 35","categoryIds":["desserts"],"categories":["Dessert Shops"],"distanceKm":0.6471537003102084},{"id":"cheapEatsRestaurants_8cc8f7ce2a5d","slug":"kali-pita-8cc8","kind":"restaurant","name":"Καλή Πίτα","lat":37.93904235716474,"lng":23.647494180172405,"url":"https://maps.app.goo.gl/5Uc5sfiitWqftH1u6?g_st=ipc","address":"Ακτή Μουτσοπούλου 10, Πειραιάς 185 35","categoryIds":["cheap-eats"],"categories":["Gyros & Cheap Eats"],"distanceKm":0.6574456276837153},{"id":"mexicanRestaurants_a97d037088f2","slug":"che-cocina-y-barra-sudamericana-a97d","kind":"restaurant","name":"CHE Cocina y Barra Sudamericana","lat":37.94032437815617,"lng":23.645996360812326,"url":"https://maps.app.goo.gl/TyUmY21xfn9LHmce7?g_st=ipc","address":"Καραΐσκου 151, Πειραιάς 185 35","categoryIds":["mexican"],"categories":["Mexican Restaurants"],"distanceKm":0.7090971743655425},{"id":"mustSeeAttractions_1f6f7342d4cd","slug":"to-roloi-toy-peiraia-1f6f","kind":"restaurant","name":"Το Ρολόι του Πειραιά","lat":37.93913367533199,"lng":23.648716548781902,"url":"https://maps.app.goo.gl/T618Z3KqK9zezNFE9?g_st=ipc","address":"Ακτή Μουτσοπούλου 6, Πειραιάς 185 35","categoryIds":["attractions"],"categories":["Must-See Attractions"],"distanceKm":0.7378944450107636},{"id":"coffeeBrunchRestaurants_fe42c1fe0d07","slug":"la-belle-epoque-fe42","kind":"restaurant","name":"La Belle Époque","lat":37.94126457803724,"lng":23.646089165937596,"url":"https://maps.app.goo.gl/BAXbDkZ2it9TjYv19?g_st=ipc","address":"Αριστοτέλους 10, Πειραιάς 185 35","categoryIds":["coffee-brunch"],"categories":["Coffee & Brunch Spots"],"distanceKm":0.8085826153202841},{"id":"coffeeBrunchRestaurants_dede4a68abbb","slug":"temps-perdu-dede","kind":"restaurant","name":"Temps Perdu","lat":37.94112588112371,"lng":23.646526456108827,"url":"https://maps.app.goo.gl/ABEv497Uv63A5df28?g_st=ipc","address":"Καραΐσκου 114, Πειραιάς 185 35","categoryIds":["coffee-brunch"],"categories":["Coffee & Brunch Spots"],"distanceKm":0.8094626268940132},{"id":"greekRestaurants_7773207b8a15","slug":"little-ginger-7773","kind":"restaurant","name":"Little Ginger","lat":37.93943083536511,"lng":23.6501378633564,"url":"https://maps.app.goo.gl/ekwyDGT5qeED8gtk8","address":"Αγγέλου Μεταξά 13, Πειραιάς 185 34","categoryIds":["greek-restaurants"],"categories":["Greek Restaurants"],"distanceKm":0.8526273175461768},{"id":"cheapEatsRestaurants_976f1c06c63f","slug":"i-vromiara-the-gourmet-street-food-piraeus-976f","kind":"restaurant","name":"Η Βρωμιαρα - The Gourmet Street Food Piraeus","lat":37.94005665661438,"lng":23.649946814929663,"url":"https://maps.app.goo.gl/9bVUq8xDuxLwaLim9?g_st=ipc","address":"Σωτήρος Διός 47, Πειραιάς 185 34","categoryIds":["cheap-eats"],"categories":["Gyros & Cheap Eats"],"distanceKm":0.8867925377678645},{"id":"cheapEatsRestaurants_cd23ca747a49","slug":"jackaroo-cd23","kind":"restaurant","name":"JACKAROO","lat":37.94026416396424,"lng":23.649684152709604,"url":"https://maps.app.goo.gl/7CALFJPovo6YskzUA?g_st=ipc","address":"Σωτήρος Διός 45, Πειραιάς 185 34","categoryIds":["cheap-eats"],"categories":["Gyros & Cheap Eats"],"distanceKm":0.8869078981334207},{"id":"municipalities_45e34fb512ae","slug":"peiraias-45e3","kind":"municipality","name":"Πειραιάς","lat":37.9421,"lng":23.6465,"aliases":["Πειραιας","Πειραια","Pireaus","Pireus","Piraeus"],"region":"Πειραιάς","name_en":"Piraeus","region_en":"Piraeus","distanceKm":0.9082158510831264},{"id":"italianRestaurants_4128f283696a","slug":"santa-pasta-cucina-italiana-4128","kind":"restaurant","name":"SANTA PASTA Cucina Italiana","lat":37.94068201075252,"lng":23.64952027321399,"url":"https://maps.app.goo.gl/s3jT1Jfm88nb6Y8f8?g_st=ipc","address":"Γρ. Λαμπράκη 144, Πειραιάς 185 35","categoryIds":["italian"],"categories":["Italian Restaurants"],"distanceKm":0.9114932850144154}],"sameRegion":[],"mentionedGuides":[],"canonicalSlug":"mpar-mpee-kioy-freattyda-51cd","enrichment":{"summary_en":"Μπαρ Μπεε Κιου - Φρεαττύδα is a curated restaurant in Πειραιάς 185 37 in the Burger Spots collection. It is connected to 17 nearby Googlementor picks to help travelers build a stronger local route.","summary_el":"Μπαρ Μπεε Κιου - Φρεαττύδα είναι ένα επιλεγμένο σημείο φαγητού στην περιοχή Πειραιάς 185 37 και ανήκει στη συλλογή Burger Spots. Συνδέεται με 17 κοντινές προτάσεις του Googlementor για πιο ολοκληρωμένη εμπειρία.","vibe_tags":["curated","budget-friendly"],"best_for":["first-time visitors","food lovers","budget travelers"],"visit_moments":["lunch stop","dinner stop"],"practical_note":"Address and direct map link are available for easy turn-by-turn access.","nearby_walkable_count":17,"nearby_count_2km":56,"confidence":0.98},"areaContext":{"slug":"peiraias","name":"Piraeus","nameEl":"Πειραιάς"},"intentContexts":[{"href":"/burgers/peiraias","label":"Burger Spots in Piraeus","categorySlug":"burgers","categoryName":"Burger Spots","areaSlug":"peiraias","areaName":"Piraeus","areaNameEl":"Πειραιάς"},{"href":"/cheap-eats/peiraias","label":"Gyros & Cheap Eats in Piraeus","categorySlug":"cheap-eats","categoryName":"Gyros & Cheap Eats","areaSlug":"peiraias","areaName":"Piraeus","areaNameEl":"Πειραιάς"}]},"__N_SSG":true}