{"pageProps":{"entity":{"id":"burgersRestaurants_15242c3b8b89","slug":"mpear-1524","kind":"restaurant","name":"MPEAR","lat":37.96750105563297,"lng":23.744555646756957,"url":"https://maps.app.goo.gl/yKgLKc4LFJhxaawY6","address":"Ευφράνορος 8, Athina 116 35","categoryIds":["burgers"],"categories":["Burger Spots"]},"sameCategory":[{"id":"burgersRestaurants_2488bfd093b0","slug":"raw-street-burger-2488","kind":"restaurant","name":"RAW Street Burger","lat":37.96608078812892,"lng":23.747084457131937,"url":"https://maps.app.goo.gl/WsNpm6Ti1nzJiYwd7?g_st=ipc","address":"Υμηττού 130, Αθήνα 116 34","categoryIds":["burgers"],"categories":["Burger Spots"]},{"id":"burgersRestaurants_333f3b6e6592","slug":"chicken-queen-333f","kind":"restaurant","name":"Chicken Queen","lat":37.96764787341708,"lng":23.749271201498335,"url":"https://maps.app.goo.gl/y9qpEuxuYdxvEzYY9?g_st=ipc","address":"Ευτυχίδου 47, Αθήνα 116 34","categoryIds":["burgers","cheap-eats"],"categories":["Burger Spots","Gyros & Cheap Eats"],"legacySlugs":["chicken-queen-b3b7"]},{"id":"burgersRestaurants_7a76471a6430","slug":"nob-burger-7a76","kind":"restaurant","name":"nob.burger","lat":37.97058357459842,"lng":23.741857084173848,"url":"https://maps.app.goo.gl/7ty7gMmfJYVeTM5H9?g_st=ipc","address":"Ερατοσθένους 3, Αθήνα 116 35","categoryIds":["burgers"],"categories":["Burger Spots"]},{"id":"burgersRestaurants_7ee34e05dcb7","slug":"x11-burgers-7ee3","kind":"restaurant","name":"X11 Burgers","lat":37.97115113774925,"lng":23.746564304670212,"url":"https://maps.app.goo.gl/kMJu1ePUZJzGwAJdA?g_st=ipc","address":"Αρχελάου 14, Αθήνα 116 35","categoryIds":["burgers"],"categories":["Burger Spots"]},{"id":"burgersRestaurants_a48e075150a2","slug":"greasy-spoon-athens-a48e","kind":"restaurant","name":"Greasy Spoon Athens","lat":37.971165228067136,"lng":23.74653583168114,"url":"https://maps.app.goo.gl/jy3gfbvNXVipSkrJA?g_st=ic","address":"Archelaou 14, Athina 116 35","categoryIds":["burgers"],"categories":["Burger Spots"]},{"id":"burgersRestaurants_bfe01035e2db","slug":"agora-select-bfe0","kind":"restaurant","name":"Agora Select","lat":37.97626574663726,"lng":23.751456733864202,"url":"https://maps.app.goo.gl/GxR6tX8MHegtVPLA7?g_st=ipc","address":"Χατζηγιάννη Μέξη 8 και, Κων/νου Βεντήρη 9, Αθήνα 115 28","categoryIds":["burgers","greek-restaurants"],"categories":["Burger Spots","Greek Restaurants"],"legacySlugs":["agora-select-aecd"]},{"id":"burgersRestaurants_349cb9dc8b75","slug":"smash-n-bun-349c","kind":"restaurant","name":"Smash'n Bun","lat":37.97817483675376,"lng":23.745292656199194,"url":"https://maps.app.goo.gl/4n21xowaSG1Zg8d79?g_st=ipc","address":"Πατριάρχου Ιωακείμ 48, Αθήνα 106 76","categoryIds":["burgers"],"categories":["Burger Spots"]},{"id":"asianRestaurants_ddcb57380116","slug":"ekiben-kitchen-ddcb","kind":"restaurant","name":"EKIBEN KITCHEN","lat":37.97373780649657,"lng":23.73268249015655,"url":"https://maps.app.goo.gl/phQR869HE6dZNJGS9?g_st=ipc","address":"Σκούφου 15, Αθήνα 105 57","categoryIds":["asian","burgers"],"categories":["Asian Restaurants","Burger Spots"],"legacySlugs":["ekiben-kitchen-bf81"]},{"id":"burgersRestaurants_49b08b8052e0","slug":"birdman-49b0","kind":"restaurant","name":"Birdman","lat":37.97462442043903,"lng":23.73232607660368,"url":"https://maps.app.goo.gl/hqjbsZtLtS6aPvv9A?g_st=ipc","address":"Βουλής 35, Αθήνα 105 57","categoryIds":["burgers"],"categories":["Burger Spots"]},{"id":"burgersRestaurants_fed9fc98ba72","slug":"lobby-athens-fed9","kind":"restaurant","name":"Lobby Athens","lat":37.97480226330857,"lng":23.732216902854162,"url":"https://maps.app.goo.gl/McpvxRFgv3HSY4VF6?g_st=ipc","address":"Βουλής 30, Αθήνα 105 57","categoryIds":["burgers"],"categories":["Burger Spots"]},{"id":"burgersRestaurants_82d2f41d9265","slug":"big-nick-82d2","kind":"restaurant","name":"Big Nick","lat":37.956445331565305,"lng":23.73566615673783,"url":"https://maps.app.goo.gl/j5eRwkA5Uf2bwVHs7?g_st=ipc","address":"Λεωφόρος Βουλιαγμένης 145, Αθήνα 116 31","categoryIds":["burgers","vegetarian"],"categories":["Burger Spots","Vegetarian Friendly Restaurants"],"legacySlugs":["big-nick-ce09"]},{"id":"burgersRestaurants_3c1c73d21fec","slug":"meat-n-roses-kolonaki-3c1c","kind":"restaurant","name":"Meat n Roses Kolonaki","lat":37.97828442263524,"lng":23.735087640545906,"url":"https://maps.app.goo.gl/qGwCStnKNtrJzrtm6?g_st=ipc","address":"Αμερικής 7, Αθήνα 106 72","categoryIds":["burgers","cheap-eats"],"categories":["Burger Spots","Gyros & Cheap Eats"],"legacySlugs":["meat-n-roses-kolonaki-9219"]}],"nearby":[{"id":"coffeeBrunchRestaurants_f1796bb2ea7c","slug":"plegma-coffee-living-f179","kind":"restaurant","name":"Plegma Coffee & Living","lat":37.96746994485961,"lng":23.74467734312101,"url":"https://maps.app.goo.gl/CJbmBuxNwPN6MCH98?g_st=ipc","address":"Plegma Coffee & Living","categoryIds":["coffee-brunch"],"categories":["Coffee & Brunch Spots"],"distanceKm":0.011214970931597606},{"id":"asianRestaurants_29ff4585bb4b","slug":"koi-sushi-bar-pangrati-29ff","kind":"restaurant","name":"Koi Sushi Bar | Pangrati","lat":37.96792632318897,"lng":23.745129343308996,"url":"https://maps.app.goo.gl/jArTQMm2HTtNhyqu6?g_st=ipc","address":"Ευτυχίδου 10, Αθήνα 116 35","categoryIds":["asian"],"categories":["Asian Restaurants"],"distanceKm":0.06903117652522994},{"id":"coffeeBrunchRestaurants_baef4762247d","slug":"chelsea-hotel-baef","kind":"restaurant","name":"Chelsea Hotel","lat":37.96781479364914,"lng":23.743723733421092,"url":"https://maps.app.goo.gl/biMezA2mUN6mNc886?g_st=ipc","address":"Αρχιμήδους, Πρόκλου και, Αθήνα 116 35","categoryIds":["coffee-brunch"],"categories":["Coffee & Brunch Spots"],"distanceKm":0.08084147045131457},{"id":"cheapEatsRestaurants_56207a3913eb","slug":"elvis-soyvlakia-5620","kind":"restaurant","name":"Ελβις Σουβλακια","lat":37.96785045064934,"lng":23.7436306831368,"url":"https://maps.app.goo.gl/umPfqHULRVG9njbt5?g_st=ipc","address":"Αρχιμήδους 1-5, Αθήνα 116 35","categoryIds":["cheap-eats"],"categories":["Gyros & Cheap Eats"],"distanceKm":0.08991078123564661},{"id":"italianRestaurants_858265b3f822","slug":"cosa-nostra-fresca-pasta-pagrati-8582","kind":"restaurant","name":"Cosa Nostra Fresca Pasta Pagrati","lat":37.96783594678004,"lng":23.743332676630974,"url":"https://maps.app.goo.gl/CdMX5E6yxNBbvoYs8?g_st=ipc","address":"Αρχιμήδους 8, Αθήνα 116 35","categoryIds":["italian","vegetarian"],"categories":["Italian Restaurants","Vegetarian Friendly Restaurants"],"legacySlugs":["cosa-nostra-fresca-pasta-pagrati-5ddd"],"distanceKm":0.11349046896766332},{"id":"municipalities_0fd1d03201a0","slug":"mets-0fd1","kind":"municipality","name":"Μετς","lat":37.9685,"lng":23.7453,"region":"Κέντρο Αθήνας","name_en":"Mets","region_en":"Athens Center","distanceKm":0.12882501007381097},{"id":"italianRestaurants_2ca02a129667","slug":"luma-2ca0","kind":"restaurant","name":"Luma","lat":37.967195735298965,"lng":23.74306872996665,"url":"https://maps.app.goo.gl/csSJRksdwNoDcqqE7?g_st=ipc","address":"Φερεκύδου 2, Αθήνα 116 35","categoryIds":["italian"],"categories":["Italian Restaurants"],"distanceKm":0.13469459632935438},{"id":"luxuryDiningRestaurants_b24cda2a3b29","slug":"soil-restaurant-b24c","kind":"restaurant","name":"Soil Restaurant","lat":37.96695852322669,"lng":23.743066634939197,"url":"https://maps.app.goo.gl/6F5c77DnjsqmPiiS8?g_st=ipc","address":"Φερεκύδου 5, Αθήνα 116 35","categoryIds":["luxury-dining"],"categories":["Luxury Dining"],"distanceKm":0.14379611136364365},{"id":"greekRestaurants_1ce7ef86a93e","slug":"vyrinis-1ce7","kind":"restaurant","name":"ΒΥΡΙΝΗΣ","lat":37.96743484356373,"lng":23.742810422529566,"url":"https://maps.app.goo.gl/1Xuvp6z7zeGEESxk7","address":"Αρχιμήδους 11, Αθήνα 116 35","categoryIds":["greek-restaurants"],"categories":["Greek Restaurants"],"distanceKm":0.15316629477512964},{"id":"dessertsRestaurants_713ba3364411","slug":"galaktopoleio-stamoy-713b","kind":"restaurant","name":"Γαλακτοπωλείο ΣΤΑΜΟΥ","lat":37.967778119825944,"lng":23.746488114142206,"url":"https://maps.app.goo.gl/PA8d53NRErbRQVzk6?g_st=ipc","address":"Ευτυχίδου 28-30, Αθήνα 116 35","categoryIds":["desserts"],"categories":["Dessert Shops"],"distanceKm":0.1721815337269949},{"id":"italianRestaurants_eb6dad79ff00","slug":"colibri-eb6d","kind":"restaurant","name":"Colibri","lat":37.96629536354424,"lng":23.742907448127177,"url":"https://maps.app.goo.gl/p6S1BxZ6W3VgwiR46?g_st=ipc","address":"Εμπεδοκλέους 15, Αθήνα 116 35","categoryIds":["italian"],"categories":["Italian Restaurants"],"distanceKm":0.1971035669389742},{"id":"dessertsRestaurants_e497a22f982a","slug":"mario-luigi-e497","kind":"restaurant","name":"Mario & Luigi","lat":37.96604463058155,"lng":23.746371855606792,"url":"https://maps.app.goo.gl/rjbBWs56GxATknGu9?g_st=ipc","address":"Ευφράνορος 35, Αθήνα 116 35","categoryIds":["desserts","italian"],"categories":["Dessert Shops","Italian Restaurants"],"legacySlugs":["mario-luigi-77b6"],"distanceKm":0.2271029627824677},{"id":"italianRestaurants_2b0b4658687c","slug":"agave-athens-2b0b","kind":"restaurant","name":"agave athens","lat":37.9657831829776,"lng":23.746184137622457,"url":"https://maps.app.goo.gl/uUSmZ457DPu3bX9J6?g_st=ipc","address":"Ευφράνορος 40, Αθήνα 116 35","categoryIds":["italian"],"categories":["Italian Restaurants"],"distanceKm":0.23847000801346677},{"id":"vegetarianRestaurants_2e588abb0db5","slug":"baba-ghanoush-2e58","kind":"restaurant","name":"Baba Ghanoush","lat":37.96544673051708,"lng":23.74367426912522,"url":"https://maps.app.goo.gl/TVzEkkpCr1SQ2ZUEA?g_st=ipc","address":"Εμπεδοκλέους 25 - 27, Αθήνα 116 35","categoryIds":["vegetarian"],"categories":["Vegetarian Friendly Restaurants"],"distanceKm":0.24114361559182934},{"id":"dessertsRestaurants_7eaf4eddf047","slug":"loukoumania-pagrati-loykoymades-7eaf","kind":"restaurant","name":"Loukoumania Pagrati - Λουκουμάδες","lat":37.96735501275489,"lng":23.74736088525619,"url":"https://maps.app.goo.gl/T1YQTDedH6uY5vzR7?g_st=ipc","address":"Φρύνης 4, Αθήνα 116 34","categoryIds":["desserts"],"categories":["Dessert Shops"],"distanceKm":0.24644758974618672},{"id":"cheapEatsRestaurants_eaa51e908f69","slug":"to-pikantiko-eaa5","kind":"restaurant","name":"Το Πικάντικο","lat":37.967862602711925,"lng":23.74738582728181,"url":"https://maps.app.goo.gl/s2djMEVxUXSybams9?g_st=ipc","address":"Ευτυχίδου 23, Αθήνα 116 34","categoryIds":["cheap-eats"],"categories":["Gyros & Cheap Eats"],"distanceKm":0.25133369777847325},{"id":"burgersRestaurants_2488bfd093b0","slug":"raw-street-burger-2488","kind":"restaurant","name":"RAW Street Burger","lat":37.96608078812892,"lng":23.747084457131937,"url":"https://maps.app.goo.gl/WsNpm6Ti1nzJiYwd7?g_st=ipc","address":"Υμηττού 130, Αθήνα 116 34","categoryIds":["burgers"],"categories":["Burger Spots"],"distanceKm":0.27218300455611555},{"id":"coffeeBrunchRestaurants_512abfbcd215","slug":"monokeros-bakery-512a","kind":"restaurant","name":"Monokeros Bakery","lat":37.96998792256903,"lng":23.745206716967704,"url":"https://maps.app.goo.gl/vPfqSycBZPnB31CG6?g_st=ipc","address":"Φαίδρου 4, Αθήνα 116 35","categoryIds":["coffee-brunch"],"categories":["Coffee & Brunch Spots"],"distanceKm":0.28235525512524473},{"id":"luxuryDiningRestaurants_4755b5d98bd2","slug":"spondi-restaurant-4755","kind":"restaurant","name":"Spondi Restaurant","lat":37.96512570220306,"lng":23.743047382502652,"url":"https://maps.app.goo.gl/yjnQQMfc7oBpEhjn7?g_st=ipc","address":"Πύρρωνος 5, Αθήνα 116 36","categoryIds":["luxury-dining"],"categories":["Luxury Dining"],"distanceKm":0.29537276985324395},{"id":"luxuryDiningRestaurants_0c6fd02fb5a6","slug":"ex-machina-0c6f","kind":"restaurant","name":"Ex Machina","lat":37.96479312618342,"lng":23.743989976816355,"url":"https://maps.app.goo.gl/F5z8usANoo63JuD88?g_st=ipc","address":"Εμπεδοκλέους 34, Αθήνα 116 36","categoryIds":["luxury-dining"],"categories":["Luxury Dining"],"distanceKm":0.30516397630459235},{"id":"mustSeeAttractions_3fcc6eb77276","slug":"panathinaiko-stadio-3fcc","kind":"restaurant","name":"Παναθηναϊκό Στάδιο","lat":37.96833218533537,"lng":23.741113035876687,"url":"https://maps.app.goo.gl/EoVCRRTzjoVCkEm18?g_st=ipc","address":"Λεωφ. Βασιλέως Κωνσταντίνου, Αθήνα 116 35","categoryIds":["attractions"],"categories":["Must-See Attractions"],"distanceKm":0.31561690087762434},{"id":"coffeeBrunchRestaurants_1e75db395902","slug":"to-loyvro-1e75","kind":"restaurant","name":"Το Λούβρο","lat":37.970011751193255,"lng":23.742186500606625,"url":"https://maps.app.goo.gl/YkKoXGLhpNyAx3V76?g_st=ipc","address":"Ερατοσθένους 6, Αθήνα 116 35","categoryIds":["coffee-brunch"],"categories":["Coffee & Brunch Spots"],"distanceKm":0.3479517287693289},{"id":"luxuryDiningRestaurants_ee54b28fe034","slug":"amen-gastronomic-ee54","kind":"restaurant","name":"Amen Gastronomic","lat":37.970762115684614,"lng":23.743270249717987,"url":"https://maps.app.goo.gl/K2pf3xsJBhwfdAmR8?g_st=ipc","address":"Ηρώνδα 8, Αθήνα 116 35","categoryIds":["luxury-dining"],"categories":["Luxury Dining"],"distanceKm":0.37971653016234325},{"id":"cheapEatsRestaurants_f61ee90e96c0","slug":"mikra-asia-kebap-pagrati-f61e","kind":"restaurant","name":"Mikra Asia kebap Pagrati","lat":37.96824148094212,"lng":23.7487971975962,"url":"https://maps.app.goo.gl/4TKpFuTdcwscVBCg8?g_st=ipc","address":"Πλ. Μεσολογγίου 2-4, Αθήνα 116 34","categoryIds":["cheap-eats"],"categories":["Gyros & Cheap Eats"],"distanceKm":0.3808255352392077}],"sameRegion":[],"mentionedGuides":[],"canonicalSlug":"mpear-1524","enrichment":{"summary_en":"MPEAR is a curated restaurant in Athina 116 35 in the Burger Spots collection. It is connected to 60 nearby Googlementor picks to help travelers build a stronger local route.","summary_el":"MPEAR είναι ένα επιλεγμένο σημείο φαγητού στην περιοχή Athina 116 35 και ανήκει στη συλλογή Burger Spots. Συνδέεται με 60 κοντινές προτάσεις του Googlementor για πιο ολοκληρωμένη εμπειρία.","vibe_tags":["curated"],"best_for":["first-time visitors","food lovers"],"visit_moments":["lunch stop","dinner stop"],"practical_note":"Address and direct map link are available for easy turn-by-turn access.","nearby_walkable_count":60,"nearby_count_2km":466,"confidence":0.98},"areaContext":{"slug":"mets","name":"Mets","nameEl":"Μετς"},"intentContexts":[{"href":"/burgers/mets","label":"Burger Spots in Mets","categorySlug":"burgers","categoryName":"Burger Spots","areaSlug":"mets","areaName":"Mets","areaNameEl":"Μετς"}]},"__N_SSG":true}