{"pageProps":{"entity":{"id":"coffeeBrunchRestaurants_9458a245dc3c","slug":"mr-peacock-9458","kind":"restaurant","name":"Mr Peacock","lat":38.02229439663125,"lng":23.799067122766484,"url":"https://maps.app.goo.gl/VZMRfmKCQeAiaXpR6?g_st=ipc","address":"Κατσουλιέρη 7, Χαλάνδρι 152 33","categoryIds":["coffee-brunch"],"categories":["Coffee & Brunch Spots"]},"sameCategory":[{"id":"coffeeBrunchRestaurants_99f4eb4b50a8","slug":"paul-99f4","kind":"restaurant","name":"Paul","lat":38.02202464306638,"lng":23.799672884172303,"url":"https://maps.app.goo.gl/aQCR8vB88aVXiVXh6?g_st=ic","address":"Andrea Papandreou 13, Chalandri 152 34","categoryIds":["coffee-brunch"],"categories":["Coffee & Brunch Spots"]},{"id":"coffeeBrunchRestaurants_9494334a3889","slug":"theory-bar-9494","kind":"restaurant","name":"Theory Bar","lat":38.02145412084465,"lng":23.799757422872677,"url":"https://maps.app.goo.gl/zwkhVzdkQughii3i7?g_st=ipc","address":"Πλάτωνος 14, Χαλάνδρι 152 34","categoryIds":["coffee-brunch"],"categories":["Coffee & Brunch Spots"]},{"id":"coffeeBrunchRestaurants_37f29da6a3ac","slug":"petite-fleur-chalandri-37f2","kind":"restaurant","name":"Petite Fleur Chalandri","lat":38.02118310968284,"lng":23.79790895879059,"url":"https://maps.app.goo.gl/3oREsLJ4wCJ3pzXJA?g_st=ipc","address":"Πλατεία Ελευθερωτών 16, Platia Eleftheroton 16, Χαλάνδρι 152 32","categoryIds":["coffee-brunch"],"categories":["Coffee & Brunch Spots"]},{"id":"coffeeBrunchRestaurants_c494cdae0eac","slug":"penny-lane-comfort-food-c494","kind":"restaurant","name":"Penny Lane Comfort Food","lat":38.02034857308637,"lng":23.798833782982413,"url":"https://maps.app.goo.gl/pHD9NuQvxt5E3ECz5?g_st=ipc","address":"Θουκυδίδου 12, Χαλάνδρι 152 32","categoryIds":["coffee-brunch"],"categories":["Coffee & Brunch Spots"]},{"id":"coffeeBrunchRestaurants_6c7c61c89617","slug":"the-blind-spot-chalandri-6c7c","kind":"restaurant","name":"The Blind Spot Chalandri","lat":38.02081193268296,"lng":23.800852260132338,"url":"https://maps.app.goo.gl/meU9KZcd4KyskmW5A?g_st=ipc","address":"Αγίας Παρασκευής 29, Χαλάνδρι 152 34","categoryIds":["coffee-brunch"],"categories":["Coffee & Brunch Spots"]},{"id":"coffeeBrunchRestaurants_1645d021693b","slug":"butterfly-all-day-bar-1645","kind":"restaurant","name":"Butterfly All Day Bar","lat":38.02255116891241,"lng":23.802059077338257,"url":"https://maps.app.goo.gl/iFPzHyPcLoNrFRsNA?g_st=ipc","address":"Λεωφόρος Πεντέλης 8 , Στρατάρχου Παπάγου 5, Χαλάνδρι 152 33","categoryIds":["coffee-brunch"],"categories":["Coffee & Brunch Spots"]},{"id":"coffeeBrunchRestaurants_e07c2fe046a1","slug":"koulouri-lab-e07c","kind":"restaurant","name":"Koulouri Lab","lat":38.02001411382259,"lng":23.797606580273964,"url":"https://maps.app.goo.gl/PenVFxTnARKzLw62A?g_st=ipc","address":"Ανδρέα Παπανδρέου 36, Αθήνα 152 32","categoryIds":["coffee-brunch"],"categories":["Coffee & Brunch Spots"]},{"id":"coffeeBrunchRestaurants_c2dcfed13dc1","slug":"to-vazaki-juice-bar-c2dc","kind":"restaurant","name":"Το Βαζάκι Juice Bar","lat":38.021003514175945,"lng":23.80272580711501,"url":"https://maps.app.goo.gl/nDbFuEsz56BPrtWV8?g_st=ipc","address":"Αριστοτέλους 33, Χαλάνδρι 152 34","categoryIds":["coffee-brunch","vegetarian"],"categories":["Coffee & Brunch Spots","Vegetarian Friendly Restaurants"],"legacySlugs":["to-vazaki-juice-bar-fee3"]},{"id":"coffeeBrunchRestaurants_fee7b450e2e2","slug":"bored-c-mon-hub-fee7","kind":"restaurant","name":"Bored, C'mon hub","lat":38.02345514252141,"lng":23.803073599949013,"url":"https://maps.app.goo.gl/VKSg4V9NPf89H1ha7?g_st=ipc","address":"Λεωφ. Πεντέλης 15, Χαλάνδρι 152 34","categoryIds":["coffee-brunch"],"categories":["Coffee & Brunch Spots"]},{"id":"coffeeBrunchRestaurants_19b78b1041b1","slug":"fisi-the-project-19b7","kind":"restaurant","name":"Fisi The Project","lat":38.02103923737401,"lng":23.803142982241283,"url":"https://maps.app.goo.gl/9VmK3qL1LECkBAycA?g_st=ipc","address":"Αγίου Γεωργίου 28, Χαλάνδρι 152 31","categoryIds":["coffee-brunch"],"categories":["Coffee & Brunch Spots"]},{"id":"coffeeBrunchRestaurants_c6ccd807225a","slug":"bread-b-c-bread-before-christ-c6cc","kind":"restaurant","name":"BREAD B.C. Bread Before Christ","lat":38.02007274297337,"lng":23.803168344895795,"url":"https://maps.app.goo.gl/TyGqvKXydEaJvedUA?g_st=ipc","address":"Αγίας Παρασκευής 59, Χαλάνδρι 152 34","categoryIds":["coffee-brunch","desserts"],"categories":["Coffee & Brunch Spots","Dessert Shops"],"legacySlugs":["bread-b-c-bread-before-christ-012b"]},{"id":"coffeeBrunchRestaurants_13c765a56547","slug":"gardenista-13c7","kind":"restaurant","name":"Gardenista","lat":38.022288294318166,"lng":23.791808518147295,"url":"https://maps.app.goo.gl/Ae2mzr6PphQKvoxT8?g_st=ipc","address":"Παπανικολή 18, Χαλάνδρι 152 32","categoryIds":["coffee-brunch"],"categories":["Coffee & Brunch Spots"]}],"nearby":[{"id":"dessertsRestaurants_bee382c48461","slug":"overoll-croissanterie-chalandri-bee3","kind":"restaurant","name":"Overoll Croissanterie Chalandri","lat":38.02200872999179,"lng":23.799243791824114,"url":"https://maps.app.goo.gl/ys5eKDmUSJhoHcwJ8?g_st=ipc","address":"Κατσουλιέρη 10, Χαλάνδρι 152 33","categoryIds":["desserts"],"categories":["Dessert Shops"],"distanceKm":0.03533394853171144},{"id":"coffeeBrunchRestaurants_99f4eb4b50a8","slug":"paul-99f4","kind":"restaurant","name":"Paul","lat":38.02202464306638,"lng":23.799672884172303,"url":"https://maps.app.goo.gl/aQCR8vB88aVXiVXh6?g_st=ic","address":"Andrea Papandreou 13, Chalandri 152 34","categoryIds":["coffee-brunch"],"categories":["Coffee & Brunch Spots"],"distanceKm":0.060953581245354715},{"id":"dessertsRestaurants_02779f6a74e0","slug":"luku-matters-stuffed-lukumades-more-0277","kind":"restaurant","name":"Luku-matters (stuffed lukumades & more)","lat":38.02275668044992,"lng":23.799619221423885,"url":"https://maps.app.goo.gl/6smwhS1Kk8EP7LvC8?g_st=ipc","address":"Κολοκοτρώνη 5, Χαλάνδρι 152 33","categoryIds":["desserts"],"categories":["Dessert Shops"],"distanceKm":0.07057742376813982},{"id":"burgersRestaurants_ec4983f25d99","slug":"nob-burger-ec49","kind":"restaurant","name":"NOB Burger","lat":38.02272062579597,"lng":23.79844865880115,"url":"https://maps.app.goo.gl/wpfmqU8MnEBtDwTH8?g_st=ic","address":"Κολοκοτρώνη 15 &, Gyftopoulou 10, Chalandri 152 33","categoryIds":["burgers"],"categories":["Burger Spots"],"distanceKm":0.07198028286956326},{"id":"burgersRestaurants_a6200663c2fc","slug":"enkelt-eatery-drinkery-a620","kind":"restaurant","name":"Enkelt Eatery Drinkery","lat":38.02213524779596,"lng":23.799867459817303,"url":"https://maps.app.goo.gl/vHwx7oKoUfgScAFL9?g_st=ipc","address":"Ανδρέα Παπανδρέου 9, Χαλάνδρι 152 34","categoryIds":["burgers"],"categories":["Burger Spots"],"distanceKm":0.07230554773555257},{"id":"cheapEatsRestaurants_8385a72feb82","slug":"taco-bell-8385","kind":"restaurant","name":"Taco Bell","lat":38.0228052820458,"lng":23.79853818143159,"url":"https://maps.app.goo.gl/f47SevFfDgNbNtWk7?g_st=ipc","address":"Κολοκοτρώνη 13, Χαλάνδρι 152 33","categoryIds":["cheap-eats"],"categories":["Gyros & Cheap Eats"],"distanceKm":0.0733067974671739},{"id":"vegetarianRestaurants_146693dade4c","slug":"naya-lebanese-kitchen-1466","kind":"restaurant","name":"Naya Lebanese Kitchen","lat":38.02310312613848,"lng":23.798978117354526,"url":"https://maps.app.goo.gl/Wa7FtgvMdTD2Q6oT7?g_st=ipc","address":"Kolokotroni 10, Chalandri 152 33","categoryIds":["vegetarian"],"categories":["Vegetarian Friendly Restaurants"],"distanceKm":0.09026395682950696},{"id":"cheapEatsRestaurants_6071194d9f9f","slug":"curry-express-indian-chef-6071","kind":"restaurant","name":"Curry Express & Indian Chef","lat":38.02245552538877,"lng":23.798012966612305,"url":"https://maps.app.goo.gl/z58YmxhSwvtKJai57?g_st=ipc","address":"Γρ. Γυφτοπούλου 7, Χαλάνδρι 152 33","categoryIds":["cheap-eats"],"categories":["Gyros & Cheap Eats"],"distanceKm":0.0940620511742937},{"id":"mexicanRestaurants_d9caea076ae0","slug":"ancho-mexican-grill-d9ca","kind":"restaurant","name":"Ancho Mexican Grill","lat":38.02258118157313,"lng":23.79793213578262,"url":"https://maps.app.goo.gl/i66HHdFDVxfAoN1y7?g_st=ipc","address":"Κολοκοτρώνη και, Γρ. Γυφτοπούλου 9, Χαλάνδρι 152 33","categoryIds":["mexican"],"categories":["Mexican Restaurants"],"distanceKm":0.10440932048182393},{"id":"coffeeBrunchRestaurants_9494334a3889","slug":"theory-bar-9494","kind":"restaurant","name":"Theory Bar","lat":38.02145412084465,"lng":23.799757422872677,"url":"https://maps.app.goo.gl/zwkhVzdkQughii3i7?g_st=ipc","address":"Πλάτωνος 14, Χαλάνδρι 152 34","categoryIds":["coffee-brunch"],"categories":["Coffee & Brunch Spots"],"distanceKm":0.11129404577223427},{"id":"burgersRestaurants_e22a52b46127","slug":"raw-street-burger-chalandri-e22a","kind":"restaurant","name":"Raw Street Burger - Chalandri","lat":38.0212493909348,"lng":23.79901287705001,"url":"https://maps.app.goo.gl/hgvkfPtXihqrFqAA8?g_st=ic","address":"Agias Paraskevis 2, Chalandri 152 32","categoryIds":["burgers"],"categories":["Burger Spots"],"distanceKm":0.1162964480518247},{"id":"burgersRestaurants_020aef5345e3","slug":"raw-street-burger-chalandri-020a","kind":"restaurant","name":"Raw Street Burger - Chalandri","lat":38.02124916375188,"lng":23.799011494235714,"url":"https://maps.app.goo.gl/BoNocomx2EgJt83f6?g_st=ipc","address":"Αγίας Παρασκευής 2, Χαλάνδρι 152 32","categoryIds":["burgers"],"categories":["Burger Spots"],"distanceKm":0.11632669968277505},{"id":"burgersRestaurants_7c38d294a0a4","slug":"pax-burgers-chalandri-7c38","kind":"restaurant","name":"PAX Burgers Chalandri","lat":38.0226758104374,"lng":23.797664927683787,"url":"https://maps.app.goo.gl/vTHoe9jC12FnQ9ZE9?g_st=ipc","address":"Κολοκοτρώνη 18, Χαλάνδρι 152 33","categoryIds":["burgers"],"categories":["Burger Spots"],"distanceKm":0.12994261978100616},{"id":"burgersRestaurants_34e5b1f181ce","slug":"pax-burgers-chalandri-34e5","kind":"restaurant","name":"PAX Burgers Chalandri","lat":38.02267566012985,"lng":23.79766474992644,"url":"https://maps.app.goo.gl/AiwVzM3dHvcwWDhh9?g_st=ic","address":"Kolokotroni 18, Chalandri 152 33","categoryIds":["burgers"],"categories":["Burger Spots"],"distanceKm":0.12995188468280103},{"id":"dessertsRestaurants_c2edf21ae9fe","slug":"choureal-choux-profiterole-c2ed","kind":"restaurant","name":"CHOUREAL - Choux & Profiterole","lat":38.02110578860944,"lng":23.7987271310142,"url":"https://maps.app.goo.gl/y6r478JecsCWC6aR6?g_st=ipc","address":"Ιφικράτους 2, Χαλάνδρι 152 32","categoryIds":["desserts"],"categories":["Dessert Shops"],"distanceKm":0.13548115754370765},{"id":"burgersRestaurants_c336eb92f70f","slug":"benjamin-burger-house-c336","kind":"restaurant","name":"Benjamin Burger House","lat":38.02349485615921,"lng":23.79940305236398,"url":"https://maps.app.goo.gl/1oUJJNhHwJDfzkoK6?g_st=ipc","address":"Ανδρέα Γκίνη 8-12, Χαλάνδρι 152 33","categoryIds":["burgers"],"categories":["Burger Spots"],"distanceKm":0.13668990902873684},{"id":"fishTavernasRestaurants_3ffa036aa4a7","slug":"psarakia-thalassina-3ffa","kind":"restaurant","name":"Ψαράκια & Θαλασσινά","lat":38.02324309009889,"lng":23.800101703415542,"url":"https://maps.app.goo.gl/WKwKfmp9nBvnCPzT9?g_st=ipc","address":"Κώστα Βάρναλη 5, Χαλάνδρι 152 33","categoryIds":["fish-tavernas"],"categories":["Fish Tavernas"],"distanceKm":0.13907176244778163},{"id":"asianRestaurants_509760bf71d6","slug":"oishi-sushi-bar-5097","kind":"restaurant","name":"OISHI SUSHI BAR","lat":38.02268166865243,"lng":23.7974397280377,"url":"https://maps.app.goo.gl/NXeqhq8bkraS8SxK8?g_st=ipc","address":"Ζαλοκώστα 3, Χαλάνδρι 152 33","categoryIds":["asian"],"categories":["Asian Restaurants"],"distanceKm":0.14891538850809527},{"id":"cheapEatsRestaurants_4176abbd859b","slug":"to-soyvlaki-toy-chalandrioy-express-4176","kind":"restaurant","name":"Το Σουβλάκι του Χαλανδρίου «Express»","lat":38.02210047029897,"lng":23.79733270387276,"url":"https://maps.app.goo.gl/jvDmvkwHFZFAd18e6?g_st=ipc","address":"Κολοκοτρώνη 26, Χαλάνδρι 152 33","categoryIds":["cheap-eats"],"categories":["Gyros & Cheap Eats"],"distanceKm":0.15345128491425156},{"id":"cheapEatsRestaurants_70af29f6373f","slug":"holy-pasta-chalandri-70af","kind":"restaurant","name":"Holy Pasta Chalandri","lat":38.02090646389776,"lng":23.799055964157045,"url":"https://maps.app.goo.gl/dD7x8SrXxBd8mmDX7?g_st=ipc","address":"Ηρακλείου 3, Χαλάνδρι 152 32","categoryIds":["cheap-eats"],"categories":["Gyros & Cheap Eats"],"distanceKm":0.15433417384511908},{"id":"greekRestaurants_69231f24503b","slug":"mpakalotaverna-6923","kind":"restaurant","name":"Μπακαλοταβέρνα","lat":38.02091962634735,"lng":23.79935272546419,"url":"https://maps.app.goo.gl/D6gW3fsdkz7sh9bg8?g_st=ipc","address":"Θουκυδίδου 6, Χαλάνδρι 152 32","categoryIds":["greek-restaurants"],"categories":["Greek Restaurants"],"distanceKm":0.15490114153776446},{"id":"burgersRestaurants_9c281ee4457d","slug":"butcher-s-burger-halandri-steak-house-9c28","kind":"restaurant","name":"Butcher's Burger Halandri & Steak House","lat":38.02102226567013,"lng":23.79979731523688,"url":"https://maps.app.goo.gl/NnWhxpUGcKRnuxNb6?g_st=ipc","address":"Αγίας Παρασκευής 17, Χαλάνδρι 152 34","categoryIds":["burgers"],"categories":["Burger Spots"],"distanceKm":0.15524365740777687},{"id":"greekRestaurants_42b778a801b1","slug":"psomi-alati-42b7","kind":"restaurant","name":"ΨΩΜΙ & ΑΛΑΤΙ","lat":38.02138760980619,"lng":23.797709722137604,"url":"https://maps.app.goo.gl/3yMZtJ6XHLXuktHM7?g_st=ipc","address":"Πλ. Ελευθερωτών 8, Χαλάνδρι 152 32","categoryIds":["greek-restaurants"],"categories":["Greek Restaurants"],"distanceKm":0.15590004441936692},{"id":"asianRestaurants_2fedddceed72","slug":"noodle-bar-2fed","kind":"restaurant","name":"Noodle Bar","lat":38.022609797953606,"lng":23.8008077638359,"url":"https://maps.app.goo.gl/RDSLJTa1W2roeGbr9?g_st=ic","address":"Leof. Pentelis 1, Chalandri 152 34","categoryIds":["asian"],"categories":["Asian Restaurants"],"distanceKm":0.15645457333772914}],"sameRegion":[],"mentionedGuides":[],"canonicalSlug":"mr-peacock-9458","enrichment":{"summary_en":"Mr Peacock is a curated restaurant in Χαλάνδρι 152 33 in the Coffee & Brunch Spots collection. It is connected to 65 nearby Googlementor picks to help travelers build a stronger local route.","summary_el":"Mr Peacock είναι ένα επιλεγμένο σημείο φαγητού στην περιοχή Χαλάνδρι 152 33 και ανήκει στη συλλογή Coffee & Brunch Spots. Συνδέεται με 65 κοντινές προτάσεις του Googlementor για πιο ολοκληρωμένη εμπειρία.","vibe_tags":["curated","daytime-favorite"],"best_for":["first-time visitors","food lovers"],"visit_moments":["early morning","late brunch"],"practical_note":"Address and direct map link are available for easy turn-by-turn access.","nearby_walkable_count":65,"nearby_count_2km":114,"confidence":0.98},"areaContext":{"slug":"chalandri","name":"Chalandri","nameEl":"Χαλάνδρι"},"intentContexts":[{"href":"/brunch/chalandri","label":"Coffee & Brunch Spots in Chalandri","categorySlug":"brunch","categoryName":"Coffee & Brunch Spots","areaSlug":"chalandri","areaName":"Chalandri","areaNameEl":"Χαλάνδρι"}]},"__N_SSG":true}