{"pageProps":{"entity":{"id":"dessertsRestaurants_a146fa72ad20","slug":"ohh-boy-a146","kind":"restaurant","name":"Ohh Boy","lat":37.97243442670494,"lng":23.745570951608226,"url":"https://maps.app.goo.gl/6UUhjHiN4qG6gyXg6?g_st=ipc","address":"Αρχελάου 32, Αθήνα 116 35","categoryIds":["desserts","vegetarian"],"categories":["Dessert Shops","Vegetarian Friendly Restaurants"],"legacySlugs":["ohh-boy-1239"]},"sameCategory":[{"id":"vegetarianRestaurants_2f95eefcadc8","slug":"the-vegan-vandal-2f95","kind":"restaurant","name":"The Vegan Vandal","lat":37.971917764819835,"lng":23.745569639926703,"url":"https://maps.app.goo.gl/i8rVwiqPkua751nQ7?g_st=ipc","address":"Αμύντα 15, Αθήνα 116 35","categoryIds":["vegetarian"],"categories":["Vegetarian Friendly Restaurants"]},{"id":"vegetarianRestaurants_273e01494cb2","slug":"groceristas-273e","kind":"restaurant","name":"Groceristas","lat":37.97253235052261,"lng":23.747890805995713,"url":"https://maps.app.goo.gl/s2jj4xW4U6Pk7W3N9?g_st=ipc","address":"Σπύρου Μερκούρη 50, Αθήνα 116 34","categoryIds":["vegetarian"],"categories":["Vegetarian Friendly Restaurants"]},{"id":"dessertsRestaurants_0ee58cfa385e","slug":"antonis-selekos-conceptual-desserts-0ee5","kind":"restaurant","name":"Antonis Selekos Conceptual Desserts","lat":37.9704115845213,"lng":23.747853371766638,"url":"https://maps.app.goo.gl/63mGgggS1JuTSJJf6?g_st=ipc","address":"Εριφύλης 2, Αθήνα 116 34","categoryIds":["desserts"],"categories":["Dessert Shops"]},{"id":"dessertsRestaurants_713ba3364411","slug":"galaktopoleio-stamoy-713b","kind":"restaurant","name":"Γαλακτοπωλείο ΣΤΑΜΟΥ","lat":37.967778119825944,"lng":23.746488114142206,"url":"https://maps.app.goo.gl/PA8d53NRErbRQVzk6?g_st=ipc","address":"Ευτυχίδου 28-30, Αθήνα 116 35","categoryIds":["desserts"],"categories":["Dessert Shops"]},{"id":"italianRestaurants_858265b3f822","slug":"cosa-nostra-fresca-pasta-pagrati-8582","kind":"restaurant","name":"Cosa Nostra Fresca Pasta Pagrati","lat":37.96783594678004,"lng":23.743332676630974,"url":"https://maps.app.goo.gl/CdMX5E6yxNBbvoYs8?g_st=ipc","address":"Αρχιμήδους 8, Αθήνα 116 35","categoryIds":["italian","vegetarian"],"categories":["Italian Restaurants","Vegetarian Friendly Restaurants"],"legacySlugs":["cosa-nostra-fresca-pasta-pagrati-5ddd"]},{"id":"dessertsRestaurants_adae00fa679c","slug":"cake-kolonaki-adae","kind":"restaurant","name":"CAKE Kolonaki","lat":37.97679932249832,"lng":23.7424790611418,"url":"https://maps.app.goo.gl/ga6C3Z87HsSYfMGx5?g_st=ipc","address":"Ηροδότου 15, Αθήνα 106 74","categoryIds":["desserts"],"categories":["Dessert Shops"]},{"id":"dessertsRestaurants_7eaf4eddf047","slug":"loukoumania-pagrati-loykoymades-7eaf","kind":"restaurant","name":"Loukoumania Pagrati - Λουκουμάδες","lat":37.96735501275489,"lng":23.74736088525619,"url":"https://maps.app.goo.gl/T1YQTDedH6uY5vzR7?g_st=ipc","address":"Φρύνης 4, Αθήνα 116 34","categoryIds":["desserts"],"categories":["Dessert Shops"]},{"id":"vegetarianRestaurants_26aa685f16e1","slug":"fresh-patisserie-26aa","kind":"restaurant","name":"Fresh Patisserie","lat":37.96747222997714,"lng":23.749300179574934,"url":"https://maps.app.goo.gl/M6kixY8DuERoUL8U8?g_st=ipc","address":"Ευτυχίδου 48, Αθήνα 116 34","categoryIds":["vegetarian"],"categories":["Vegetarian Friendly Restaurants"]},{"id":"dessertsRestaurants_01136de60da9","slug":"l-arte-del-gelato-0113","kind":"restaurant","name":"L’arte del gelato","lat":37.97826235491174,"lng":23.745310264522946,"url":"https://maps.app.goo.gl/EjfGShRdB64dNF5s7?g_st=ipc","address":"Πατριάρχου Ιωακείμ 48-50, Αθήνα 106 76","categoryIds":["desserts"],"categories":["Dessert Shops"]},{"id":"dessertsRestaurants_e77e22a5c2ea","slug":"patisserie-despina-e77e","kind":"restaurant","name":"Patisserie Despina","lat":37.97835834410638,"lng":23.74575820284903,"url":"https://maps.app.goo.gl/RjyUkSTj6TwcuZnn6?g_st=ipc","address":"Patriarchou Ioakim 56, Athina 106 76","categoryIds":["desserts"],"categories":["Dessert Shops"]},{"id":"dessertsRestaurants_e497a22f982a","slug":"mario-luigi-e497","kind":"restaurant","name":"Mario & Luigi","lat":37.96604463058155,"lng":23.746371855606792,"url":"https://maps.app.goo.gl/rjbBWs56GxATknGu9?g_st=ipc","address":"Ευφράνορος 35, Αθήνα 116 35","categoryIds":["desserts","italian"],"categories":["Dessert Shops","Italian Restaurants"],"legacySlugs":["mario-luigi-77b6"]},{"id":"vegetarianRestaurants_2e588abb0db5","slug":"baba-ghanoush-2e58","kind":"restaurant","name":"Baba Ghanoush","lat":37.96544673051708,"lng":23.74367426912522,"url":"https://maps.app.goo.gl/TVzEkkpCr1SQ2ZUEA?g_st=ipc","address":"Εμπεδοκλέους 25 - 27, Αθήνα 116 35","categoryIds":["vegetarian"],"categories":["Vegetarian Friendly Restaurants"]}],"nearby":[{"id":"vegetarianRestaurants_2f95eefcadc8","slug":"the-vegan-vandal-2f95","kind":"restaurant","name":"The Vegan Vandal","lat":37.971917764819835,"lng":23.745569639926703,"url":"https://maps.app.goo.gl/i8rVwiqPkua751nQ7?g_st=ipc","address":"Αμύντα 15, Αθήνα 116 35","categoryIds":["vegetarian"],"categories":["Vegetarian Friendly Restaurants"],"distanceKm":0.057450295467771244},{"id":"luxuryDiningRestaurants_66b323f42981","slug":"akra-66b3","kind":"restaurant","name":"Ακρα","lat":37.97187166175863,"lng":23.745034148490227,"url":"https://maps.app.goo.gl/ZDppkuU7VyctpKx28?g_st=ipc","address":"Αμύντα 12, Αθήνα 116 35","categoryIds":["luxury-dining"],"categories":["Luxury Dining"],"distanceKm":0.07829377370271645},{"id":"italianRestaurants_05ab7052947d","slug":"tre-sorelle-pizza-05ab","kind":"restaurant","name":"Tre Sorelle Pizza","lat":37.971668400347134,"lng":23.745923794431828,"url":"https://maps.app.goo.gl/dt7Xajoo364aPHjy7?g_st=ipc","address":"Αρχελάου 19, Αθήνα 116 35","categoryIds":["italian"],"categories":["Italian Restaurants"],"distanceKm":0.09061968551747004},{"id":"greekRestaurants_04415057069a","slug":"mayros-gatos-0441","kind":"restaurant","name":"Μαύρος Γάτος","lat":37.97162418889942,"lng":23.74471067108262,"url":"https://maps.app.goo.gl/aCqxbn2mAS63MWhA9","address":"Πολέμωνος 4, Αθήνα 116 35","categoryIds":["greek-restaurants"],"categories":["Greek Restaurants"],"distanceKm":0.11748827760146092},{"id":"cheapEatsRestaurants_78307b191873","slug":"piggy-popoylo-7830","kind":"restaurant","name":"Piggy - Πόπουλο","lat":37.97132961125026,"lng":23.74642727932896,"url":"https://maps.app.goo.gl/cPZpCzgEKX45Ej6G8?g_st=ipc","address":"Αρχελάου 16, Αθήνα 116 35","categoryIds":["cheap-eats"],"categories":["Gyros & Cheap Eats"],"distanceKm":0.14396695446945426},{"id":"familyFriendly_40c293d69cb0","slug":"elliniko-paidiko-moyseio-40c2","kind":"restaurant","name":"Ελληνικό Παιδικό Μουσείο","lat":37.97343665476228,"lng":23.744227584570496,"url":"https://maps.app.goo.gl/wiMy56MxapPr4udz6?g_st=ipc","address":"Βασ. Γεωργίου B 19, Αθήνα 106 75","categoryIds":["family-friendly"],"categories":["Kid Friendly Locations"],"distanceKm":0.1621272350866745},{"id":"burgersRestaurants_a48e075150a2","slug":"greasy-spoon-athens-a48e","kind":"restaurant","name":"Greasy Spoon Athens","lat":37.971165228067136,"lng":23.74653583168114,"url":"https://maps.app.goo.gl/jy3gfbvNXVipSkrJA?g_st=ic","address":"Archelaou 14, Athina 116 35","categoryIds":["burgers"],"categories":["Burger Spots"],"distanceKm":0.1645316870043105},{"id":"burgersRestaurants_7ee34e05dcb7","slug":"x11-burgers-7ee3","kind":"restaurant","name":"X11 Burgers","lat":37.97115113774925,"lng":23.746564304670212,"url":"https://maps.app.goo.gl/kMJu1ePUZJzGwAJdA?g_st=ipc","address":"Αρχελάου 14, Αθήνα 116 35","categoryIds":["burgers"],"categories":["Burger Spots"],"distanceKm":0.16716393232711643},{"id":"greekRestaurants_52e671578a6f","slug":"karavitis-52e6","kind":"restaurant","name":"Καραβίτης","lat":37.97158436368886,"lng":23.743633373686446,"url":"https://maps.app.goo.gl/8qs2pU39Ev8Bi4Gu6","address":"Παυσανίου 4, Αθήνα 116 35","categoryIds":["greek-restaurants"],"categories":["Greek Restaurants"],"distanceKm":0.1943718855348269},{"id":"vegetarianRestaurants_273e01494cb2","slug":"groceristas-273e","kind":"restaurant","name":"Groceristas","lat":37.97253235052261,"lng":23.747890805995713,"url":"https://maps.app.goo.gl/s2jj4xW4U6Pk7W3N9?g_st=ipc","address":"Σπύρου Μερκούρη 50, Αθήνα 116 34","categoryIds":["vegetarian"],"categories":["Vegetarian Friendly Restaurants"],"distanceKm":0.203639696296895},{"id":"italianRestaurants_13c0dc268b15","slug":"lost-athens-13c0","kind":"restaurant","name":"Lost Athens","lat":37.970670759829304,"lng":23.746680147108094,"url":"https://maps.app.goo.gl/Y9CFJNjG4R2hx4hB6?g_st=ipc","address":"Αρχελάου 7, Αθήνα 116 35","categoryIds":["italian"],"categories":["Italian Restaurants"],"distanceKm":0.21888999754371402},{"id":"coffeeBrunchRestaurants_6e5370c63d00","slug":"moden-6e53","kind":"restaurant","name":"Moden","lat":37.971223973274974,"lng":23.748242971172175,"url":"https://maps.app.goo.gl/LCSd8nHPjaUEMAGx8?g_st=ipc","address":"Αμασείας 6 &, Πρατίνου 53, Αθήνα 116 34","categoryIds":["coffee-brunch"],"categories":["Coffee & Brunch Spots"],"distanceKm":0.2701389370190009},{"id":"coffeeBrunchRestaurants_512abfbcd215","slug":"monokeros-bakery-512a","kind":"restaurant","name":"Monokeros Bakery","lat":37.96998792256903,"lng":23.745206716967704,"url":"https://maps.app.goo.gl/vPfqSycBZPnB31CG6?g_st=ipc","address":"Φαίδρου 4, Αθήνα 116 35","categoryIds":["coffee-brunch"],"categories":["Coffee & Brunch Spots"],"distanceKm":0.2739060388421212},{"id":"luxuryDiningRestaurants_ee54b28fe034","slug":"amen-gastronomic-ee54","kind":"restaurant","name":"Amen Gastronomic","lat":37.970762115684614,"lng":23.743270249717987,"url":"https://maps.app.goo.gl/K2pf3xsJBhwfdAmR8?g_st=ipc","address":"Ηρώνδα 8, Αθήνα 116 35","categoryIds":["luxury-dining"],"categories":["Luxury Dining"],"distanceKm":0.2743171939443356},{"id":"dessertsRestaurants_0ee58cfa385e","slug":"antonis-selekos-conceptual-desserts-0ee5","kind":"restaurant","name":"Antonis Selekos Conceptual Desserts","lat":37.9704115845213,"lng":23.747853371766638,"url":"https://maps.app.goo.gl/63mGgggS1JuTSJJf6?g_st=ipc","address":"Εριφύλης 2, Αθήνα 116 34","categoryIds":["desserts"],"categories":["Dessert Shops"],"distanceKm":0.3010338744192655},{"id":"coffeeBrunchRestaurants_b00f4e81c5ad","slug":"4m-rule-of-4m-b00f","kind":"restaurant","name":"4m (Rule of 4m)","lat":37.9710035656136,"lng":23.742348180047202,"url":"https://maps.app.goo.gl/iznGffRGqEfUmUVL9?g_st=ipc","address":"Αγίου Σπυρίδωνος 5, Αθήνα 116 35","categoryIds":["coffee-brunch"],"categories":["Coffee & Brunch Spots"],"distanceKm":0.32422039855413537},{"id":"mustSeeAttractions_4e1c093b1a30","slug":"vyzantino-kai-christianiko-moyseio-4e1c","kind":"restaurant","name":"Βυζαντινό και Χριστιανικό Μουσείο","lat":37.9753760157153,"lng":23.744611863575788,"url":"https://maps.app.goo.gl/jffFuAXc3Vq1DSsD8?g_st=ipc","address":"Λεωφ. Βασιλίσσης Σοφίας 22, Αθήνα 106 75","categoryIds":["attractions"],"categories":["Must-See Attractions"],"distanceKm":0.3377204870573279},{"id":"italianRestaurants_67b7b653e959","slug":"cupola-67b7","kind":"restaurant","name":"Cupola","lat":37.97044661658537,"lng":23.742232273257617,"url":"https://maps.app.goo.gl/mFVjH2gTLzicYaVJA?g_st=ipc","address":"Ευφοριωνος 13, Αθήνα 116 35","categoryIds":["italian"],"categories":["Italian Restaurants"],"distanceKm":0.36674929532528866},{"id":"coffeeBrunchRestaurants_d264f60c48b5","slug":"kekkos-traditional-cafe-pastry-d264","kind":"restaurant","name":"Κekkos Traditional Cafe & Pastry","lat":37.97039127677511,"lng":23.74203472592943,"url":"https://maps.app.goo.gl/2kmhegcNKQWPm1QD6?g_st=ipc","address":"Ερατοσθένους 7, Αθήνα 116 35","categoryIds":["coffee-brunch"],"categories":["Coffee & Brunch Spots"],"distanceKm":0.3843158613474044},{"id":"burgersRestaurants_7a76471a6430","slug":"nob-burger-7a76","kind":"restaurant","name":"nob.burger","lat":37.97058357459842,"lng":23.741857084173848,"url":"https://maps.app.goo.gl/7ty7gMmfJYVeTM5H9?g_st=ipc","address":"Ερατοσθένους 3, Αθήνα 116 35","categoryIds":["burgers"],"categories":["Burger Spots"],"distanceKm":0.385144055164762},{"id":"coffeeBrunchRestaurants_1e75db395902","slug":"to-loyvro-1e75","kind":"restaurant","name":"Το Λούβρο","lat":37.970011751193255,"lng":23.742186500606625,"url":"https://maps.app.goo.gl/YkKoXGLhpNyAx3V76?g_st=ipc","address":"Ερατοσθένους 6, Αθήνα 116 35","categoryIds":["coffee-brunch"],"categories":["Coffee & Brunch Spots"],"distanceKm":0.4007299254411737},{"id":"municipalities_0fd1d03201a0","slug":"mets-0fd1","kind":"municipality","name":"Μετς","lat":37.9685,"lng":23.7453,"region":"Κέντρο Αθήνας","name_en":"Mets","region_en":"Athens Center","distanceKm":0.4381325340892437},{"id":"cheapEatsRestaurants_ba468327c890","slug":"pita-pan-ba46","kind":"restaurant","name":"Πίτα Παν","lat":37.973982654052946,"lng":23.750253307976614,"url":"https://maps.app.goo.gl/WYXA6LyZWmcPcu219?g_st=ipc","address":"Ιοφώντος 33, Αθήνα 116 34","categoryIds":["cheap-eats"],"categories":["Gyros & Cheap Eats"],"distanceKm":0.44507411270073644},{"id":"asianRestaurants_29ff4585bb4b","slug":"koi-sushi-bar-pangrati-29ff","kind":"restaurant","name":"Koi Sushi Bar | Pangrati","lat":37.96792632318897,"lng":23.745129343308996,"url":"https://maps.app.goo.gl/jArTQMm2HTtNhyqu6?g_st=ipc","address":"Ευτυχίδου 10, Αθήνα 116 35","categoryIds":["asian"],"categories":["Asian Restaurants"],"distanceKm":0.5027707138366856}],"sameRegion":[],"mentionedGuides":[],"canonicalSlug":"ohh-boy-a146","enrichment":{"summary_en":"Ohh Boy is a curated restaurant in Αθήνα 116 35 in the Dessert Shops collection. It is connected to 89 nearby Googlementor picks to help travelers build a stronger local route.","summary_el":"Ohh Boy είναι ένα επιλεγμένο σημείο φαγητού στην περιοχή Αθήνα 116 35 και ανήκει στη συλλογή Dessert Shops. Συνδέεται με 89 κοντινές προτάσεις του Googlementor για πιο ολοκληρωμένη εμπειρία.","vibe_tags":["curated","sweet-stop"],"best_for":["first-time visitors","food lovers"],"visit_moments":["afternoon break","after dinner"],"practical_note":"Address and direct map link are available for easy turn-by-turn access.","nearby_walkable_count":89,"nearby_count_2km":555,"confidence":0.98},"areaContext":{"slug":"mets","name":"Mets","nameEl":"Μετς"},"intentContexts":[{"href":"/desserts/mets","label":"Dessert Shops in Mets","categorySlug":"desserts","categoryName":"Dessert Shops","areaSlug":"mets","areaName":"Mets","areaNameEl":"Μετς"},{"href":"/vegetarian/mets","label":"Vegetarian Friendly Restaurants in Mets","categorySlug":"vegetarian","categoryName":"Vegetarian Friendly Restaurants","areaSlug":"mets","areaName":"Mets","areaNameEl":"Μετς"}]},"__N_SSG":true}