{"pageProps":{"entity":{"id":"familyFriendly_df83d6806c13","slug":"oneiroypoli-dramas-df83","kind":"restaurant","name":"Ονειρούπολη Δράμας","lat":41.147983932052774,"lng":24.146200919467475,"url":"https://maps.app.goo.gl/hQZWfg9QfnFeMyBTA?g_st=ipc","address":"Drama 661 00","categoryIds":["family-friendly"],"categories":["Kid Friendly Locations"]},"sameCategory":[{"id":"familyFriendly_759047e52d1a","slug":"waterfall-st-barbara-7590","kind":"restaurant","name":"Waterfall St. Barbara","lat":41.34373735977138,"lng":24.590726669205488,"url":"https://maps.app.goo.gl/r2tEVGwv5yEFHniq9?g_st=ipc","address":"Epar.Od. Paranestiou-Sidironerou, Paranesti 660 35","categoryIds":["family-friendly"],"categories":["Kid Friendly Locations"]},{"id":"familyFriendly_6cccce33a316","slug":"agioi-anargyroi-valley-6ccc","kind":"restaurant","name":"Agioi Anargyroi Valley","lat":41.10410121996559,"lng":23.55204878636089,"url":"https://maps.app.goo.gl/68ZgyahuDevJAYMF7?g_st=ipc","address":"Exochon 2, Serres 621 22","categoryIds":["family-friendly"],"categories":["Kid Friendly Locations"]},{"id":"familyFriendly_01303988a2f8","slug":"epayli-polychoros-0130","kind":"restaurant","name":"ΕΠΑΥΛΗ ΠΟΛΥΧΩΡΟΣ","lat":40.75395960844959,"lng":23.38058073371101,"url":"https://maps.app.goo.gl/JZgqDi5s61t76JMo6?g_st=ic","address":"Askos 570 16","categoryIds":["family-friendly"],"categories":["Kid Friendly Locations"]},{"id":"familyFriendly_d34de8d9d566","slug":"kerkini-lake-national-park-d34d","kind":"restaurant","name":"Kerkini Lake National Park","lat":41.25926151784883,"lng":23.14040332719198,"url":"https://maps.app.goo.gl/HMY8KCD3WrpUh6xp6?g_st=ipc","address":"Κερκίνη, 620 55","categoryIds":["family-friendly","attractions"],"categories":["Kid Friendly Locations","Must-See Attractions"],"legacySlugs":["kerkini-lake-national-park-65d9"]},{"id":"familyFriendly_5e59e0204835","slug":"platanorama-5e59","kind":"restaurant","name":"Platanórama","lat":40.58774137724462,"lng":23.252726275052023,"url":"https://maps.app.goo.gl/aNsGddhwQVLYuHvq9?g_st=ipc","address":"8χλμ. Γερακαρου-Ζαγκλιβερι, Zagkliveri 570 12","categoryIds":["family-friendly"],"categories":["Kid Friendly Locations"]},{"id":"familyFriendly_681712a05721","slug":"ichnilatis-oneiron-ktima-klimentini-6817","kind":"restaurant","name":"Ιχνηλάτης Ονείρων - Κτήμα Κλημεντινη","lat":40.67362926471837,"lng":23.088737171472587,"url":"https://maps.app.goo.gl/zejLUTjQA5bbDHBb6?g_st=ipc","address":"EO Thessalonikis Kavalas, Volvi 572 00","categoryIds":["family-friendly"],"categories":["Kid Friendly Locations"]},{"id":"familyFriendly_dda24e69f0c9","slug":"ktima-chaideytos-dda2","kind":"restaurant","name":"Κτήμα Χαϊδευτός","lat":40.70742578041207,"lng":23.04278762334095,"url":"https://maps.app.goo.gl/4acWduunHuC2yzqCA?g_st=ipc","address":"Kavallari 572 00","categoryIds":["family-friendly"],"categories":["Kid Friendly Locations"]},{"id":"familyFriendly_bde356affb96","slug":"pony-park-bde3","kind":"restaurant","name":"Pony park","lat":40.771648089590926,"lng":22.997360084589175,"url":"https://maps.app.goo.gl/g2acMrTmNxKzTfi17?g_st=ic","address":"14χλμ ΠΕΟ, EO Thessalonikis Serron, Oreokastro 572 00","categoryIds":["family-friendly"],"categories":["Kid Friendly Locations"]},{"id":"familyFriendly_4e467d7db3ce","slug":"perivallontiko-parko-dervenioy-4e46","kind":"restaurant","name":"Περιβαλλοντικό Πάρκο Δερβενίου","lat":40.7144477049586,"lng":22.966013369993284,"url":"https://maps.app.goo.gl/12YHRaQcoWEy1dcC6?g_st=ipc","address":"Mygdonia 545 00","categoryIds":["family-friendly"],"categories":["Kid Friendly Locations"]},{"id":"familyFriendly_b6a37bf1af44","slug":"platanakia-natura-b6a3","kind":"restaurant","name":"Platanakia Natura","lat":40.59354583506236,"lng":23.05309273408505,"url":"https://maps.app.goo.gl/6g3bBu8datKxsCYq7?g_st=ipc","address":"St Paraskevopoulou, Panorama 552 36","categoryIds":["family-friendly"],"categories":["Kid Friendly Locations"]},{"id":"familyFriendly_fddc2b47a16c","slug":"family-sports-club-fddc","kind":"restaurant","name":"Family Sports Club","lat":40.655661119206584,"lng":22.9951268038431,"url":"https://maps.app.goo.gl/P3RfiqzgWLJwu2HN6?g_st=ipc","address":"Tositsa 18, Thessaloniki 570 10","categoryIds":["family-friendly"],"categories":["Kid Friendly Locations"]},{"id":"familyFriendly_7fb51600aa06","slug":"tavern-moustakas-7fb5","kind":"restaurant","name":"TAVERN 'MOUSTAKAS'","lat":40.48840354435027,"lng":23.133350169062904,"url":"https://maps.app.goo.gl/fKdiSDKLKGdGC5V28?g_st=ipc","address":"Βασιλικά Θεσσαλονίκης, Θεσσαλονίκη 570 06","categoryIds":["family-friendly","greek-restaurants"],"categories":["Kid Friendly Locations","Greek Restaurants"],"legacySlugs":["tavern-moustakas-abcf"]}],"nearby":[{"id":"municipalities_8789afaef2a4","slug":"drama-8789","kind":"municipality","name":"Δράμα","lat":41.151,"lng":24.145,"region":"Ανατολική Μακεδονία και Θράκη","name_en":"Drama","region_en":"Eastern Macedonia & Thrace","distanceKm":0.35012102948280033},{"id":"dessertsRestaurants_6dd39e58dc31","slug":"ntinos-patisserie-6dd3","kind":"restaurant","name":"Ntinos Patisserie","lat":41.151585513355016,"lng":24.14300415927613,"url":"https://maps.app.goo.gl/HZ2MFbKvrx1G3nXf9?g_st=ipc","address":"El. Venizelou 93, Drama 661 00","categoryIds":["desserts"],"categories":["Dessert Shops"],"distanceKm":0.48168950029833435},{"id":"dessertsRestaurants_fa96f575f727","slug":"armenoville-fa96","kind":"restaurant","name":"Armenovílle","lat":41.14370182931695,"lng":24.14876446334483,"url":"https://maps.app.goo.gl/7nzHrRoeVuv244XT6?g_st=ipc","address":"1is Iouliou 6, Drama 661 00","categoryIds":["desserts"],"categories":["Dessert Shops"],"distanceKm":0.5222968725729614},{"id":"wineriesVineyards_21e4fc1e860b","slug":"wine-art-estate-21e4","kind":"restaurant","name":"\"Wine Art\" Estate","lat":41.10253195746925,"lng":24.17303276432893,"url":"https://maps.app.goo.gl/kuEE1xd8ov4WsHDd9?g_st=ipc","address":"p. mela 2, Mikrochori 661 00","categoryIds":["wineries-vineyards"],"categories":["Wineries & Vineyards"],"distanceKm":5.531202130367835},{"id":"wineriesVineyards_554af4e222d0","slug":"oenogenesis-s-a-554a","kind":"restaurant","name":"OENOGENESIS S.A.","lat":41.11655968127127,"lng":24.244269125370955,"url":"https://maps.app.goo.gl/bnEeezvifVHw7rFq7?g_st=ipc","address":"Επί επαρχιακής οδού Δοξάτο-Αδριανή, Adriani 661 00","categoryIds":["wineries-vineyards"],"categories":["Wineries & Vineyards"],"distanceKm":8.92571545046307},{"id":"wineriesVineyards_a9a7cc1f9625","slug":"estates-costa-lazaridi-drama-a9a7","kind":"restaurant","name":"Estates Costa Lazaridi Drama","lat":41.13086312258315,"lng":24.259959410750362,"url":"https://maps.app.goo.gl/Kw5f3uTchrYrtq7G7?g_st=ipc","address":"Epar.Od. Platamona - Adrianis 47, Adriani 661 00","categoryIds":["wineries-vineyards"],"categories":["Wineries & Vineyards"],"distanceKm":9.71473523738493},{"id":"wineriesVineyards_0cdfcd6ce302","slug":"nico-lazaridi-chateau-nico-lazaridi-oinopoieio-nikoy-lazaridi-0cdf","kind":"restaurant","name":"NICO LAZARIDI Château Nico Lazaridi - Οινοποιείο Νίκου Λαζαρίδη","lat":41.129507803067504,"lng":24.279792635578804,"url":"https://maps.app.goo.gl/WKD1nyVBu5sjxUqV8?g_st=ipc","address":"Κοινότητα Αγοράς, Δράμα, Agora 660 32","categoryIds":["wineries-vineyards"],"categories":["Wineries & Vineyards"],"distanceKm":11.374442556210218},{"id":"coffeeBrunchRestaurants_1e661ed95ce8","slug":"river-cafe-1e66","kind":"restaurant","name":"River Cafe","lat":41.06113826137017,"lng":24.26515962969056,"url":"https://maps.app.goo.gl/MD2gmED1xtQRvMJS6?g_st=ipc","address":"Άνω Κεφαλάρι 660 32","categoryIds":["coffee-brunch"],"categories":["Coffee & Brunch Spots"],"distanceKm":13.877956713443814},{"id":"wineriesVineyards_3da11558d51a","slug":"ktima-pavlidis-3da1","kind":"restaurant","name":"Ktima Pavlidis","lat":41.20099538103468,"lng":23.95247116441372,"url":"https://maps.app.goo.gl/7JsSGRBJR1mceRNE9?g_st=ipc","address":"Kokinogeia 662 00","categoryIds":["wineries-vineyards"],"categories":["Wineries & Vineyards"],"distanceKm":17.252867812663276},{"id":"wineriesVineyards_eb4eefea1ef8","slug":"oenops-wines-eb4e","kind":"restaurant","name":"OENOPS WINES","lat":41.18716398837062,"lng":23.94513089525479,"url":"https://maps.app.goo.gl/FMCPZ5ZmPNoWEBFVA?g_st=ipc","address":"3ο χλμ επαρχιακής οδού Προσοτσάνης, Kokkinogia 662 00","categoryIds":["wineries-vineyards"],"categories":["Wineries & Vineyards"],"distanceKm":17.385505766157987},{"id":"mustSeeAttractions_e57cfb521268","slug":"archaeological-site-of-philippi-e57c","kind":"restaurant","name":"Archaeological Site of Philippi","lat":41.012686338997746,"lng":24.287678993251607,"url":"https://maps.app.goo.gl/1Uc3YFqdrM7dERMj7?g_st=ipc","address":"EO Dramas Kavalas, Filippi 640 03","categoryIds":["attractions"],"categories":["Must-See Attractions"],"distanceKm":19.15604673493353},{"id":"coffeeBrunchRestaurants_3f658622b548","slug":"sklaris-3f65","kind":"restaurant","name":"Sklaris","lat":40.972805070668926,"lng":24.140591861373508,"url":"https://maps.app.goo.gl/1UACMfNmgegpjXm16?g_st=ipc","address":"Serron 17, Ag. Christoforos 640 01","categoryIds":["coffee-brunch"],"categories":["Coffee & Brunch Spots"],"distanceKm":19.484676763806803},{"id":"mustSeeAttractions_d9c422353054","slug":"aggitis-river-cave-d9c4","kind":"restaurant","name":"Aggitis River cave","lat":41.21974670515024,"lng":23.89452873558432,"url":"https://maps.app.goo.gl/qtxP37nP5GgrXXV27?g_st=ipc","address":"Πηγές, Aggitis 662 00","categoryIds":["attractions"],"categories":["Must-See Attractions"],"distanceKm":22.522247512483958},{"id":"municipalities_48180ac7ab6a","slug":"kavala-4818","kind":"municipality","name":"Καβάλα","lat":40.937,"lng":24.406,"region":"Κεντρική Μακεδονία","name_en":"Kavala","region_en":"Central Macedonia","distanceKm":32.017389108679886},{"id":"dessertsRestaurants_429ae1be11cf","slug":"evangelou-confectionary-429a","kind":"restaurant","name":"Evangelou Confectionary","lat":40.93760506506312,"lng":24.410866727456785,"url":"https://maps.app.goo.gl/RP9XvJeTKjnB3SyW7?g_st=ipc","address":"P. Mela 6, Kavala 653 02","categoryIds":["desserts"],"categories":["Dessert Shops"],"distanceKm":32.24761536492251},{"id":"dessertsRestaurants_63113ea4bb9d","slug":"ntinos-patisserie-6311","kind":"restaurant","name":"Ntinos Patisserie","lat":40.93677597847986,"lng":24.41089117085129,"url":"https://maps.app.goo.gl/k1igYo9JRosLStDy7?g_st=ipc","address":"El. Venizelou 25, Kavala 653 02","categoryIds":["desserts"],"categories":["Dessert Shops"],"distanceKm":32.31605822218373},{"id":"rooftopLoungesRestaurants_bb49421d891b","slug":"swell-roof-garden-bb49","kind":"restaurant","name":"Swell Roof Garden","lat":40.93644468023091,"lng":24.41131352952831,"url":"https://maps.app.goo.gl/u2rtEnenzWiQA1C79?g_st=ipc","address":"El. Venizelou 17, Kavala 653 02","categoryIds":["rooftop-lounges"],"categories":["Rooftop Lounges"],"distanceKm":32.36720012088164},{"id":"dessertsRestaurants_45b658e0e38d","slug":"marantidis-konstantinos-45b6","kind":"restaurant","name":"Marantidis Konstantinos","lat":40.940415746394464,"lng":24.418722029538895,"url":"https://maps.app.goo.gl/DuCK5b9RjUfShnnG8?g_st=ipc","address":"Sappeon 7, Kavala 652 01","categoryIds":["desserts"],"categories":["Dessert Shops"],"distanceKm":32.481395067439195},{"id":"fishTavernasRestaurants_aecb96de4396","slug":"savvas-aecb","kind":"restaurant","name":"Savvas","lat":40.942255728565115,"lng":24.425243186310322,"url":"https://maps.app.goo.gl/HRHjPKGDuwcWxApM7?g_st=ipc","address":"Thasou 29, Kavala 652 01","categoryIds":["fish-tavernas"],"categories":["Fish Tavernas"],"distanceKm":32.72491325221157}],"sameRegion":[],"mentionedGuides":[],"canonicalSlug":"oneiroypoli-dramas-df83","enrichment":{"summary_en":"Ονειρούπολη Δράμας is a curated restaurant in Greece in the Kid Friendly Locations collection. It is connected to 3 nearby Googlementor picks to help travelers build a stronger local route.","summary_el":"Ονειρούπολη Δράμας είναι ένα επιλεγμένο σημείο φαγητού στην περιοχή Greece και ανήκει στη συλλογή Kid Friendly Locations. Συνδέεται με 3 κοντινές προτάσεις του Googlementor για πιο ολοκληρωμένη εμπειρία.","vibe_tags":["curated","family-ready"],"best_for":["first-time visitors","food lovers","families"],"visit_moments":["lunch stop","dinner stop"],"practical_note":"Address and direct map link are available for easy turn-by-turn access.","nearby_walkable_count":3,"nearby_count_2km":3,"confidence":0.9},"areaContext":null,"intentContexts":[]},"__N_SSG":true}