{"pageProps":{"entity":{"id":"greekRestaurants_7ec3d69bed0e","slug":"paggaion-7ec3","kind":"restaurant","name":"Παγγαίον","lat":40.60814749933467,"lng":22.96161599459279,"url":"https://maps.app.goo.gl/LDfYbYAQqiNM26EUA?g_st=ipc","address":"Τομπάζη 31, Θεσσαλονίκη 546 44","categoryIds":["greek-restaurants"],"categories":["Greek Restaurants"]},"sameCategory":[{"id":"greekRestaurants_575dfe5a741b","slug":"menu-me-noy-575d","kind":"restaurant","name":"Menu με...νου","lat":40.60815951661583,"lng":22.966514659148867,"url":"https://maps.app.goo.gl/x5kA6azJxjLv1HQX6?g_st=ipc","address":"Αλεξάνδρου Παπαναστασίου, Δ 87, Thessaloniki 544 53","categoryIds":["greek-restaurants"],"categories":["Greek Restaurants"]},{"id":"cheapEatsRestaurants_c619a7c97409","slug":"to-kokoraki-c619","kind":"restaurant","name":"ΤΟ ΚΟΚΟΡΑΚΙ","lat":40.6088349903696,"lng":22.967918512345722,"url":"https://maps.app.goo.gl/KNA3DuGAxNV9SYMs8?g_st=ipc","address":"Mark. Mpotsari 105, Thessaloniki 544 53","categoryIds":["cheap-eats","greek-restaurants"],"categories":["Gyros & Cheap Eats","Greek Restaurants"],"legacySlugs":["to-kokoraki-5da1"]},{"id":"greekRestaurants_cc662124d683","slug":"kafe-oyzeri-alekos-cc66","kind":"restaurant","name":"Καφέ Ουζερί Αλέκος","lat":40.6091971451293,"lng":22.955175029539653,"url":"https://maps.app.goo.gl/yo3KzKF59icWfQtFA?g_st=ipc","address":"Kosma tou Εtolou 22, Thessaloniki 546 43","categoryIds":["greek-restaurants"],"categories":["Greek Restaurants"]},{"id":"greekRestaurants_c1766e7bf95f","slug":"i-palia-athina-c176","kind":"restaurant","name":"Η Παλιά Αθήνα","lat":40.60696697600651,"lng":22.970143293615717,"url":"https://maps.app.goo.gl/uzsrCErBcVQi2b349?g_st=ipc","address":"Ίμβρου 24, Θεσσαλονίκη 544 53","categoryIds":["greek-restaurants"],"categories":["Greek Restaurants"]},{"id":"greekRestaurants_bb87e6a51434","slug":"o-daskalos-bb87","kind":"restaurant","name":"Ο ΔΑΣΚΑΛΟΣ","lat":40.607225167696676,"lng":22.970329107131402,"url":"https://maps.app.goo.gl/J1XPLAWFgHM7NWS19?g_st=ipc","address":"Παπάφη 192, Ίμβρου 19-21, Θεσσαλονίκη 544 53","categoryIds":["greek-restaurants"],"categories":["Greek Restaurants"]},{"id":"greekRestaurants_7a4337bc20a6","slug":"akrovatis-7a43","kind":"restaurant","name":"Ακροβάτης","lat":40.61307041653645,"lng":22.9677238002552,"url":"https://maps.app.goo.gl/kcK7ME3teiYGRent6?g_st=ipc","address":"Papafi 113, Thessaloniki 544 53","categoryIds":["greek-restaurants"],"categories":["Greek Restaurants"]},{"id":"greekRestaurants_2b555dc83271","slug":"soyvlakia-o-giannis-2b55","kind":"restaurant","name":"Σουβλάκια \"Ο Γιάννης\"","lat":40.61367230211868,"lng":22.968664986882153,"url":"https://maps.app.goo.gl/rGd5Se34NDg2Q9er5?g_st=ipc","address":"Κλεάνθους 54, Θεσσαλονίκη 544 53","categoryIds":["greek-restaurants"],"categories":["Greek Restaurants"]},{"id":"greekRestaurants_4e13929c0cd5","slug":"fytra-4e13","kind":"restaurant","name":"Φύτρα","lat":40.6012681636797,"lng":22.966673149641366,"url":"https://maps.app.goo.gl/GaGbnHHiWn6UF2go6?g_st=ipc","address":"Αδριανουπόλεως 10, Θεσσαλονίκη 542 49","categoryIds":["greek-restaurants"],"categories":["Greek Restaurants"]},{"id":"greekRestaurants_e19673ba852f","slug":"pire-kai-vradiazei-e196","kind":"restaurant","name":"Πήρε και Βραδιάζει","lat":40.6161654625719,"lng":22.96166588679185,"url":"https://maps.app.goo.gl/Y7iaetGgvQnRv1wAA?g_st=ipc","address":"Ομήρου 7, Θεσσαλονίκη 546 39","categoryIds":["greek-restaurants"],"categories":["Greek Restaurants"]},{"id":"greekRestaurants_6425778ff662","slug":"apeirotan-6425","kind":"restaurant","name":"Απειρωτάν","lat":40.60427891782613,"lng":22.97278851420961,"url":"https://maps.app.goo.gl/Z1kHXx11hgTP2xe29?g_st=ipc","address":"Γυμνασιάρχου Κωνσταντίνου Μικρού 32, Θεσσαλονίκη 542 50","categoryIds":["greek-restaurants"],"categories":["Greek Restaurants"]},{"id":"greekRestaurants_c2f14c425e63","slug":"alatorigani-c2f1","kind":"restaurant","name":"Αλατορίγανη","lat":40.60015243009011,"lng":22.95443250325129,"url":"https://maps.app.goo.gl/8H2pummkPQFjon5o8?g_st=ipc","address":"Λεωφ. Βασιλίσσης Όλγας 177, Θεσσαλονίκη 546 45","categoryIds":["greek-restaurants"],"categories":["Greek Restaurants"]},{"id":"greekRestaurants_0677d6c362a6","slug":"evora-eatery-0677","kind":"restaurant","name":"Εβόρα Eatery","lat":40.61655136125546,"lng":22.969054811212995,"url":"https://maps.app.goo.gl/K4Cnh5DSvkNE3ttK8?g_st=ipc","address":"Διογένους 13, Θεσσαλονίκη 544 53","categoryIds":["greek-restaurants"],"categories":["Greek Restaurants"]}],"nearby":[{"id":"burgersRestaurants_3171f582de55","slug":"mpiftekadiko-to-paggaio-3171","kind":"restaurant","name":"ΜΠΙΦΤΕΚΑΔΙΚΟ \"ΤΟ ΠΑΓΓΑΙΟ\"","lat":40.60721344429672,"lng":22.960412947590548,"url":"https://maps.app.goo.gl/yBjtwqxUfodA37Zy6","address":"Mark. Mpotsari 49, Thessaloniki 546 44","categoryIds":["burgers"],"categories":["Burger Spots"],"distanceKm":0.14526322454840895},{"id":"burgersRestaurants_35e7234b2904","slug":"burger-house-pangeo-35e7","kind":"restaurant","name":"Burger House \"Pangèo\"","lat":40.6072060637355,"lng":22.960414958738784,"url":"https://maps.app.goo.gl/gtiPjSQBMAP3UP1C9?g_st=ic","address":"Mark. Mpotsari 49, Thessaloniki 546 44","categoryIds":["burgers"],"categories":["Burger Spots"],"distanceKm":0.14573297177635455},{"id":"cheapEatsRestaurants_9e983ad5e812","slug":"prassas-9e98","kind":"restaurant","name":"Prassas","lat":40.60822104515919,"lng":22.96538292733955,"url":"https://maps.app.goo.gl/cajfpJVBkeREe7FNA?g_st=ipc","address":"Mark. Mpotsari 89, Thessaloniki 546 44","categoryIds":["cheap-eats"],"categories":["Gyros & Cheap Eats"],"distanceKm":0.3180974727539432},{"id":"dessertsRestaurants_e4f66f8adfe3","slug":"nikos-alexoudas-e4f6","kind":"restaurant","name":"Nikos Alexoudas","lat":40.610389059142975,"lng":22.958123238836652,"url":"https://maps.app.goo.gl/ifbqMFmsGqy7oaxA8?g_st=ipc","address":"Makedonias 18, Thessaloniki 546 42","categoryIds":["desserts"],"categories":["Dessert Shops"],"distanceKm":0.38607984820941105},{"id":"vegetarianRestaurants_afbddf6d4612","slug":"falaifel-afbd","kind":"restaurant","name":"Falaifel","lat":40.605220221287475,"lng":22.958853196988702,"url":"https://maps.app.goo.gl/GhD8UrgWEeP9DmB59?g_st=ipc","address":"Geor. Drosini 12, Thessaloniki 546 44","categoryIds":["vegetarian"],"categories":["Vegetarian Friendly Restaurants"],"distanceKm":0.40043262195008605},{"id":"cheapEatsRestaurants_35033892194c","slug":"souvlaki-street-3503","kind":"restaurant","name":"Souvlaki Street","lat":40.60499215993171,"lng":22.95914208357667,"url":"https://maps.app.goo.gl/8hPpQdZA8iNRAksd7?g_st=ipc","address":"Geor. Drosini 14, Thessaloniki 546 44","categoryIds":["cheap-eats"],"categories":["Gyros & Cheap Eats"],"distanceKm":0.40831021987514626},{"id":"greekRestaurants_575dfe5a741b","slug":"menu-me-noy-575d","kind":"restaurant","name":"Menu με...νου","lat":40.60815951661583,"lng":22.966514659148867,"url":"https://maps.app.goo.gl/x5kA6azJxjLv1HQX6?g_st=ipc","address":"Αλεξάνδρου Παπαναστασίου, Δ 87, Thessaloniki 544 53","categoryIds":["greek-restaurants"],"categories":["Greek Restaurants"],"distanceKm":0.413531837295114},{"id":"coffeeBrunchRestaurants_f80aae297d57","slug":"the-coffee-rawsters-f80a","kind":"restaurant","name":"The Coffee Rawsters","lat":40.605074813300206,"lng":22.958339804305506,"url":"https://maps.app.goo.gl/6bHEuH2VrUaoPjxN6?g_st=ipc","address":"Delfon 117, Thessaloniki 546 44","categoryIds":["coffee-brunch"],"categories":["Coffee & Brunch Spots"],"distanceKm":0.43957757740103},{"id":"coffeeBrunchRestaurants_b83fc8a35279","slug":"byrek-b83f","kind":"restaurant","name":"Byrek","lat":40.604437611308434,"lng":22.958000236614392,"url":"https://maps.app.goo.gl/hxd33pfTMwrTNJ6K6?g_st=ic","address":"Petrou Sindika 46, Thessaloniki 542 48","categoryIds":["coffee-brunch"],"categories":["Coffee & Brunch Spots"],"distanceKm":0.5131708989835015},{"id":"cheapEatsRestaurants_6567e814aa5e","slug":"o-gyros-toy-michali-6567","kind":"restaurant","name":"Ο Γύρος του Μιχάλη","lat":40.60335488153119,"lng":22.961687059004745,"url":"https://maps.app.goo.gl/sNmZpvpUx9Yt5Avj6?g_st=ipc","address":"Makedonias 105, Thessaloniki 542 48","categoryIds":["cheap-eats"],"categories":["Gyros & Cheap Eats"],"distanceKm":0.5329485520559892},{"id":"cheapEatsRestaurants_c619a7c97409","slug":"to-kokoraki-c619","kind":"restaurant","name":"ΤΟ ΚΟΚΟΡΑΚΙ","lat":40.6088349903696,"lng":22.967918512345722,"url":"https://maps.app.goo.gl/KNA3DuGAxNV9SYMs8?g_st=ipc","address":"Mark. Mpotsari 105, Thessaloniki 544 53","categoryIds":["cheap-eats","greek-restaurants"],"categories":["Gyros & Cheap Eats","Greek Restaurants"],"legacySlugs":["to-kokoraki-5da1"],"distanceKm":0.5374997864235173},{"id":"cheapEatsRestaurants_f51539f3f3fe","slug":"kostas-f515","kind":"restaurant","name":"Kostas","lat":40.608571752720515,"lng":22.967969048628863,"url":"https://maps.app.goo.gl/bUnuC1Vh9ysa2VhL6?g_st=ipc","address":"Mark. Mpotsari 120, Thessaloniki 546 43","categoryIds":["cheap-eats"],"categories":["Gyros & Cheap Eats"],"distanceKm":0.5383737792296108},{"id":"greekRestaurants_cc662124d683","slug":"kafe-oyzeri-alekos-cc66","kind":"restaurant","name":"Καφέ Ουζερί Αλέκος","lat":40.6091971451293,"lng":22.955175029539653,"url":"https://maps.app.goo.gl/yo3KzKF59icWfQtFA?g_st=ipc","address":"Kosma tou Εtolou 22, Thessaloniki 546 43","categoryIds":["greek-restaurants"],"categories":["Greek Restaurants"],"distanceKm":0.5561075361028637},{"id":"municipalities_fe83c68ec29d","slug":"nea-paralia-fe83","kind":"municipality","name":"Νέα Παραλία","lat":40.6108,"lng":22.955,"region":"Θεσσαλονίκη","name_en":"Nea Paralia","region_en":"Thessaloniki","distanceKm":0.6315881661334545},{"id":"familyFriendly_06e3b0e7591a","slug":"hado-arena-toumpa-06e3","kind":"restaurant","name":"HADO ARENA TOUMPA","lat":40.61298475023653,"lng":22.966163361832432,"url":"https://maps.app.goo.gl/Y3M4X3SLfpUBctf88?g_st=ipc","address":"Kleanthous 25, Thessaloniki 544 53","categoryIds":["family-friendly"],"categories":["Kid Friendly Locations"],"distanceKm":0.6608035289087405},{"id":"municipalities_8679714322fe","slug":"martioy-8679","kind":"municipality","name":"Μαρτίου","lat":40.6024,"lng":22.9596,"region":"Θεσσαλονίκη","name_en":"Martiou","region_en":"Thessaloniki","distanceKm":0.6613657109392901},{"id":"cheapEatsRestaurants_f00923c77588","slug":"terpsilaryngio-f009","kind":"restaurant","name":"Terpsilarýngio","lat":40.60676570771858,"lng":22.953926859309924,"url":"https://maps.app.goo.gl/AqaCxycK19KfYLPcA?g_st=ipc","address":"Mark. Mpotsari 14, Thessaloniki 546 43","categoryIds":["cheap-eats"],"categories":["Gyros & Cheap Eats"],"distanceKm":0.6670363016410619},{"id":"cheapEatsRestaurants_0368efbccc32","slug":"grill-junior-0368","kind":"restaurant","name":"Grill Junior","lat":40.60286928963285,"lng":22.956953349868357,"url":"https://maps.app.goo.gl/KmNipqE8jJT8qrZ17?g_st=ipc","address":"Thermopilon 31, Thessaloniki 542 48","categoryIds":["cheap-eats"],"categories":["Gyros & Cheap Eats"],"distanceKm":0.7066832194190251},{"id":"coffeeBrunchRestaurants_3f47d83b09c0","slug":"butterflies-and-hurricanes-3f47","kind":"restaurant","name":"Butterflies And Hurricanes","lat":40.61464844201882,"lng":22.960841697890658,"url":"https://maps.app.goo.gl/Gesp19RwCPBWQ9s58?g_st=ipc","address":"Pindarou 1, Thessaloniki 546 39","categoryIds":["coffee-brunch","vegetarian"],"categories":["Coffee & Brunch Spots","Vegetarian Friendly Restaurants"],"legacySlugs":["butterflies-and-hurricanes-37b6"],"distanceKm":0.7258207064389377},{"id":"greekRestaurants_c1766e7bf95f","slug":"i-palia-athina-c176","kind":"restaurant","name":"Η Παλιά Αθήνα","lat":40.60696697600651,"lng":22.970143293615717,"url":"https://maps.app.goo.gl/uzsrCErBcVQi2b349?g_st=ipc","address":"Ίμβρου 24, Θεσσαλονίκη 544 53","categoryIds":["greek-restaurants"],"categories":["Greek Restaurants"],"distanceKm":0.7317246401349496},{"id":"greekRestaurants_bb87e6a51434","slug":"o-daskalos-bb87","kind":"restaurant","name":"Ο ΔΑΣΚΑΛΟΣ","lat":40.607225167696676,"lng":22.970329107131402,"url":"https://maps.app.goo.gl/J1XPLAWFgHM7NWS19?g_st=ipc","address":"Παπάφη 192, Ίμβρου 19-21, Θεσσαλονίκη 544 53","categoryIds":["greek-restaurants"],"categories":["Greek Restaurants"],"distanceKm":0.7426540114979071},{"id":"greekRestaurants_7a4337bc20a6","slug":"akrovatis-7a43","kind":"restaurant","name":"Ακροβάτης","lat":40.61307041653645,"lng":22.9677238002552,"url":"https://maps.app.goo.gl/kcK7ME3teiYGRent6?g_st=ipc","address":"Papafi 113, Thessaloniki 544 53","categoryIds":["greek-restaurants"],"categories":["Greek Restaurants"],"distanceKm":0.7519813139038065},{"id":"asianRestaurants_e9c045aff53d","slug":"sushaki-greek-sushi-experience-e9c0","kind":"restaurant","name":"Sushaki | Greek Sushi Experience","lat":40.60428165420744,"lng":22.954061100104322,"url":"https://maps.app.goo.gl/Tfd55EpuS182EpUw7","address":"Petrou Sindika 11, Thessaloniki 546 43","categoryIds":["asian"],"categories":["Asian Restaurants"],"distanceKm":0.7691185050792114},{"id":"cheapEatsRestaurants_3c28289caa25","slug":"giotis-3c28","kind":"restaurant","name":"Giotis","lat":40.60922266804071,"lng":22.97064673048183,"url":"https://maps.app.goo.gl/EWmSLiCCxYM2N33x6?g_st=ipc","address":"Mark. Mpotsari 150, Thessaloniki 544 53","categoryIds":["cheap-eats"],"categories":["Gyros & Cheap Eats"],"distanceKm":0.7716574133412754}],"sameRegion":[],"mentionedGuides":[],"canonicalSlug":"paggaion-7ec3","enrichment":{"summary_en":"Παγγαίον is a curated restaurant in Θεσσαλονίκη 546 44 in the Greek Restaurants collection. It is connected to 25 nearby Googlementor picks to help travelers build a stronger local route.","summary_el":"Παγγαίον είναι ένα επιλεγμένο σημείο φαγητού στην περιοχή Θεσσαλονίκη 546 44 και ανήκει στη συλλογή Greek Restaurants. Συνδέεται με 25 κοντινές προτάσεις του Googlementor για πιο ολοκληρωμένη εμπειρία.","vibe_tags":["curated"],"best_for":["first-time visitors","food lovers"],"visit_moments":["lunch stop","dinner stop"],"practical_note":"Address and direct map link are available for easy turn-by-turn access.","nearby_walkable_count":25,"nearby_count_2km":102,"confidence":0.98},"areaContext":{"slug":"nea-paralia","name":"Nea Paralia","nameEl":"Νέα Παραλία"},"intentContexts":[{"href":"/greek-restaurants/nea-paralia","label":"Greek Restaurants in Nea Paralia","categorySlug":"greek-restaurants","categoryName":"Greek Restaurants","areaSlug":"nea-paralia","areaName":"Nea Paralia","areaNameEl":"Νέα Παραλία"}]},"__N_SSG":true}