{"pageProps":{"entity":{"id":"greekRestaurants_444a91b0d47e","slug":"palia-istoria-444a","kind":"restaurant","name":"Palia Istoria","lat":38.00382710735469,"lng":23.80429280671415,"url":"https://maps.app.goo.gl/B17edct7kP9fC5KM6?g_st=ipc","address":"Αμφίσσης 34, Χολαργός 155 62","categoryIds":["greek-restaurants"],"categories":["Greek Restaurants"]},"sameCategory":[{"id":"greekRestaurants_8119dfa50c2c","slug":"koykoynari-8119","kind":"restaurant","name":"Κουκουνάρι","lat":38.00642992366494,"lng":23.79814620669878,"url":"https://maps.app.goo.gl/BiMbFyaSNWwLRETTA?g_st=ipc","address":"Λεωφ. Μεσογείων 262, Χολαργός 155 62","categoryIds":["greek-restaurants"],"categories":["Greek Restaurants"]},{"id":"greekRestaurants_7b449c4e0fce","slug":"ta-platania-7b44","kind":"restaurant","name":"Τα Πλατάνια","lat":38.00304382571398,"lng":23.81401749329889,"url":"https://maps.app.goo.gl/7XNFATTa6teFNs8r9?g_st=ipc","address":"Μπουμπουλίνας 31, Αγ. Παρασκευή 153 41","categoryIds":["greek-restaurants"],"categories":["Greek Restaurants"]},{"id":"greekRestaurants_8c8e269305b0","slug":"nison-gi-8c8e","kind":"restaurant","name":"Νήσων Γη","lat":38.011331255497275,"lng":23.81122856443911,"url":"https://maps.app.goo.gl/wmEbsZ59WvGe41oB6?g_st=ipc","address":"Λεωφ. Μεσογείων 356, Αγ. Παρασκευή 153 41","categoryIds":["greek-restaurants"],"categories":["Greek Restaurants"]},{"id":"greekRestaurants_8e94a0e9697c","slug":"to-steki-tis-tompra-8e94","kind":"restaurant","name":"Το στέκι της Τόμπρα","lat":38.01114194965107,"lng":23.812150664429954,"url":"https://maps.app.goo.gl/nzMoaK1cxHPd4BAQA?g_st=ipc","address":"Ηπείρου 5-7, Αγ. Παρασκευή 153 41","categoryIds":["greek-restaurants"],"categories":["Greek Restaurants"]},{"id":"greekRestaurants_c4e480192004","slug":"ta-romanakia-c4e4","kind":"restaurant","name":"Τα Ρωμανάκια","lat":38.01166841393731,"lng":23.8131702489518,"url":"https://maps.app.goo.gl/huAdXz8UP2bA8sPj6?g_st=ipc","address":"Λεωφ. Μεσογείων 366, Αγ. Παρασκευή 153 41","categoryIds":["greek-restaurants"],"categories":["Greek Restaurants"]},{"id":"greekRestaurants_d99e659b75b8","slug":"melydron-d99e","kind":"restaurant","name":"ΜΕΛΥΔΡΟΝ","lat":37.99974475346684,"lng":23.816882406708455,"url":"https://maps.app.goo.gl/5M5MsFCweGzbhN1y7?g_st=ipc","address":"Πατριάρχου Γρηγορίου Ε 32, Αγ. Παρασκευή 153 41","categoryIds":["greek-restaurants"],"categories":["Greek Restaurants"]},{"id":"greekRestaurants_f89c37a413b6","slug":"taverna-o-morias-f89c","kind":"restaurant","name":"Ταβέρνα Ο ΜΩΡΙΑΣ","lat":38.00860400302697,"lng":23.81934480669425,"url":"https://maps.app.goo.gl/bRVKBMdQ27pSumbD9?g_st=ipc","address":"Ειρήνης 56, Αγ. Παρασκευή 153 41","categoryIds":["greek-restaurants"],"categories":["Greek Restaurants"]},{"id":"greekRestaurants_01e264743001","slug":"fysarmonika-mezedopoteion-01e2","kind":"restaurant","name":"Φυσαρμόνικα Μεζεδοποτείον","lat":38.00112458767409,"lng":23.7879961644195,"url":"https://maps.app.goo.gl/v3uZu1tCQdfHr7kAA?g_st=ipc","address":"Λεωφ. Μεσογείων 180, Χολαργός 155 61","categoryIds":["greek-restaurants"],"categories":["Greek Restaurants"]},{"id":"greekRestaurants_332aa0a30f34","slug":"to-koytoyki-332a","kind":"restaurant","name":"Το Κουτούκι","lat":38.01916385299786,"lng":23.80500366441751,"url":"https://maps.app.goo.gl/SuZCLAfs8GjCTcWG6?g_st=ipc","address":"Υψηλάντου 5, Χαλάνδρι 152 32","categoryIds":["greek-restaurants"],"categories":["Greek Restaurants"]},{"id":"greekRestaurants_d69b3b0c43b8","slug":"kitsoylas-d69b","kind":"restaurant","name":"Κίτσουλας","lat":38.016425119808176,"lng":23.79174907985474,"url":"https://maps.app.goo.gl/BU8FgqdqottuQizc9?g_st=ipc","address":"Φιλικής Εταιρείας 25Γ, Χαλάνδρι 152 32","categoryIds":["greek-restaurants"],"categories":["Greek Restaurants"]},{"id":"greekRestaurants_d2dfa77acfa8","slug":"doykissa-mezedopoleio-d2df","kind":"restaurant","name":"Δούκισσα Μεζεδοπωλείο","lat":38.0195289224619,"lng":23.810346764437185,"url":"https://maps.app.goo.gl/xuDMuCBBZTFu1suy8?g_st=ipc","address":"Δουκίσσης Πλακεντίας 14, Χαλάνδρι 152 34","categoryIds":["greek-restaurants"],"categories":["Greek Restaurants"]},{"id":"greekRestaurants_a120da3cfe10","slug":"mezedopoleio-iordanis-a120","kind":"restaurant","name":"Μεζεδοπωλείο Ιορδάνης","lat":38.020133303757966,"lng":23.80185334902281,"url":"https://maps.app.goo.gl/FYyCghhM4WWKom5n9?g_st=ipc","address":"Αριστοτέλους 42, Χαλάνδρι 152 32","categoryIds":["greek-restaurants"],"categories":["Greek Restaurants"]}],"nearby":[{"id":"coffeeBrunchRestaurants_3e3ae547e829","slug":"hidden-cholargos-3e3a","kind":"restaurant","name":"Hidden Χολαργός","lat":38.00530967929583,"lng":23.799191777899182,"url":"https://maps.app.goo.gl/NV3sFCcDPqZUeRzWA?g_st=ipc","address":"Πυθαγόρα, Χίου 6, Χολαργός 155 62","categoryIds":["coffee-brunch"],"categories":["Coffee & Brunch Spots"],"distanceKm":0.47637284364472676},{"id":"municipalities_261961302eff","slug":"papagoy-cholargos-2619","kind":"municipality","name":"Παπάγου - Χολαργός","lat":38,"lng":23.8,"region":"Βόρεια Προάστια","name_en":"Papagou - Cholargos","region_en":"Northern Suburbs","distanceKm":0.5679583841332994},{"id":"greekRestaurants_8119dfa50c2c","slug":"koykoynari-8119","kind":"restaurant","name":"Κουκουνάρι","lat":38.00642992366494,"lng":23.79814620669878,"url":"https://maps.app.goo.gl/BiMbFyaSNWwLRETTA?g_st=ipc","address":"Λεωφ. Μεσογείων 262, Χολαργός 155 62","categoryIds":["greek-restaurants"],"categories":["Greek Restaurants"],"distanceKm":0.6113871365575189},{"id":"italianRestaurants_cc723f5b71ae","slug":"aperio-cucina-vino-cc72","kind":"restaurant","name":"Aperio cucina & vino","lat":38.00607265187326,"lng":23.797703238142986,"url":"https://maps.app.goo.gl/GkHg15eafgAV4fou5?g_st=ipc","address":"Μεσογείων 258, Χολαργός 155 61","categoryIds":["italian"],"categories":["Italian Restaurants"],"distanceKm":0.6290376067186536},{"id":"mexicanRestaurants_5d84c532c46f","slug":"chilangos-5d84","kind":"restaurant","name":"Chilangos","lat":38.00604580624182,"lng":23.797688301604907,"url":"https://maps.app.goo.gl/fUBeVjsmrzYg9wt59?g_st=ipc","address":"Λεωφ. Μεσογείων 258, Χολαργός 155 61","categoryIds":["mexican"],"categories":["Mexican Restaurants"],"distanceKm":0.6290624030177463},{"id":"cheapEatsRestaurants_4972a0c1f005","slug":"o-fotis-4972","kind":"restaurant","name":"Ο ΦΩΤΗΣ","lat":37.997971184116544,"lng":23.807075270455382,"url":"https://maps.app.goo.gl/AtknvuaCHijVG2ha8?g_st=ipc","address":"17ης Νοεμβρίου 122, Χολαργός 155 62","categoryIds":["cheap-eats"],"categories":["Gyros & Cheap Eats"],"distanceKm":0.6952952486869765},{"id":"burgersRestaurants_2779a1763d04","slug":"juicy-grill-athens-2779","kind":"restaurant","name":"Juicy Grill Athens","lat":37.999820550809126,"lng":23.797970198704302,"url":"https://maps.app.goo.gl/KoWkVLRYW6WDrfte9?g_st=ipc","address":"Λεωφ. Περικλέους 37, Χολαργός 155 61","categoryIds":["burgers"],"categories":["Burger Spots"],"distanceKm":0.7109035736148881},{"id":"coffeeBrunchRestaurants_1fbd5adec6bb","slug":"olivia-s-brother-1fbd","kind":"restaurant","name":"Olivia’s Brother","lat":37.99842910582675,"lng":23.799666763449746,"url":"https://maps.app.goo.gl/j4jHouWVFDNbqaBK6?g_st=ipc","address":"Leof. Perikleous, Κεραμεικού 4, Χολαργός 155 61","categoryIds":["coffee-brunch"],"categories":["Coffee & Brunch Spots"],"distanceKm":0.7242772470690261},{"id":"cheapEatsRestaurants_9a8ccf003ba5","slug":"spitiki-koyzina-cholargos-9a8c","kind":"restaurant","name":"Σπιτική Κουζίνα - Χολαργός","lat":37.99895841021995,"lng":23.798536677313294,"url":"https://maps.app.goo.gl/KtAC7AzUgjd3Jmuk8?g_st=ipc","address":"Λεωφ. Περικλέους 50, Χολαργός 155 61","categoryIds":["cheap-eats"],"categories":["Gyros & Cheap Eats"],"distanceKm":0.7399079974353212},{"id":"cheapEatsRestaurants_27cac1fed09e","slug":"cocofino-i-nea-geysi-sto-kotopoylo-27ca","kind":"restaurant","name":"Cocofino Η Νέα Γεύση Στο Κοτόπουλο","lat":38.005115910403084,"lng":23.79578002602544,"url":"https://maps.app.goo.gl/uKWqbt6RdiChRPZi8?g_st=ipc","address":"Φανερωμένης 1α, Χολαργός 155 61","categoryIds":["cheap-eats"],"categories":["Gyros & Cheap Eats"],"distanceKm":0.7595107807639256},{"id":"coffeeBrunchRestaurants_f3a3be0d750a","slug":"alsos-cholargou-alsos-cholargoy-f3a3","kind":"restaurant","name":"Alsos Cholargou / Άλσος Χολαργού","lat":37.99731205193856,"lng":23.801346586633024,"url":"https://maps.app.goo.gl/9NgrgwXAtnAhzyQM7?g_st=ipc","address":"Ευριπίδου 1, Χολαργός 155 62","categoryIds":["coffee-brunch","family-friendly"],"categories":["Coffee & Brunch Spots","Kid Friendly Locations"],"legacySlugs":["alsos-cholargou-alsos-cholargoy-af91"],"distanceKm":0.7690633456481086},{"id":"greekRestaurants_7b449c4e0fce","slug":"ta-platania-7b44","kind":"restaurant","name":"Τα Πλατάνια","lat":38.00304382571398,"lng":23.81401749329889,"url":"https://maps.app.goo.gl/7XNFATTa6teFNs8r9?g_st=ipc","address":"Μπουμπουλίνας 31, Αγ. Παρασκευή 153 41","categoryIds":["greek-restaurants"],"categories":["Greek Restaurants"],"distanceKm":0.8565042304819223},{"id":"coffeeBrunchRestaurants_e4c2bdc534b9","slug":"bookali-e4c2","kind":"restaurant","name":"bookAli","lat":38.00429979988101,"lng":23.794394502333493,"url":"https://maps.app.goo.gl/36ShHJ9gS1j7CesG9?g_st=ipc","address":"Λεωφ. Μεσογείων 236, Χολαργός 155 61","categoryIds":["coffee-brunch"],"categories":["Coffee & Brunch Spots"],"distanceKm":0.8688603400136312},{"id":"coffeeBrunchRestaurants_848168a5d6a3","slug":"cornell-8481","kind":"restaurant","name":"Cornell","lat":38.00169766553315,"lng":23.79390617469456,"url":"https://maps.app.goo.gl/GzFQB9fD18CsSH7k9?g_st=ipc","address":"Αετιδέων 18 &, Βουτσινά, Χολαργός 155 61","categoryIds":["coffee-brunch"],"categories":["Coffee & Brunch Spots"],"distanceKm":0.9403703203670442},{"id":"coffeeBrunchRestaurants_a82e7e155ac7","slug":"micafetal-a82e","kind":"restaurant","name":"miCafetal","lat":38.00628521283868,"lng":23.79310128971578,"url":"https://maps.app.goo.gl/eFtNz9rPLtHdLmHP6?g_st=ipc","address":"Ηρ. Πολυτεχνείου 17, Χαλάνδρι 152 31","categoryIds":["coffee-brunch"],"categories":["Coffee & Brunch Spots"],"distanceKm":1.0179465811249377},{"id":"familyFriendly_81e1faa2d7f2","slug":"kafe-nuestro-sueno-81e1","kind":"restaurant","name":"καφέ Nuestro sueno","lat":37.996802341238464,"lng":23.81194934538021,"url":"https://maps.app.goo.gl/VTAxttodcrh81J5E9?g_st=ipc","address":"Καραολή και Δημητρίου, Χολαργός 153 41","categoryIds":["family-friendly"],"categories":["Kid Friendly Locations"],"distanceKm":1.0296755993679987},{"id":"greekRestaurants_8c8e269305b0","slug":"nison-gi-8c8e","kind":"restaurant","name":"Νήσων Γη","lat":38.011331255497275,"lng":23.81122856443911,"url":"https://maps.app.goo.gl/wmEbsZ59WvGe41oB6?g_st=ipc","address":"Λεωφ. Μεσογείων 356, Αγ. Παρασκευή 153 41","categoryIds":["greek-restaurants"],"categories":["Greek Restaurants"],"distanceKm":1.0322412956555596},{"id":"greekRestaurants_8e94a0e9697c","slug":"to-steki-tis-tompra-8e94","kind":"restaurant","name":"Το στέκι της Τόμπρα","lat":38.01114194965107,"lng":23.812150664429954,"url":"https://maps.app.goo.gl/nzMoaK1cxHPd4BAQA?g_st=ipc","address":"Ηπείρου 5-7, Αγ. Παρασκευή 153 41","categoryIds":["greek-restaurants"],"categories":["Greek Restaurants"],"distanceKm":1.0656216628234263},{"id":"cheapEatsRestaurants_03694aa725a0","slug":"geysidromio-0369","kind":"restaurant","name":"Γευσηδρόμιο","lat":38.00041852140095,"lng":23.792910266059533,"url":"https://maps.app.goo.gl/NVZiDeS8yd6auwo78?g_st=ipc","address":"Ασπασίας 63, Χολαργός 155 61","categoryIds":["cheap-eats"],"categories":["Gyros & Cheap Eats"],"distanceKm":1.0669319018645298},{"id":"italianRestaurants_db8c50049699","slug":"pizzaiolo-db8c","kind":"restaurant","name":"pizzaiolo","lat":38.00035069734868,"lng":23.79281060180485,"url":"https://maps.app.goo.gl/KW1onnVwQCy1jQXk7?g_st=ipc","address":"Ασπασίας 63, Χολαργός 155 61","categoryIds":["italian"],"categories":["Italian Restaurants"],"distanceKm":1.0777817028945778},{"id":"cheapEatsRestaurants_4884ead367e7","slug":"platanos-kempap-soyvlaki-4884","kind":"restaurant","name":"Πλάτανος Κεμπάπ-Σουβλάκι","lat":38.00070110906074,"lng":23.792623402226006,"url":"https://maps.app.goo.gl/mqGbLZnM6T5sQ3YF9?g_st=ipc","address":"Βουτσινά 66, Χολαργός 155 61","categoryIds":["cheap-eats"],"categories":["Gyros & Cheap Eats"],"distanceKm":1.0799426310020124},{"id":"greekRestaurants_c4e480192004","slug":"ta-romanakia-c4e4","kind":"restaurant","name":"Τα Ρωμανάκια","lat":38.01166841393731,"lng":23.8131702489518,"url":"https://maps.app.goo.gl/huAdXz8UP2bA8sPj6?g_st=ipc","address":"Λεωφ. Μεσογείων 366, Αγ. Παρασκευή 153 41","categoryIds":["greek-restaurants"],"categories":["Greek Restaurants"],"distanceKm":1.1684097459829528},{"id":"burgersRestaurants_97ab28e57798","slug":"f-smashing-cholargos-97ab","kind":"restaurant","name":"F* Smashing Cholargos","lat":38.00204211707431,"lng":23.791067777673266,"url":"https://maps.app.goo.gl/VHtz6unCWyzdNiiZ8?g_st=ipc","address":"Λεωφ. Μεσογείων 206, Χολαργός 155 61","categoryIds":["burgers"],"categories":["Burger Spots"],"distanceKm":1.175643470878118},{"id":"familyFriendly_3a0b8382227c","slug":"kidtopia-3a0b","kind":"restaurant","name":"KIDTOPIA","lat":38.01289484430431,"lng":23.811355038875934,"url":"https://maps.app.goo.gl/hbL95STxeVAMj8X58?g_st=ic","address":"Erifilis 31, Chalandri 152 32","categoryIds":["family-friendly"],"categories":["Kid Friendly Locations"],"distanceKm":1.1829974614854242}],"sameRegion":[],"mentionedGuides":[],"canonicalSlug":"palia-istoria-444a","enrichment":{"summary_en":"Palia Istoria is a curated restaurant in Χολαργός 155 62 in the Greek Restaurants collection. It is connected to 11 nearby Googlementor picks to help travelers build a stronger local route.","summary_el":"Palia Istoria είναι ένα επιλεγμένο σημείο φαγητού στην περιοχή Χολαργός 155 62 και ανήκει στη συλλογή Greek Restaurants. Συνδέεται με 11 κοντινές προτάσεις του Googlementor για πιο ολοκληρωμένη εμπειρία.","vibe_tags":["curated"],"best_for":["first-time visitors","food lovers"],"visit_moments":["lunch stop","dinner stop"],"practical_note":"Address and direct map link are available for easy turn-by-turn access.","nearby_walkable_count":11,"nearby_count_2km":94,"confidence":0.98},"areaContext":{"slug":"papagoy-cholargos","name":"Papagou - Cholargos","nameEl":"Παπάγου - Χολαργός"},"intentContexts":[{"href":"/greek-restaurants/papagoy-cholargos","label":"Greek Restaurants in Papagou - Cholargos","categorySlug":"greek-restaurants","categoryName":"Greek Restaurants","areaSlug":"papagoy-cholargos","areaName":"Papagou - Cholargos","areaNameEl":"Παπάγου - Χολαργός"}]},"__N_SSG":true}