{"pageProps":{"entity":{"id":"coffeeBrunchRestaurants_15d66401c4fe","slug":"paradosiako-panorama-15d6","kind":"restaurant","name":"Παραδοσιακό (Πανόραμα)","lat":40.590095905104064,"lng":23.036102401133366,"url":"https://maps.app.goo.gl/TUmt6vrXSEXCXWNj8?g_st=ipc","address":"Papadopoulou 17, Panorama 552 36","categoryIds":["coffee-brunch"],"categories":["Coffee & Brunch Spots"]},"sameCategory":[{"id":"coffeeBrunchRestaurants_79653b358f9a","slug":"dio-con-dio-7965","kind":"restaurant","name":"Dio Con Dio","lat":40.59016290783814,"lng":23.03657930037768,"url":"https://maps.app.goo.gl/SCXFA22cPne9xMiLA?g_st=ipc","address":"Papadopoulou 19, Panorama 552 36","categoryIds":["coffee-brunch"],"categories":["Coffee & Brunch Spots"]},{"id":"coffeeBrunchRestaurants_38190cc1f3e8","slug":"morrison-the-premium-rooftop-3819","kind":"restaurant","name":"Morrison • The Premium Rooftop","lat":40.60821540217915,"lng":22.998740403846558,"url":"https://maps.app.goo.gl/WNgG79yhRyL6k5GA9?g_st=ipc","address":"17is Noemvriou 87, Pilea 555 35","categoryIds":["coffee-brunch","rooftop-lounges"],"categories":["Coffee & Brunch Spots","Rooftop Lounges"],"legacySlugs":["morrison-the-premium-rooftop-2f03"]},{"id":"coffeeBrunchRestaurants_b47f6bd0d6ab","slug":"bahamas-urban-brunch-bar-b47f","kind":"restaurant","name":"Bahamas Urban |Brunch| Bar","lat":40.55455255928708,"lng":23.018985570943435,"url":"https://maps.app.goo.gl/MseUiktgczouvbdp7?g_st=ipc","address":"Thermis-Panoramatos Rd 7, Thermi 570 01","categoryIds":["coffee-brunch"],"categories":["Coffee & Brunch Spots"]},{"id":"coffeeBrunchRestaurants_cae5ad9a4492","slug":"join-juice-bars-cae5","kind":"restaurant","name":"JOIN juice bars","lat":40.555069982077164,"lng":22.99254169325442,"url":"https://maps.app.goo.gl/VvKcZzDAukezDVie8?g_st=ipc","address":"11ο χλμ εθνικής οδού, A/D Thessalonikis Neon Moudanion, Thessaloniki 570 01","categoryIds":["coffee-brunch","vegetarian"],"categories":["Coffee & Brunch Spots","Vegetarian Friendly Restaurants"],"legacySlugs":["join-juice-bars-7a1d"]},{"id":"coffeeBrunchRestaurants_9fa36f8be04c","slug":"rou-leisure-gatherings-9fa3","kind":"restaurant","name":"Rou Leisure Gatherings","lat":40.612773277438485,"lng":22.97595730543709,"url":"https://maps.app.goo.gl/GxRckrquv1sShJp28?g_st=ipc","address":"Praxagora 22, Thessaloniki 543 51","categoryIds":["coffee-brunch"],"categories":["Coffee & Brunch Spots"]},{"id":"coffeeBrunchRestaurants_7f4ca735b5ec","slug":"laterna-7f4c","kind":"restaurant","name":"Laterna","lat":40.597256928464596,"lng":22.96766795433404,"url":"https://maps.app.goo.gl/UuEUGrB58srruWFPA?g_st=ipc","address":"Voulgari 64, Thessaloniki 542 49","categoryIds":["coffee-brunch"],"categories":["Coffee & Brunch Spots"]},{"id":"coffeeBrunchRestaurants_3849ba172973","slug":"ergon-agora-east-3849","kind":"restaurant","name":"ERGON Agora (East)","lat":40.55876847950934,"lng":22.976949760424034,"url":"https://maps.app.goo.gl/um7bZpan68i3iqsx7?g_st=ipc","address":"Leof. Georgikis Scholis 50, Pilea Chortiatis 555 35","categoryIds":["coffee-brunch","family-friendly"],"categories":["Coffee & Brunch Spots","Kid Friendly Locations"],"legacySlugs":["ergon-agora-east-02cb"]},{"id":"coffeeBrunchRestaurants_5b87d322c2b5","slug":"pink-dot-cafe-5b87","kind":"restaurant","name":"Pink Dot Cafe","lat":40.548406580479465,"lng":22.98186227348721,"url":"https://maps.app.goo.gl/CG2fgJcxKmWaKuAV6?g_st=ipc","address":"Leof. Georgikis Scholis 84, Pilea 570 01","categoryIds":["coffee-brunch","desserts"],"categories":["Coffee & Brunch Spots","Dessert Shops"],"legacySlugs":["pink-dot-cafe-f1a3"]},{"id":"coffeeBrunchRestaurants_f80aae297d57","slug":"the-coffee-rawsters-f80a","kind":"restaurant","name":"The Coffee Rawsters","lat":40.605074813300206,"lng":22.958339804305506,"url":"https://maps.app.goo.gl/6bHEuH2VrUaoPjxN6?g_st=ipc","address":"Delfon 117, Thessaloniki 546 44","categoryIds":["coffee-brunch"],"categories":["Coffee & Brunch Spots"]},{"id":"coffeeBrunchRestaurants_b83fc8a35279","slug":"byrek-b83f","kind":"restaurant","name":"Byrek","lat":40.604437611308434,"lng":22.958000236614392,"url":"https://maps.app.goo.gl/hxd33pfTMwrTNJ6K6?g_st=ic","address":"Petrou Sindika 46, Thessaloniki 542 48","categoryIds":["coffee-brunch"],"categories":["Coffee & Brunch Spots"]},{"id":"coffeeBrunchRestaurants_3f47d83b09c0","slug":"butterflies-and-hurricanes-3f47","kind":"restaurant","name":"Butterflies And Hurricanes","lat":40.61464844201882,"lng":22.960841697890658,"url":"https://maps.app.goo.gl/Gesp19RwCPBWQ9s58?g_st=ipc","address":"Pindarou 1, Thessaloniki 546 39","categoryIds":["coffee-brunch","vegetarian"],"categories":["Coffee & Brunch Spots","Vegetarian Friendly Restaurants"],"legacySlugs":["butterflies-and-hurricanes-37b6"]},{"id":"coffeeBrunchRestaurants_395eba0202c2","slug":"orange-395e","kind":"restaurant","name":"Orange","lat":40.61657039911688,"lng":22.959405836121938,"url":"https://maps.app.goo.gl/GeBX3Ci17XiZV9go6?g_st=ipc","address":"Konstantinoupoleos 21, Thessaloniki 546 40","categoryIds":["coffee-brunch"],"categories":["Coffee & Brunch Spots"]}],"nearby":[{"id":"coffeeBrunchRestaurants_79653b358f9a","slug":"dio-con-dio-7965","kind":"restaurant","name":"Dio Con Dio","lat":40.59016290783814,"lng":23.03657930037768,"url":"https://maps.app.goo.gl/SCXFA22cPne9xMiLA?g_st=ipc","address":"Papadopoulou 19, Panorama 552 36","categoryIds":["coffee-brunch"],"categories":["Coffee & Brunch Spots"],"distanceKm":0.04095258501410457},{"id":"dessertsRestaurants_2dd2e036af70","slug":"elenidis-2dd2","kind":"restaurant","name":"Elenidis","lat":40.590269244540906,"lng":23.036630664756583,"url":"https://maps.app.goo.gl/L8fJy8x72XPMwgQC6?g_st=ipc","address":"Venizelou 12, Panorama 552 36","categoryIds":["desserts"],"categories":["Dessert Shops"],"distanceKm":0.048592480899312375},{"id":"fishTavernasRestaurants_d0c2abf79717","slug":"kritikos-gallery-restaurants-d0c2","kind":"restaurant","name":"Kritikos Gallery & Restaurants","lat":40.58943046352144,"lng":23.037107897488713,"url":"https://maps.app.goo.gl/RdVPPysbg8jmJ1gT7?g_st=ipc","address":"Venizelou 5B, Panorama 552 36","categoryIds":["fish-tavernas"],"categories":["Fish Tavernas"],"distanceKm":0.1126223232570648},{"id":"dessertsRestaurants_3c30b0e5f97f","slug":"trigona-elenidi-3c30","kind":"restaurant","name":"Trigona Elenidi","lat":40.59208635693994,"lng":23.041104741607068,"url":"https://maps.app.goo.gl/4xfcNGGMy4nwoxyR8?g_st=ipc","address":"Leof. Komninon 69, Panorama 552 36","categoryIds":["desserts"],"categories":["Dessert Shops"],"distanceKm":0.4768637211461964},{"id":"municipalities_86440bea9f1c","slug":"pylaia-chortiatis-8644","kind":"municipality","name":"Πυλαία - Χορτιάτης","lat":40.5833,"lng":23.05,"region":"Ανατολική Θεσσαλονίκη","name_en":"Pylaia - Chortiatis","region_en":"East Thessaloniki","distanceKm":1.3958146178829323},{"id":"familyFriendly_b6a37bf1af44","slug":"platanakia-natura-b6a3","kind":"restaurant","name":"Platanakia Natura","lat":40.59354583506236,"lng":23.05309273408505,"url":"https://maps.app.goo.gl/6g3bBu8datKxsCYq7?g_st=ipc","address":"St Paraskevopoulou, Panorama 552 36","categoryIds":["family-friendly"],"categories":["Kid Friendly Locations"],"distanceKm":1.4850238126090272},{"id":"municipalities_c798a6e71a6d","slug":"panorama-c798","kind":"municipality","name":"Πανόραμα","lat":40.587,"lng":23.0188,"region":"Θεσσαλονίκη","name_en":"Panorama","region_en":"Thessaloniki","distanceKm":1.5010500566168905},{"id":"familyFriendly_e11e3c30b5f9","slug":"trees-trees-e11e","kind":"restaurant","name":"Trees Trees","lat":40.60274841786202,"lng":23.00941473830645,"url":"https://maps.app.goo.gl/NStAQS6bJYjXPSMi8?g_st=ipc","address":"Ανατολής, Elaionon και, Pilea 555 35","categoryIds":["family-friendly"],"categories":["Kid Friendly Locations"],"distanceKm":2.656433415198462},{"id":"familyFriendly_9a0302902146","slug":"perivallontiko-parko-thermis-9a03","kind":"restaurant","name":"Περιβαλλοντικό Πάρκο Θέρμης","lat":40.56073866312424,"lng":23.034167329764607,"url":"https://maps.app.goo.gl/RnpfKj2r4pesLq5V8?g_st=ipc","address":"Περιβαλλοντικό Πάρκο, Thermi 570 01","categoryIds":["family-friendly"],"categories":["Kid Friendly Locations"],"distanceKm":3.2684649722627217},{"id":"luxuryDiningRestaurants_2d2c5322c1ce","slug":"uma-chefs-home-experience-2d2c","kind":"restaurant","name":"UMA chefs home experience","lat":40.560444872075784,"lng":23.032058735745576,"url":"https://maps.app.goo.gl/RiQip9TNX7v886747?g_st=ipc","address":"Ελευθερίας, Πανόραμα - Θέρμη, Τ.Θ.Δ3026, Thessaloniki 570 01","categoryIds":["luxury-dining"],"categories":["Luxury Dining"],"distanceKm":3.3146853287846554},{"id":"familyFriendly_6d59a3955a06","slug":"thermi-dam-6d59","kind":"restaurant","name":"Thermi Dam","lat":40.55889714492611,"lng":23.035634918395665,"url":"https://maps.app.goo.gl/WB5r5nzJStMwqtSV8?g_st=ipc","address":"Γεφυρα Φράγματος Θέρμης, Thermi 570 01","categoryIds":["family-friendly"],"categories":["Kid Friendly Locations"],"distanceKm":3.4693685270569588},{"id":"coffeeBrunchRestaurants_38190cc1f3e8","slug":"morrison-the-premium-rooftop-3819","kind":"restaurant","name":"Morrison • The Premium Rooftop","lat":40.60821540217915,"lng":22.998740403846558,"url":"https://maps.app.goo.gl/WNgG79yhRyL6k5GA9?g_st=ipc","address":"17is Noemvriou 87, Pilea 555 35","categoryIds":["coffee-brunch","rooftop-lounges"],"categories":["Coffee & Brunch Spots","Rooftop Lounges"],"legacySlugs":["morrison-the-premium-rooftop-2f03"],"distanceKm":3.742950387689038},{"id":"familyFriendly_49ab59220094","slug":"love-sports-club-49ab","kind":"restaurant","name":"Love Sports Club","lat":40.576783631024576,"lng":22.994808120184832,"url":"https://maps.app.goo.gl/BJcVtK4p1mr7qG5B7?g_st=ipc","address":"Unnamed Road, Pilea Chortiatis 555 35","categoryIds":["family-friendly"],"categories":["Kid Friendly Locations"],"distanceKm":3.7883860824608493},{"id":"municipalities_4a13189642f7","slug":"aggelochori-4a13","kind":"municipality","name":"Αγγελοχώρι","lat":40.5886,"lng":22.9875,"aliases":["Αγγελοχωρι"],"region":"Θεσσαλονίκη","name_en":"Angelochori","region_en":"Thessaloniki","distanceKm":4.107383822122379},{"id":"fishTavernasRestaurants_4b85b6df400f","slug":"alepoy-mezedopoleio-4b85","kind":"restaurant","name":"Αλεπού Μεζεδοπωλείο","lat":40.607668350364605,"lng":22.993173165196392,"url":"https://maps.app.goo.gl/fMUK2hozw9hQG8zN8?g_st=ipc","address":"17is Noemvriou 26, Thessaloniki 555 34","categoryIds":["fish-tavernas"],"categories":["Fish Tavernas"],"distanceKm":4.1176011960551095},{"id":"familyFriendly_5fc832b90305","slug":"partyland-pylaia-playground-restaurant-events-5fc8","kind":"restaurant","name":"PARTYLAND ΠΥΛΑΙΑ | PLAYGROUND | RESTAURANT | EVENTS","lat":40.57242727995374,"lng":22.992912588988382,"url":"https://maps.app.goo.gl/hq2iSCHB7jfquAbeA?g_st=ic","address":"St.Kazantzidi 49, Pilea 555 36","categoryIds":["family-friendly"],"categories":["Kid Friendly Locations"],"distanceKm":4.142887604512852},{"id":"greekRestaurants_d6840627570a","slug":"lykos-chasapotaverna-d684","kind":"restaurant","name":"Lykos - Χασαποταβέρνα","lat":40.56114058445929,"lng":23.005199497641122,"url":"https://maps.app.goo.gl/H2wjVi3P1kdSmFTX8?g_st=ipc","address":"Χαρ. Θέρμης, Thessaloniki 570 01","categoryIds":["greek-restaurants"],"categories":["Greek Restaurants"],"distanceKm":4.144688203248853},{"id":"italianRestaurants_2c8b66244f29","slug":"tonino-esperienza-italiana-2c8b","kind":"restaurant","name":"Tonino Esperienza Italiana","lat":40.56132998598623,"lng":23.004796368106923,"url":"https://maps.app.goo.gl/bZQiMSEwbhVFBxUd8?g_st=ipc","address":"Χαρ. Θέρμης, Thermi 570 01","categoryIds":["italian"],"categories":["Italian Restaurants"],"distanceKm":4.1499559572825575},{"id":"burgersRestaurants_d5586ce24d0b","slug":"osten-d558","kind":"restaurant","name":"OSTEN","lat":40.55792173583846,"lng":23.01007604885629,"url":"https://maps.app.goo.gl/JrNCtkPthNJns9L16?g_st=ipc","address":"4χλμ, Χαρ. Θέρμης, Thessaloniki 570 01","categoryIds":["burgers","desserts"],"categories":["Burger Spots","Dessert Shops"],"legacySlugs":["osten-07fc"],"distanceKm":4.198960073231105},{"id":"coffeeBrunchRestaurants_b47f6bd0d6ab","slug":"bahamas-urban-brunch-bar-b47f","kind":"restaurant","name":"Bahamas Urban |Brunch| Bar","lat":40.55455255928708,"lng":23.018985570943435,"url":"https://maps.app.goo.gl/MseUiktgczouvbdp7?g_st=ipc","address":"Thermis-Panoramatos Rd 7, Thermi 570 01","categoryIds":["coffee-brunch"],"categories":["Coffee & Brunch Spots"],"distanceKm":4.208362265812142},{"id":"dessertsRestaurants_cc58df47a36e","slug":"nick-alexoudas-cc58","kind":"restaurant","name":"NICK ALEXOUDAS","lat":40.60097575143556,"lng":22.988160776463623,"url":"https://maps.app.goo.gl/svQRP7nS7UargNrc9?g_st=ipc","address":"Profitou Ilia 77, Pilea 555 35","categoryIds":["desserts"],"categories":["Dessert Shops"],"distanceKm":4.224761855832556},{"id":"burgersRestaurants_54aa085a6ef8","slug":"sinners-smash-burgers-54aa","kind":"restaurant","name":"Sinners Smash Burgers","lat":40.57608642412674,"lng":22.98935981589618,"url":"https://maps.app.goo.gl/Y2NDJtMWMoJrutpZ6?g_st=ipc","address":"Στέλιου Καζαντζίδη 31, Pilea 555 35","categoryIds":["burgers","cheap-eats"],"categories":["Burger Spots","Gyros & Cheap Eats"],"legacySlugs":["sinners-smash-burgers-e79f"],"distanceKm":4.243604492687945},{"id":"burgersRestaurants_21be773739d0","slug":"brothers-in-law-smash-n-pasta-thermi-21be","kind":"restaurant","name":"Brothers in Law Smash 'n' Pasta Thermi","lat":40.5561230976469,"lng":23.012690012150046,"url":"https://maps.app.goo.gl/tDetHtpfpgzNvuNC7?g_st=ipc","address":"5 χλμ, Χαρ. Θέρμης 1ο χλμ, Thermi 570 01","categoryIds":["burgers","italian"],"categories":["Burger Spots","Italian Restaurants"],"legacySlugs":["brothers-in-law-smash-n-pasta-thermi-6cb6"],"distanceKm":4.26386458265001},{"id":"familyFriendly_507eebfc1228","slug":"happy-play-507e","kind":"restaurant","name":"Happy Play","lat":40.58463538696909,"lng":22.98516339267734,"url":"https://maps.app.goo.gl/KdBGSDP4JgtkbeQQ7?g_st=ipc","address":"Ioanninon Rd 9-11, Pilea 555 35","categoryIds":["family-friendly"],"categories":["Kid Friendly Locations"],"distanceKm":4.344089101404694}],"sameRegion":[],"mentionedGuides":[],"canonicalSlug":"paradosiako-panorama-15d6","enrichment":{"summary_en":"Παραδοσιακό (Πανόραμα) is a curated restaurant in Panorama 552 36 in the Coffee & Brunch Spots collection. It is connected to 4 nearby Googlementor picks to help travelers build a stronger local route.","summary_el":"Παραδοσιακό (Πανόραμα) είναι ένα επιλεγμένο σημείο φαγητού στην περιοχή Panorama 552 36 και ανήκει στη συλλογή Coffee & Brunch Spots. Συνδέεται με 4 κοντινές προτάσεις του Googlementor για πιο ολοκληρωμένη εμπειρία.","vibe_tags":["curated","daytime-favorite"],"best_for":["first-time visitors","food lovers"],"visit_moments":["early morning","late brunch"],"practical_note":"Address and direct map link are available for easy turn-by-turn access.","nearby_walkable_count":4,"nearby_count_2km":7,"confidence":0.98},"areaContext":{"slug":"pylaia-chortiatis","name":"Pylaia - Chortiatis","nameEl":"Πυλαία - Χορτιάτης"},"intentContexts":[]},"__N_SSG":true}