{"pageProps":{"entity":{"id":"greekRestaurants_267ed799993c","slug":"platanus-orientalis-267e","kind":"restaurant","name":"Platanus Orientalis","lat":39.36160028394274,"lng":23.05970176441853,"url":"https://maps.app.goo.gl/CeNcPhtv8mJKEc4q7?g_st=ipc","address":"Αγ. Λαυρέντιος 373 00","categoryIds":["greek-restaurants"],"categories":["Greek Restaurants"]},"sameCategory":[{"id":"greekRestaurants_f1609d667006","slug":"kritsa-restaurant-f160","kind":"restaurant","name":"KRITSA Restaurant","lat":39.390714981206585,"lng":22.99890427348712,"url":"https://maps.app.goo.gl/nVaAkJVNsbHGrwKh9?g_st=ipc","address":"CENTRAL SQUARE PORTARIA PELION, 370 11","categoryIds":["greek-restaurants"],"categories":["Greek Restaurants"]},{"id":"greekRestaurants_f894a7783597","slug":"kardamo-oinomageireion-f894","kind":"restaurant","name":"Κάρδαμο Οινομαγειρείον","lat":39.402083128717685,"lng":22.984980722142236,"url":"https://maps.app.goo.gl/2BVduXtmC112zqJN8?g_st=ipc","address":"Πηλίου, Μακρινίτσα 370 11","categoryIds":["greek-restaurants"],"categories":["Greek Restaurants"]},{"id":"greekRestaurants_a4dfe435f448","slug":"synantisi-estiatorio-kissos-pilio-a4df","kind":"restaurant","name":"Συνάντηση ΕΣΤΙΑΤΟΡΙΟ ΚΙΣΣΟΣ ΠΗΛΙΟ","lat":39.40657416072869,"lng":23.13161356443952,"url":"https://maps.app.goo.gl/wt5g3M2MqHJT3Hdz8?g_st=ipc","address":"Κισσός 370 12","categoryIds":["greek-restaurants"],"categories":["Greek Restaurants"]},{"id":"greekRestaurants_24faaabf2725","slug":"estiatorio-o-makis-ta-5f-24fa","kind":"restaurant","name":"Εστιατόριο \"Ο Μάκης\" (Τα 5φ)","lat":39.406879787357994,"lng":23.13137854437809,"url":"https://maps.app.goo.gl/MVaqELfDNQavTVj78?g_st=ipc","address":"Κισσός 370 12","categoryIds":["greek-restaurants"],"categories":["Greek Restaurants"]},{"id":"greekRestaurants_f58f287acaec","slug":"1900-paradosiako-taverneio-traditional-tavern-f58f","kind":"restaurant","name":"1900 Παραδοσιακό Ταβερνείο (Traditional Tavern)","lat":39.30568114219273,"lng":23.12040447873948,"url":"https://maps.app.goo.gl/Zbob4RrewGaAi1fY9?g_st=ipc","address":"Kala Nera 370 10","categoryIds":["greek-restaurants"],"categories":["Greek Restaurants"]},{"id":"greekRestaurants_e6f75b86de1f","slug":"to-salkimi-e6f7","kind":"restaurant","name":"Το Σαλκίμι","lat":39.32842613710333,"lng":23.150200950982853,"url":"https://maps.app.goo.gl/a2R9yDYGNQsY2fUS6?g_st=ipc","address":"Πήλιο 370 10","categoryIds":["greek-restaurants"],"categories":["Greek Restaurants"]},{"id":"greekRestaurants_f8c7fc9e1119","slug":"mezen-mezen-f8c7","kind":"restaurant","name":"Μεζέν - Mezen","lat":39.360202586197914,"lng":22.94855189327868,"url":"https://maps.app.goo.gl/8kEStDeZbgxBjzsH6?g_st=ipc","address":"Αλοννήσου 8, Βόλος 382 21","categoryIds":["greek-restaurants"],"categories":["Greek Restaurants"]},{"id":"greekRestaurants_1079f07652cc","slug":"dipnosofistis-1079","kind":"restaurant","name":"Dipnosofistis","lat":39.38375041090327,"lng":23.18105009328821,"url":"https://maps.app.goo.gl/R1fF5NSY4Gzefgph6?g_st=ipc","address":"Μυλοποτάμου, Τσαγκαράδα 370 12","categoryIds":["greek-restaurants"],"categories":["Greek Restaurants"]},{"id":"greekRestaurants_5dc20ab83ca7","slug":"mpokos-oyzeri-5dc2","kind":"restaurant","name":"ΜΠΟΚΟΣ ΟΥΖΕΡΙ","lat":39.37241914499682,"lng":22.928826450978278,"url":"https://maps.app.goo.gl/cXQP3wmZ2PgCjwePA?g_st=ipc","address":"Μαιάνδρου 143, Νέα Ιωνία 384 45","categoryIds":["greek-restaurants"],"categories":["Greek Restaurants"]},{"id":"greekRestaurants_144d3acb24f4","slug":"chromata-144d","kind":"restaurant","name":"Χρώματα","lat":39.360435382943386,"lng":23.212842528145245,"url":"https://maps.app.goo.gl/xvs49fJpk8BZa6Wq8?g_st=ipc","address":"Unnamed Road, Νότιο Πήλιο 370 12","categoryIds":["greek-restaurants"],"categories":["Greek Restaurants"]},{"id":"greekRestaurants_e3849f333d19","slug":"estiatorio-kryfi-ammos-e384","kind":"restaurant","name":"Εστιατόριο Κρυφή Άμμος","lat":39.15831978512696,"lng":23.390064394645744,"url":"https://maps.app.goo.gl/AsLp5CVRi7LKmbyu5?g_st=ipc","address":"Σκιάθος 370 02","categoryIds":["greek-restaurants"],"categories":["Greek Restaurants"]},{"id":"greekRestaurants_f034f0fe0cac","slug":"salt-and-pepper-skiathos-f034","kind":"restaurant","name":"Salt and Pepper Skiathos","lat":39.14185621850757,"lng":23.426181107584785,"url":"https://maps.app.goo.gl/VjcQnWCRSBW1Vy5HA?g_st=ipc","address":"Τρούλος 370 02","categoryIds":["greek-restaurants"],"categories":["Greek Restaurants"]}],"nearby":[{"id":"municipalities_3598a91927f2","slug":"makrinitsa-3598","kind":"municipality","name":"Μακρινίτσα","lat":39.3858,"lng":23.0556,"aliases":["Μακρινιτσα","Balcony of Pelion"],"region":"Θεσσαλία","name_en":"Makrinitsa","region_en":"Thessaly","distanceKm":2.7138852879280684},{"id":"municipalities_3345708eb61e","slug":"portaria-3345","kind":"municipality","name":"Πορταριά","lat":39.3931,"lng":23.0681,"aliases":["Πορταρια"],"region":"Θεσσαλία","name_en":"Portaria","region_en":"Thessaly","distanceKm":3.57621683501921},{"id":"greekRestaurants_f1609d667006","slug":"kritsa-restaurant-f160","kind":"restaurant","name":"KRITSA Restaurant","lat":39.390714981206585,"lng":22.99890427348712,"url":"https://maps.app.goo.gl/nVaAkJVNsbHGrwKh9?g_st=ipc","address":"CENTRAL SQUARE PORTARIA PELION, 370 11","categoryIds":["greek-restaurants"],"categories":["Greek Restaurants"],"distanceKm":6.147298817111309},{"id":"municipalities_2909a9376e1f","slug":"pilio-2909","kind":"municipality","name":"Πήλιο","lat":39.4167,"lng":23.0833,"aliases":["Πηλιο"],"region":"Θεσσαλία","name_en":"Pelion","region_en":"Thessaly","distanceKm":6.4537163053603335},{"id":"coffeeBrunchRestaurants_e35f2fd907c7","slug":"aeriko-cafe-bar-makrinitsa-e35f","kind":"restaurant","name":"Aeriko cafe bar - Makrinitsa","lat":39.396275519682625,"lng":22.994190417214696,"url":"https://maps.app.goo.gl/uEvFEaZxa3VWrgDA7?g_st=ipc","address":"1o km PORTARIAS-MAKRINITSAS, PELION 370 11","categoryIds":["coffee-brunch"],"categories":["Coffee & Brunch Spots"],"distanceKm":6.824315173218008},{"id":"greekRestaurants_f894a7783597","slug":"kardamo-oinomageireion-f894","kind":"restaurant","name":"Κάρδαμο Οινομαγειρείον","lat":39.402083128717685,"lng":22.984980722142236,"url":"https://maps.app.goo.gl/2BVduXtmC112zqJN8?g_st=ipc","address":"Πηλίου, Μακρινίτσα 370 11","categoryIds":["greek-restaurants"],"categories":["Greek Restaurants"],"distanceKm":7.842546538544758},{"id":"greekRestaurants_a4dfe435f448","slug":"synantisi-estiatorio-kissos-pilio-a4df","kind":"restaurant","name":"Συνάντηση ΕΣΤΙΑΤΟΡΙΟ ΚΙΣΣΟΣ ΠΗΛΙΟ","lat":39.40657416072869,"lng":23.13161356443952,"url":"https://maps.app.goo.gl/wt5g3M2MqHJT3Hdz8?g_st=ipc","address":"Κισσός 370 12","categoryIds":["greek-restaurants"],"categories":["Greek Restaurants"],"distanceKm":7.950191509476069},{"id":"greekRestaurants_24faaabf2725","slug":"estiatorio-o-makis-ta-5f-24fa","kind":"restaurant","name":"Εστιατόριο \"Ο Μάκης\" (Τα 5φ)","lat":39.406879787357994,"lng":23.13137854437809,"url":"https://maps.app.goo.gl/MVaqELfDNQavTVj78?g_st=ipc","address":"Κισσός 370 12","categoryIds":["greek-restaurants"],"categories":["Greek Restaurants"],"distanceKm":7.95595211674487},{"id":"italianRestaurants_c53ee4efcd79","slug":"pasta-la-vista-kala-nera-c53e","kind":"restaurant","name":"Pasta La Vista KALA NERA","lat":39.3056996345145,"lng":23.120100052879696,"url":"https://maps.app.goo.gl/tYaU41CZfgnnQu8V7","address":"Kala Nera 370 10","categoryIds":["italian"],"categories":["Italian Restaurants"],"distanceKm":8.100671035967995},{"id":"greekRestaurants_f58f287acaec","slug":"1900-paradosiako-taverneio-traditional-tavern-f58f","kind":"restaurant","name":"1900 Παραδοσιακό Ταβερνείο (Traditional Tavern)","lat":39.30568114219273,"lng":23.12040447873948,"url":"https://maps.app.goo.gl/Zbob4RrewGaAi1fY9?g_st=ipc","address":"Kala Nera 370 10","categoryIds":["greek-restaurants"],"categories":["Greek Restaurants"],"distanceKm":8.119060578210993},{"id":"familyFriendly_b5b29fc053cc","slug":"the-pelion-train-b5b2","kind":"restaurant","name":"The Pelion Train","lat":39.327703252626804,"lng":23.143518252950724,"url":"https://maps.app.goo.gl/P1JAubEdVdzV1V5Y8?g_st=ipc","address":"South Pelion 370 10","categoryIds":["family-friendly"],"categories":["Kid Friendly Locations"],"distanceKm":8.13361342399905},{"id":"greekRestaurants_e6f75b86de1f","slug":"to-salkimi-e6f7","kind":"restaurant","name":"Το Σαλκίμι","lat":39.32842613710333,"lng":23.150200950982853,"url":"https://maps.app.goo.gl/a2R9yDYGNQsY2fUS6?g_st=ipc","address":"Πήλιο 370 10","categoryIds":["greek-restaurants"],"categories":["Greek Restaurants"],"distanceKm":8.612176720198422},{"id":"dessertsRestaurants_fab74267c12c","slug":"anna-na-ena-milo-fab7","kind":"restaurant","name":"Άννα να ένα μήλο","lat":39.32818241324449,"lng":23.15069435375763,"url":"https://maps.app.goo.gl/pFdSDfbmt9PYS4wT9?g_st=ic","address":"Epar.Od. Agrias-Mileon 107, Milies 370 10","categoryIds":["desserts"],"categories":["Dessert Shops"],"distanceKm":8.662138802703799},{"id":"coffeeBrunchRestaurants_8f68ea1d28c9","slug":"isalos-beach-club-8f68","kind":"restaurant","name":"Isalos Beach Club","lat":39.35159082602954,"lng":22.9581356571748,"url":"https://maps.app.goo.gl/whtVq9izZXDLCZ8k7?g_st=ipc","address":"Plastira 17b, Volos 382 22","categoryIds":["coffee-brunch"],"categories":["Coffee & Brunch Spots"],"distanceKm":8.803042870229067},{"id":"burgersRestaurants_1efcdff68c36","slug":"urban-burger-co-1efc","kind":"restaurant","name":"Urban Burger Co.","lat":39.359716759351,"lng":22.950932981495203,"url":"https://maps.app.goo.gl/Hj1LZsKmFMwoeDYk8?g_st=ipc","address":"Δημάρχου Κονταράτου 8, Βόλος 382 21","categoryIds":["burgers"],"categories":["Burger Spots"],"distanceKm":9.353468182830872},{"id":"burgersRestaurants_07d450e3e91f","slug":"shoreditch-burgers-sandwiches-07d4","kind":"restaurant","name":"Shoreditch Burgers & Sandwiches","lat":39.358294664127236,"lng":22.9508396365885,"url":"https://maps.app.goo.gl/1QRrTYXfUm7MCQ5cA?g_st=ipc","address":"Δημητριάδος 186, Βόλος 382 21","categoryIds":["burgers"],"categories":["Burger Spots"],"distanceKm":9.366458450112345},{"id":"cheapEatsRestaurants_9135e360a957","slug":"shoreditch-burgers-sandwiches-9135","kind":"restaurant","name":"Shoreditch Burgers & Sandwiches","lat":39.358292162660355,"lng":22.950837613452617,"url":"https://maps.app.goo.gl/5xzuz9k7GPVzTJnDA?g_st=ipc","address":"Dimitriados 186, Volos 382 21","categoryIds":["cheap-eats"],"categories":["Gyros & Cheap Eats"],"distanceKm":9.366643338743065},{"id":"municipalities_8f859bc809a7","slug":"volos-8f85","kind":"municipality","name":"Βόλος","lat":39.36,"lng":22.95,"aliases":["Βολος"],"region":"Θεσσαλία","name_en":"Volos","region_en":"Thessaly","distanceKm":9.43299318467974},{"id":"cheapEatsRestaurants_4de5fd1f21ea","slug":"rainbow-4de5","kind":"restaurant","name":"Rainbow","lat":39.358716294857,"lng":22.949235444566693,"url":"https://maps.app.goo.gl/RfPoKrLrjoUUEA32A?g_st=ipc","address":"Iasonos 135, Volos 382 21","categoryIds":["cheap-eats"],"categories":["Gyros & Cheap Eats"],"distanceKm":9.502545197892552},{"id":"dessertsRestaurants_ddfd2ed8f8da","slug":"glyko-styllas-ddfd","kind":"restaurant","name":"Glyko Styllas","lat":39.358756123978736,"lng":22.949172631183142,"url":"https://maps.app.goo.gl/C2qoG9g6ogZM9U2H6?g_st=ipc","address":"Iasonos 135, Volos 382 21","categoryIds":["desserts"],"categories":["Dessert Shops"],"distanceKm":9.507791332410589},{"id":"cheapEatsRestaurants_6c680d57fcca","slug":"r-the-original-fast-food-6c68","kind":"restaurant","name":"R The Original fast food","lat":39.35863953139754,"lng":22.949097785508563,"url":"https://maps.app.goo.gl/c4a3sw59T33zdhDU8?g_st=ipc","address":"Iasonos 118, Volos 382 21","categoryIds":["cheap-eats"],"categories":["Gyros & Cheap Eats"],"distanceKm":9.514670184974575},{"id":"greekRestaurants_f8c7fc9e1119","slug":"mezen-mezen-f8c7","kind":"restaurant","name":"Μεζέν - Mezen","lat":39.360202586197914,"lng":22.94855189327868,"url":"https://maps.app.goo.gl/8kEStDeZbgxBjzsH6?g_st=ipc","address":"Αλοννήσου 8, Βόλος 382 21","categoryIds":["greek-restaurants"],"categories":["Greek Restaurants"],"distanceKm":9.557061670604861},{"id":"dessertsRestaurants_c5d32b51622f","slug":"minerva-c5d3","kind":"restaurant","name":"Minerva","lat":39.35839004627972,"lng":22.94810636993991,"url":"https://maps.app.goo.gl/LYYj8A3erRuK1dFDA?g_st=ipc","address":"Argonafton 53, Volos 383 33","categoryIds":["desserts"],"categories":["Dessert Shops"],"distanceKm":9.600863238511185},{"id":"cheapEatsRestaurants_14fc216d1bd2","slug":"makis-14fc","kind":"restaurant","name":"Makis","lat":39.35994931747672,"lng":22.947511340680645,"url":"https://maps.app.goo.gl/Dd1J2caUfwteeWVJA?g_st=ipc","address":"Dimitriados 126, Volos 382 21","categoryIds":["cheap-eats"],"categories":["Gyros & Cheap Eats"],"distanceKm":9.647020831209405}],"sameRegion":[],"mentionedGuides":[],"canonicalSlug":"platanus-orientalis-267e","enrichment":{"summary_en":"Platanus Orientalis is a curated restaurant in Greece in the Greek Restaurants collection. It is connected to 0 nearby Googlementor picks to help travelers build a stronger local route.","summary_el":"Platanus Orientalis είναι ένα επιλεγμένο σημείο φαγητού στην περιοχή Greece και ανήκει στη συλλογή Greek Restaurants. Συνδέεται με 0 κοντινές προτάσεις του Googlementor για πιο ολοκληρωμένη εμπειρία.","vibe_tags":["curated"],"best_for":["first-time visitors","food lovers"],"visit_moments":["lunch stop","dinner stop"],"practical_note":"Address and direct map link are available for easy turn-by-turn access.","nearby_walkable_count":0,"nearby_count_2km":0,"confidence":0.9},"areaContext":null,"intentContexts":[]},"__N_SSG":true}