{"pageProps":{"entity":{"id":"mustSeeAttractions_aeebd3346525","slug":"pnyka-aeeb","kind":"restaurant","name":"Πνύκα","lat":37.96737351880718,"lng":23.721158867490345,"url":"https://maps.app.goo.gl/yJCvqZ3YjAxVjgmU6?g_st=ipc","address":"Αθήνα 117 41","categoryIds":["attractions"],"categories":["Must-See Attractions"]},"sameCategory":[{"id":"mustSeeAttractions_11b87cb6f066","slug":"philopappos-monument-11b8","kind":"restaurant","name":"Philopappos Monument","lat":37.96735214641467,"lng":23.72141968401236,"url":"https://maps.app.goo.gl/4mH8BGK5UQuAHaXf6?g_st=ipc","address":"Athens 117 41","categoryIds":["attractions"],"categories":["Must-See Attractions"]},{"id":"mustSeeAttractions_3df9a416cf1a","slug":"lofos-filopappoy-3df9","kind":"restaurant","name":"Λόφος Φιλοπάππου","lat":37.96711952882775,"lng":23.721574966297474,"url":"https://maps.app.goo.gl/oZosE6Kbfk2BP5e67?g_st=ipc","address":"Φυλής 215, Αθήνα 117 41","categoryIds":["attractions"],"categories":["Must-See Attractions"]},{"id":"mustSeeAttractions_bf865dc1bff4","slug":"prison-of-socrates-bf86","kind":"restaurant","name":"Prison of Socrates","lat":37.96945283540711,"lng":23.72099752982901,"url":"https://maps.app.goo.gl/431NuRe11zxrUqR89?g_st=ipc","address":"43, Rovertou Galli 39, Athina 117 41","categoryIds":["attractions"],"categories":["Must-See Attractions"]},{"id":"mustSeeAttractions_e73ed47cb5a3","slug":"odeio-irodoy-toy-attikoy-e73e","kind":"restaurant","name":"Ωδείο Ηρώδου του Αττικού","lat":37.97079439393834,"lng":23.724582622108812,"url":"https://maps.app.goo.gl/rjXRZrpDRp5VnNP2A?g_st=ipc","address":"Διονυσίου Αρεοπαγίτου, Αθήνα 105 55","categoryIds":["attractions"],"categories":["Must-See Attractions"]},{"id":"mustSeeAttractions_9bfc186193fa","slug":"akropoli-athinon-9bfc","kind":"restaurant","name":"Ακρόπολη Αθηνών","lat":37.97153381829169,"lng":23.7257493192379,"url":"https://maps.app.goo.gl/p7J1mcB5DGfqSALg6?g_st=ipc","address":"Αθήνα 105 58","categoryIds":["attractions"],"categories":["Must-See Attractions"]},{"id":"mustSeeAttractions_8c69e6a7063e","slug":"moyseio-akropolis-8c69","kind":"restaurant","name":"Μουσείο Ακρόπολης","lat":37.96845037815513,"lng":23.728523216398074,"url":"https://maps.app.goo.gl/ZqiBPBtN3PxoeXmY8?g_st=ipc","address":"Διονυσίου Αρεοπαγίτου 15, Αθήνα 117 42","categoryIds":["attractions"],"categories":["Must-See Attractions"]},{"id":"familyFriendly_a550b3686c2d","slug":"ethniko-asteroskopeio-athinon-kentro-episkepton-thiseioy-a550","kind":"restaurant","name":"Εθνικό Αστεροσκοπείο Αθηνών - Κέντρο Επισκεπτών Θησείου","lat":37.97274718818258,"lng":23.717946612728728,"url":"https://maps.app.goo.gl/hbZeHeJkN4GXh5tc6?g_st=ipc","address":"Λόφος Νυμφών Θησείο, ΤΘ 20048, Αθήνα 118 10","categoryIds":["family-friendly","attractions"],"categories":["Kid Friendly Locations","Must-See Attractions"],"legacySlugs":["ethniko-asteroskopeio-athinon-kentro-episkepton-thiseioy-26d3"]},{"id":"mustSeeAttractions_186b78600e45","slug":"parthenonas-186b","kind":"restaurant","name":"Παρθενώνας","lat":37.97152775110389,"lng":23.726714874737574,"url":"https://maps.app.goo.gl/ztHmcesfndwzvFuRA?g_st=ipc","address":"Αθήνα 105 58","categoryIds":["attractions"],"categories":["Must-See Attractions"]},{"id":"mustSeeAttractions_397dfba9f16b","slug":"notia-klitys-akropolis-athinon-397d","kind":"restaurant","name":"Νότια Κλιτύς Ακρόπολης Αθηνών","lat":37.96962866994438,"lng":23.729046031418846,"url":"https://maps.app.goo.gl/5RAt8qpszUA945pG8?g_st=ipc","address":"Διονυσίου Αρεοπαγίτου, Αθήνα 105 58","categoryIds":["attractions"],"categories":["Must-See Attractions"]},{"id":"mustSeeAttractions_f9286196691d","slug":"anafiotika-f928","kind":"restaurant","name":"Αναφιώτικα","lat":37.97237012452399,"lng":23.728116657972198,"url":"https://maps.app.goo.gl/tWCR6cy3umt66P4p6?g_st=ipc","address":"Αθήνα 105 58","categoryIds":["attractions"],"categories":["Must-See Attractions"]},{"id":"mustSeeAttractions_fa2e6a808026","slug":"archaia-agora-athinon-fa2e","kind":"restaurant","name":"Αρχαία Αγορά Αθηνών","lat":37.97489898202124,"lng":23.722093444133804,"url":"https://maps.app.goo.gl/ofAbPpuVbSmGyHGy7?g_st=ipc","address":"Αθήνα 105 55","categoryIds":["attractions"],"categories":["Must-See Attractions"]},{"id":"mustSeeAttractions_8085cf28024a","slug":"choragic-monument-of-lysicrates-8085","kind":"restaurant","name":"Choragic Monument of Lysicrates","lat":37.97108971386169,"lng":23.72994596958006,"url":"https://maps.app.goo.gl/7Xgk65sqPNFM93Sy9?g_st=ipc","address":"Epimenidou 3, Athina 105 58","categoryIds":["attractions"],"categories":["Must-See Attractions"]}],"nearby":[{"id":"mustSeeAttractions_11b87cb6f066","slug":"philopappos-monument-11b8","kind":"restaurant","name":"Philopappos Monument","lat":37.96735214641467,"lng":23.72141968401236,"url":"https://maps.app.goo.gl/4mH8BGK5UQuAHaXf6?g_st=ipc","address":"Athens 117 41","categoryIds":["attractions"],"categories":["Must-See Attractions"],"distanceKm":0.022986818253078963},{"id":"mustSeeAttractions_3df9a416cf1a","slug":"lofos-filopappoy-3df9","kind":"restaurant","name":"Λόφος Φιλοπάππου","lat":37.96711952882775,"lng":23.721574966297474,"url":"https://maps.app.goo.gl/oZosE6Kbfk2BP5e67?g_st=ipc","address":"Φυλής 215, Αθήνα 117 41","categoryIds":["attractions"],"categories":["Must-See Attractions"],"distanceKm":0.04613169197015185},{"id":"rooftopLoungesRestaurants_9f3b51889721","slug":"neoma-9f3b","kind":"restaurant","name":"Neoma","lat":37.96667210546055,"lng":23.72293271432969,"url":"https://maps.app.goo.gl/GwTqDERwqhw3c72o8?g_st=ipc","address":"Μουσών 13, Αθήνα 117 41","categoryIds":["rooftop-lounges"],"categories":["Rooftop Lounges"],"distanceKm":0.17396273124382639},{"id":"mustSeeAttractions_bf865dc1bff4","slug":"prison-of-socrates-bf86","kind":"restaurant","name":"Prison of Socrates","lat":37.96945283540711,"lng":23.72099752982901,"url":"https://maps.app.goo.gl/431NuRe11zxrUqR89?g_st=ipc","address":"43, Rovertou Galli 39, Athina 117 41","categoryIds":["attractions"],"categories":["Must-See Attractions"],"distanceKm":0.23164161064691596},{"id":"monasteriesChurches_ff4d16b5f0b9","slug":"agios-dimitrios-loympardiaris-ff4d","kind":"restaurant","name":"Άγιος Δημήτριος Λουμπαρδιάρης","lat":37.97006358405725,"lng":23.72028596273088,"url":"https://maps.app.goo.gl/Fzr51bKUwjAtydxA7?g_st=ipc","address":"Αθήνα 117 41","categoryIds":["monasteries-churches"],"categories":["Monasteries & Spiritual Sites"],"distanceKm":0.30875376833795476},{"id":"dessertsRestaurants_b3f00cec9209","slug":"dolce-far-niente-ice-cream-b3f0","kind":"restaurant","name":"Dolce Far Niente ice cream","lat":37.967030991920694,"lng":23.725035602938313,"url":"https://maps.app.goo.gl/YaopPeigqjaCn38A6?g_st=ipc","address":"Τσάμη Καρατάσου 26, Αθήνα 117 42","categoryIds":["desserts"],"categories":["Dessert Shops"],"distanceKm":0.3419698932764121},{"id":"coffeeBrunchRestaurants_bdf81375a84e","slug":"ere-athens-bdf8","kind":"restaurant","name":"ERE Athens","lat":37.96787420182931,"lng":23.725296301158785,"url":"https://maps.app.goo.gl/rRZaQcETgQQjdrzg7?g_st=ipc","address":"Ερεχθείου 30, Αθήνα 117 42","categoryIds":["coffee-brunch"],"categories":["Coffee & Brunch Spots"],"distanceKm":0.36694156163566005},{"id":"dessertsRestaurants_f792b1129076","slug":"flour-of-youth-f792","kind":"restaurant","name":"Flour Of Youth","lat":37.96404409092071,"lng":23.722471600259,"url":"https://maps.app.goo.gl/FibffjzNDReT3bDx7?g_st=ipc","address":"Βεΐκου 91, Αθήνα 117 41","categoryIds":["desserts"],"categories":["Dessert Shops"],"distanceKm":0.3876889268850924},{"id":"coffeeBrunchRestaurants_93d5a5bf934a","slug":"bite-box-93d5","kind":"restaurant","name":"Bite Box","lat":37.963687328724134,"lng":23.72159915102945,"url":"https://maps.app.goo.gl/szSB6mZP4tWEA46h7?g_st=ipc","address":"Βεΐκου 84, Αθήνα 117 41","categoryIds":["coffee-brunch"],"categories":["Coffee & Brunch Spots"],"distanceKm":0.4116988742314624},{"id":"italianRestaurants_c197477778a8","slug":"fratti-bistro-c197","kind":"restaurant","name":"Fratti Bistro","lat":37.96852406982216,"lng":23.725725056108836,"url":"https://maps.app.goo.gl/v5TXqxqHKdw7mrCr5?g_st=ipc","address":"Φράττι 1, Αθήνα 117 42","categoryIds":["italian"],"categories":["Italian Restaurants"],"distanceKm":0.4202251448347836},{"id":"burgersRestaurants_ad6cf86d44bd","slug":"sam-burgers-ad6c","kind":"restaurant","name":"Sam burgers","lat":37.96388468249238,"lng":23.72312062221316,"url":"https://maps.app.goo.gl/pYEUc4KHraPYUmvN8?g_st=ipc","address":"Δημητρακοπούλου 82, Αθήνα 117 41","categoryIds":["burgers"],"categories":["Burger Spots"],"distanceKm":0.4243507168456279},{"id":"asianRestaurants_83a81f921b31","slug":"tuk-tuk-thai-street-food-83a8","kind":"restaurant","name":"TUK TUK THAI STREET FOOD","lat":37.96606521122011,"lng":23.725716482971748,"url":"https://maps.app.goo.gl/dLSj52rnQDPAbaGg8?g_st=ipc","address":"Βεΐκου 40, Αθήνα 117 42","categoryIds":["asian"],"categories":["Asian Restaurants"],"distanceKm":0.4251935703745693},{"id":"coffeeBrunchRestaurants_10b5704edcd7","slug":"karminio-all-day-eatery-10b5","kind":"restaurant","name":"KARMINIO - All Day Eatery","lat":37.963365261808825,"lng":23.721069408577183,"url":"https://maps.app.goo.gl/B47HWPSnhF6mtY1M8?g_st=ipc","address":"Βεΐκου 86, Αθήνα 117 41","categoryIds":["coffee-brunch","vegetarian"],"categories":["Coffee & Brunch Spots","Vegetarian Friendly Restaurants"],"legacySlugs":["karminio-all-day-eatery-44c1"],"distanceKm":0.44576683307874},{"id":"cheapEatsRestaurants_ccda7a47a1b9","slug":"falafel-bar-to-revithi-ccda","kind":"restaurant","name":"falafel bar ΤΟ ΡΕΒΙΘΙ","lat":37.96631483519238,"lng":23.7261110398094,"url":"https://maps.app.goo.gl/4FqJYg2raYZvXHja7?g_st=ipc","address":"Παρθενώνος 1, Αθήνα 117 42","categoryIds":["cheap-eats","vegetarian"],"categories":["Gyros & Cheap Eats","Vegetarian Friendly Restaurants"],"legacySlugs":["falafel-bar-to-revithi-dec0"],"distanceKm":0.4497973173592186},{"id":"monasteriesChurches_3b14e4e4fde2","slug":"ieros-naos-agias-sofias-akropoleos-3b14","kind":"restaurant","name":"Ιερός Ναός Αγίας Σοφίας Ακροπόλεως","lat":37.96969305070506,"lng":23.72539590621987,"url":"https://maps.app.goo.gl/GdJWue7opw56LmEv9?g_st=ipc","address":"Διονυσίου Αρεοπαγίτου 45, Αθήνα 117 42","categoryIds":["monasteries-churches"],"categories":["Monasteries & Spiritual Sites"],"distanceKm":0.4521901780100849},{"id":"cheapEatsRestaurants_5e8824ccc538","slug":"kalamaki-bar-5e88","kind":"restaurant","name":"Kalamaki Bar","lat":37.9654765831714,"lng":23.725752010856876,"url":"https://maps.app.goo.gl/vMhM3YojNKaURqwX8?g_st=ipc","address":"Δημητρακοπούλου και, Δράκου 15, Αθήνα 117 42","categoryIds":["cheap-eats"],"categories":["Gyros & Cheap Eats"],"distanceKm":0.45455134812565706},{"id":"greekRestaurants_2cc5d772f006","slug":"onos-taverna-2cc5","kind":"restaurant","name":"Onos Taverna","lat":37.96571079116367,"lng":23.725945276440267,"url":"https://maps.app.goo.gl/ur5XrAoMuE8FsR5c6","address":"Δράκου 14, Αθήνα 117 42","categoryIds":["greek-restaurants"],"categories":["Greek Restaurants"],"distanceKm":0.4585180160350927},{"id":"cheapEatsRestaurants_abe36348d52a","slug":"guarantee-abe3","kind":"restaurant","name":"Guarantee","lat":37.96613348579953,"lng":23.726193428667294,"url":"https://maps.app.goo.gl/k43yGuJ8dK72yJAh8?g_st=ipc","address":"Βεΐκου 41, Αθήνα 117 42","categoryIds":["cheap-eats"],"categories":["Gyros & Cheap Eats"],"distanceKm":0.46238010663872525},{"id":"greekRestaurants_fdc308cbed46","slug":"sfika-fdc3","kind":"restaurant","name":"Σφήκα","lat":37.966122619632145,"lng":23.726245016024656,"url":"https://maps.app.goo.gl/WDLKPoT2bayYqor96","address":"Στρ. Κοντούλη 15, Αθήνα 117 42","categoryIds":["greek-restaurants"],"categories":["Greek Restaurants"],"distanceKm":0.46705701017406},{"id":"coffeeBrunchRestaurants_01aaff71bf45","slug":"pancake-cake-acropolis-01aa","kind":"restaurant","name":"Pancake & CAKE Acropolis","lat":37.967897348905204,"lng":23.726566946010575,"url":"https://maps.app.goo.gl/QuHwWVBbtZh2gYY18?g_st=ipc","address":"Καρυάτιδων 15, Αθήνα 117 42","categoryIds":["coffee-brunch"],"categories":["Coffee & Brunch Spots"],"distanceKm":0.47764486097688974},{"id":"mustSeeAttractions_e73ed47cb5a3","slug":"odeio-irodoy-toy-attikoy-e73e","kind":"restaurant","name":"Ωδείο Ηρώδου του Αττικού","lat":37.97079439393834,"lng":23.724582622108812,"url":"https://maps.app.goo.gl/rjXRZrpDRp5VnNP2A?g_st=ipc","address":"Διονυσίου Αρεοπαγίτου, Αθήνα 105 55","categoryIds":["attractions"],"categories":["Must-See Attractions"],"distanceKm":0.48452781547133283},{"id":"coffeeBrunchRestaurants_60b919ea4202","slug":"artopoiotis-o-takis-60b9","kind":"restaurant","name":"Αρτοποιότης Ο Τάκης","lat":37.96774042832454,"lng":23.72678404932504,"url":"https://maps.app.goo.gl/kz81zzmehsyvYBbQ6?g_st=ipc","address":"Μισαραλιώτου 14, Αθήνα 117 42","categoryIds":["coffee-brunch"],"categories":["Coffee & Brunch Spots"],"distanceKm":0.49479703266295383},{"id":"dessertsRestaurants_565a86e193ac","slug":"loukoumania-koukaki-565a","kind":"restaurant","name":"Loukoumania Koukaki","lat":37.96292938267619,"lng":23.721586647006472,"url":"https://maps.app.goo.gl/ZLLgE9gFjGjPVqBp7?g_st=ipc","address":"Δημητρακοπούλου 102, Αθήνα 117 41","categoryIds":["desserts"],"categories":["Dessert Shops"],"distanceKm":0.49558628105600455},{"id":"mexicanRestaurants_b734434ef46c","slug":"el-burro-tacos-y-tequila-b734","kind":"restaurant","name":"El burro tacos y tequila","lat":37.962922862445566,"lng":23.7215865155236,"url":"https://maps.app.goo.gl/5kJKHTBcWjkVftX99?g_st=ipc","address":"Δημητρακοπούλου 102, Αθήνα 117 41","categoryIds":["mexican"],"categories":["Mexican Restaurants"],"distanceKm":0.49630835129497014}],"sameRegion":[],"mentionedGuides":[],"canonicalSlug":"pnyka-aeeb","enrichment":{"summary_en":"Πνύκα is a curated restaurant in Greece in the Must-See Attractions collection. It is connected to 85 nearby Googlementor picks to help travelers build a stronger local route.","summary_el":"Πνύκα είναι ένα επιλεγμένο σημείο φαγητού στην περιοχή Greece και ανήκει στη συλλογή Must-See Attractions. Συνδέεται με 85 κοντινές προτάσεις του Googlementor για πιο ολοκληρωμένη εμπειρία.","vibe_tags":["curated"],"best_for":["first-time visitors","food lovers"],"visit_moments":["lunch stop","dinner stop"],"practical_note":"Address and direct map link are available for easy turn-by-turn access.","nearby_walkable_count":85,"nearby_count_2km":527,"confidence":0.98},"areaContext":{"slug":"koykaki","name":"Koukaki","nameEl":"Κουκάκι"},"intentContexts":[{"href":"/attractions/koykaki","label":"Must-See Attractions in Koukaki","categorySlug":"attractions","categoryName":"Must-See Attractions","areaSlug":"koykaki","areaName":"Koukaki","areaNameEl":"Κουκάκι"}]},"__N_SSG":true}