{"pageProps":{"entity":{"id":"fishTavernasRestaurants_25699dc17efe","slug":"spilia-mykonos-seaside-restaurant-2569","kind":"restaurant","name":"Spilia Mykonos Seaside Restaurant","lat":37.4346532807744,"lng":25.419253772230018,"url":"https://maps.app.goo.gl/WjiGf9HWCLVQssrK7?g_st=ipc","address":"Καλαφάτη 846 00","categoryIds":["fish-tavernas","luxury-dining"],"categories":["Fish Tavernas","Luxury Dining"],"legacySlugs":["spilia-mykonos-seaside-restaurant-5ef9"]},"sameCategory":[{"id":"fishTavernasRestaurants_d4e628ae7f3c","slug":"lia-tavern-d4e6","kind":"restaurant","name":"Lia Tavern","lat":37.44620505587329,"lng":25.435439300552154,"url":"https://maps.app.goo.gl/tS93xJU8Wr7t5Kdn6?g_st=ipc","address":"Unnamed Road, Mikonos 846 00","categoryIds":["fish-tavernas"],"categories":["Fish Tavernas"]},{"id":"luxuryDiningRestaurants_68f1019ed7a6","slug":"cabbanes-mykonos-68f1","kind":"restaurant","name":"Cabbanes Mykonos","lat":37.42267215380325,"lng":25.39444539705876,"url":"https://maps.app.goo.gl/dn2BSTCZPyK4NYU26?g_st=ipc","address":"Elia Beach, Mikonos 846 00","categoryIds":["luxury-dining"],"categories":["Luxury Dining"]},{"id":"fishTavernasRestaurants_07e9864c5c78","slug":"tsaf-07e9","kind":"restaurant","name":"Tsaf","lat":37.44718665279816,"lng":25.39108104189754,"url":"https://maps.app.goo.gl/kJps23htN4HRkisa6?g_st=ipc","address":"Πλατεία Ανω μερας, Ano Mera 846 00","categoryIds":["fish-tavernas"],"categories":["Fish Tavernas"]},{"id":"luxuryDiningRestaurants_8d846343f376","slug":"alemagou-8d84","kind":"restaurant","name":"Alemagou","lat":37.4646482904714,"lng":25.380862426799272,"url":"https://maps.app.goo.gl/CFqVN5ZTnDi5b6gYA?g_st=ipc","address":"Greece, Mikonos","categoryIds":["luxury-dining"],"categories":["Luxury Dining"]},{"id":"fishTavernasRestaurants_0347c26ff2c2","slug":"fokos-taverna-0347","kind":"restaurant","name":"Fokos Taverna","lat":37.48058147464832,"lng":25.4091552850878,"url":"https://maps.app.goo.gl/NuKJCrD5oxJ47mE18?g_st=ipc","address":"Fokos Φωκός, Ano Mera 846 00","categoryIds":["fish-tavernas"],"categories":["Fish Tavernas"]},{"id":"fishTavernasRestaurants_aec820e07017","slug":"tasos-taverna-aec8","kind":"restaurant","name":"Tasos Taverna","lat":37.40810167705386,"lng":25.350310426097927,"url":"https://maps.app.goo.gl/97rM65KFuFY4e1Wc9?g_st=ipc","address":"Paraga Beach, Mikonos 846 00","categoryIds":["fish-tavernas"],"categories":["Fish Tavernas"]},{"id":"fishTavernasRestaurants_05c6d38f3545","slug":"nikolas-tavern-mykonos-seafood-restaurant-05c6","kind":"restaurant","name":"Nikolas Tavern Mykonos - Seafood Restaurant","lat":37.409158532586275,"lng":25.34844810083572,"url":"https://maps.app.goo.gl/GfjsFWp6Rpr3hZyH8?g_st=ipc","address":"Paraga Mykonos, Mikonos 846 00","categoryIds":["fish-tavernas"],"categories":["Fish Tavernas"]},{"id":"luxuryDiningRestaurants_60ad37649fda","slug":"principote-mykonos-60ad","kind":"restaurant","name":"Principote Mykonos","lat":37.47661163546428,"lng":25.359897401386203,"url":"https://maps.app.goo.gl/Ru8EWbLUas6Xvf7K9?g_st=ipc","address":"Panormos Beach, Mikonos 846 00","categoryIds":["luxury-dining"],"categories":["Luxury Dining"]},{"id":"luxuryDiningRestaurants_1500d9d46225","slug":"scorpios-1500","kind":"restaurant","name":"Scorpios","lat":37.40690634816725,"lng":25.347629445529506,"url":"https://maps.app.goo.gl/BWoH4D79nkxuwHvt9?g_st=ipc","address":"Paraga, Mikonos 846 00","categoryIds":["luxury-dining"],"categories":["Luxury Dining"]},{"id":"fishTavernasRestaurants_198b2ec0807d","slug":"pelao-tavern-198b","kind":"restaurant","name":"Pelao Tavern","lat":37.47762741859572,"lng":25.360085295125813,"url":"https://maps.app.goo.gl/xEc3zgbQENWmj7bk8?g_st=ipc","address":"Stopelao@gmail.com, Πάνορμος 846 00","categoryIds":["fish-tavernas"],"categories":["Fish Tavernas"]},{"id":"fishTavernasRestaurants_d5334aaf38d0","slug":"kiki-s-tavern-d533","kind":"restaurant","name":"Kiki's Tavern","lat":37.48580571700608,"lng":25.36037551259411,"url":"https://maps.app.goo.gl/zDFvBri1oSmdB6aV8?g_st=ipc","address":"Κυκλαδες μυκονος, Ag. Sostis 846 00","categoryIds":["fish-tavernas"],"categories":["Fish Tavernas"]},{"id":"asianRestaurants_5d69fac12c7f","slug":"tokyo-joe-mykonos-5d69","kind":"restaurant","name":"Tokyo Joe Mykonos","lat":37.43430209897853,"lng":25.33164889840815,"url":"https://maps.app.goo.gl/SbcxFuCJ6NAhCk248?g_st=ipc","address":"Ano Vrisi, My Mall, Mikonos 846 00","categoryIds":["asian","luxury-dining"],"categories":["Asian Restaurants","Luxury Dining"],"legacySlugs":["tokyo-joe-mykonos-5522"]}],"nearby":[{"id":"fishTavernasRestaurants_d4e628ae7f3c","slug":"lia-tavern-d4e6","kind":"restaurant","name":"Lia Tavern","lat":37.44620505587329,"lng":25.435439300552154,"url":"https://maps.app.goo.gl/tS93xJU8Wr7t5Kdn6?g_st=ipc","address":"Unnamed Road, Mikonos 846 00","categoryIds":["fish-tavernas"],"categories":["Fish Tavernas"],"distanceKm":1.9214334450924193},{"id":"italianRestaurants_2fd6901849b7","slug":"cardamomo-2fd6","kind":"restaurant","name":"Cardamomo","lat":37.4446572877169,"lng":25.396868169763824,"url":"https://maps.app.goo.gl/sh5TMZCTCw3tQKQP9?g_st=ipc","address":"Unnamed Road, Ano Mera 846 00","categoryIds":["italian"],"categories":["Italian Restaurants"],"distanceKm":2.2679308137875203},{"id":"luxuryDiningRestaurants_68f1019ed7a6","slug":"cabbanes-mykonos-68f1","kind":"restaurant","name":"Cabbanes Mykonos","lat":37.42267215380325,"lng":25.39444539705876,"url":"https://maps.app.goo.gl/dn2BSTCZPyK4NYU26?g_st=ipc","address":"Elia Beach, Mikonos 846 00","categoryIds":["luxury-dining"],"categories":["Luxury Dining"],"distanceKm":2.5639072996726258},{"id":"fishTavernasRestaurants_07e9864c5c78","slug":"tsaf-07e9","kind":"restaurant","name":"Tsaf","lat":37.44718665279816,"lng":25.39108104189754,"url":"https://maps.app.goo.gl/kJps23htN4HRkisa6?g_st=ipc","address":"Πλατεία Ανω μερας, Ano Mera 846 00","categoryIds":["fish-tavernas"],"categories":["Fish Tavernas"],"distanceKm":2.8511033554104657},{"id":"greekRestaurants_38ad3b7a8b6d","slug":"oti-apomeine-38ad","kind":"restaurant","name":"Οτι Απόμεινε","lat":37.44787622617612,"lng":25.39114702118571,"url":"https://maps.app.goo.gl/FKEVGaJFP958nDfq6?g_st=ipc","address":"Άνω Μερά 846 00","categoryIds":["greek-restaurants"],"categories":["Greek Restaurants"],"distanceKm":2.8843354993176473},{"id":"greekRestaurants_f7c457ab18f6","slug":"rizes-mykonos-folkore-farmstead-f7c4","kind":"restaurant","name":"RIZES Mykonos - Folkore Farmstead","lat":37.45817265669343,"lng":25.40349643556608,"url":"https://maps.app.goo.gl/PJSn3dijenQzfVKcA?g_st=ipc","address":"Maou, Άνω Μερά 846 00","categoryIds":["greek-restaurants"],"categories":["Greek Restaurants"],"distanceKm":2.962178756604569},{"id":"mexicanRestaurants_ef3256c8f86b","slug":"appaloosa-bar-restaurant-ef32","kind":"restaurant","name":"Appaloosa Bar Restaurant","lat":37.45234589794245,"lng":25.38409135881813,"url":"https://maps.app.goo.gl/x9fF3ksZjKbckcRR9?g_st=ipc","address":"Άνω Μερά 846 00","categoryIds":["mexican"],"categories":["Mexican Restaurants"],"distanceKm":3.6751648131559396},{"id":"luxuryDiningRestaurants_8d846343f376","slug":"alemagou-8d84","kind":"restaurant","name":"Alemagou","lat":37.4646482904714,"lng":25.380862426799272,"url":"https://maps.app.goo.gl/CFqVN5ZTnDi5b6gYA?g_st=ipc","address":"Greece, Mikonos","categoryIds":["luxury-dining"],"categories":["Luxury Dining"],"distanceKm":4.754977865311989},{"id":"fishTavernasRestaurants_0347c26ff2c2","slug":"fokos-taverna-0347","kind":"restaurant","name":"Fokos Taverna","lat":37.48058147464832,"lng":25.4091552850878,"url":"https://maps.app.goo.gl/NuKJCrD5oxJ47mE18?g_st=ipc","address":"Fokos Φωκός, Ano Mera 846 00","categoryIds":["fish-tavernas"],"categories":["Fish Tavernas"],"distanceKm":5.184186850710678},{"id":"dessertsRestaurants_a10d2504f9c7","slug":"n-ice-cream-mykonos-a10d","kind":"restaurant","name":"N'ice Cream Mykonos","lat":37.45205375388753,"lng":25.358864338055778,"url":"https://maps.app.goo.gl/JpGxtdjqrzWaKvb36?g_st=ipc","address":"Κλούβας 846 00","categoryIds":["desserts"],"categories":["Dessert Shops"],"distanceKm":5.6716405206174185},{"id":"municipalities_b456e42c7271","slug":"ormos-b456","kind":"municipality","name":"Όρμος","lat":37.4269,"lng":25.3528,"aliases":["Ορμος","Ornos Beach"],"region":"Κυκλάδες","name_en":"Ornos","region_en":"Cyclades","distanceKm":5.930769855555287},{"id":"familyFriendly_03f29a25699e","slug":"funbox-03f2","kind":"restaurant","name":"Funbox","lat":37.450143269337566,"lng":25.34837194743214,"url":"https://maps.app.goo.gl/BEmUn1htaDH92gUZ7?g_st=ic","address":"Famelis Spiros, Mikonos 846 00","categoryIds":["family-friendly"],"categories":["Kid Friendly Locations"],"distanceKm":6.4905054222445235},{"id":"greekRestaurants_5401b7812885","slug":"xarathymio-5401","kind":"restaurant","name":"Ξαραθυμιο","lat":37.43064695338044,"lng":25.34483466442765,"url":"https://maps.app.goo.gl/k93muyVGMB9vZMRS6?g_st=ipc","address":"Skalado 846 00","categoryIds":["greek-restaurants"],"categories":["Greek Restaurants"],"distanceKm":6.58602095235896},{"id":"fishTavernasRestaurants_aec820e07017","slug":"tasos-taverna-aec8","kind":"restaurant","name":"Tasos Taverna","lat":37.40810167705386,"lng":25.350310426097927,"url":"https://maps.app.goo.gl/97rM65KFuFY4e1Wc9?g_st=ipc","address":"Paraga Beach, Mikonos 846 00","categoryIds":["fish-tavernas"],"categories":["Fish Tavernas"],"distanceKm":6.766451231633731},{"id":"greekRestaurants_d1b39b4f3e00","slug":"amethystos-mykonos-d1b3","kind":"restaurant","name":"Amethystos Mykonos","lat":37.43458136770975,"lng":25.342119704198275,"url":"https://maps.app.goo.gl/AKNrBroi1VZKtHvZ7?g_st=ipc","address":"Μύκονος 846 00","categoryIds":["greek-restaurants"],"categories":["Greek Restaurants"],"distanceKm":6.810484098490984},{"id":"fishTavernasRestaurants_05c6d38f3545","slug":"nikolas-tavern-mykonos-seafood-restaurant-05c6","kind":"restaurant","name":"Nikolas Tavern Mykonos - Seafood Restaurant","lat":37.409158532586275,"lng":25.34844810083572,"url":"https://maps.app.goo.gl/GfjsFWp6Rpr3hZyH8?g_st=ipc","address":"Paraga Mykonos, Mikonos 846 00","categoryIds":["fish-tavernas"],"categories":["Fish Tavernas"],"distanceKm":6.865409963407263},{"id":"coffeeBrunchRestaurants_7ef5924c8dc6","slug":"velanos-mykonos-brunch-breakfast-cocktails-7ef5","kind":"restaurant","name":"Velanos Mykonos - Brunch, Breakfast & Cocktails","lat":37.43406109514676,"lng":25.3414091685473,"url":"https://maps.app.goo.gl/8BRmDPmozseUfqLY6?g_st=ipc","address":"Skalado, Mikonos 846 00","categoryIds":["coffee-brunch"],"categories":["Coffee & Brunch Spots"],"distanceKm":6.873554777106986},{"id":"greekRestaurants_4f8fc805eb7d","slug":"to-karteri-4f8f","kind":"restaurant","name":"Το καρτερι","lat":37.432738323612284,"lng":25.341244801500245,"url":"https://maps.app.goo.gl/ZPLYvNbeUn9uhSA56?g_st=ipc","address":"Προς Παρανταις, Μύκονος 846 00","categoryIds":["greek-restaurants"],"categories":["Greek Restaurants"],"distanceKm":6.891103489729806},{"id":"coffeeBrunchRestaurants_305022a62a4f","slug":"to-davelaki-3050","kind":"restaurant","name":"To Davelaki","lat":37.43471134705592,"lng":25.340570140407053,"url":"https://maps.app.goo.gl/s3ATMeRgiCtC4BjXA?g_st=ic","address":"Unnamed Road, Mikonos 846 00","categoryIds":["coffee-brunch"],"categories":["Coffee & Brunch Spots"],"distanceKm":6.947293629944587},{"id":"luxuryDiningRestaurants_60ad37649fda","slug":"principote-mykonos-60ad","kind":"restaurant","name":"Principote Mykonos","lat":37.47661163546428,"lng":25.359897401386203,"url":"https://maps.app.goo.gl/Ru8EWbLUas6Xvf7K9?g_st=ipc","address":"Panormos Beach, Mikonos 846 00","categoryIds":["luxury-dining"],"categories":["Luxury Dining"],"distanceKm":7.015562899176058},{"id":"luxuryDiningRestaurants_1500d9d46225","slug":"scorpios-1500","kind":"restaurant","name":"Scorpios","lat":37.40690634816725,"lng":25.347629445529506,"url":"https://maps.app.goo.gl/BWoH4D79nkxuwHvt9?g_st=ipc","address":"Paraga, Mikonos 846 00","categoryIds":["luxury-dining"],"categories":["Luxury Dining"],"distanceKm":7.03754037229793},{"id":"fishTavernasRestaurants_198b2ec0807d","slug":"pelao-tavern-198b","kind":"restaurant","name":"Pelao Tavern","lat":37.47762741859572,"lng":25.360085295125813,"url":"https://maps.app.goo.gl/xEc3zgbQENWmj7bk8?g_st=ipc","address":"Stopelao@gmail.com, Πάνορμος 846 00","categoryIds":["fish-tavernas"],"categories":["Fish Tavernas"],"distanceKm":7.078908242689953},{"id":"greekRestaurants_2b565e597e47","slug":"ayli-toy-thodori-2b56","kind":"restaurant","name":"Αυλή του Θοδωρή","lat":37.414288033794946,"lng":25.342693930138903,"url":"https://maps.app.goo.gl/XiVRj8K4Pw27o6cv7?g_st=ipc","address":"Πλατύς Γιαλός 846 00","categoryIds":["greek-restaurants"],"categories":["Greek Restaurants"],"distanceKm":7.129867488895087},{"id":"greekRestaurants_e4bc58632d82","slug":"i-mortissa-e4bc","kind":"restaurant","name":"Η Μόρτισσα","lat":37.445499840376385,"lng":25.33915107946274,"url":"https://maps.app.goo.gl/N1vfxuYLu3Ld3pfT6?g_st=ipc","address":"Αγιου Γεωργίου Αργύραινα, Μύκονος 846 00","categoryIds":["greek-restaurants"],"categories":["Greek Restaurants"],"distanceKm":7.1741818124498575}],"sameRegion":[],"mentionedGuides":[{"slug":"choose-perfect-greek-island-el","title":"Πώς να Επιλέξετε το Ιδανικό Ελληνικό Νησί"},{"slug":"choose-perfect-greek-island","title":"How to Choose the Perfect Greek Island for Your Trip"},{"slug":"greece-weather-swimming-ferry-guide-el","title":"Πότε να Επισκεφτείτε την Ελλάδα: Καιρός & Κολύμπι"},{"slug":"greece-weather-swimming-ferry-guide","title":"When to Visit Greece: Weather, Swimming & Ferries"},{"slug":"greek-bakeries-brunch-coffee-guide-el","title":"Ελληνική Αρτοποιία, Brunch & Κουλτούρα Καφέ"},{"slug":"greek-bakeries-brunch-coffee-guide","title":"Greek Bakeries, Brunch & Coffee Culture"},{"slug":"tap-water-safe-greece-el","title":"Είναι Ασφαλές να Πίνετε Νερό Βρύσης στην Ελλάδα;"},{"slug":"tap-water-safe-greece","title":"Is Tap Water Safe to Drink in Greece?"}],"canonicalSlug":"spilia-mykonos-seaside-restaurant-2569","enrichment":{"summary_en":"Spilia Mykonos Seaside Restaurant is a curated restaurant in Greece in the Fish Tavernas collection. It is connected to 0 nearby Googlementor picks to help travelers build a stronger local route.","summary_el":"Spilia Mykonos Seaside Restaurant είναι ένα επιλεγμένο σημείο φαγητού στην περιοχή Greece και ανήκει στη συλλογή Fish Tavernas. Συνδέεται με 0 κοντινές προτάσεις του Googlementor για πιο ολοκληρωμένη εμπειρία.","vibe_tags":["curated","premium-dining","seafood-local"],"best_for":["first-time visitors","food lovers","special occasions"],"visit_moments":["lunch stop","dinner stop"],"practical_note":"Address and direct map link are available for easy turn-by-turn access.","nearby_walkable_count":0,"nearby_count_2km":1,"confidence":0.9},"areaContext":{"slug":"ormos","name":"Ornos","nameEl":"Όρμος"},"intentContexts":[{"href":"/luxury-dining/ormos","label":"Luxury Dining in Ornos","categorySlug":"luxury-dining","categoryName":"Luxury Dining","areaSlug":"ormos","areaName":"Ornos","areaNameEl":"Όρμος"}]},"__N_SSG":true}