{"pageProps":{"entity":{"id":"dessertsRestaurants_ebf937ba8b50","slug":"stani-ebf9","kind":"restaurant","name":"Στάνη","lat":37.9854576770231,"lng":23.727929129339035,"url":"https://maps.app.goo.gl/eghkbGAv61qnF46Z8?g_st=ipc","address":"Μαρίκας Κοτοπούλη 10, Αθήνα 104 32","categoryIds":["desserts"],"categories":["Dessert Shops"]},"sameCategory":[{"id":"dessertsRestaurants_bc01e604b5d0","slug":"loykoymades-chanion-th-ktistaki-bc01","kind":"restaurant","name":"Λουκουμάδες Χανίων Θ.Κτιστάκη","lat":37.98396443932887,"lng":23.726671901662836,"url":"https://maps.app.goo.gl/JiNj7VSFZZXUBr419?g_st=ipc","address":"Σωκράτους 59, Αθήνα 104 31","categoryIds":["desserts"],"categories":["Dessert Shops"]},{"id":"dessertsRestaurants_ba20d8faff31","slug":"craquelin-ba20","kind":"restaurant","name":"Craquelin","lat":37.9865815151158,"lng":23.732749024802267,"url":"https://maps.app.goo.gl/m9Z1VRpp25owhfSz8?g_st=ipc","address":"Σολωμού 23, Αθήνα 106 82","categoryIds":["desserts"],"categories":["Dessert Shops"]},{"id":"dessertsRestaurants_1784b9fa852d","slug":"baklamania-1784","kind":"restaurant","name":"Baklamania","lat":37.985982058793134,"lng":23.733879471082627,"url":"https://maps.app.goo.gl/dVejuM8qJpCUsYq38?g_st=ipc","address":"Θεμιστοκλέους 49, Αθήνα 106 83","categoryIds":["desserts"],"categories":["Dessert Shops"]},{"id":"dessertsRestaurants_7f6602abadca","slug":"krinos-7f66","kind":"restaurant","name":"Κρίνος","lat":37.98041054951213,"lng":23.728412779668,"url":"https://maps.app.goo.gl/dP718rebSLuGyq4GA?g_st=ipc","address":"Αιόλου 87, Αθήνα 105 51","categoryIds":["desserts"],"categories":["Dessert Shops"]},{"id":"dessertsRestaurants_0a4575669b20","slug":"sorolop-0a45","kind":"restaurant","name":"Sorolop","lat":37.98564970745245,"lng":23.73486137468713,"url":"https://maps.app.goo.gl/JHNfHtwZtaTRv5c86?g_st=ipc","address":"Ανδρέα Μεταξά 17, Αθήνα 106 81","categoryIds":["desserts"],"categories":["Dessert Shops"]},{"id":"dessertsRestaurants_02af5db1ffaa","slug":"overoll-croissanterie-02af","kind":"restaurant","name":"Overoll Croissanterie","lat":37.9788693032848,"lng":23.729688539887693,"url":"https://maps.app.goo.gl/eMRJKRxLBxxiGu628?g_st=ipc","address":"Πραξιτέλους 27, Αθήνα 105 60","categoryIds":["desserts"],"categories":["Dessert Shops"]},{"id":"dessertsRestaurants_6380c13ce6fb","slug":"petek-zacharoplasteio-6380","kind":"restaurant","name":"Πετέκ - Ζαχαροπλαστείο","lat":37.992161285064114,"lng":23.729868228783843,"url":"https://maps.app.goo.gl/bya8rkC9eSnHKYnU9?g_st=ipc","address":"3ης Σεπτεμβρίου 81, Αθήνα 104 34","categoryIds":["desserts"],"categories":["Dessert Shops"]},{"id":"dessertsRestaurants_195d87455c89","slug":"ta-serbetia-stou-psyrri-195d","kind":"restaurant","name":"Ta Serbetia stou Psyrri","lat":37.97876489928662,"lng":23.725063077362762,"url":"https://maps.app.goo.gl/t2M6Ma6B3LXC2PSo6?g_st=ipc","address":"105 54, Eschilou 3, Athina 105 54","categoryIds":["desserts"],"categories":["Dessert Shops"]},{"id":"dessertsRestaurants_e4d0b6ea2a87","slug":"artos-venetis-e4d0","kind":"restaurant","name":"Artos Venetis","lat":37.97931037334658,"lng":23.723187642950915,"url":"https://maps.app.goo.gl/AnM61t5BuRJETGV27?g_st=ic","address":"Sarri 13, Athina 105 54","categoryIds":["desserts"],"categories":["Dessert Shops"]},{"id":"dessertsRestaurants_d96257796e81","slug":"kokkion-monastiraki-d962","kind":"restaurant","name":"Kokkion Μοναστηράκι","lat":37.97829626511462,"lng":23.72638522814765,"url":"https://maps.app.goo.gl/FfAWG58apt6AFDPU7?g_st=ipc","address":"Πρωτογένους 2, Αθήνα 105 54","categoryIds":["desserts"],"categories":["Dessert Shops"]},{"id":"dessertsRestaurants_b25f1646b2cd","slug":"zoympoyrloy-b25f","kind":"restaurant","name":"Ζουμπουρλού","lat":37.97853908270467,"lng":23.72510275526626,"url":"https://maps.app.goo.gl/Cfhdki2vmrcV7YwL6?g_st=ipc","address":"Αισχύλου 4, Αθήνα 105 54","categoryIds":["desserts"],"categories":["Dessert Shops"]},{"id":"dessertsRestaurants_64c591cf617e","slug":"l-arte-del-gelato-64c5","kind":"restaurant","name":"L'Arte del Gelato","lat":37.97831483150659,"lng":23.72508265750619,"url":"https://maps.app.goo.gl/8FCA5DcN18fwe2916?g_st=ipc","address":"Μιαούλη 26, Αθήνα 105 54","categoryIds":["desserts"],"categories":["Dessert Shops"]}],"nearby":[{"id":"cheapEatsRestaurants_bbf053953e0b","slug":"leyteris-o-politis-ap-to-1951-bbf0","kind":"restaurant","name":"Λευτέρης ο Πολίτης (Απ'το 1951)","lat":37.98519549438972,"lng":23.72733221380902,"url":"https://maps.app.goo.gl/ChqL23bz9HeKVK9L8?g_st=ipc","address":"Σατωβριάνδου 20, Αθήνα 104 32","categoryIds":["cheap-eats"],"categories":["Gyros & Cheap Eats"],"distanceKm":0.059888736271441326},{"id":"dessertsRestaurants_bc01e604b5d0","slug":"loykoymades-chanion-th-ktistaki-bc01","kind":"restaurant","name":"Λουκουμάδες Χανίων Θ.Κτιστάκη","lat":37.98396443932887,"lng":23.726671901662836,"url":"https://maps.app.goo.gl/JiNj7VSFZZXUBr419?g_st=ipc","address":"Σωκράτους 59, Αθήνα 104 31","categoryIds":["desserts"],"categories":["Dessert Shops"],"distanceKm":0.19927397311654374},{"id":"cheapEatsRestaurants_d410e8bfc12e","slug":"delicious-souvlaki-d410","kind":"restaurant","name":"Delicious Souvlaki","lat":37.98375720535008,"lng":23.72706851408364,"url":"https://maps.app.goo.gl/ULZUzVZRtCP5wbNN7?g_st=ipc","address":"Π. Τσαλδάρη 4, Αθήνα 104 31","categoryIds":["cheap-eats"],"categories":["Gyros & Cheap Eats"],"distanceKm":0.2035722827131274},{"id":"cheapEatsRestaurants_7a147c673f5b","slug":"soyvlaki-i-leivadia-7a14","kind":"restaurant","name":"Σουβλάκι Η Λειβαδιά","lat":37.984552486382015,"lng":23.7305119942548,"url":"https://maps.app.goo.gl/DMoZEUMYCkZLa2k59?g_st=ipc","address":"Κάνιγγος 2-4, Αθήνα 106 77","categoryIds":["cheap-eats"],"categories":["Gyros & Cheap Eats"],"distanceKm":0.2477330444571651},{"id":"fishTavernasRestaurants_9e5577c171da","slug":"i-stoa-allios-9e55","kind":"restaurant","name":"Η Στοά Αλλιώς","lat":37.984455169051934,"lng":23.73057480489291,"url":"https://maps.app.goo.gl/SAabW9ijLcFRSozJ6?g_st=ipc","address":"Γαμβέτα 14, Αθήνα 106 77","categoryIds":["fish-tavernas"],"categories":["Fish Tavernas"],"distanceKm":0.2572735127009115},{"id":"greekRestaurants_56884a3a4523","slug":"i-kriti-pl-kaniggos-5688","kind":"restaurant","name":"Η Κρήτη, πλ. Κανιγγος","lat":37.985209028957776,"lng":23.730887169410018,"url":"https://maps.app.goo.gl/QasSnVbzBbfxtArw5","address":"Βερανζέρου 5, Αθήνα 106 77","categoryIds":["greek-restaurants"],"categories":["Greek Restaurants"],"distanceKm":0.2607137622689257},{"id":"cheapEatsRestaurants_63f6617fb3ad","slug":"falafel-al-sharq-63f6","kind":"restaurant","name":"Falafel Al Sharq","lat":37.98752255014304,"lng":23.726184432262915,"url":"https://maps.app.goo.gl/2RdBMYynhYxYXVUJ7?g_st=ipc","address":"Λιοσίων 1, Αθήνα 104 38","categoryIds":["cheap-eats","vegetarian"],"categories":["Gyros & Cheap Eats","Vegetarian Friendly Restaurants"],"legacySlugs":["falafel-al-sharq-46b7"],"distanceKm":0.2758571683300237},{"id":"fishTavernasRestaurants_94c27f69eb82","slug":"trata-94c2","kind":"restaurant","name":"ΤΡΑΤΑ","lat":37.9842462216536,"lng":23.73093735061636,"url":"https://maps.app.goo.gl/hterjoYbDhkZzWVF7?g_st=ipc","address":"Νικηταρά, Αθήνα 106 78","categoryIds":["fish-tavernas"],"categories":["Fish Tavernas"],"distanceKm":0.2960640137459231},{"id":"luxuryDiningRestaurants_3c3010cb0fe8","slug":"pharaoh-3c30","kind":"restaurant","name":"Pharaoh","lat":37.986974430593506,"lng":23.73075500920587,"url":"https://maps.app.goo.gl/1WxR8XYsFmsyuWyp7?g_st=ipc","address":"Solomou 54, Athina 106 82","categoryIds":["luxury-dining"],"categories":["Luxury Dining"],"distanceKm":0.2996316282853686},{"id":"cheapEatsRestaurants_5338053c1323","slug":"cocoretsi-5338","kind":"restaurant","name":"Cocoretsi","lat":37.984933091622935,"lng":23.73142125517845,"url":"https://maps.app.goo.gl/sz7bawT1imNu9L696?g_st=ipc","address":"Ακαδημίας 95, Αθήνα 106 77","categoryIds":["cheap-eats"],"categories":["Gyros & Cheap Eats"],"distanceKm":0.3115607708821762},{"id":"vegetarianRestaurants_90f93033da7a","slug":"up-kyttariki-threpsi-90f9","kind":"restaurant","name":"UP - Κυτταρική Θρέψη","lat":37.984784636631375,"lng":23.731547822244607,"url":"https://maps.app.goo.gl/GaPAS9YHhNwunuDSA?g_st=ipc","address":"Ακαδημίας 91 &, Themistokleous, Athina 106 77","categoryIds":["vegetarian"],"categories":["Vegetarian Friendly Restaurants"],"distanceKm":0.32585479311711435},{"id":"coffeeBrunchRestaurants_36f81684a0dd","slug":"kolor-36f8","kind":"restaurant","name":"kolor.","lat":37.98351287018702,"lng":23.730837222364755,"url":"https://maps.app.goo.gl/p5U6oKL1b1TdeuVD9?g_st=ipc","address":"Εμμανουήλ Μπενάκη 7-9, Αθήνα 106 78","categoryIds":["coffee-brunch"],"categories":["Coffee & Brunch Spots"],"distanceKm":0.33425064254812004},{"id":"italianRestaurants_ed5df50f2107","slug":"dilien-ed5d","kind":"restaurant","name":"Dilien","lat":37.98733679240523,"lng":23.730994400110465,"url":"https://maps.app.goo.gl/yeGNTXa4VUk4Paqs5","address":"Stournari 43, Athina 106 82","categoryIds":["italian"],"categories":["Italian Restaurants"],"distanceKm":0.3403312609377861},{"id":"vegetarianRestaurants_ea997a3c2b69","slug":"handwich-athens-ea99","kind":"restaurant","name":"Handwich Athens","lat":37.98638339493441,"lng":23.731698144915832,"url":"https://maps.app.goo.gl/WwKS8hQTt3PyFTcN9?g_st=ipc","address":"Τζώρτζ 3, Αθήνα 106 82","categoryIds":["vegetarian"],"categories":["Vegetarian Friendly Restaurants"],"distanceKm":0.345982220878573},{"id":"coffeeBrunchRestaurants_728ff1b5d2a5","slug":"motiv-728f","kind":"restaurant","name":"MOTIV","lat":37.98356771821389,"lng":23.731211011656264,"url":"https://maps.app.goo.gl/cfAQd1ZN4MrBL9T99?g_st=ipc","address":"Εμμανουήλ Μπενάκη 20, Αθήνα 106 78","categoryIds":["coffee-brunch"],"categories":["Coffee & Brunch Spots"],"distanceKm":0.3562228892417093},{"id":"burgersRestaurants_cd431d540de7","slug":"guerilla-chef-burgers-cd43","kind":"restaurant","name":"Guerilla Chef Burgers","lat":37.98670260429295,"lng":23.731789751446545,"url":"https://maps.app.goo.gl/dpwZgAJWWe2cfPeG9?g_st=ipc","address":"Σολωμού 33, Αθήνα 106 82","categoryIds":["burgers"],"categories":["Burger Spots"],"distanceKm":0.36556605767558376},{"id":"cheapEatsRestaurants_0f0ae09c0d4e","slug":"guerilla-chef-burgers-0f0a","kind":"restaurant","name":"Guerilla Chef Burgers","lat":37.98671993993366,"lng":23.731787435580728,"url":"https://maps.app.goo.gl/K2QVLnm9vHS1E3cF9?g_st=ipc","address":"37.98671993993366, 23.731787435580728","categoryIds":["cheap-eats"],"categories":["Gyros & Cheap Eats"],"distanceKm":0.3661128448708101},{"id":"rooftopLoungesRestaurants_bda24dde9bba","slug":"titania-hotel-athens-bda2","kind":"restaurant","name":"Titania Hotel Athens","lat":37.98298183652686,"lng":23.731011710839574,"url":"https://maps.app.goo.gl/xqLuVZ72UNxG6j6w5?g_st=ipc","address":"Πανεπιστημίου 52, Αθήνα 106 78","categoryIds":["rooftop-lounges"],"categories":["Rooftop Lounges"],"distanceKm":0.3857180027033677},{"id":"greekRestaurants_eec032d0bea1","slug":"atitamos-eec0","kind":"restaurant","name":"Ατίταμος","lat":37.98622715652684,"lng":23.73236663557607,"url":"https://maps.app.goo.gl/VfeckYbAHrSRw3Qo8","address":"Καποδιστρίου 2, Αθήνα 106 83","categoryIds":["greek-restaurants"],"categories":["Greek Restaurants"],"distanceKm":0.39820280695834465},{"id":"vegetarianRestaurants_a3ef401ec9a4","slug":"royal-curry-house-a3ef","kind":"restaurant","name":"Royal Curry House","lat":37.983044455575836,"lng":23.724361585760793,"url":"https://maps.app.goo.gl/PaZHwjdG5hcj4fEe9?g_st=ipc","address":"Βούλγαρη 7, Αθήνα 104 37","categoryIds":["vegetarian"],"categories":["Vegetarian Friendly Restaurants"],"distanceKm":0.4120252943815675},{"id":"vegetarianRestaurants_20a67f5f31e5","slug":"early-bites-20a6","kind":"restaurant","name":"Early bites","lat":37.98184714479862,"lng":23.729463542688077,"url":"https://maps.app.goo.gl/qZXBVvFNkiYBgdiVA?g_st=ipc","address":"Γεωρ. Σταύρου 6, Αθήνα 105 59","categoryIds":["vegetarian"],"categories":["Vegetarian Friendly Restaurants"],"distanceKm":0.4233972284527167},{"id":"greekRestaurants_2a6cdbb60ef0","slug":"balkan-restaurant-2a6c","kind":"restaurant","name":"Balkan Restaurant","lat":37.985310593490546,"lng":23.722959936018757,"url":"https://maps.app.goo.gl/CKhBpbV2aiz5Bpov8","address":"Ακομινάτου 13, Αθήνα 104 37","categoryIds":["greek-restaurants"],"categories":["Greek Restaurants"],"distanceKm":0.4358083779126119},{"id":"dessertsRestaurants_ba20d8faff31","slug":"craquelin-ba20","kind":"restaurant","name":"Craquelin","lat":37.9865815151158,"lng":23.732749024802267,"url":"https://maps.app.goo.gl/m9Z1VRpp25owhfSz8?g_st=ipc","address":"Σολωμού 23, Αθήνα 106 82","categoryIds":["desserts"],"categories":["Dessert Shops"],"distanceKm":0.44051016803914006},{"id":"fishTavernasRestaurants_f3208ead9a15","slug":"oyzeri-i-lesvos-f320","kind":"restaurant","name":"Ουζερί Η Λέσβος","lat":37.98449752332163,"lng":23.73299796536249,"url":"https://maps.app.goo.gl/zGLD1EQEqkqawMvG7?g_st=ipc","address":"Εμμανουήλ Μπενάκη 38, Αθήνα 106 78","categoryIds":["fish-tavernas"],"categories":["Fish Tavernas"],"distanceKm":0.4568858944283254}],"sameRegion":[],"mentionedGuides":[],"canonicalSlug":"stani-ebf9","enrichment":{"summary_en":"Στάνη is a curated restaurant in Αθήνα 104 32 in the Dessert Shops collection. It is connected to 110 nearby Googlementor picks to help travelers build a stronger local route.","summary_el":"Στάνη είναι ένα επιλεγμένο σημείο φαγητού στην περιοχή Αθήνα 104 32 και ανήκει στη συλλογή Dessert Shops. Συνδέεται με 110 κοντινές προτάσεις του Googlementor για πιο ολοκληρωμένη εμπειρία.","vibe_tags":["curated","sweet-stop"],"best_for":["first-time visitors","food lovers"],"visit_moments":["afternoon break","after dinner"],"practical_note":"Address and direct map link are available for easy turn-by-turn access.","nearby_walkable_count":110,"nearby_count_2km":544,"confidence":0.98},"areaContext":{"slug":"metaxoyrgeio","name":"Metaxourgeio","nameEl":"Μεταξουργείο"},"intentContexts":[{"href":"/desserts/metaxoyrgeio","label":"Dessert Shops in Metaxourgeio","categorySlug":"desserts","categoryName":"Dessert Shops","areaSlug":"metaxoyrgeio","areaName":"Metaxourgeio","areaNameEl":"Μεταξουργείο"}]},"__N_SSG":true}