{"pageProps":{"entity":{"id":"greekRestaurants_077f474cb97d","slug":"stis-ellis-077f","kind":"restaurant","name":"Στης Έλλης","lat":38.01628513050535,"lng":23.840166535568635,"url":"https://maps.app.goo.gl/o1oe4gt1mipnzHE77?g_st=ipc","address":"Ἁγ. Τριάδος 57, Αγ. Παρασκευή 153 43","categoryIds":["greek-restaurants"],"categories":["Greek Restaurants"]},"sameCategory":[{"id":"greekRestaurants_e6bbe405c9d9","slug":"tala-s-local-meze-aperitivo-e6bb","kind":"restaurant","name":"Tala's local meze & aperitivo","lat":38.01588032621049,"lng":23.833680348991113,"url":"https://maps.app.goo.gl/1ZTu39mrajPM1MYFA?g_st=ipc","address":"Θρασύβουλου 3, Αγ. Παρασκευή 153 43","categoryIds":["greek-restaurants"],"categories":["Greek Restaurants"]},{"id":"greekRestaurants_f61d819e1926","slug":"taverna-toyrkantoni-f61d","kind":"restaurant","name":"Ταβέρνα Τουρκαντώνη","lat":38.01211262091287,"lng":23.8515403603164,"url":"https://maps.app.goo.gl/B6AxbVv7MU6bztsX6","address":"Μιαούλη 59, Γέρακας 153 44","categoryIds":["greek-restaurants"],"categories":["Greek Restaurants"]},{"id":"greekRestaurants_3a95a72d63b7","slug":"to-steki-toy-andrea-sto-chalandri-3a95","kind":"restaurant","name":"Το Στέκι του Ανδρέα στο Χαλάνδρι","lat":38.02735400038434,"lng":23.82467794898433,"url":"https://maps.app.goo.gl/Wp9gL9KTg1iHqv8R6?g_st=ipc","address":"Μεσσηνίας 46, Χαλάνδρι 152 34","categoryIds":["greek-restaurants"],"categories":["Greek Restaurants"]},{"id":"greekRestaurants_2ee34caffafc","slug":"to-mprizoladiko-toy-geraka-2ee3","kind":"restaurant","name":"Το Μπριζολάδικο του Γέρακα","lat":38.02301749370778,"lng":23.859957200296044,"url":"https://maps.app.goo.gl/neQoZEu5PGEjM9DP9","address":"Λεωφ. Γέρακας 84, Γέρακας 153 44","categoryIds":["greek-restaurants"],"categories":["Greek Restaurants"]},{"id":"greekRestaurants_f89c37a413b6","slug":"taverna-o-morias-f89c","kind":"restaurant","name":"Ταβέρνα Ο ΜΩΡΙΑΣ","lat":38.00860400302697,"lng":23.81934480669425,"url":"https://maps.app.goo.gl/bRVKBMdQ27pSumbD9?g_st=ipc","address":"Ειρήνης 56, Αγ. Παρασκευή 153 41","categoryIds":["greek-restaurants"],"categories":["Greek Restaurants"]},{"id":"greekRestaurants_c4e480192004","slug":"ta-romanakia-c4e4","kind":"restaurant","name":"Τα Ρωμανάκια","lat":38.01166841393731,"lng":23.8131702489518,"url":"https://maps.app.goo.gl/huAdXz8UP2bA8sPj6?g_st=ipc","address":"Λεωφ. Μεσογείων 366, Αγ. Παρασκευή 153 41","categoryIds":["greek-restaurants"],"categories":["Greek Restaurants"]},{"id":"greekRestaurants_8e94a0e9697c","slug":"to-steki-tis-tompra-8e94","kind":"restaurant","name":"Το στέκι της Τόμπρα","lat":38.01114194965107,"lng":23.812150664429954,"url":"https://maps.app.goo.gl/nzMoaK1cxHPd4BAQA?g_st=ipc","address":"Ηπείρου 5-7, Αγ. Παρασκευή 153 41","categoryIds":["greek-restaurants"],"categories":["Greek Restaurants"]},{"id":"greekRestaurants_8c8e269305b0","slug":"nison-gi-8c8e","kind":"restaurant","name":"Νήσων Γη","lat":38.011331255497275,"lng":23.81122856443911,"url":"https://maps.app.goo.gl/wmEbsZ59WvGe41oB6?g_st=ipc","address":"Λεωφ. Μεσογείων 356, Αγ. Παρασκευή 153 41","categoryIds":["greek-restaurants"],"categories":["Greek Restaurants"]},{"id":"greekRestaurants_d2dfa77acfa8","slug":"doykissa-mezedopoleio-d2df","kind":"restaurant","name":"Δούκισσα Μεζεδοπωλείο","lat":38.0195289224619,"lng":23.810346764437185,"url":"https://maps.app.goo.gl/xuDMuCBBZTFu1suy8?g_st=ipc","address":"Δουκίσσης Πλακεντίας 14, Χαλάνδρι 152 34","categoryIds":["greek-restaurants"],"categories":["Greek Restaurants"]},{"id":"greekRestaurants_7b449c4e0fce","slug":"ta-platania-7b44","kind":"restaurant","name":"Τα Πλατάνια","lat":38.00304382571398,"lng":23.81401749329889,"url":"https://maps.app.goo.gl/7XNFATTa6teFNs8r9?g_st=ipc","address":"Μπουμπουλίνας 31, Αγ. Παρασκευή 153 41","categoryIds":["greek-restaurants"],"categories":["Greek Restaurants"]},{"id":"greekRestaurants_d99e659b75b8","slug":"melydron-d99e","kind":"restaurant","name":"ΜΕΛΥΔΡΟΝ","lat":37.99974475346684,"lng":23.816882406708455,"url":"https://maps.app.goo.gl/5M5MsFCweGzbhN1y7?g_st=ipc","address":"Πατριάρχου Γρηγορίου Ε 32, Αγ. Παρασκευή 153 41","categoryIds":["greek-restaurants"],"categories":["Greek Restaurants"]},{"id":"greekRestaurants_141b4df624df","slug":"peri-oysias-141b","kind":"restaurant","name":"Περί Ουσίας","lat":38.0199005649911,"lng":23.809145664428573,"url":"https://maps.app.goo.gl/gEFvWf42qxvaJBEX9?g_st=ipc","address":"Θησέως 25, Χαλάνδρι 152 34","categoryIds":["greek-restaurants"],"categories":["Greek Restaurants"]}],"nearby":[{"id":"dessertsRestaurants_26e3d9025bbd","slug":"andrias-26e3","kind":"restaurant","name":"Ανδριάς","lat":38.01747699050525,"lng":23.845245187937905,"url":"https://maps.app.goo.gl/UStQ38USzcHtSQQz8?g_st=ipc","address":"Κλεισθένους 80, Γέρακας 153 44","categoryIds":["desserts"],"categories":["Dessert Shops"],"distanceKm":0.46422279460182553},{"id":"greekRestaurants_e6bbe405c9d9","slug":"tala-s-local-meze-aperitivo-e6bb","kind":"restaurant","name":"Tala's local meze & aperitivo","lat":38.01588032621049,"lng":23.833680348991113,"url":"https://maps.app.goo.gl/1ZTu39mrajPM1MYFA?g_st=ipc","address":"Θρασύβουλου 3, Αγ. Παρασκευή 153 43","categoryIds":["greek-restaurants"],"categories":["Greek Restaurants"],"distanceKm":0.5699932330088555},{"id":"dessertsRestaurants_78c1b48a02f1","slug":"le-greche-agia-paraskevi-78c1","kind":"restaurant","name":"Le Greche Agia Paraskevi","lat":38.013608144326774,"lng":23.83072625387381,"url":"https://maps.app.goo.gl/bgontMhqzf4bbQEm7?g_st=ipc","address":"Λεωφ. Μεσογείων 456, Αγ. Παρασκευή 153 41","categoryIds":["desserts"],"categories":["Dessert Shops"],"distanceKm":0.878953968074535},{"id":"greekRestaurants_f61d819e1926","slug":"taverna-toyrkantoni-f61d","kind":"restaurant","name":"Ταβέρνα Τουρκαντώνη","lat":38.01211262091287,"lng":23.8515403603164,"url":"https://maps.app.goo.gl/B6AxbVv7MU6bztsX6","address":"Μιαούλη 59, Γέρακας 153 44","categoryIds":["greek-restaurants"],"categories":["Greek Restaurants"],"distanceKm":1.0991361247755442},{"id":"municipalities_3f6a045ce221","slug":"agia-paraskeyi-3f6a","kind":"municipality","name":"Αγία Παρασκευή","lat":38.0216,"lng":23.827,"region":"Βόρεια Προάστια","name_en":"Agia Paraskevi","region_en":"Northern Suburbs","distanceKm":1.2959841809312553},{"id":"coffeeBrunchRestaurants_f0c9993cb8f3","slug":"piccadilly-cafe-bar-f0c9","kind":"restaurant","name":"Piccadilly Cafe - Bar","lat":38.00719392579973,"lng":23.82715472856948,"url":"https://maps.app.goo.gl/sjLV2JRan1wDF2hM6?g_st=ipc","address":"Eleftherias, Αγίου Ιωάννου 63, Αγ. Παρασκευή 153 42","categoryIds":["coffee-brunch"],"categories":["Coffee & Brunch Spots"],"distanceKm":1.5236117428332687},{"id":"monasteriesChurches_20d9168100a7","slug":"iera-moni-agioy-ioannoy-toy-kynigoy-20d9","kind":"restaurant","name":"Ιερά Μονή Αγίου Ιωάννου του Κυνηγού","lat":38.00278956163498,"lng":23.836715813242602,"url":"https://maps.app.goo.gl/TkGr97r8sSTcdTYu9?g_st=ipc","address":"Ανατολικής Μεσογείου, Αγ. Παρασκευή 153 42","categoryIds":["monasteries-churches"],"categories":["Monasteries & Spiritual Sites"],"distanceKm":1.5307892552959461},{"id":"coffeeBrunchRestaurants_047701412132","slug":"big-spoon-0477","kind":"restaurant","name":"Big Spoon","lat":38.00695313454604,"lng":23.827222163103215,"url":"https://maps.app.goo.gl/xKV3uQ5sHdPxcNpR6?g_st=ipc","address":"Αγίου Ιωάννου 65, Αγ. Παρασκευή 153 42","categoryIds":["coffee-brunch"],"categories":["Coffee & Brunch Spots"],"distanceKm":1.5371442526540096},{"id":"dessertsRestaurants_f98eb7c31fa7","slug":"solo-gelato-agia-paraskevi-f98e","kind":"restaurant","name":"Solo Gelato Agia Paraskevi","lat":38.010730173792794,"lng":23.824059390812284,"url":"https://maps.app.goo.gl/q2uK9vCzk28wfiSB6?g_st=ipc","address":"Αγίου Ιωάννου 23B, Αγ. Παρασκευή 153 42","categoryIds":["desserts"],"categories":["Dessert Shops"],"distanceKm":1.5403622959066412},{"id":"italianRestaurants_e3c2b10afd7e","slug":"bellagio-pizza-pasta-bar-e3c2","kind":"restaurant","name":"Bellagio Pizza & Pasta Bar","lat":38.005496461487304,"lng":23.82824148801167,"url":"https://maps.app.goo.gl/fzHTDB9dRXhv8Puh9?g_st=ipc","address":"Αγίου Ιωάννου 82, Αγ. Παρασκευή 153 42","categoryIds":["italian"],"categories":["Italian Restaurants"],"distanceKm":1.5908026441087388},{"id":"coffeeBrunchRestaurants_a15eff32047d","slug":"wallstreet-athens-a15e","kind":"restaurant","name":"WallStreet Athens","lat":38.01470612030241,"lng":23.8212081874615,"url":"https://maps.app.goo.gl/mBES32gA39m1YfEdA?g_st=ipc","address":"Ελπίδος, Δημ. Γούναρη 2-4, Αγ. Παρασκευή 153 43","categoryIds":["coffee-brunch"],"categories":["Coffee & Brunch Spots"],"distanceKm":1.6700874194376911},{"id":"cheapEatsRestaurants_2194bc1389f8","slug":"pita-pan-2194","kind":"restaurant","name":"Πίτα Παν","lat":38.012724500083856,"lng":23.82116799472927,"url":"https://maps.app.goo.gl/dizAr5MBZxwBUbmGA?g_st=ipc","address":"Ευεργέτου Γιαβάση 1, Αγ. Παρασκευή 153 42","categoryIds":["cheap-eats"],"categories":["Gyros & Cheap Eats"],"distanceKm":1.7108194761194775},{"id":"municipalities_ddd673d8a6d3","slug":"gerakas-ddd6","kind":"municipality","name":"Γέρακας","lat":38.03,"lng":23.85,"aliases":["Yerakas"],"region":"Ανατολικά Προάστια","name_en":"Gerakas","region_en":"Eastern Suburbs","distanceKm":1.7514694719404433},{"id":"dessertsRestaurants_c8d21c4fe9cf","slug":"katamaya-bakery-c8d2","kind":"restaurant","name":"katamaya Bakery","lat":38.007980001797705,"lng":23.85734830290807,"url":"https://maps.app.goo.gl/ZpojSaEBYd5LNBoG9?g_st=ipc","address":"Λεωφόρος Μαραθώνος 113, Ηρώων Πολυτεχνείου 1, Γέρακας 153 44","categoryIds":["desserts"],"categories":["Dessert Shops"],"distanceKm":1.7659712306135589},{"id":"dessertsRestaurants_456ff03615cf","slug":"poulette-456f","kind":"restaurant","name":"Poulette","lat":38.01540164071511,"lng":23.819922887018567,"url":"https://maps.app.goo.gl/HvM2PHcBBq1Dcqka8?g_st=ipc","address":"Ellinoservikis Filias 64, Ag. Paraskevi 153 43","categoryIds":["desserts"],"categories":["Dessert Shops"],"distanceKm":1.776140772319135},{"id":"dessertsRestaurants_7fcc53b965fc","slug":"koletsas-7fcc","kind":"restaurant","name":"Κολέτσας","lat":38.02545147763619,"lng":23.823091396273647,"url":"https://maps.app.goo.gl/LLAgTzMRsxERgimg9?g_st=ipc","address":"Μεταμορφώσεως 50, Χαλάνδρι 152 34","categoryIds":["desserts"],"categories":["Dessert Shops"],"distanceKm":1.8100077833856825},{"id":"greekRestaurants_3a95a72d63b7","slug":"to-steki-toy-andrea-sto-chalandri-3a95","kind":"restaurant","name":"Το Στέκι του Ανδρέα στο Χαλάνδρι","lat":38.02735400038434,"lng":23.82467794898433,"url":"https://maps.app.goo.gl/Wp9gL9KTg1iHqv8R6?g_st=ipc","address":"Μεσσηνίας 46, Χαλάνδρι 152 34","categoryIds":["greek-restaurants"],"categories":["Greek Restaurants"],"distanceKm":1.831841396215921},{"id":"cheapEatsRestaurants_ba28713d01c5","slug":"jackaroo-ba28","kind":"restaurant","name":"Jackaroo","lat":38.012488048135104,"lng":23.81953806352836,"url":"https://maps.app.goo.gl/ixb3zjYZ1Wg65gYq8?g_st=ipc","address":"Ηρ. Πολυτεχνείου 8, Αγ. Παρασκευή 153 43","categoryIds":["cheap-eats"],"categories":["Gyros & Cheap Eats"],"distanceKm":1.8558365302512532},{"id":"mexicanRestaurants_8063d3de98b0","slug":"juan-s-cantina-8063","kind":"restaurant","name":"Juan's Cantina","lat":38.01206107178295,"lng":23.81957316690922,"url":"https://maps.app.goo.gl/BrMEKeu7hk8gqjtQ6?g_st=ipc","address":"Ευεργέτου Γιαβάση 13Α, Αγ. Παρασκευή 153 42","categoryIds":["mexican"],"categories":["Mexican Restaurants"],"distanceKm":1.864239360727607},{"id":"asianRestaurants_a4e89dbc83d0","slug":"salamat-asian-food-store-a4e8","kind":"restaurant","name":"Salamat | Asian Food Store","lat":38.02126807453902,"lng":23.819767317882288,"url":"https://maps.app.goo.gl/62Tadxw4r6L1Cia48?g_st=ipc","address":"Δουκίσσης Πλακεντίας 68, Χαλάνδρι 152 34","categoryIds":["asian"],"categories":["Asian Restaurants"],"distanceKm":1.870907717107643},{"id":"greekRestaurants_2ee34caffafc","slug":"to-mprizoladiko-toy-geraka-2ee3","kind":"restaurant","name":"Το Μπριζολάδικο του Γέρακα","lat":38.02301749370778,"lng":23.859957200296044,"url":"https://maps.app.goo.gl/neQoZEu5PGEjM9DP9","address":"Λεωφ. Γέρακας 84, Γέρακας 153 44","categoryIds":["greek-restaurants"],"categories":["Greek Restaurants"],"distanceKm":1.8883713761550727},{"id":"coffeeBrunchRestaurants_3667c08b817e","slug":"garazaki-3667","kind":"restaurant","name":"Garazaki","lat":38.00820112050225,"lng":23.859624038909082,"url":"https://maps.app.goo.gl/nhS7zheSxj71qxXFA?g_st=ipc","address":"Θεσσαλονίκης 33, Γέρακας 153 44","categoryIds":["coffee-brunch"],"categories":["Coffee & Brunch Spots"],"distanceKm":1.9271241320339316},{"id":"dessertsRestaurants_4de4990e8c52","slug":"galaktopoleio-stamoy-4de4","kind":"restaurant","name":"Γαλακτοπωλείο ΣΤΑΜΟΥ","lat":38.01272894935628,"lng":23.81812735076741,"url":"https://maps.app.goo.gl/45pSKohNfJSTdCAA6?g_st=ipc","address":"Λεωφ. Μεσογείων 400b, Αγ. Παρασκευή 153 42","categoryIds":["desserts"],"categories":["Dessert Shops"],"distanceKm":1.97083010674776},{"id":"coffeeBrunchRestaurants_9ce003d4ec0a","slug":"alto-corto-cafe-9ce0","kind":"restaurant","name":"Alto Corto Cafe","lat":38.012694707387,"lng":23.81807168304755,"url":"https://maps.app.goo.gl/1oTiFbFAjGwZTcXq9?g_st=ipc","address":"Λεωφόρος Μεσογείων 400 και, Αἰγαίου Πελάγους, Αγ. Παρασκευή 153 42","categoryIds":["coffee-brunch"],"categories":["Coffee & Brunch Spots"],"distanceKm":1.9763740380867767}],"sameRegion":[],"mentionedGuides":[{"slug":"american-college-of-greece-agia-paraskevi-guide-el","title":"American College of Greece: Οδηγός Αγίας Παρασκευής"},{"slug":"american-college-of-greece-agia-paraskevi-guide","title":"American College of Greece: Welcome to Agia Paraskevi"}],"canonicalSlug":"stis-ellis-077f","enrichment":{"summary_en":"Στης Έλλης is a curated restaurant in Αγ. Παρασκευή 153 43 in the Greek Restaurants collection. It is connected to 2 nearby Googlementor picks to help travelers build a stronger local route.","summary_el":"Στης Έλλης είναι ένα επιλεγμένο σημείο φαγητού στην περιοχή Αγ. Παρασκευή 153 43 και ανήκει στη συλλογή Greek Restaurants. Συνδέεται με 2 κοντινές προτάσεις του Googlementor για πιο ολοκληρωμένη εμπειρία.","vibe_tags":["curated"],"best_for":["first-time visitors","food lovers"],"visit_moments":["lunch stop","dinner stop"],"practical_note":"Address and direct map link are available for easy turn-by-turn access.","nearby_walkable_count":2,"nearby_count_2km":24,"confidence":0.9},"areaContext":{"slug":"agia-paraskeyi","name":"Agia Paraskevi","nameEl":"Αγία Παρασκευή"},"intentContexts":[{"href":"/greek-restaurants/agia-paraskeyi","label":"Greek Restaurants in Agia Paraskevi","categorySlug":"greek-restaurants","categoryName":"Greek Restaurants","areaSlug":"agia-paraskeyi","areaName":"Agia Paraskevi","areaNameEl":"Αγία Παρασκευή"}]},"__N_SSG":true}