{"pageProps":{"entity":{"id":"cheapEatsRestaurants_6fffd649c703","slug":"ta-soyvlakia-tis-lilas-6fff","kind":"restaurant","name":"Τα Σουβλάκια της Λίλας","lat":38.005272385766645,"lng":23.785280918308118,"url":"https://maps.app.goo.gl/47M2HP8TwbyX2Zp37?g_st=ipc","address":"25ης Μαρτίου 41, Νέο Ψυχικό 154 51","categoryIds":["cheap-eats"],"categories":["Gyros & Cheap Eats"]},"sameCategory":[{"id":"cheapEatsRestaurants_4884ead367e7","slug":"platanos-kempap-soyvlaki-4884","kind":"restaurant","name":"Πλάτανος Κεμπάπ-Σουβλάκι","lat":38.00070110906074,"lng":23.792623402226006,"url":"https://maps.app.goo.gl/mqGbLZnM6T5sQ3YF9?g_st=ipc","address":"Βουτσινά 66, Χολαργός 155 61","categoryIds":["cheap-eats"],"categories":["Gyros & Cheap Eats"]},{"id":"cheapEatsRestaurants_03694aa725a0","slug":"geysidromio-0369","kind":"restaurant","name":"Γευσηδρόμιο","lat":38.00041852140095,"lng":23.792910266059533,"url":"https://maps.app.goo.gl/NVZiDeS8yd6auwo78?g_st=ipc","address":"Ασπασίας 63, Χολαργός 155 61","categoryIds":["cheap-eats"],"categories":["Gyros & Cheap Eats"]},{"id":"cheapEatsRestaurants_1dedf7a650a7","slug":"pita-pan-psychiko-1ded","kind":"restaurant","name":"Πίτα Παν Ψυχικό","lat":38.000864793942334,"lng":23.776520342405362,"url":"https://maps.app.goo.gl/ZXh8jCZFq67QiKQq7?g_st=ipc","address":"Αγγέλου Σικελιανού 28, Νέο Ψυχικό 154 51","categoryIds":["cheap-eats"],"categories":["Gyros & Cheap Eats"]},{"id":"cheapEatsRestaurants_27cac1fed09e","slug":"cocofino-i-nea-geysi-sto-kotopoylo-27ca","kind":"restaurant","name":"Cocofino Η Νέα Γεύση Στο Κοτόπουλο","lat":38.005115910403084,"lng":23.79578002602544,"url":"https://maps.app.goo.gl/uKWqbt6RdiChRPZi8?g_st=ipc","address":"Φανερωμένης 1α, Χολαργός 155 61","categoryIds":["cheap-eats"],"categories":["Gyros & Cheap Eats"]},{"id":"cheapEatsRestaurants_9a8ccf003ba5","slug":"spitiki-koyzina-cholargos-9a8c","kind":"restaurant","name":"Σπιτική Κουζίνα - Χολαργός","lat":37.99895841021995,"lng":23.798536677313294,"url":"https://maps.app.goo.gl/KtAC7AzUgjd3Jmuk8?g_st=ipc","address":"Λεωφ. Περικλέους 50, Χολαργός 155 61","categoryIds":["cheap-eats"],"categories":["Gyros & Cheap Eats"]},{"id":"cheapEatsRestaurants_778124c76b47","slug":"kayteros-7781","kind":"restaurant","name":"Καυτερός","lat":38.01875295817606,"lng":23.790041802148505,"url":"https://maps.app.goo.gl/pxJjypQCU2pCdj2c9?g_st=ipc","address":"Αγρινίου 5, Χαλάνδρι 152 32","categoryIds":["cheap-eats"],"categories":["Gyros & Cheap Eats"]},{"id":"cheapEatsRestaurants_b8837f726b0e","slug":"avraam-cholargos-b883","kind":"restaurant","name":"Αβραάμ Χολαργός","lat":37.99365661341766,"lng":23.796975079778093,"url":"https://maps.app.goo.gl/njaacvURe6u87qaX6?g_st=ipc","address":"Αναστάσεως 111, Χολαργός 155 61","categoryIds":["cheap-eats"],"categories":["Gyros & Cheap Eats"]},{"id":"cheapEatsRestaurants_33f4e7b2d02a","slug":"dix-sept-33f4","kind":"restaurant","name":"Dix Sept","lat":37.99369686292994,"lng":23.79952330912713,"url":"https://maps.app.goo.gl/LQP8izqcwdktGcwX6?g_st=ipc","address":"25ης Μαρτίου 17, Χολαργός 155 61","categoryIds":["cheap-eats"],"categories":["Gyros & Cheap Eats"]},{"id":"cheapEatsRestaurants_19bf55f57647","slug":"soyvlakochorio-19bf","kind":"restaurant","name":"Σουβλακοχωριό","lat":38.019021009797974,"lng":23.79620669265203,"url":"https://maps.app.goo.gl/Qngg6pY64nb2i3sX9?g_st=ipc","address":"25ης Μαρτίου 33, Χαλάνδρι 152 32","categoryIds":["cheap-eats"],"categories":["Gyros & Cheap Eats"]},{"id":"cheapEatsRestaurants_69bbfb44507d","slug":"papigko-69bb","kind":"restaurant","name":"Πάπιγκο","lat":37.9930301423727,"lng":23.798961270934143,"url":"https://maps.app.goo.gl/7eU14tbuLV6n9imX7?g_st=ipc","address":"25ης Μαρτίου 9, Χολαργός 155 61","categoryIds":["cheap-eats"],"categories":["Gyros & Cheap Eats"]},{"id":"cheapEatsRestaurants_ec9b2c37ec79","slug":"o-ellinaras-ec9b","kind":"restaurant","name":"Ο ΕΛΛΗΝΑΡΑΣ","lat":38.017568546798636,"lng":23.799181700850475,"url":"https://maps.app.goo.gl/3g2yxFrBJ6V2KPZm7?g_st=ipc","address":"Παλαιολόγου 63, Χαλάνδρι 152 32","categoryIds":["cheap-eats"],"categories":["Gyros & Cheap Eats"]},{"id":"cheapEatsRestaurants_4972a0c1f005","slug":"o-fotis-4972","kind":"restaurant","name":"Ο ΦΩΤΗΣ","lat":37.997971184116544,"lng":23.807075270455382,"url":"https://maps.app.goo.gl/AtknvuaCHijVG2ha8?g_st=ipc","address":"17ης Νοεμβρίου 122, Χολαργός 155 62","categoryIds":["cheap-eats"],"categories":["Gyros & Cheap Eats"]}],"nearby":[{"id":"italianRestaurants_ec803e4a09b8","slug":"etien-pizza-bar-ec80","kind":"restaurant","name":"Etien Pizza Bar","lat":38.00546047638011,"lng":23.78575711022555,"url":"https://maps.app.goo.gl/fXUuPjTevur2Va5m8?g_st=ipc","address":"25ης Μαρτίου 28, Νέο Ψυχικό 154 51","categoryIds":["italian"],"categories":["Italian Restaurants"],"distanceKm":0.04667085590936069},{"id":"fishTavernasRestaurants_bdb6fa732eec","slug":"foititis-bdb6","kind":"restaurant","name":"Φοιτητής","lat":38.00738588877098,"lng":23.783442614729104,"url":"https://maps.app.goo.gl/abzrUsQsRH3gKTL2A?g_st=ipc","address":"Θεμιστοκλέους 72-74, Νέο Ψυχικό 154 51","categoryIds":["fish-tavernas"],"categories":["Fish Tavernas"],"distanceKm":0.2849061257456253},{"id":"greekRestaurants_f0ef65b37af1","slug":"klimataria-f0ef","kind":"restaurant","name":"Κληματαριά","lat":38.00778653011235,"lng":23.78331764900774,"url":"https://maps.app.goo.gl/KjvZHvC6ghfyBWSu9?g_st=ipc","address":"Κωστή Παλαμά 29, Νέο Ψυχικό 154 51","categoryIds":["greek-restaurants"],"categories":["Greek Restaurants"],"distanceKm":0.32824063962472827},{"id":"vegetarianRestaurants_1656162d68e6","slug":"the-sweet-lab-1656","kind":"restaurant","name":"Τhe Sweet Lab","lat":38.002062661373884,"lng":23.785233324910163,"url":"https://maps.app.goo.gl/Zb8o7YTUmMMx7EVx8?g_st=ipc","address":"Λεωφ. Δημοκρατίας 81, Kapodistriou 1, Athina 154 51","categoryIds":["vegetarian"],"categories":["Vegetarian Friendly Restaurants"],"distanceKm":0.3569294289296164},{"id":"greekRestaurants_01e264743001","slug":"fysarmonika-mezedopoteion-01e2","kind":"restaurant","name":"Φυσαρμόνικα Μεζεδοποτείον","lat":38.00112458767409,"lng":23.7879961644195,"url":"https://maps.app.goo.gl/v3uZu1tCQdfHr7kAA?g_st=ipc","address":"Λεωφ. Μεσογείων 180, Χολαργός 155 61","categoryIds":["greek-restaurants"],"categories":["Greek Restaurants"],"distanceKm":0.5189587951097716},{"id":"asianRestaurants_0a06ecfadcd2","slug":"shisan-sushi-bar-0a06","kind":"restaurant","name":"Shisan Sushi Bar","lat":38.001841672610425,"lng":23.790637059082073,"url":"https://maps.app.goo.gl/EPmJ2jqs6hWddn566?g_st=ipc","address":"Μεσογείων 204, Χολαργός 155 61","categoryIds":["asian"],"categories":["Asian Restaurants"],"distanceKm":0.6047853500292635},{"id":"dessertsRestaurants_bdb87120c3b8","slug":"athina-kon-bdb8","kind":"restaurant","name":"ΑΘΗΝΑΪΚΟΝ","lat":38.00959872140439,"lng":23.78101021168435,"url":"https://maps.app.goo.gl/ACrYfvjmkufL8q3g9?g_st=ipc","address":"Νικολάου Μάντζαρου 1 &, Εθ. Αντιστάσεως, Νέο Ψυχικό 154 51","categoryIds":["desserts"],"categories":["Dessert Shops"],"distanceKm":0.6094511634990177},{"id":"burgersRestaurants_97ab28e57798","slug":"f-smashing-cholargos-97ab","kind":"restaurant","name":"F* Smashing Cholargos","lat":38.00204211707431,"lng":23.791067777673266,"url":"https://maps.app.goo.gl/VHtz6unCWyzdNiiZ8?g_st=ipc","address":"Λεωφ. Μεσογείων 206, Χολαργός 155 61","categoryIds":["burgers"],"categories":["Burger Spots"],"distanceKm":0.6213711521867022},{"id":"italianRestaurants_11b5c7ddc2cb","slug":"lolita-s-athens-11b5","kind":"restaurant","name":"Lolita's Athens","lat":38.00900399306317,"lng":23.779848762939032,"url":"https://maps.app.goo.gl/yBBC5XtbjE87q2fEA?g_st=ipc","address":"Λεωφ. Κηφισίας 340, Νέο Ψυχικό 154 51","categoryIds":["italian","luxury-dining"],"categories":["Italian Restaurants","Luxury Dining"],"legacySlugs":["lolita-s-athens-c233"],"distanceKm":0.6314152301736071},{"id":"dessertsRestaurants_578f4bf4ed9c","slug":"dimitris-economides-athens-578f","kind":"restaurant","name":"Dimitris Economides Athens","lat":38.008931143721306,"lng":23.779615664170734,"url":"https://maps.app.goo.gl/wRvmhWMFJRUQ21b49?g_st=ipc","address":"Λεωφ. Κηφισίας 340, Νέο Ψυχικό 154 51","categoryIds":["desserts","luxury-dining"],"categories":["Dessert Shops","Luxury Dining"],"legacySlugs":["dimitris-economides-athens-e53f"],"distanceKm":0.6417831340678146},{"id":"coffeeBrunchRestaurants_7101d26f85dd","slug":"montakioy-neo-psychiko-7101","kind":"restaurant","name":"ΜΟΝΤΑΚΙΟΥ - ΝΕΟ ΨΥΧΙΚΟ","lat":38.00899356630051,"lng":23.779485267398293,"url":"https://maps.app.goo.gl/e75yZ6CbqLTXVusq7?g_st=ipc","address":"Λεωφ. Κηφισίας 340, Νέο Ψυχικό 154 51","categoryIds":["coffee-brunch"],"categories":["Coffee & Brunch Spots"],"distanceKm":0.6550215354642706},{"id":"mexicanRestaurants_9da2b83be820","slug":"sanchez-athens-9da2","kind":"restaurant","name":"Sanchez Athens","lat":38.007276659968724,"lng":23.777915941580243,"url":"https://maps.app.goo.gl/kDVM5wdPB9hfwk4G6?g_st=ipc","address":"Ολυμπιονικών 310, Νέο Ψυχικό 154 51","categoryIds":["mexican"],"categories":["Mexican Restaurants"],"distanceKm":0.6826867076147597},{"id":"coffeeBrunchRestaurants_a82e7e155ac7","slug":"micafetal-a82e","kind":"restaurant","name":"miCafetal","lat":38.00628521283868,"lng":23.79310128971578,"url":"https://maps.app.goo.gl/eFtNz9rPLtHdLmHP6?g_st=ipc","address":"Ηρ. Πολυτεχνείου 17, Χαλάνδρι 152 31","categoryIds":["coffee-brunch"],"categories":["Coffee & Brunch Spots"],"distanceKm":0.6943826503293039},{"id":"asianRestaurants_01f6cf956e90","slug":"hachiko-sushi-tales-cocktails-psychiko-01f6","kind":"restaurant","name":"Hachikō Sushi Tales & Cocktails Psychiko","lat":38.0061489322681,"lng":23.777100959451648,"url":"https://maps.app.goo.gl/zRs2QPwRWoXnA8cn9","address":"Olimpionikon 280, Neo Psichiko 154 51","categoryIds":["asian"],"categories":["Asian Restaurants"],"distanceKm":0.7232922878131524},{"id":"burgersRestaurants_d3fef77d7e5b","slug":"the-burger-joint-d3fe","kind":"restaurant","name":"The Burger Joint","lat":38.00432835767844,"lng":23.776577706406886,"url":"https://maps.app.goo.gl/zX4seBG8wnwkkKZo6?g_st=ipc","address":"Σολωμού 4, Νέο Ψυχικό 154 51","categoryIds":["burgers"],"categories":["Burger Spots"],"distanceKm":0.7697410103076591},{"id":"burgersRestaurants_709666ea6902","slug":"akoko-athens-7096","kind":"restaurant","name":"Akoko Athens","lat":38.00485425312051,"lng":23.776133914107284,"url":"https://maps.app.goo.gl/bo55c6wZEvkSgiHn7?g_st=ipc","address":"Σολωμού 1, Νέο Ψυχικό 154 51","categoryIds":["burgers"],"categories":["Burger Spots"],"distanceKm":0.8027782859918092},{"id":"coffeeBrunchRestaurants_e4c2bdc534b9","slug":"bookali-e4c2","kind":"restaurant","name":"bookAli","lat":38.00429979988101,"lng":23.794394502333493,"url":"https://maps.app.goo.gl/36ShHJ9gS1j7CesG9?g_st=ipc","address":"Λεωφ. Μεσογείων 236, Χολαργός 155 61","categoryIds":["coffee-brunch"],"categories":["Coffee & Brunch Spots"],"distanceKm":0.8057958196936539},{"id":"cheapEatsRestaurants_4884ead367e7","slug":"platanos-kempap-soyvlaki-4884","kind":"restaurant","name":"Πλάτανος Κεμπάπ-Σουβλάκι","lat":38.00070110906074,"lng":23.792623402226006,"url":"https://maps.app.goo.gl/mqGbLZnM6T5sQ3YF9?g_st=ipc","address":"Βουτσινά 66, Χολαργός 155 61","categoryIds":["cheap-eats"],"categories":["Gyros & Cheap Eats"],"distanceKm":0.8199156342923062},{"id":"dessertsRestaurants_c99ab06196ae","slug":"carpo-psychiko-c99a","kind":"restaurant","name":"carpo psychiko","lat":38.00433299399579,"lng":23.77588410102084,"url":"https://maps.app.goo.gl/cHiF8braV8253FBP6?g_st=ipc","address":"Dim. Vasiliou 1, Neo Psichiko 154 51","categoryIds":["desserts"],"categories":["Dessert Shops"],"distanceKm":0.8299212367279742},{"id":"mexicanRestaurants_2a24bc59bf5a","slug":"casa-mexicana-2a24","kind":"restaurant","name":"Casa Mexicana","lat":38.00238200041886,"lng":23.77636430613833,"url":"https://maps.app.goo.gl/hZssyRcz7Rfft2mi6?g_st=ipc","address":"Δημ. Βασιλείου 16, Νέο Ψυχικό 154 51","categoryIds":["mexican"],"categories":["Mexican Restaurants"],"distanceKm":0.8447834927747881},{"id":"coffeeBrunchRestaurants_848168a5d6a3","slug":"cornell-8481","kind":"restaurant","name":"Cornell","lat":38.00169766553315,"lng":23.79390617469456,"url":"https://maps.app.goo.gl/GzFQB9fD18CsSH7k9?g_st=ipc","address":"Αετιδέων 18 &, Βουτσινά, Χολαργός 155 61","categoryIds":["coffee-brunch"],"categories":["Coffee & Brunch Spots"],"distanceKm":0.8538919949162472},{"id":"dessertsRestaurants_44539c96154c","slug":"katamaya-sweet-savory-4453","kind":"restaurant","name":"Katamaya Sweet & Savory","lat":38.001728655646296,"lng":23.776605222448108,"url":"https://maps.app.goo.gl/d4khgseTBK8h5W1MA?g_st=ipc","address":"Δημ. Βασιλείου 20, Ψυχικό 154 51","categoryIds":["desserts"],"categories":["Dessert Shops"],"distanceKm":0.8562143837763587},{"id":"italianRestaurants_db8c50049699","slug":"pizzaiolo-db8c","kind":"restaurant","name":"pizzaiolo","lat":38.00035069734868,"lng":23.79281060180485,"url":"https://maps.app.goo.gl/KW1onnVwQCy1jQXk7?g_st=ipc","address":"Ασπασίας 63, Χολαργός 155 61","categoryIds":["italian"],"categories":["Italian Restaurants"],"distanceKm":0.8571852540660463},{"id":"cheapEatsRestaurants_03694aa725a0","slug":"geysidromio-0369","kind":"restaurant","name":"Γευσηδρόμιο","lat":38.00041852140095,"lng":23.792910266059533,"url":"https://maps.app.goo.gl/NVZiDeS8yd6auwo78?g_st=ipc","address":"Ασπασίας 63, Χολαργός 155 61","categoryIds":["cheap-eats"],"categories":["Gyros & Cheap Eats"],"distanceKm":0.859166547637765}],"sameRegion":[],"mentionedGuides":[],"canonicalSlug":"ta-soyvlakia-tis-lilas-6fff","enrichment":{"summary_en":"Τα Σουβλάκια της Λίλας is a curated restaurant in Νέο Ψυχικό 154 51 in the Gyros & Cheap Eats collection. It is connected to 15 nearby Googlementor picks to help travelers build a stronger local route.","summary_el":"Τα Σουβλάκια της Λίλας είναι ένα επιλεγμένο σημείο φαγητού στην περιοχή Νέο Ψυχικό 154 51 και ανήκει στη συλλογή Gyros & Cheap Eats. Συνδέεται με 15 κοντινές προτάσεις του Googlementor για πιο ολοκληρωμένη εμπειρία.","vibe_tags":["curated","budget-friendly"],"best_for":["first-time visitors","food lovers","budget travelers"],"visit_moments":["lunch stop","dinner stop"],"practical_note":"Address and direct map link are available for easy turn-by-turn access.","nearby_walkable_count":15,"nearby_count_2km":76,"confidence":0.98},"areaContext":{"slug":"papagoy-cholargos","name":"Papagou - Cholargos","nameEl":"Παπάγου - Χολαργός"},"intentContexts":[{"href":"/cheap-eats/papagoy-cholargos","label":"Gyros & Cheap Eats in Papagou - Cholargos","categorySlug":"cheap-eats","categoryName":"Gyros & Cheap Eats","areaSlug":"papagoy-cholargos","areaName":"Papagou - Cholargos","areaNameEl":"Παπάγου - Χολαργός"}]},"__N_SSG":true}