{"pageProps":{"entity":{"id":"greekRestaurants_bcfe0c24d0b9","slug":"taverna-flomari-bcfe","kind":"restaurant","name":"Taverna Flomari","lat":39.9883429210675,"lng":25.15508018878464,"url":"https://maps.app.goo.gl/wJXUERDBm4i5UHSQ9?g_st=ipc","address":"Gomati Beach, Λήμνος 814 01","categoryIds":["greek-restaurants"],"categories":["Greek Restaurants"]},"sameCategory":[{"id":"greekRestaurants_5899d919db96","slug":"taverna-man-tella-5899","kind":"restaurant","name":"Ταβέρνα Μαν-Τέλλα","lat":39.939715902807876,"lng":25.14007617212637,"url":"https://maps.app.goo.gl/h7jXmADnqFj6jdww8?g_st=ipc","address":"Σαρδές 814 00","categoryIds":["greek-restaurants"],"categories":["Greek Restaurants"]},{"id":"greekRestaurants_207ce585e372","slug":"ennoia-po-chs-207c","kind":"restaurant","name":"Έννοια Πο'χς","lat":39.91619952692809,"lng":25.26615920965088,"url":"https://maps.app.goo.gl/Vo6exv2Lo4vvZm3q6?g_st=ipc","address":"Λύχνα 814 01","categoryIds":["greek-restaurants"],"categories":["Greek Restaurants"]},{"id":"greekRestaurants_6eb435657203","slug":"o-meraklis-6eb4","kind":"restaurant","name":"Ο Μερακλής","lat":39.867735919635514,"lng":25.173635790362066,"url":"https://maps.app.goo.gl/Aytx8mWcw3gfndXg8?g_st=ipc","address":"Τσιμάνδρια 814 00","categoryIds":["greek-restaurants"],"categories":["Greek Restaurants"]},{"id":"greekRestaurants_0d79ffe3d8c0","slug":"taverna-andreas-0d79","kind":"restaurant","name":"Ταβέρνα Αndreas","lat":39.86355491006773,"lng":25.323066847103735,"url":"https://maps.app.goo.gl/FVABP5vjSdC5ptdh7?g_st=ipc","address":"Unnamed Road, Καμίνια 814 01","categoryIds":["greek-restaurants"],"categories":["Greek Restaurants"]},{"id":"greekRestaurants_8eab656c1491","slug":"i-eleni-8eab","kind":"restaurant","name":"Η Ελένη","lat":39.981893765467724,"lng":25.40667892238782,"url":"https://maps.app.goo.gl/DULQ8y35UGJe91Vp9?g_st=ipc","address":"Παναγία 814 01","categoryIds":["greek-restaurants"],"categories":["Greek Restaurants"]},{"id":"greekRestaurants_a414563c8db5","slug":"agios-charalampos-taverna-a414","kind":"restaurant","name":"Άγιος Χαράλαμπος Ταβέρνα","lat":40.01545133045331,"lng":25.41273378484273,"url":"https://maps.app.goo.gl/vEMTZ2YkAnNc2a7e7?g_st=ipc","address":"Λημνος, Πλάκα 814 01","categoryIds":["greek-restaurants"],"categories":["Greek Restaurants"]},{"id":"greekRestaurants_3438688d0deb","slug":"5-steps-in-the-sand-3438","kind":"restaurant","name":"5 steps in the sand","lat":40.034692799637156,"lng":23.996066587885828,"url":"https://maps.app.goo.gl/CNXaqqzThUxV4Jjr5?g_st=ipc","address":"Unnamed Rd, Σιθωνία 630 72","categoryIds":["greek-restaurants"],"categories":["Greek Restaurants"]},{"id":"greekRestaurants_b3c17d231447","slug":"mellia-restaurant-b3c1","kind":"restaurant","name":"Melliá Restaurant","lat":40.19208860749863,"lng":23.80767095185341,"url":"https://maps.app.goo.gl/1uxCAvJPume7NxnN7?g_st=ipc","address":"Βουρβουρού 630 78","categoryIds":["greek-restaurants"],"categories":["Greek Restaurants"]},{"id":"greekRestaurants_43468164bfe6","slug":"gorgona-i-poylman-4346","kind":"restaurant","name":"Γοργόνα ή Πούλμαν","lat":40.18844887866331,"lng":23.799070114643,"url":"https://maps.app.goo.gl/eCPfEYcm6XmwdGov6?g_st=ipc","address":"Βουρβουρού 630 78","categoryIds":["greek-restaurants"],"categories":["Greek Restaurants"]},{"id":"greekRestaurants_71de568949df","slug":"tryfon-71de","kind":"restaurant","name":"Τρύφων","lat":39.233311750817585,"lng":26.20811346170004,"url":"https://maps.app.goo.gl/5XLwFXMCDgdrHtKZ7?g_st=ipc","address":"ΕΟ Μυτιλήνης Καλλονής, Καλλονή 811 07","categoryIds":["greek-restaurants"],"categories":["Greek Restaurants"]},{"id":"greekRestaurants_465f20138405","slug":"mezedotechnimata-465f","kind":"restaurant","name":"Mezedotechnimata","lat":41.10434218813076,"lng":24.899828458702697,"url":"https://maps.app.goo.gl/uhpur6cq4FRmH4H77?g_st=ipc","address":"Πετεινός 671 00","categoryIds":["greek-restaurants"],"categories":["Greek Restaurants"]},{"id":"greekRestaurants_e8c6c63d9264","slug":"kapsoyli-e8c6","kind":"restaurant","name":"καψούλι","lat":41.116926466455745,"lng":25.401623976597524,"url":"https://maps.app.goo.gl/Z1dAApwmcfN1vv1z9?g_st=ipc","address":"Μαρώνειας 29, Κομοτηνή 691 32","categoryIds":["greek-restaurants"],"categories":["Greek Restaurants"]}],"nearby":[{"id":"fishTavernasRestaurants_038ab4889bb3","slug":"taverna-flomari-038a","kind":"restaurant","name":"Taverna Flomari","lat":39.98832919487252,"lng":25.155079152226218,"url":"https://maps.app.goo.gl/G6hKXeSWoodnwXMF6?g_st=ipc","address":"Gomati Beach, Limnos 814 01","categoryIds":["fish-tavernas"],"categories":["Fish Tavernas"],"distanceKm":0.0015288358607021672},{"id":"greekRestaurants_5899d919db96","slug":"taverna-man-tella-5899","kind":"restaurant","name":"Ταβέρνα Μαν-Τέλλα","lat":39.939715902807876,"lng":25.14007617212637,"url":"https://maps.app.goo.gl/h7jXmADnqFj6jdww8?g_st=ipc","address":"Σαρδές 814 00","categoryIds":["greek-restaurants"],"categories":["Greek Restaurants"],"distanceKm":5.556222772444439},{"id":"fishTavernasRestaurants_3f01da32250d","slug":"barbounaki-lemnos-3f01","kind":"restaurant","name":"Barbounaki | Lemnos","lat":39.922645057066866,"lng":25.071051886904925,"url":"https://maps.app.goo.gl/Y8MNEpBKf9pJKHNg8?g_st=ipc","address":"Λημνος, Αγιος Ιωαννης, Kaspakas 814 00","categoryIds":["fish-tavernas"],"categories":["Fish Tavernas"],"distanceKm":10.230555441184599},{"id":"municipalities_89f092af4fdd","slug":"limnos-89f0","kind":"municipality","name":"Λήμνος","lat":39.911,"lng":25.236,"region":"Βόρειο Αιγαίο","name_en":"Lemnos","region_en":"North Aegean","distanceKm":11.024640415322805},{"id":"fishTavernasRestaurants_782c004f6a18","slug":"glykanisos-782c","kind":"restaurant","name":"Glykanisos","lat":39.89189656070638,"lng":25.20287613011476,"url":"https://maps.app.goo.gl/tCAL6L44HZbqrniJ6?g_st=ipc","address":"Unnamed Road, Limnos 814 00","categoryIds":["fish-tavernas"],"categories":["Fish Tavernas"],"distanceKm":11.47239701401058},{"id":"fishTavernasRestaurants_872df0d46026","slug":"tavern-restaurant-giannakaros-872d","kind":"restaurant","name":"Tavern Restaurant GIANNAKAROS","lat":39.94049535145995,"lng":25.283557993247516,"url":"https://maps.app.goo.gl/Y8y6JAFkf3x52TAJA?g_st=ipc","address":"ΛΙΜΑΝΑΚΙ, Kotsinas 814 01","categoryIds":["fish-tavernas"],"categories":["Fish Tavernas"],"distanceKm":12.173645365257341},{"id":"greekRestaurants_207ce585e372","slug":"ennoia-po-chs-207c","kind":"restaurant","name":"Έννοια Πο'χς","lat":39.91619952692809,"lng":25.26615920965088,"url":"https://maps.app.goo.gl/Vo6exv2Lo4vvZm3q6?g_st=ipc","address":"Λύχνα 814 01","categoryIds":["greek-restaurants"],"categories":["Greek Restaurants"],"distanceKm":12.40974427383374},{"id":"greekRestaurants_6eb435657203","slug":"o-meraklis-6eb4","kind":"restaurant","name":"Ο Μερακλής","lat":39.867735919635514,"lng":25.173635790362066,"url":"https://maps.app.goo.gl/Aytx8mWcw3gfndXg8?g_st=ipc","address":"Τσιμάνδρια 814 00","categoryIds":["greek-restaurants"],"categories":["Greek Restaurants"],"distanceKm":13.50390118782798},{"id":"fishTavernasRestaurants_31d05d8989b3","slug":"riza-31d0","kind":"restaurant","name":"Rizá","lat":39.884706865069624,"lng":25.06758130540464,"url":"https://maps.app.goo.gl/mjn9nrVY8o8u2BtBA?g_st=ipc","address":"Ιωάννη ξυραδη, Mirina 814 00","categoryIds":["fish-tavernas"],"categories":["Fish Tavernas"],"distanceKm":13.727749550164873},{"id":"coffeeBrunchRestaurants_869f5a48d72d","slug":"isalos-869f","kind":"restaurant","name":"Ίσαλος","lat":39.87908391847142,"lng":25.06099156906446,"url":"https://maps.app.goo.gl/c8yCK9js6cNHpCoA9?g_st=ipc","address":"Navarchou Kountourioti 44, Mirina 814 00","categoryIds":["coffee-brunch"],"categories":["Coffee & Brunch Spots"],"distanceKm":14.558710375731039},{"id":"coffeeBrunchRestaurants_068b0da95bfe","slug":"to-sokaki-068b","kind":"restaurant","name":"Το Σοκάκι","lat":39.8775422598192,"lng":25.06020004123801,"url":"https://maps.app.goo.gl/XpuXpx6W5o54Ee8g9?g_st=ipc","address":"Π.Κυδά 95, Mirina 814 00","categoryIds":["coffee-brunch"],"categories":["Coffee & Brunch Spots"],"distanceKm":14.73904895860071},{"id":"fishTavernasRestaurants_ec6f8deb686c","slug":"romeo-restaurant-ec6f","kind":"restaurant","name":"Romeo Restaurant","lat":39.877624727759105,"lng":25.0589103454787,"url":"https://maps.app.goo.gl/gcPprUPwwjyMys6K6?g_st=ipc","address":"Navarchou Kountourioti 4, Mirina 814 00","categoryIds":["fish-tavernas"],"categories":["Fish Tavernas"],"distanceKm":14.792054971699399},{"id":"dessertsRestaurants_f7fc652adf76","slug":"m-m-cafe-f7fc","kind":"restaurant","name":"M&M cafe","lat":39.874546870141494,"lng":25.06021064657425,"url":"https://maps.app.goo.gl/SJcXoVQYWqcw91ws8?g_st=ipc","address":"Παλαιο λιμανι, Mirina 814 00","categoryIds":["desserts"],"categories":["Dessert Shops"],"distanceKm":15.018187074918957},{"id":"coffeeBrunchRestaurants_996e363973c7","slug":"karavi-beach-bar-996e","kind":"restaurant","name":"Karavi Beach Bar","lat":39.85090912842053,"lng":25.123611423243542,"url":"https://maps.app.goo.gl/6JePMXECkf2soAvE9?g_st=ipc","address":"Nea Koutali 814 01","categoryIds":["coffee-brunch"],"categories":["Coffee & Brunch Spots"],"distanceKm":15.51579128855411},{"id":"coffeeBrunchRestaurants_97411cb6d764","slug":"beach-bar-pantelis-9741","kind":"restaurant","name":"Beach Bar Pantelis","lat":39.842026669826275,"lng":25.07833979185058,"url":"https://maps.app.goo.gl/GU9DYNTRrV3ugcbq6?g_st=ipc","address":"Λημνος, Thanos 814 00","categoryIds":["coffee-brunch"],"categories":["Coffee & Brunch Spots"],"distanceKm":17.536706001030748},{"id":"fishTavernasRestaurants_50ee9738a03b","slug":"giannakaros-50ee","kind":"restaurant","name":"Giannakaros","lat":39.84054300748565,"lng":25.08178620013765,"url":"https://maps.app.goo.gl/pXxiEsVASm4fz94F7?g_st=ipc","address":"Παραλία Θάνους 814 00","categoryIds":["fish-tavernas"],"categories":["Fish Tavernas"],"distanceKm":17.58326566952185},{"id":"greekRestaurants_0d79ffe3d8c0","slug":"taverna-andreas-0d79","kind":"restaurant","name":"Ταβέρνα Αndreas","lat":39.86355491006773,"lng":25.323066847103735,"url":"https://maps.app.goo.gl/FVABP5vjSdC5ptdh7?g_st=ipc","address":"Unnamed Road, Καμίνια 814 01","categoryIds":["greek-restaurants"],"categories":["Greek Restaurants"],"distanceKm":19.943244732160405},{"id":"greekRestaurants_8eab656c1491","slug":"i-eleni-8eab","kind":"restaurant","name":"Η Ελένη","lat":39.981893765467724,"lng":25.40667892238782,"url":"https://maps.app.goo.gl/DULQ8y35UGJe91Vp9?g_st=ipc","address":"Παναγία 814 01","categoryIds":["greek-restaurants"],"categories":["Greek Restaurants"],"distanceKm":21.447899107208688},{"id":"fishTavernasRestaurants_16a4e67c3c63","slug":"agios-charalampos-taverna-16a4","kind":"restaurant","name":"Άγιος Χαράλαμπος Ταβέρνα","lat":40.01540251451066,"lng":25.41273241641246,"url":"https://maps.app.goo.gl/TDkDp1LztBnJyFX67?g_st=ipc","address":"Λημνος, Plaka 814 01","categoryIds":["fish-tavernas"],"categories":["Fish Tavernas"],"distanceKm":22.151575317877043},{"id":"greekRestaurants_a414563c8db5","slug":"agios-charalampos-taverna-a414","kind":"restaurant","name":"Άγιος Χαράλαμπος Ταβέρνα","lat":40.01545133045331,"lng":25.41273378484273,"url":"https://maps.app.goo.gl/vEMTZ2YkAnNc2a7e7?g_st=ipc","address":"Λημνος, Πλάκα 814 01","categoryIds":["greek-restaurants"],"categories":["Greek Restaurants"],"distanceKm":22.15242097859155}],"sameRegion":[],"mentionedGuides":[],"canonicalSlug":"taverna-flomari-bcfe","enrichment":{"summary_en":"Taverna Flomari is a curated restaurant in Λήμνος 814 01 in the Greek Restaurants collection. It is connected to 1 nearby Googlementor picks to help travelers build a stronger local route.","summary_el":"Taverna Flomari είναι ένα επιλεγμένο σημείο φαγητού στην περιοχή Λήμνος 814 01 και ανήκει στη συλλογή Greek Restaurants. Συνδέεται με 1 κοντινές προτάσεις του Googlementor για πιο ολοκληρωμένη εμπειρία.","vibe_tags":["curated"],"best_for":["first-time visitors","food lovers"],"visit_moments":["lunch stop","dinner stop"],"practical_note":"Address and direct map link are available for easy turn-by-turn access.","nearby_walkable_count":1,"nearby_count_2km":1,"confidence":0.9},"areaContext":null,"intentContexts":[]},"__N_SSG":true}