{"pageProps":{"entity":{"id":"dessertsRestaurants_3b5bf46add7e","slug":"terkenlis-3b5b","kind":"restaurant","name":"Terkenlis","lat":40.07236945700872,"lng":23.44461611117606,"url":"https://maps.app.goo.gl/HGnMQLpSqcLam8fR7?g_st=ipc","address":"Δημόσια, Θεσσαλονικής, Kallithea 630 77","categoryIds":["desserts"],"categories":["Dessert Shops"]},"sameCategory":[{"id":"dessertsRestaurants_4d9f43af452c","slug":"patisserie-achlatis-4d9f","kind":"restaurant","name":"patisserie Achlatis","lat":40.0008948533071,"lng":23.574509488353804,"url":"https://maps.app.goo.gl/LLNEhXXp3PJCCKgu7?g_st=ipc","address":"Chaniotis 630 85","categoryIds":["desserts"],"categories":["Dessert Shops"]},{"id":"dessertsRestaurants_98dd00cbac34","slug":"gelateria-ksilaki-98dd","kind":"restaurant","name":"Gelateria Ksilaki","lat":40.21685753813557,"lng":23.667097053863888,"url":"https://maps.app.goo.gl/YNZtpmoKz7NF28Uy9?g_st=ipc","address":"Unnamed Road, Nikiti 630 88","categoryIds":["desserts"],"categories":["Dessert Shops"]},{"id":"dessertsRestaurants_2e19f32f107c","slug":"revani-me-pagoto-patisserie-anatoli-2e19","kind":"restaurant","name":"Revani me Pagoto - Patisserie Anatoli","lat":40.21741442419358,"lng":23.666604738726736,"url":"https://maps.app.goo.gl/h2Tc6Wrf9W1Td7877?g_st=ipc","address":"Nikiti 630 88","categoryIds":["desserts"],"categories":["Dessert Shops"]},{"id":"dessertsRestaurants_1eaa59dec57f","slug":"confectioneries-hatzifotiou-1eaa","kind":"restaurant","name":"Confectioneries Hatzifotiou","lat":40.44091493203973,"lng":23.01172950209268,"url":"https://maps.app.goo.gl/ZBAersiUhet96cfT7?g_st=ipc","address":"24ο χλμ, Θεσ/νίκης - Μουδανιών, Mikra 575 00","categoryIds":["desserts"],"categories":["Dessert Shops"]},{"id":"dessertsRestaurants_ade0c81c0696","slug":"terkenlis-sa-ade0","kind":"restaurant","name":"Terkenlis SA","lat":40.53095135339602,"lng":23.040855842977592,"url":"https://maps.app.goo.gl/akE1bVgaSKcamD5a9?g_st=ipc","address":"EO Thessalonikis Poligirou, Thermi 570 01","categoryIds":["desserts"],"categories":["Dessert Shops"]},{"id":"dessertsRestaurants_162156adc1f2","slug":"nick-alexoudas-1621","kind":"restaurant","name":"NICK ALEXOUDAS","lat":40.50355208818679,"lng":22.970983268361184,"url":"https://maps.app.goo.gl/pdjwM7eD44CCVek79?g_st=ipc","address":"Θέρμη 570 01","categoryIds":["desserts"],"categories":["Dessert Shops"]},{"id":"dessertsRestaurants_04457d12c48e","slug":"yammy-donuts-0445","kind":"restaurant","name":"Yammy Donuts","lat":40.54588944546194,"lng":23.02111857717177,"url":"https://maps.app.goo.gl/BFRCZLpVmbK8YGZm9?g_st=ipc","address":"Tsaldari 5, Thermi 570 01","categoryIds":["desserts"],"categories":["Dessert Shops"]},{"id":"dessertsRestaurants_ab7dd444d3fa","slug":"nick-alexoudas-ab7d","kind":"restaurant","name":"NICK ALEXOUDAS","lat":40.547044888222544,"lng":23.01874068673441,"url":"https://maps.app.goo.gl/SVoXU7LGnn3dArUNA?g_st=ipc","address":"Agiou Nikolaou 2, Thermi 570 01","categoryIds":["desserts"],"categories":["Dessert Shops"]},{"id":"dessertsRestaurants_96b542039411","slug":"trigona-panoramatos-drossa-proin-giannis-96b5","kind":"restaurant","name":"Τρίγωνα Πανοράματος Δροσσά (πρώην Γιάννης)","lat":40.549930484948774,"lng":23.019231796608217,"url":"https://maps.app.goo.gl/iU3xLN5pQr3ggcxF9?g_st=ipc","address":"Tavaki 24, Thermi 570 01","categoryIds":["desserts"],"categories":["Dessert Shops"]},{"id":"dessertsRestaurants_2befb2db83ce","slug":"terkenlis-2bef","kind":"restaurant","name":"Terkenlis","lat":40.525256969361955,"lng":22.97500623617725,"url":"https://maps.app.goo.gl/NfxGujkvPGiZ6Nah7?g_st=ipc","address":"Macedonia, airport, Thessaloniki","categoryIds":["desserts"],"categories":["Dessert Shops"]},{"id":"burgersRestaurants_d5586ce24d0b","slug":"osten-d558","kind":"restaurant","name":"OSTEN","lat":40.55792173583846,"lng":23.01007604885629,"url":"https://maps.app.goo.gl/JrNCtkPthNJns9L16?g_st=ipc","address":"4χλμ, Χαρ. Θέρμης, Thessaloniki 570 01","categoryIds":["burgers","desserts"],"categories":["Burger Spots","Dessert Shops"],"legacySlugs":["osten-07fc"]},{"id":"coffeeBrunchRestaurants_5b87d322c2b5","slug":"pink-dot-cafe-5b87","kind":"restaurant","name":"Pink Dot Cafe","lat":40.548406580479465,"lng":22.98186227348721,"url":"https://maps.app.goo.gl/CG2fgJcxKmWaKuAV6?g_st=ipc","address":"Leof. Georgikis Scholis 84, Pilea 570 01","categoryIds":["coffee-brunch","desserts"],"categories":["Coffee & Brunch Spots","Dessert Shops"],"legacySlugs":["pink-dot-cafe-f1a3"]}],"nearby":[{"id":"cheapEatsRestaurants_c1994e1056ff","slug":"andoni-s-gyros-feed-c199","kind":"restaurant","name":"Andoni's Gyros Feed","lat":40.07464288630586,"lng":23.448992983256165,"url":"https://maps.app.goo.gl/L8R286xrXF2isCzv6?g_st=ipc","address":"Καλλιθέα 630 77","categoryIds":["cheap-eats"],"categories":["Gyros & Cheap Eats"],"distanceKm":0.45011379648445154},{"id":"coffeeBrunchRestaurants_95ba17233631","slug":"almira-beach-bar-95ba","kind":"restaurant","name":"Almira beach bar","lat":40.072040605174976,"lng":23.452332342777385,"url":"https://maps.app.goo.gl/E5yFsVWCjLx3EVVM8?g_st=ipc","address":"Kassandra 630 77","categoryIds":["coffee-brunch"],"categories":["Coffee & Brunch Spots"],"distanceKm":0.6575924958167683},{"id":"greekRestaurants_5f291c18ffbb","slug":"dias-restaurant-5f29","kind":"restaurant","name":"Dias Restaurant","lat":40.06967513248834,"lng":23.453446118410188,"url":"https://maps.app.goo.gl/CuNAkyg2DXjQVmd46?g_st=ipc","address":"Καλλιθέα Κασσανδρεια, Κασσανδρεία 630 77","categoryIds":["greek-restaurants"],"categories":["Greek Restaurants"],"distanceKm":0.8088870145414236},{"id":"municipalities_c1cea04425ed","slug":"kallithea-chalkidiki-c1ce","kind":"municipality","name":"Καλλιθέα Χαλκιδική","lat":40.08,"lng":23.448,"region":"Χαλκιδική","name_en":"Kallithea Halkidiki","region_en":"Halkidiki","distanceKm":0.895997493833236},{"id":"greekRestaurants_9f92ac7d9fa1","slug":"kardamo-9f92","kind":"restaurant","name":"Kardamo","lat":40.097556175200374,"lng":23.437132587550042,"url":"https://maps.app.goo.gl/ePoWRBDG86ratDjz8?g_st=ipc","address":"Άφυτος 630 77","categoryIds":["greek-restaurants"],"categories":["Greek Restaurants"],"distanceKm":2.872087572607828},{"id":"greekRestaurants_2313eb757566","slug":"to-palio-rementzo-2313","kind":"restaurant","name":"To Palio Rementzo","lat":40.09848139695357,"lng":23.43773202901174,"url":"https://maps.app.goo.gl/2T1nNQxZML5ZNxhC9?g_st=ipc","address":"Άφυτος 630 77","categoryIds":["greek-restaurants"],"categories":["Greek Restaurants"],"distanceKm":2.961991042008388},{"id":"fishTavernasRestaurants_fbb17c01a708","slug":"oceanides-seafood-restaurant-fbb1","kind":"restaurant","name":"Oceanides Seafood Restaurant","lat":40.10031320438252,"lng":23.437354189641624,"url":"https://maps.app.goo.gl/qubazwv6QdLJPnuv6?g_st=ipc","address":"Epar.Od. Paliouriou-Afitou, Afitos 630 77","categoryIds":["fish-tavernas"],"categories":["Fish Tavernas"],"distanceKm":3.168023658842159},{"id":"fishTavernasRestaurants_8245d15ce972","slug":"thea-thalassa-8245","kind":"restaurant","name":"Thea Thalassa","lat":40.100933443260715,"lng":23.43657383110183,"url":"https://maps.app.goo.gl/M9XGJaEeSqKPrPLY9?g_st=ipc","address":"Greece, Afitos 630 77","categoryIds":["fish-tavernas"],"categories":["Fish Tavernas"],"distanceKm":3.249023127819674},{"id":"coffeeBrunchRestaurants_2451ebf0828a","slug":"agora-beach-greek-kouzina-beach-bar-2451","kind":"restaurant","name":"Agora Beach - Greek Kouzina & Beach Bar","lat":40.05004401134577,"lng":23.47152357517926,"url":"https://maps.app.goo.gl/cd42keBiiYDufY3k8?g_st=ipc","address":"Κρυοπηγη Χαλκιδική 630 77","categoryIds":["coffee-brunch"],"categories":["Coffee & Brunch Spots"],"distanceKm":3.3773454893762658},{"id":"fishTavernasRestaurants_713eeba74062","slug":"to-kyma-713e","kind":"restaurant","name":"To Kyma","lat":40.102311716094015,"lng":23.436768440109095,"url":"https://maps.app.goo.gl/AnRAQzdyuWf59ypc6?g_st=ipc","address":"Epar.Od. Paliouriou-Afitou, Afitos 630 77","categoryIds":["fish-tavernas"],"categories":["Fish Tavernas"],"distanceKm":3.395701742771173},{"id":"municipalities_c475d7743b5a","slug":"kryopigi-c475","kind":"municipality","name":"Κρυοπηγή","lat":40.0403,"lng":23.4507,"region":"Χαλκιδική","name_en":"Kryopigi","region_en":"Halkidiki","distanceKm":3.603358639059246},{"id":"greekRestaurants_5bb44ebf778d","slug":"metoxi-restaurant-5bb4","kind":"restaurant","name":"Metoxi restaurant","lat":40.065274134226456,"lng":23.39221583090552,"url":"https://maps.app.goo.gl/7wBDRqK9LUsGSLah7?g_st=ipc","address":"Κασσανδρεία 630 77","categoryIds":["greek-restaurants"],"categories":["Greek Restaurants"],"distanceKm":4.528228460671462},{"id":"fishTavernasRestaurants_192fa7a5e6f3","slug":"trizoni-sea-treasures-192f","kind":"restaurant","name":"Trizoni Sea Treasures","lat":40.03314898834852,"lng":23.476924334583536,"url":"https://maps.app.goo.gl/TbVXDeBneUxZKZxp7?g_st=ipc","address":"Trizoni Sea Treasures, Kriopigi 630 77","categoryIds":["fish-tavernas"],"categories":["Fish Tavernas"],"distanceKm":5.155702199912214},{"id":"greekRestaurants_33e109e116ef","slug":"i-plateia-tis-anthoylas-33e1","kind":"restaurant","name":"Η Πλατεία της Ανθούλας","lat":40.03314783613042,"lng":23.477056436374422,"url":"https://maps.app.goo.gl/MZZAF1dJsdusePjd6?g_st=ipc","address":"Main road, Κρυοπηγή 630 77","categoryIds":["greek-restaurants"],"categories":["Greek Restaurants"],"distanceKm":5.161816306687102},{"id":"greekRestaurants_37aeec286967","slug":"o-zachos-37ae","kind":"restaurant","name":"Ο Ζάχος","lat":40.01217335149507,"lng":23.447184477767923,"url":"https://maps.app.goo.gl/zwVdQG5iLtPWd8BUA?g_st=ipc","address":"0, Κασσανδρηνό 630 77","categoryIds":["greek-restaurants"],"categories":["Greek Restaurants"],"distanceKm":6.69707142413329},{"id":"coffeeBrunchRestaurants_9b3f9081336d","slug":"amaya-beach-club-9b3f","kind":"restaurant","name":"Amaya Beach Club","lat":40.026446407870004,"lng":23.507188076460846,"url":"https://maps.app.goo.gl/DziL4jUhyUbQGmrNA?g_st=ipc","address":"2GG4+9J, Pallini 630 85","categoryIds":["coffee-brunch"],"categories":["Coffee & Brunch Spots"],"distanceKm":7.378488492068221},{"id":"coffeeBrunchRestaurants_f3e4019c450d","slug":"thokos-cafe-bar-bistro-f3e4","kind":"restaurant","name":"Thokos Cafe Bar Bistro","lat":40.13335777699941,"lng":23.402877403357074,"url":"https://maps.app.goo.gl/ek2Zc3cWzQTwhHRT9?g_st=ipc","address":"Nea. Fokea, Halkidiki, Nea Fokea 630 77","categoryIds":["coffee-brunch"],"categories":["Coffee & Brunch Spots"],"distanceKm":7.654550513386146},{"id":"fishTavernasRestaurants_283debb71041","slug":"glykanisos-283d","kind":"restaurant","name":"Γλυκάνισος","lat":40.005631717428024,"lng":23.415752772781822,"url":"https://maps.app.goo.gl/7zcGKcrt65G6bQFf6?g_st=ipc","address":"Fourka 630 77","categoryIds":["fish-tavernas"],"categories":["Fish Tavernas"],"distanceKm":7.817126567250311},{"id":"greekRestaurants_4ed7350eaa50","slug":"massalia-nea-fokaia-4ed7","kind":"restaurant","name":"Μασσαλία - Νέα Φώκαια","lat":40.13302544916829,"lng":23.396518787610884,"url":"https://maps.app.goo.gl/uWerarGoWNG5Gpax8?g_st=ipc","address":"Πλατεια, Νέα Φώκαια 630 77","categoryIds":["greek-restaurants"],"categories":["Greek Restaurants"],"distanceKm":7.888255550588197},{"id":"coffeeBrunchRestaurants_b84b53e707eb","slug":"crystal-beach-bar-b84b","kind":"restaurant","name":"Crystal Beach Bar","lat":40.02336409343884,"lng":23.51395324156485,"url":"https://maps.app.goo.gl/Q863Q6e1e1985SvJ9?g_st=ipc","address":"Unnamed Road, Kassandra 630 85","categoryIds":["coffee-brunch"],"categories":["Coffee & Brunch Spots"],"distanceKm":8.032866914951423},{"id":"coffeeBrunchRestaurants_aaacdfd97bc2","slug":"lemonis-bakery-aaac","kind":"restaurant","name":"Lemonis Bakery","lat":40.01696151934303,"lng":23.52512566073754,"url":"https://maps.app.goo.gl/xaGsvgZfv5mMRi2e6?g_st=ipc","address":"Polychrono 630 85","categoryIds":["coffee-brunch"],"categories":["Coffee & Brunch Spots"],"distanceKm":9.215591474349411},{"id":"municipalities_9110079bb855","slug":"polychrono-9110","kind":"municipality","name":"Πολύχρονο","lat":40.0153,"lng":23.5327,"region":"Χαλκιδική","name_en":"Polichrono","region_en":"Halkidiki","distanceKm":9.823056264633403},{"id":"fishTavernasRestaurants_698f5e3c9fb8","slug":"mple-seaside-gastrobar-698f","kind":"restaurant","name":"Mple Seaside Gastrobar","lat":39.996322262418225,"lng":23.38211842182523,"url":"https://maps.app.goo.gl/59Aq6jZbxYFVPEPU7?g_st=ipc","address":"Σκάλα Φούρκας 630 77","categoryIds":["fish-tavernas"],"categories":["Fish Tavernas"],"distanceKm":9.990838279480974},{"id":"coffeeBrunchRestaurants_f9a995ba9231","slug":"zattero-seaside-bar-f9a9","kind":"restaurant","name":"Zattero Seaside Bar","lat":39.989902440234324,"lng":23.37887042765103,"url":"https://maps.app.goo.gl/d978qu99YawDBboB8?g_st=ipc","address":"Σκάλα Φούρκας 630 77","categoryIds":["coffee-brunch"],"categories":["Coffee & Brunch Spots"],"distanceKm":10.743431479540336}],"sameRegion":[],"mentionedGuides":[],"canonicalSlug":"terkenlis-3b5b","enrichment":{"summary_en":"Terkenlis is a curated restaurant in Kallithea 630 77 in the Dessert Shops collection. It is connected to 2 nearby Googlementor picks to help travelers build a stronger local route.","summary_el":"Terkenlis είναι ένα επιλεγμένο σημείο φαγητού στην περιοχή Kallithea 630 77 και ανήκει στη συλλογή Dessert Shops. Συνδέεται με 2 κοντινές προτάσεις του Googlementor για πιο ολοκληρωμένη εμπειρία.","vibe_tags":["curated","sweet-stop"],"best_for":["first-time visitors","food lovers"],"visit_moments":["afternoon break","after dinner"],"practical_note":"Address and direct map link are available for easy turn-by-turn access.","nearby_walkable_count":2,"nearby_count_2km":4,"confidence":0.9},"areaContext":{"slug":"kallithea-chalkidiki","name":"Kallithea Halkidiki","nameEl":"Καλλιθέα Χαλκιδική"},"intentContexts":[]},"__N_SSG":true}