{"pageProps":{"entity":{"id":"dessertsRestaurants_12623fbd2b22","slug":"the-cookie-spot-1262","kind":"restaurant","name":"The Cookie Spot","lat":37.99444679765089,"lng":23.767246870295605,"url":"https://maps.app.goo.gl/RvKCNW6xRcbro6To7?g_st=ipc","address":"Λεωφ. Κηφισίας 129, Αθήνα 115 24","categoryIds":["desserts"],"categories":["Dessert Shops"]},"sameCategory":[{"id":"dessertsRestaurants_0c24728d84f7","slug":"zacharoplasteia-konstantinidis-0c24","kind":"restaurant","name":"Ζαχαροπλαστεία Κωνσταντινίδης","lat":37.994489109318636,"lng":23.768109247569534,"url":"https://maps.app.goo.gl/KRDBFxECZQJmykCB8?g_st=ipc","address":"Λεωφ. Κηφισίας 116, Αθήνα 115 26","categoryIds":["desserts"],"categories":["Dessert Shops"]},{"id":"dessertsRestaurants_82392100ef3d","slug":"galaktopoleio-stamoy-8239","kind":"restaurant","name":"Γαλακτοπωλείο ΣΤΑΜΟΥ","lat":37.99247877904618,"lng":23.761668631710492,"url":"https://maps.app.goo.gl/118TMc1zY2E2HRzEA?g_st=ipc","address":"Πανόρμου 62, Αθήνα 115 23","categoryIds":["desserts"],"categories":["Dessert Shops"]},{"id":"dessertsRestaurants_33a56f7d2cf2","slug":"andrias-33a5","kind":"restaurant","name":"Ανδριάς","lat":37.98955326408805,"lng":23.76607876362105,"url":"https://maps.app.goo.gl/dtVWFaCoXcBCwpmEA?g_st=ipc","address":"Σεβαστουπόλεως 64, Αθήνα 115 26","categoryIds":["desserts"],"categories":["Dessert Shops"]},{"id":"dessertsRestaurants_b83e09929158","slug":"zacharoplasteia-konstantinidis-b83e","kind":"restaurant","name":"ΖΑΧΑΡΟΠΛΑΣΤΕΙΑ ΚΩΝΣΤΑΝΤΙΝΙΔΗΣ","lat":37.989007700389564,"lng":23.768816133618305,"url":"https://maps.app.goo.gl/kiKCSDG9JX1cLwVf9?g_st=ipc","address":"Λεωφ. Μεσογείων 86, Αθήνα 115 27","categoryIds":["desserts"],"categories":["Dessert Shops"]},{"id":"dessertsRestaurants_69d8bc325b59","slug":"the-sweet-spot-69d8","kind":"restaurant","name":"The Sweet Spot","lat":38.000116106882906,"lng":23.77349448800709,"url":"https://maps.app.goo.gl/CH4eLFxcoxyVn5pM9?g_st=ipc","address":"Αδριανείου 46, Αθήνα 115 25","categoryIds":["desserts"],"categories":["Dessert Shops"]},{"id":"dessertsRestaurants_44539c96154c","slug":"katamaya-sweet-savory-4453","kind":"restaurant","name":"Katamaya Sweet & Savory","lat":38.001728655646296,"lng":23.776605222448108,"url":"https://maps.app.goo.gl/d4khgseTBK8h5W1MA?g_st=ipc","address":"Δημ. Βασιλείου 20, Ψυχικό 154 51","categoryIds":["desserts"],"categories":["Dessert Shops"]},{"id":"dessertsRestaurants_b43c17b9e94d","slug":"le-greche-neo-psychiko-b43c","kind":"restaurant","name":"Le Greche NEO Psychiko","lat":38.00380450511544,"lng":23.775289515752554,"url":"https://maps.app.goo.gl/hRu6XR8fQTV8oMCF6?g_st=ipc","address":"Λυκούργου 2, Νέο Ψυχικό 154 51","categoryIds":["desserts"],"categories":["Dessert Shops"]},{"id":"dessertsRestaurants_c99ab06196ae","slug":"carpo-psychiko-c99a","kind":"restaurant","name":"carpo psychiko","lat":38.00433299399579,"lng":23.77588410102084,"url":"https://maps.app.goo.gl/cHiF8braV8253FBP6?g_st=ipc","address":"Dim. Vasiliou 1, Neo Psichiko 154 51","categoryIds":["desserts"],"categories":["Dessert Shops"]},{"id":"dessertsRestaurants_d3301ebc9d06","slug":"portatif-ippokratous-d330","kind":"restaurant","name":"Portatif - ippokratous","lat":37.98880796872772,"lng":23.747928642094816,"url":"https://maps.app.goo.gl/Hjds2t3JrKoqCot39?g_st=ipc","address":"Ιπποκράτους 206, Αθήνα 114 72","categoryIds":["desserts"],"categories":["Dessert Shops"]},{"id":"dessertsRestaurants_55ea1e7f1b68","slug":"cremona-55ea","kind":"restaurant","name":"CREMONA","lat":37.999276434608944,"lng":23.746794928014506,"url":"https://maps.app.goo.gl/88H4UALJy3RpJMnJA?g_st=ipc","address":"58, Δοϊράνης 56, Αθήνα 113 63","categoryIds":["desserts"],"categories":["Dessert Shops"]},{"id":"dessertsRestaurants_578f4bf4ed9c","slug":"dimitris-economides-athens-578f","kind":"restaurant","name":"Dimitris Economides Athens","lat":38.008931143721306,"lng":23.779615664170734,"url":"https://maps.app.goo.gl/wRvmhWMFJRUQ21b49?g_st=ipc","address":"Λεωφ. Κηφισίας 340, Νέο Ψυχικό 154 51","categoryIds":["desserts","luxury-dining"],"categories":["Dessert Shops","Luxury Dining"],"legacySlugs":["dimitris-economides-athens-e53f"]},{"id":"dessertsRestaurants_bdb87120c3b8","slug":"athina-kon-bdb8","kind":"restaurant","name":"ΑΘΗΝΑΪΚΟΝ","lat":38.00959872140439,"lng":23.78101021168435,"url":"https://maps.app.goo.gl/ACrYfvjmkufL8q3g9?g_st=ipc","address":"Νικολάου Μάντζαρου 1 &, Εθ. Αντιστάσεως, Νέο Ψυχικό 154 51","categoryIds":["desserts"],"categories":["Dessert Shops"]}],"nearby":[{"id":"dessertsRestaurants_0c24728d84f7","slug":"zacharoplasteia-konstantinidis-0c24","kind":"restaurant","name":"Ζαχαροπλαστεία Κωνσταντινίδης","lat":37.994489109318636,"lng":23.768109247569534,"url":"https://maps.app.goo.gl/KRDBFxECZQJmykCB8?g_st=ipc","address":"Λεωφ. Κηφισίας 116, Αθήνα 115 26","categoryIds":["desserts"],"categories":["Dessert Shops"],"distanceKm":0.07571592577560628},{"id":"greekRestaurants_ea6184198aae","slug":"taverna-o-nikiforos-ea61","kind":"restaurant","name":"Ταβέρνα Ο Νικηφόρος","lat":37.99407146777003,"lng":23.765861778134067,"url":"https://maps.app.goo.gl/S5V49nXtP76Umgj59","address":"Λασκαρίδου 7 &, Λουίζης Ριανκούρ, Αθήνα 151 24","categoryIds":["greek-restaurants"],"categories":["Greek Restaurants"],"distanceKm":0.12834998626233474},{"id":"coffeeBrunchRestaurants_df11f874a198","slug":"samba-coffee-roasters-crossroads-df11","kind":"restaurant","name":"Samba Coffee Roasters | Crossroads","lat":37.99393050466954,"lng":23.765656487319742,"url":"https://maps.app.goo.gl/uQpG9Yamdzg2aDJG8?g_st=ipc","address":"Λασκαρίδου 7, Ampelokipi 115 24","categoryIds":["coffee-brunch"],"categories":["Coffee & Brunch Spots"],"distanceKm":0.15072615108558757},{"id":"asianRestaurants_4bddf7fbcbe7","slug":"street-wok-4bdd","kind":"restaurant","name":"Street Wok","lat":37.99333429542986,"lng":23.76565696133404,"url":"https://maps.app.goo.gl/xgYqVodevf1ae8hY7?g_st=ipc","address":"Ampelokipi Menemeni, Πανόρμου 115Ζ, Αθήνα 115 24","categoryIds":["asian","cheap-eats"],"categories":["Asian Restaurants","Gyros & Cheap Eats"],"legacySlugs":["street-wok-3ae9"],"distanceKm":0.1863168575626127},{"id":"rooftopLoungesRestaurants_f9c73dde5ada","slug":"sensimilia-cafe-bar-f9c7","kind":"restaurant","name":"Sensimilia Cafe Bar","lat":37.993035889378,"lng":23.76531520450526,"url":"https://maps.app.goo.gl/s89v4aAfgSswW1qy7?g_st=ipc","address":"Δουκίσσης Πλακεντίας 129, Αθήνα 115 23","categoryIds":["rooftop-lounges"],"categories":["Rooftop Lounges"],"distanceKm":0.23079496215541606},{"id":"asianRestaurants_315dc41692bd","slug":"sakura-sushi-and-steak-house-315d","kind":"restaurant","name":"Sakura Sushi and Steak House","lat":37.992808848594535,"lng":23.76520165923385,"url":"https://maps.app.goo.gl/qjninjaDQmMf2fNU7","address":"Doukissis Plakentias 73, Athina 115 23","categoryIds":["asian"],"categories":["Asian Restaurants"],"distanceKm":0.255524362939891},{"id":"cheapEatsRestaurants_0e996f9a4065","slug":"jackaroo-0e99","kind":"restaurant","name":"Jackaroo","lat":37.99342271258061,"lng":23.764131211857187,"url":"https://maps.app.goo.gl/VnT5HzaYL2NjnGd27?g_st=ipc","address":"Πανόρμου 109, Αθήνα 115 24","categoryIds":["cheap-eats"],"categories":["Gyros & Cheap Eats"],"distanceKm":0.2958206926220606},{"id":"rooftopLoungesRestaurants_f7a32b8c6926","slug":"deos-f7a3","kind":"restaurant","name":"Deos","lat":37.99283916898427,"lng":23.76419184118261,"url":"https://maps.app.goo.gl/XiQsBWs7XeVDvyW1A?g_st=ipc","address":"Λουίζης Ριανκούρ 64, Αθήνα 115 23","categoryIds":["rooftop-lounges"],"categories":["Rooftop Lounges"],"distanceKm":0.3219093928135951},{"id":"burgersRestaurants_2bbfe567ce4d","slug":"taz-smash-burger-2bbf","kind":"restaurant","name":"Taz Smash Burger","lat":37.9974813634221,"lng":23.768005845039937,"url":"https://maps.app.goo.gl/Ms7N2dUnnPDHDSW29?g_st=ipc","address":"Περικλή Σταύρου 3, Αθήνα 115 24","categoryIds":["burgers"],"categories":["Burger Spots"],"distanceKm":0.3439201521668494},{"id":"vegetarianRestaurants_d960699f9346","slug":"vegan-carousel-d960","kind":"restaurant","name":"VEGAN CAROUSEL","lat":37.99118694073678,"lng":23.766617711776497,"url":"https://maps.app.goo.gl/17ei25wSbsQBZTsP6?g_st=ipc","address":"Σοφίας Σλήμαν 6, Αθήνα 115 26","categoryIds":["vegetarian"],"categories":["Vegetarian Friendly Restaurants"],"distanceKm":0.36664858605195766},{"id":"cheapEatsRestaurants_000769981d10","slug":"piatsa-tylichto-0007","kind":"restaurant","name":"Πιάτσα Τυλιχτό","lat":37.992812158549924,"lng":23.762955305614238,"url":"https://maps.app.goo.gl/99Gr2Rnp3uGrkmWWA?g_st=ipc","address":"Λαρίσης 33, Αθήνα 115 23","categoryIds":["cheap-eats"],"categories":["Gyros & Cheap Eats"],"distanceKm":0.4176934543140836},{"id":"cheapEatsRestaurants_0022a0eff11e","slug":"koytroylis-0022","kind":"restaurant","name":"ΚΟΥΤΡΟΥΛΗΣ","lat":37.99585400563359,"lng":23.762177083127305,"url":"https://maps.app.goo.gl/xGhyT1vrgFSKodic9?g_st=ipc","address":"Βαρνακιώτη 4, Αθήνα 115 24","categoryIds":["cheap-eats"],"categories":["Gyros & Cheap Eats"],"distanceKm":0.47100921597609835},{"id":"asianRestaurants_6980a2c0f36c","slug":"rawbata-6980","kind":"restaurant","name":"RawBata","lat":37.991621984562435,"lng":23.76287776299424,"url":"https://maps.app.goo.gl/j57HrF6nf6youYLV8","address":"Lakonias 33, Athina 115 23","categoryIds":["asian"],"categories":["Asian Restaurants"],"distanceKm":0.49522836747583154},{"id":"greekRestaurants_62053e521d7b","slug":"michalis-stoy-koytroyli-6205","kind":"restaurant","name":"Μιχάλης - Στου Κουτρούλη","lat":37.995178959519315,"lng":23.761505445987336,"url":"https://maps.app.goo.gl/7La7jhMdfnzvnDUN6","address":"Βαρίκα 8, Αθήνα 115 24","categoryIds":["greek-restaurants"],"categories":["Greek Restaurants"],"distanceKm":0.509659664498455},{"id":"dessertsRestaurants_82392100ef3d","slug":"galaktopoleio-stamoy-8239","kind":"restaurant","name":"Γαλακτοπωλείο ΣΤΑΜΟΥ","lat":37.99247877904618,"lng":23.761668631710492,"url":"https://maps.app.goo.gl/118TMc1zY2E2HRzEA?g_st=ipc","address":"Πανόρμου 62, Αθήνα 115 23","categoryIds":["desserts"],"categories":["Dessert Shops"],"distanceKm":0.5355721373496696},{"id":"dessertsRestaurants_33a56f7d2cf2","slug":"andrias-33a5","kind":"restaurant","name":"Ανδριάς","lat":37.98955326408805,"lng":23.76607876362105,"url":"https://maps.app.goo.gl/dtVWFaCoXcBCwpmEA?g_st=ipc","address":"Σεβαστουπόλεως 64, Αθήνα 115 26","categoryIds":["desserts"],"categories":["Dessert Shops"],"distanceKm":0.5536808444097487},{"id":"dessertsRestaurants_b83e09929158","slug":"zacharoplasteia-konstantinidis-b83e","kind":"restaurant","name":"ΖΑΧΑΡΟΠΛΑΣΤΕΙΑ ΚΩΝΣΤΑΝΤΙΝΙΔΗΣ","lat":37.989007700389564,"lng":23.768816133618305,"url":"https://maps.app.goo.gl/kiKCSDG9JX1cLwVf9?g_st=ipc","address":"Λεωφ. Μεσογείων 86, Αθήνα 115 27","categoryIds":["desserts"],"categories":["Dessert Shops"],"distanceKm":0.6202374325723792},{"id":"italianRestaurants_239ca6b05a02","slug":"tale-koyale-239c","kind":"restaurant","name":"ΤΑΛΕ ΚΟΥΑΛΕ","lat":37.998832186045824,"lng":23.771946797243086,"url":"https://maps.app.goo.gl/yxs9qh1QSGqVTa1R6?g_st=ipc","address":"Αδριανείου 20, Αθήνα 115 25","categoryIds":["italian"],"categories":["Italian Restaurants"],"distanceKm":0.6382771789703923},{"id":"italianRestaurants_fbd799de8573","slug":"parlo-restaurant-fbd7","kind":"restaurant","name":"Parlo Restaurant","lat":37.99920315769846,"lng":23.772042235397578,"url":"https://maps.app.goo.gl/x9LunWYHnZkLF3B68?g_st=ipc","address":"Αδριανείου 25Α, Αθήνα 115 25","categoryIds":["italian"],"categories":["Italian Restaurants"],"distanceKm":0.6754899254486758},{"id":"cheapEatsRestaurants_4873355e0fc6","slug":"delicious-pitta-queen-4873","kind":"restaurant","name":"Delicious Pitta Queen","lat":37.99092416121966,"lng":23.759496408597567,"url":"https://maps.app.goo.gl/1JBJ1wwqkW21Ww447?g_st=ipc","address":"Πανόρμου 36, Αθήνα 115 23","categoryIds":["cheap-eats"],"categories":["Gyros & Cheap Eats"],"distanceKm":0.7840410879412341},{"id":"dessertsRestaurants_69d8bc325b59","slug":"the-sweet-spot-69d8","kind":"restaurant","name":"The Sweet Spot","lat":38.000116106882906,"lng":23.77349448800709,"url":"https://maps.app.goo.gl/CH4eLFxcoxyVn5pM9?g_st=ipc","address":"Αδριανείου 46, Αθήνα 115 25","categoryIds":["desserts"],"categories":["Dessert Shops"],"distanceKm":0.8349299942088193},{"id":"asianRestaurants_49017a334068","slug":"the-sushi-bar-4901","kind":"restaurant","name":"The Sushi Bar","lat":37.99837454773829,"lng":23.77552075939677,"url":"https://maps.app.goo.gl/US8MP4C24AbbzMtL9","address":"Geor. Vlachou 38, Athina 115 25","categoryIds":["asian"],"categories":["Asian Restaurants"],"distanceKm":0.8464019838951411},{"id":"coffeeBrunchRestaurants_e05f85a7bf8b","slug":"gaby-e05f","kind":"restaurant","name":"Gaby","lat":37.986676810313035,"lng":23.76468460968007,"url":"https://maps.app.goo.gl/i3aZZJMDZs8yiYD88?g_st=ipc","address":"Λεωφ. Μεσογείων 33-37, Αθήνα 115 26","categoryIds":["coffee-brunch"],"categories":["Coffee & Brunch Spots"],"distanceKm":0.8926845651401809},{"id":"cheapEatsRestaurants_6a4147d64308","slug":"klassikon-6a41","kind":"restaurant","name":"Κλασσικόν","lat":37.99808496466343,"lng":23.757900577588526,"url":"https://maps.app.goo.gl/RXpLLpBphHc6FhZD9?g_st=ipc","address":"Μητροπέτροβα 32, Αθήνα 114 76","categoryIds":["cheap-eats"],"categories":["Gyros & Cheap Eats"],"distanceKm":0.9134560080480804}],"sameRegion":[],"mentionedGuides":[],"canonicalSlug":"the-cookie-spot-1262","enrichment":{"summary_en":"The Cookie Spot is a curated restaurant in Αθήνα 115 24 in the Dessert Shops collection. It is connected to 20 nearby Googlementor picks to help travelers build a stronger local route.","summary_el":"The Cookie Spot είναι ένα επιλεγμένο σημείο φαγητού στην περιοχή Αθήνα 115 24 και ανήκει στη συλλογή Dessert Shops. Συνδέεται με 20 κοντινές προτάσεις του Googlementor για πιο ολοκληρωμένη εμπειρία.","vibe_tags":["curated","sweet-stop"],"best_for":["first-time visitors","food lovers"],"visit_moments":["afternoon break","after dinner"],"practical_note":"Address and direct map link are available for easy turn-by-turn access.","nearby_walkable_count":20,"nearby_count_2km":77,"confidence":0.98},"areaContext":{"slug":"zografoy","name":"Zografou","nameEl":"Ζωγράφου"},"intentContexts":[{"href":"/desserts/zografoy","label":"Dessert Shops in Zografou","categorySlug":"desserts","categoryName":"Dessert Shops","areaSlug":"zografoy","areaName":"Zografou","areaNameEl":"Ζωγράφου"}]},"__N_SSG":true}