{"pageProps":{"entity":{"id":"greekRestaurants_b6c15b677224","slug":"to-drami-b6c1","kind":"restaurant","name":"To Drami","lat":37.86297028796149,"lng":23.75634712220573,"url":"https://maps.app.goo.gl/HFhEeo24Fzrwgfb98?g_st=ipc","address":"Laodikis 22, Glifada 166 74","categoryIds":["greek-restaurants"],"categories":["Greek Restaurants"]},"sameCategory":[{"id":"greekRestaurants_f2b28136b406","slug":"ethos-athens-f2b2","kind":"restaurant","name":"Ethos Athens","lat":37.86060943582202,"lng":23.752891201537246,"url":"https://maps.app.goo.gl/xMQQbpjUHPQdMrpg6?g_st=ipc","address":"Zisimopoulou 10, Glifada 166 74","categoryIds":["greek-restaurants"],"categories":["Greek Restaurants"]},{"id":"greekRestaurants_2c46fb9be459","slug":"basegrill-2c46","kind":"restaurant","name":"Basegrill","lat":37.860629906056765,"lng":23.752227328267114,"url":"https://maps.app.goo.gl/Mg499qYpRgDUfYMg9","address":"Ζησιμοπούλου 5, Γλυφάδα 166 74","categoryIds":["greek-restaurants","luxury-dining"],"categories":["Greek Restaurants","Luxury Dining"],"legacySlugs":["basegrill-e825"]},{"id":"greekRestaurants_0d2e578d4137","slug":"sasmos-kritiko-estiatorio-0d2e","kind":"restaurant","name":"Σασμός Κρητικό Εστιατόριο","lat":37.86096099153773,"lng":23.750381646450872,"url":"https://maps.app.goo.gl/hFF1UKLboDX66HUH8","address":"Γρ. Λαμπράκη 1-3, Γλυφάδα 166 75","categoryIds":["greek-restaurants"],"categories":["Greek Restaurants"]},{"id":"greekRestaurants_fd7a28a0649b","slug":"pasiphae-fd7a","kind":"restaurant","name":"PASIPHAE","lat":37.85781169380274,"lng":23.753685400099858,"url":"https://maps.app.goo.gl/w2UaAYT95xemDfAx9?g_st=ipc","address":"Lazaraki 63, Glifada 166 74","categoryIds":["greek-restaurants"],"categories":["Greek Restaurants"]},{"id":"greekRestaurants_b64cf8867729","slug":"tefariki-b64c","kind":"restaurant","name":"Τεφαρίκι","lat":37.871857113105406,"lng":23.752753345977908,"url":"https://maps.app.goo.gl/mcH8XPhdX39hW6V59","address":"Ξενοφώντος 28, Γλυφάδα 166 75","categoryIds":["greek-restaurants"],"categories":["Greek Restaurants"]},{"id":"greekRestaurants_1210e06dbe2b","slug":"meli-ladi-1210","kind":"restaurant","name":"Μέλι & Λάδι","lat":37.87699204463285,"lng":23.76367728627069,"url":"https://maps.app.goo.gl/CPZ65sur6LLxmT9J6","address":"Δημ. Γούναρη 144, Γλυφάδα 165 62","categoryIds":["greek-restaurants"],"categories":["Greek Restaurants"]},{"id":"greekRestaurants_f28bb3ae0783","slug":"gioyvetsakia-f28b","kind":"restaurant","name":"Γιουβετσάκια","lat":37.88563428778149,"lng":23.75438021161349,"url":"https://maps.app.goo.gl/tvw66LvtdqTpBCKw9","address":"Moreos 45 & Ithomis 20, Γλυφάδα 165 61","categoryIds":["greek-restaurants"],"categories":["Greek Restaurants"]},{"id":"greekRestaurants_d87acafe326d","slug":"ta-vlachika-d87a","kind":"restaurant","name":"Ta Vlachika","lat":37.834890045838,"lng":23.791941775154488,"url":"https://maps.app.goo.gl/VC2HFhV1wgWoJ7Ev7","address":"Leoforos Evelpidon, Πρεβέζης, Βάρη 166 72","categoryIds":["greek-restaurants"],"categories":["Greek Restaurants"]},{"id":"greekRestaurants_2f171b46e48c","slug":"taverna-tsolias-2f17","kind":"restaurant","name":"Ταβέρνα Τσολιάς","lat":37.834865053335534,"lng":23.79315959403436,"url":"https://maps.app.goo.gl/Pp2npdeDX3kaQbgD6","address":"Λεωφ. Βάρης 45, Βάρη 166 72","categoryIds":["greek-restaurants"],"categories":["Greek Restaurants"]},{"id":"greekRestaurants_4272f358b681","slug":"mantri-mountain-resto-4272","kind":"restaurant","name":"Mantri Mountain Resto","lat":37.90889434818902,"lng":23.77519106611033,"url":"https://maps.app.goo.gl/NEovPiofbnzr8Awb8","address":"Βαρδουσίων 29, Γλυφάδα 165 62","categoryIds":["greek-restaurants"],"categories":["Greek Restaurants"]},{"id":"greekRestaurants_cce1cd728bae","slug":"loyizidis-estiatorio-voyliagmeni-cce1","kind":"restaurant","name":"Λουιζίδης Εστιατόριο Βουλιαγμένη","lat":37.813204547074946,"lng":23.78315032705324,"url":"https://maps.app.goo.gl/DrVjHpSB5fMFZXij9","address":"Ερμού 2, Βουλιαγμένη 166 71","categoryIds":["greek-restaurants"],"categories":["Greek Restaurants"]},{"id":"greekRestaurants_4c001bebcf5a","slug":"kyria-oyrania-taverna-4c00","kind":"restaurant","name":"Κυρία Ουρανία Ταβέρνα","lat":37.92057877935982,"lng":23.755542263928948,"url":"https://maps.app.goo.gl/ps7BDEvG27yAVuTL8","address":"Ηρ. Πολυτεχνείου 85, Ηλιούπολη 163 42","categoryIds":["greek-restaurants"],"categories":["Greek Restaurants"]}],"nearby":[{"id":"burgersRestaurants_dcffa319373f","slug":"just-burgers-dcff","kind":"restaurant","name":"Just Burgers","lat":37.86233017342334,"lng":23.756048198703365,"url":"https://maps.app.goo.gl/JHVusoRbYHy3Y7vt5?g_st=ipc","address":"Βασ. Γεωργίου Β 10, Γλυφάδα 166 74","categoryIds":["burgers"],"categories":["Burger Spots"],"distanceKm":0.07586073413111921},{"id":"burgersRestaurants_01217d39d9c7","slug":"queen-burger-0121","kind":"restaurant","name":"Queen Burger","lat":37.8629143636926,"lng":23.754961929770175,"url":"https://maps.app.goo.gl/cTKmuer8pw34Mj4m6","address":"Giannitsopoulou 3, Glifada 166 74","categoryIds":["burgers"],"categories":["Burger Spots"],"distanceKm":0.12175982703036418},{"id":"mexicanRestaurants_4df313ff7b2b","slug":"ancho-mexican-grill-4df3","kind":"restaurant","name":"Ancho Mexican Grill","lat":37.862745862193556,"lng":23.754877099753806,"url":"https://maps.app.goo.gl/LepDURte7YPh6NZL8?g_st=ipc","address":"Γιαννιτσοπούλου 3, Γλυφάδα 166 74","categoryIds":["mexican"],"categories":["Mexican Restaurants"],"distanceKm":0.13143871592681786},{"id":"coffeeBrunchRestaurants_375d22b1c4b8","slug":"oven-manufactory-375d","kind":"restaurant","name":"Oven Manufactory","lat":37.861722119771066,"lng":23.756544787345767,"url":"https://maps.app.goo.gl/Hnd2mHRaJKRkA5F46?g_st=ipc","address":"Αρτέμιδος 9, Γλυφάδα 166 74","categoryIds":["coffee-brunch"],"categories":["Coffee & Brunch Spots"],"distanceKm":0.1398705215849212},{"id":"dessertsRestaurants_ba7be89e8ea8","slug":"iceroll-ba7b","kind":"restaurant","name":"IceRoll","lat":37.86208515594954,"lng":23.755076469134906,"url":"https://maps.app.goo.gl/w1pmpophQeL2Fp7M9?g_st=ipc","address":"Γιαννιτσοπούλου 2, Γλυφάδα 166 74","categoryIds":["desserts"],"categories":["Dessert Shops"],"distanceKm":0.14876008932345403},{"id":"dessertsRestaurants_2849c272c636","slug":"bufala-gelato-glyfada-2849","kind":"restaurant","name":"Bufala Gelato (Γλυφάδα)","lat":37.86176317702974,"lng":23.755337811216418,"url":"https://maps.app.goo.gl/51dbhckNQVJ8yNh37?g_st=ipc","address":"Αρτέμιδος 1, Γλυφάδα 166 74","categoryIds":["desserts"],"categories":["Dessert Shops"],"distanceKm":0.16083215428351838},{"id":"dessertsRestaurants_cd41f487bdde","slug":"l-arte-del-gelato-cd41","kind":"restaurant","name":"L'arte del Gelato","lat":37.86184048032113,"lng":23.755183232681343,"url":"https://maps.app.goo.gl/JTFmtLwXRBHhcLCs8?g_st=ipc","address":"Αρτέμιδος 1, Γλυφάδα 166 74","categoryIds":["desserts"],"categories":["Dessert Shops"],"distanceKm":0.16193271451660798},{"id":"familyFriendly_11e87a91baef","slug":"plateia-chariton-11e8","kind":"restaurant","name":"Πλατεία Χαρίτων","lat":37.86415490115138,"lng":23.75493366426452,"url":"https://maps.app.goo.gl/eBpgr4RX9Y42hXEw6?g_st=ipc","address":"Σεμέλης 1, Γλυφάδα 166 74","categoryIds":["family-friendly"],"categories":["Kid Friendly Locations"],"distanceKm":0.1809615674649582},{"id":"asianRestaurants_6985f147fd97","slug":"ekiben-kitchen-glyfada-6985","kind":"restaurant","name":"Ekiben Kitchen Glyfada","lat":37.861176848381916,"lng":23.75639518380584,"url":"https://maps.app.goo.gl/bR7jaQSkxn33eLgq7","address":"Laodikis 41, Glifada 166 74","categoryIds":["asian","burgers"],"categories":["Asian Restaurants","Burger Spots"],"legacySlugs":["ekiben-kitchen-glyfada-7ec8"],"distanceKm":0.19946601075030665},{"id":"coffeeBrunchRestaurants_03882dd46eb2","slug":"paul-glyfada-0388","kind":"restaurant","name":"PAUL Γλυφάδα","lat":37.86192343683842,"lng":23.754387329250314,"url":"https://maps.app.goo.gl/yKiejsAj4L7LG4cJ7?g_st=ipc","address":"Κύπρου 70, Γλυφάδα 166 74","categoryIds":["coffee-brunch"],"categories":["Coffee & Brunch Spots"],"distanceKm":0.20772386126787146},{"id":"coffeeBrunchRestaurants_296c68e50c96","slug":"blends-mix-match-296c","kind":"restaurant","name":"Blends Mix & Match","lat":37.86035282429643,"lng":23.756257632105665,"url":"https://maps.app.goo.gl/VgzGwQBJonZ2HWs87?g_st=ic","address":"Pl. Nimfon, Glifada 166 74","categoryIds":["coffee-brunch"],"categories":["Coffee & Brunch Spots"],"distanceKm":0.2911546895213438},{"id":"coffeeBrunchRestaurants_1534d718f542","slug":"su-casa-1534","kind":"restaurant","name":"Su Casa","lat":37.8602791456983,"lng":23.75556920044941,"url":"https://maps.app.goo.gl/LzYwvbcwMZCWEetj9?g_st=ipc","address":"Pl. Nimfon, Glifada 166 74","categoryIds":["coffee-brunch"],"categories":["Coffee & Brunch Spots"],"distanceKm":0.3069351824808138},{"id":"coffeeBrunchRestaurants_bf37b14fbfdf","slug":"kool-food-and-coffee-bf37","kind":"restaurant","name":"KOOL Food and Coffee","lat":37.8617153280559,"lng":23.75264950039194,"url":"https://maps.app.goo.gl/zAtPpG6k1DNtijDy5?g_st=ipc","address":"Leof. Dimarchou Aggelou Metaxa 22, Glifada 166 74","categoryIds":["coffee-brunch"],"categories":["Coffee & Brunch Spots"],"distanceKm":0.3533271798650613},{"id":"burgersRestaurants_aaf9b8df7638","slug":"the-burger-joint-aaf9","kind":"restaurant","name":"the burger joint","lat":37.85975416543059,"lng":23.75632935360373,"url":"https://maps.app.goo.gl/4ebsLmRmHgQAtXCy5?g_st=ipc","address":"Πλ. Νυμφών 1, Γλυφάδα 166 74","categoryIds":["burgers"],"categories":["Burger Spots"],"distanceKm":0.35761991086249706},{"id":"mexicanRestaurants_41b2ba4d071f","slug":"el-catrin-41b2","kind":"restaurant","name":"El Catrin","lat":37.85991051831941,"lng":23.75494123731321,"url":"https://maps.app.goo.gl/tAYLNiXMfX7MbEnT9?g_st=ipc","address":"Φοίβης 15, Γλυφάδα 166 74","categoryIds":["mexican"],"categories":["Mexican Restaurants"],"distanceKm":0.3619247500816499},{"id":"coffeeBrunchRestaurants_645a2c954fa3","slug":"wynwood-eat-sip-gather-the-miami-style-645a","kind":"restaurant","name":"Wynwood - Eat Sip & Gather the Miami Style","lat":37.85990914525332,"lng":23.75494068810683,"url":"https://maps.app.goo.gl/YQMJ5PpN4Cvem9qf6?g_st=ipc","address":"Φοίβης 15, Γλυφάδα 166 74","categoryIds":["coffee-brunch"],"categories":["Coffee & Brunch Spots"],"distanceKm":0.3620847183328288},{"id":"coffeeBrunchRestaurants_3b6eb83fd8ab","slug":"angelina-le-petit-paris-depuis-2012-3b6e","kind":"restaurant","name":"Angelina Le Petit Paris- Depuis 2012","lat":37.859847959328306,"lng":23.754133995266965,"url":"https://maps.app.goo.gl/HLP4ksmAZgKQH5e59?g_st=ipc","address":"Λεωφ. Δημάρχου Αγγέλου Μεταξά 38, Γλυφάδα 166 74","categoryIds":["coffee-brunch"],"categories":["Coffee & Brunch Spots"],"distanceKm":0.3978517868923332},{"id":"greekRestaurants_f2b28136b406","slug":"ethos-athens-f2b2","kind":"restaurant","name":"Ethos Athens","lat":37.86060943582202,"lng":23.752891201537246,"url":"https://maps.app.goo.gl/xMQQbpjUHPQdMrpg6?g_st=ipc","address":"Zisimopoulou 10, Glifada 166 74","categoryIds":["greek-restaurants"],"categories":["Greek Restaurants"],"distanceKm":0.4011955104873409},{"id":"mexicanRestaurants_bc074466ce69","slug":"amigos-bc07","kind":"restaurant","name":"Amigos","lat":37.85929715781572,"lng":23.756229404432254,"url":"https://maps.app.goo.gl/CeHzLQv4LTsb7j5RA?g_st=ipc","address":"Κύπρου 65, Γλυφάδα 166 74","categoryIds":["mexican"],"categories":["Mexican Restaurants"],"distanceKm":0.40856415595190393},{"id":"italianRestaurants_19fa39b4b310","slug":"cicchetti-prosciutteria-spritzeria-19fa","kind":"restaurant","name":"Cicchetti Prosciutteria & Spritzeria","lat":37.859684523196464,"lng":23.75386502955931,"url":"https://maps.app.goo.gl/3jMcfyGkfYbxGbps9","address":"Fivis 11, Glifada 166 74","categoryIds":["italian"],"categories":["Italian Restaurants"],"distanceKm":0.42540329941972294},{"id":"greekRestaurants_2c46fb9be459","slug":"basegrill-2c46","kind":"restaurant","name":"Basegrill","lat":37.860629906056765,"lng":23.752227328267114,"url":"https://maps.app.goo.gl/Mg499qYpRgDUfYMg9","address":"Ζησιμοπούλου 5, Γλυφάδα 166 74","categoryIds":["greek-restaurants","luxury-dining"],"categories":["Greek Restaurants","Luxury Dining"],"legacySlugs":["basegrill-e825"],"distanceKm":0.44556393220445417},{"id":"italianRestaurants_dd5b148ca8d7","slug":"peccati-di-gola-dd5b","kind":"restaurant","name":"Peccati Di Gola","lat":37.86427445144013,"lng":23.751331713919253,"url":"https://maps.app.goo.gl/o1MzXXTU18xSPfb69?g_st=ipc","address":"Κύπρου 50, Γλυφάδα 166 75","categoryIds":["italian"],"categories":["Italian Restaurants"],"distanceKm":0.4635475376441691},{"id":"coffeeBrunchRestaurants_2219681181b1","slug":"moyzilo-cheiropoiites-pites-2219","kind":"restaurant","name":"Μουζίλο Χειροποίητες Πίτες","lat":37.863579478184825,"lng":23.751077862250096,"url":"https://maps.app.goo.gl/BjHAhdumoxMHfZrP7?g_st=ipc","address":"Δούσμανη 13, Γλυφάδα 166 75","categoryIds":["coffee-brunch"],"categories":["Coffee & Brunch Spots"],"distanceKm":0.46750035716911575},{"id":"dessertsRestaurants_cdd2ff99e09f","slug":"choureal-choux-profiterole-cdd2","kind":"restaurant","name":"Choureal - Choux & Profiterole","lat":37.86175419711277,"lng":23.7510964996929,"url":"https://maps.app.goo.gl/jqVCKVDpx8nte58k7?g_st=ipc","address":"Lazaraki 39, Glifada 166 75","categoryIds":["desserts"],"categories":["Dessert Shops"],"distanceKm":0.48036199825039777}],"sameRegion":[],"mentionedGuides":[],"canonicalSlug":"to-drami-b6c1","enrichment":{"summary_en":"To Drami is a curated restaurant in Glifada 166 74 in the Greek Restaurants collection. It is connected to 41 nearby Googlementor picks to help travelers build a stronger local route.","summary_el":"To Drami είναι ένα επιλεγμένο σημείο φαγητού στην περιοχή Glifada 166 74 και ανήκει στη συλλογή Greek Restaurants. Συνδέεται με 41 κοντινές προτάσεις του Googlementor για πιο ολοκληρωμένη εμπειρία.","vibe_tags":["curated"],"best_for":["first-time visitors","food lovers"],"visit_moments":["lunch stop","dinner stop"],"practical_note":"Address and direct map link are available for easy turn-by-turn access.","nearby_walkable_count":41,"nearby_count_2km":67,"confidence":0.98},"areaContext":{"slug":"glyfada","name":"Glyfada","nameEl":"Γλυφάδα"},"intentContexts":[{"href":"/greek-restaurants/glyfada","label":"Greek Restaurants in Glyfada","categorySlug":"greek-restaurants","categoryName":"Greek Restaurants","areaSlug":"glyfada","areaName":"Glyfada","areaNameEl":"Γλυφάδα"}]},"__N_SSG":true}