{"pageProps":{"entity":{"id":"greekRestaurants_a448ec3cfffd","slug":"to-koytoyki-toy-antoni-a448","kind":"restaurant","name":"Το κουτούκι του Αντώνη","lat":37.9618540673877,"lng":23.656289861821378,"url":"https://maps.app.goo.gl/SJ9Ya21w7zZToFhx8","address":"Αργυροκάστρου 26, Πειραιάς 185 42","categoryIds":["greek-restaurants"],"categories":["Greek Restaurants"]},"sameCategory":[{"id":"greekRestaurants_31681c66c6ca","slug":"zoodochos-pigi-oinomageirion-3168","kind":"restaurant","name":"Ζωοδόχος Πηγή Οινομαγειρίον","lat":37.95501437395202,"lng":23.663299464502014,"url":"https://maps.app.goo.gl/Yhe2M5tujhjVHEAG6","address":"Κατσούλη 77, Πειραιάς 185 41","categoryIds":["greek-restaurants"],"categories":["Greek Restaurants"]},{"id":"greekRestaurants_77340ab1d76d","slug":"zachos-kaminia-7734","kind":"restaurant","name":"Ζάχος Καμίνια","lat":37.95283160176507,"lng":23.658993462418696,"url":"https://maps.app.goo.gl/24c8zd5zA2MCbP6f8","address":"185 41, Κομοτηνής 37, Πειραιάς 185 41","categoryIds":["greek-restaurants"],"categories":["Greek Restaurants"]},{"id":"greekRestaurants_16a49956bee9","slug":"mparmpalexis-anatolitikes-geyseis-16a4","kind":"restaurant","name":"Μπαρμπαλέξης Ανατολίτικες Γεύσεις","lat":37.95564763526353,"lng":23.669084735339375,"url":"https://maps.app.goo.gl/8iwKbcyFQg5iwckU9?g_st=ipc","address":"Flemingk 48, Ag. Ioannis Rentis 182 33","categoryIds":["greek-restaurants"],"categories":["Greek Restaurants"]},{"id":"greekRestaurants_8e907eeb8136","slug":"fagopoteion-stoy-thoma-8e90","kind":"restaurant","name":"Φαγοποτείον στου Θωμά","lat":37.954509819048326,"lng":23.642613690114224,"url":"https://maps.app.goo.gl/jQSs2dndkMDG9Tsq7","address":"Μαυρομιχάλη 22-24, Πειραιάς 185 45","categoryIds":["greek-restaurants"],"categories":["Greek Restaurants"]},{"id":"greekRestaurants_e914468cc862","slug":"oinopantopoleio-to-eidikon-e914","kind":"restaurant","name":"Οινοπαντοπωλείο Tο Ειδικόν","lat":37.953880471733605,"lng":23.63384583394419,"url":"https://maps.app.goo.gl/PMXGHCEV52xT7G7w7","address":"Ψαρών 38, Πειραιάς 185 46","categoryIds":["greek-restaurants"],"categories":["Greek Restaurants"]},{"id":"greekRestaurants_f42ac62c3249","slug":"bounty-all-aboard-f42a","kind":"restaurant","name":"Bounty all aboard","lat":37.949723445369806,"lng":23.63332963263093,"url":"https://maps.app.goo.gl/2iShe5bzo7qg3ohc6","address":"Εθ. Αντιστάσεως 10, Δραπετσώνα 186 48","categoryIds":["greek-restaurants"],"categories":["Greek Restaurants"]},{"id":"greekRestaurants_71ccb1aa4b83","slug":"taverna-o-vasilis-71cc","kind":"restaurant","name":"Ταβέρνα Ο Βασίλης","lat":37.983639078803165,"lng":23.65172200450781,"url":"https://maps.app.goo.gl/P3D4J5ff2iNtoGc99","address":"Κολοκοτρώνη 160, Κορυδαλλός 181 21","categoryIds":["greek-restaurants"],"categories":["Greek Restaurants"]},{"id":"greekRestaurants_899916cf9819","slug":"izampela-armenikes-nostimies-8999","kind":"restaurant","name":"Ιζαμπέλα - Αρμένικες νοστιμιές","lat":37.95153993965958,"lng":23.631088706562064,"url":"https://maps.app.goo.gl/r3twrz7bwRr76j8n8","address":"Αναπαύσεως 36, Δραπετσώνα 185 46","categoryIds":["greek-restaurants"],"categories":["Greek Restaurants"]},{"id":"greekRestaurants_7773207b8a15","slug":"little-ginger-7773","kind":"restaurant","name":"Little Ginger","lat":37.93943083536511,"lng":23.6501378633564,"url":"https://maps.app.goo.gl/ekwyDGT5qeED8gtk8","address":"Αγγέλου Μεταξά 13, Πειραιάς 185 34","categoryIds":["greek-restaurants"],"categories":["Greek Restaurants"]},{"id":"greekRestaurants_be3d05b1fe1e","slug":"to-zempereki-koytoyki-moschato-be3d","kind":"restaurant","name":"Το Ζεμπερέκι - Κουτούκι | Μοσχάτο","lat":37.95039414676294,"lng":23.681530575454058,"url":"https://maps.app.goo.gl/D3JyGs93dHL849c59","address":"Σολωμού 92, Μοσχάτο 183 45","categoryIds":["greek-restaurants"],"categories":["Greek Restaurants"]},{"id":"greekRestaurants_559e0d9ef868","slug":"marigo-edesmatopoleio-559e","kind":"restaurant","name":"Μαριγώ Εδεσματοπωλείο","lat":37.93961721991741,"lng":23.641779536091324,"url":"https://maps.app.goo.gl/4advyD22Ta7qiUEv7","address":"Φίλωνος 133, Πειραιάς 185 36","categoryIds":["greek-restaurants"],"categories":["Greek Restaurants"]},{"id":"greekRestaurants_0105e2b1bfb5","slug":"i-taverna-toy-katsogiannoy-0105","kind":"restaurant","name":"Η ταβέρνα του Κατσόγιαννου","lat":37.9460888309485,"lng":23.627498476767997,"url":"https://maps.app.goo.gl/JYrJ78md5Yy4N4n89","address":"Αγίου Παντελεήμονος 15, Δραπετσώνα 186 48","categoryIds":["greek-restaurants"],"categories":["Greek Restaurants"]}],"nearby":[{"id":"cheapEatsRestaurants_2f84b1901b79","slug":"soyvlakia-o-serkos-2f84","kind":"restaurant","name":"Σουβλάκια ο Σέρκος","lat":37.96321249323642,"lng":23.6546161405587,"url":"https://maps.app.goo.gl/g55ZF34fH7dzCpi29?g_st=ipc","address":"Ίωνος Δραγούμη 39-41, Πειραιάς 185 42","categoryIds":["cheap-eats"],"categories":["Gyros & Cheap Eats"],"distanceKm":0.21058517983691555},{"id":"cheapEatsRestaurants_9166d63b45f7","slug":"enty-9166","kind":"restaurant","name":"ΕΝΤΥ","lat":37.96700050503918,"lng":23.65031239624474,"url":"https://maps.app.goo.gl/TJbtwJ75EUsRPcRt8?g_st=ipc","address":"Δημ. Καρακουλουξή 4, Νίκαια 184 54","categoryIds":["cheap-eats"],"categories":["Gyros & Cheap Eats"],"distanceKm":0.7759329464892349},{"id":"italianRestaurants_161f75313435","slug":"incontro-via108-161f","kind":"restaurant","name":"Incontro Via108","lat":37.95597000000485,"lng":23.6616563361716,"url":"https://maps.app.goo.gl/PHAu91Gt4K1K24iZ8?g_st=ipc","address":"Αγ. Ελευθερίου 108, Πειραιάς 185 41","categoryIds":["italian"],"categories":["Italian Restaurants"],"distanceKm":0.8058784147940414},{"id":"fishTavernasRestaurants_ae0677e73373","slug":"zarkadoylas-ta-kavoyrakia-ae06","kind":"restaurant","name":"ΖΑΡΚΑΔΟΥΛΑΣ - ΤΑ ΚΑΒΟΥΡΑΚΙΑ","lat":37.966878654895595,"lng":23.649066817348377,"url":"https://maps.app.goo.gl/NBfwV1GcmoeRk6M28?g_st=ipc","address":"Βιθυνίας 32, Νίκαια 184 50","categoryIds":["fish-tavernas"],"categories":["Fish Tavernas"],"distanceKm":0.8444591314023082},{"id":"cheapEatsRestaurants_e1efa6cc4eb9","slug":"kebab-hub-e1ef","kind":"restaurant","name":"KEBAB HUB","lat":37.96544893408382,"lng":23.64762675898248,"url":"https://maps.app.goo.gl/1jU1MDHhWUfkjuNTA?g_st=ipc","address":"Εφέσου 49, Νίκαια 184 50","categoryIds":["cheap-eats"],"categories":["Gyros & Cheap Eats"],"distanceKm":0.8582344869931262},{"id":"fishTavernasRestaurants_cfbde0cf6e1b","slug":"psaraki-meze-cfbd","kind":"restaurant","name":"Ψαράκι μεζέ","lat":37.954110812866894,"lng":23.653950848247767,"url":"https://maps.app.goo.gl/xP92x5imjgkE5bYk8?g_st=ipc","address":"Αραχώβης 21, Πειραιάς 185 40","categoryIds":["fish-tavernas"],"categories":["Fish Tavernas"],"distanceKm":0.8850945071730607},{"id":"asianRestaurants_cb2b61b87e3c","slug":"toukta-thai-food-cb2b","kind":"restaurant","name":"Toukta Thai food","lat":37.96875566688742,"lng":23.650805513802922,"url":"https://maps.app.goo.gl/U33KjMR5URvuLe1m6?g_st=ipc","address":"Ιωνίας 3, Νίκαια 184 50","categoryIds":["asian"],"categories":["Asian Restaurants"],"distanceKm":0.9055873092394728},{"id":"municipalities_40326566c574","slug":"nikaia-4032","kind":"municipality","name":"Νίκαια","lat":37.9667,"lng":23.6472,"aliases":["Nikaia","Nikea"],"region":"Δυτικά Προάστια","name_en":"Nikaia","region_en":"Western Suburbs","distanceKm":0.9619505418234147},{"id":"greekRestaurants_31681c66c6ca","slug":"zoodochos-pigi-oinomageirion-3168","kind":"restaurant","name":"Ζωοδόχος Πηγή Οινομαγειρίον","lat":37.95501437395202,"lng":23.663299464502014,"url":"https://maps.app.goo.gl/Yhe2M5tujhjVHEAG6","address":"Κατσούλη 77, Πειραιάς 185 41","categoryIds":["greek-restaurants"],"categories":["Greek Restaurants"],"distanceKm":0.9777987084646337},{"id":"greekRestaurants_77340ab1d76d","slug":"zachos-kaminia-7734","kind":"restaurant","name":"Ζάχος Καμίνια","lat":37.95283160176507,"lng":23.658993462418696,"url":"https://maps.app.goo.gl/24c8zd5zA2MCbP6f8","address":"185 41, Κομοτηνής 37, Πειραιάς 185 41","categoryIds":["greek-restaurants"],"categories":["Greek Restaurants"],"distanceKm":1.0308738384482141},{"id":"italianRestaurants_deede59c2ee6","slug":"la-greca-nikaia-deed","kind":"restaurant","name":"La Greca Νίκαια","lat":37.96989287630008,"lng":23.649375358414368,"url":"https://maps.app.goo.gl/TRUJmqRbfNqYTojR9?g_st=ipc","address":"Ανακρέοντος 5, Νίκαια 184 53","categoryIds":["italian"],"categories":["Italian Restaurants"],"distanceKm":1.0800138338719503},{"id":"cheapEatsRestaurants_d6753e770498","slug":"o-aris-d675","kind":"restaurant","name":"Ο ΑΡΗΣ","lat":37.95672934899719,"lng":23.669396304305284,"url":"https://maps.app.goo.gl/UpknKH1CFKmC87ij6?g_st=ipc","address":"Π. Μελά 14, Αγ. Ιωάννης Ρέντης 182 33","categoryIds":["cheap-eats"],"categories":["Gyros & Cheap Eats"],"distanceKm":1.2825990767129218},{"id":"greekRestaurants_16a49956bee9","slug":"mparmpalexis-anatolitikes-geyseis-16a4","kind":"restaurant","name":"Μπαρμπαλέξης Ανατολίτικες Γεύσεις","lat":37.95564763526353,"lng":23.669084735339375,"url":"https://maps.app.goo.gl/8iwKbcyFQg5iwckU9?g_st=ipc","address":"Flemingk 48, Ag. Ioannis Rentis 182 33","categoryIds":["greek-restaurants"],"categories":["Greek Restaurants"],"distanceKm":1.3170423066214063},{"id":"fishTavernasRestaurants_a8b54e1ce79d","slug":"kempaptzidiko-machalas-a8b5","kind":"restaurant","name":"ΚΕΜΠΑΠΤΖΙΔΙΚΟ ΜΑΧΑΛΑΣ","lat":37.97098229288963,"lng":23.644519445693433,"url":"https://maps.app.goo.gl/ynWdVgiTz6C4H7y9A?g_st=ipc","address":"Π. Τσαλδάρη, 241-243, Νίκαια 184 50","categoryIds":["fish-tavernas"],"categories":["Fish Tavernas"],"distanceKm":1.4473841811281942},{"id":"greekRestaurants_8e907eeb8136","slug":"fagopoteion-stoy-thoma-8e90","kind":"restaurant","name":"Φαγοποτείον στου Θωμά","lat":37.954509819048326,"lng":23.642613690114224,"url":"https://maps.app.goo.gl/jQSs2dndkMDG9Tsq7","address":"Μαυρομιχάλη 22-24, Πειραιάς 185 45","categoryIds":["greek-restaurants"],"categories":["Greek Restaurants"],"distanceKm":1.450714598887374},{"id":"cheapEatsRestaurants_93e5a087f2a2","slug":"soyvlakia-o-mpilis-93e5","kind":"restaurant","name":"Σουβλάκια \"ο ΜΠΙΛΗΣ\"","lat":37.97112327966262,"lng":23.64443348855245,"url":"https://maps.app.goo.gl/pWZio4wYos7hfNkq6?g_st=ipc","address":"Προύσης 22, Νίκαια 184 53","categoryIds":["cheap-eats"],"categories":["Gyros & Cheap Eats"],"distanceKm":1.4637610293836782},{"id":"asianRestaurants_50f99f81698e","slug":"shisan-sushi-bar-50f9","kind":"restaurant","name":"Shisan Sushi Bar","lat":37.975094554437,"lng":23.656036676629217,"url":"https://maps.app.goo.gl/76f6tSxZ2NXCApc48?g_st=ipc","address":"Πλ. Παγκόσμιας Ειρήνης 4, Κορυδαλλός 181 20","categoryIds":["asian"],"categories":["Asian Restaurants"],"distanceKm":1.4724422647959334},{"id":"dessertsRestaurants_fc8742eefd51","slug":"loukoumothers-korydallos-fc87","kind":"restaurant","name":"Loukoumothers Korydallos","lat":37.97603620585146,"lng":23.64943855450405,"url":"https://maps.app.goo.gl/vMqPzYGSApLyRm1NA?g_st=ipc","address":"Ταξιαρχών &, Καψάλη 12, Κορυδαλλός 181 20","categoryIds":["desserts"],"categories":["Dessert Shops"],"distanceKm":1.6874755987328593},{"id":"burgersRestaurants_c5b9db65b8f8","slug":"ala-burger-c5b9","kind":"restaurant","name":"Ala Burger","lat":37.976136624110225,"lng":23.64953319647224,"url":"https://maps.app.goo.gl/magEHZdr4AeKTeT69?g_st=ipc","address":"Ταξιαρχών 14, Κορυδαλλός 181 20","categoryIds":["burgers"],"categories":["Burger Spots"],"distanceKm":1.6949981760209982},{"id":"cheapEatsRestaurants_1416b33a5bdb","slug":"dealers-real-street-food-1416","kind":"restaurant","name":"Dealers Real Street Food","lat":37.97630275309409,"lng":23.649623466165345,"url":"https://maps.app.goo.gl/6hPX1uNfh9QEYJND7?g_st=ipc","address":"Ταξιαρχών 18, Κορυδαλλός 181 20","categoryIds":["cheap-eats"],"categories":["Gyros & Cheap Eats"],"distanceKm":1.709597343185125},{"id":"municipalities_3f3b35dfaf09","slug":"kaminia-3f3b","kind":"municipality","name":"Καμίνια","lat":37.9525,"lng":23.6406,"aliases":["Καμινια"],"region":"Πειραιάς","name_en":"Kaminia","region_en":"Piraeus","distanceKm":1.724561682379007},{"id":"cheapEatsRestaurants_3d78bb5a465c","slug":"makis-psitopoleio-soyvlatzidiko-3d78","kind":"restaurant","name":"\"Μάκης\" Ψητοπωλείο-Σουβλατζίδικο","lat":37.97402598918491,"lng":23.643093504500488,"url":"https://maps.app.goo.gl/43quDvAwPQhkbk6t5?g_st=ipc","address":"Π. Τσαλδάρη 262, Νίκαια 184 53","categoryIds":["cheap-eats"],"categories":["Gyros & Cheap Eats"],"distanceKm":1.7804621855370126},{"id":"cheapEatsRestaurants_91979e529e27","slug":"aganaktisi-9197","kind":"restaurant","name":"Αγανάκτηση","lat":37.978045238767244,"lng":23.651711441065746,"url":"https://maps.app.goo.gl/eNiYkaAyndviywoc9?g_st=ipc","address":"Σερρών 44 &, Ταξιαρχών, Κορυδαλλός 181 20","categoryIds":["cheap-eats"],"categories":["Gyros & Cheap Eats"],"distanceKm":1.8445667878750993},{"id":"dessertsRestaurants_1148b5deca52","slug":"galaktopoleio-stamoy-1148","kind":"restaurant","name":"Γαλακτοπωλείο ΣΤΑΜΟΥ","lat":37.9652037202668,"lng":23.635596413779496,"url":"https://maps.app.goo.gl/rrTmftHWRasbJb7aA?g_st=ipc","address":"Πέτρου Ράλλη 438, Νίκαια 184 51","categoryIds":["desserts"],"categories":["Dessert Shops"],"distanceKm":1.8519606329408669}],"sameRegion":[],"mentionedGuides":[],"canonicalSlug":"to-koytoyki-toy-antoni-a448","enrichment":{"summary_en":"Το κουτούκι του Αντώνη is a curated restaurant in Πειραιάς 185 42 in the Greek Restaurants collection. It is connected to 2 nearby Googlementor picks to help travelers build a stronger local route.","summary_el":"Το κουτούκι του Αντώνη είναι ένα επιλεγμένο σημείο φαγητού στην περιοχή Πειραιάς 185 42 και ανήκει στη συλλογή Greek Restaurants. Συνδέεται με 2 κοντινές προτάσεις του Googlementor για πιο ολοκληρωμένη εμπειρία.","vibe_tags":["curated"],"best_for":["first-time visitors","food lovers"],"visit_moments":["lunch stop","dinner stop"],"practical_note":"Address and direct map link are available for easy turn-by-turn access.","nearby_walkable_count":2,"nearby_count_2km":30,"confidence":0.9},"areaContext":{"slug":"nikaia","name":"Nikaia","nameEl":"Νίκαια"},"intentContexts":[{"href":"/greek-restaurants/nikaia","label":"Greek Restaurants in Nikaia","categorySlug":"greek-restaurants","categoryName":"Greek Restaurants","areaSlug":"nikaia","areaName":"Nikaia","areaNameEl":"Νίκαια"}]},"__N_SSG":true}