{"pageProps":{"entity":{"id":"fishTavernasRestaurants_08df03bfa4f6","slug":"to-maereio-08df","kind":"restaurant","name":"To Maereio","lat":37.44594592016657,"lng":25.32865488584039,"url":"https://maps.app.goo.gl/FeCit9aZLtZzL7DP8?g_st=ipc","address":"Ν, Kalogera 16, Mikonos 846 00","categoryIds":["fish-tavernas"],"categories":["Fish Tavernas"]},"sameCategory":[{"id":"fishTavernasRestaurants_f9baec1ee464","slug":"kounelas-fish-tavern-f9ba","kind":"restaurant","name":"Kounelas Fish Tavern","lat":37.447078731895196,"lng":25.327109291093613,"url":"https://maps.app.goo.gl/zGu4QC3RAJ8qwFzE6?g_st=ipc","address":"ODOS SVORONOU, Mikonos 846 00","categoryIds":["fish-tavernas"],"categories":["Fish Tavernas"]},{"id":"fishTavernasRestaurants_27b9fb6e85c7","slug":"captain-s-food-for-sharing-27b9","kind":"restaurant","name":"Captain's - Food for Sharing","lat":37.44729761897664,"lng":25.32716222892849,"url":"https://maps.app.goo.gl/cVYzE7woRBCoPvRG9?g_st=ipc","address":"Mykonos Waterfront, Mikonos 846 00","categoryIds":["fish-tavernas"],"categories":["Fish Tavernas"]},{"id":"fishTavernasRestaurants_f0d4e1537e1b","slug":"hippie-fish-mykonos-f0d4","kind":"restaurant","name":"Hippie Fish Mykonos","lat":37.4216168444124,"lng":25.3115215810695,"url":"https://maps.app.goo.gl/P1ey2vdmerWsiMqXA?g_st=ipc","address":"Agios Ioannis, Mikonos 846 00","categoryIds":["fish-tavernas","luxury-dining"],"categories":["Fish Tavernas","Luxury Dining"],"legacySlugs":["hippie-fish-mykonos-d24a"]},{"id":"fishTavernasRestaurants_05c6d38f3545","slug":"nikolas-tavern-mykonos-seafood-restaurant-05c6","kind":"restaurant","name":"Nikolas Tavern Mykonos - Seafood Restaurant","lat":37.409158532586275,"lng":25.34844810083572,"url":"https://maps.app.goo.gl/GfjsFWp6Rpr3hZyH8?g_st=ipc","address":"Paraga Mykonos, Mikonos 846 00","categoryIds":["fish-tavernas"],"categories":["Fish Tavernas"]},{"id":"fishTavernasRestaurants_198b2ec0807d","slug":"pelao-tavern-198b","kind":"restaurant","name":"Pelao Tavern","lat":37.47762741859572,"lng":25.360085295125813,"url":"https://maps.app.goo.gl/xEc3zgbQENWmj7bk8?g_st=ipc","address":"Stopelao@gmail.com, Πάνορμος 846 00","categoryIds":["fish-tavernas"],"categories":["Fish Tavernas"]},{"id":"fishTavernasRestaurants_aec820e07017","slug":"tasos-taverna-aec8","kind":"restaurant","name":"Tasos Taverna","lat":37.40810167705386,"lng":25.350310426097927,"url":"https://maps.app.goo.gl/97rM65KFuFY4e1Wc9?g_st=ipc","address":"Paraga Beach, Mikonos 846 00","categoryIds":["fish-tavernas"],"categories":["Fish Tavernas"]},{"id":"fishTavernasRestaurants_d5334aaf38d0","slug":"kiki-s-tavern-d533","kind":"restaurant","name":"Kiki's Tavern","lat":37.48580571700608,"lng":25.36037551259411,"url":"https://maps.app.goo.gl/zDFvBri1oSmdB6aV8?g_st=ipc","address":"Κυκλαδες μυκονος, Ag. Sostis 846 00","categoryIds":["fish-tavernas"],"categories":["Fish Tavernas"]},{"id":"fishTavernasRestaurants_07e9864c5c78","slug":"tsaf-07e9","kind":"restaurant","name":"Tsaf","lat":37.44718665279816,"lng":25.39108104189754,"url":"https://maps.app.goo.gl/kJps23htN4HRkisa6?g_st=ipc","address":"Πλατεία Ανω μερας, Ano Mera 846 00","categoryIds":["fish-tavernas"],"categories":["Fish Tavernas"]},{"id":"fishTavernasRestaurants_0347c26ff2c2","slug":"fokos-taverna-0347","kind":"restaurant","name":"Fokos Taverna","lat":37.48058147464832,"lng":25.4091552850878,"url":"https://maps.app.goo.gl/NuKJCrD5oxJ47mE18?g_st=ipc","address":"Fokos Φωκός, Ano Mera 846 00","categoryIds":["fish-tavernas"],"categories":["Fish Tavernas"]},{"id":"fishTavernasRestaurants_25699dc17efe","slug":"spilia-mykonos-seaside-restaurant-2569","kind":"restaurant","name":"Spilia Mykonos Seaside Restaurant","lat":37.4346532807744,"lng":25.419253772230018,"url":"https://maps.app.goo.gl/WjiGf9HWCLVQssrK7?g_st=ipc","address":"Καλαφάτη 846 00","categoryIds":["fish-tavernas","luxury-dining"],"categories":["Fish Tavernas","Luxury Dining"],"legacySlugs":["spilia-mykonos-seaside-restaurant-5ef9"]},{"id":"fishTavernasRestaurants_d4e628ae7f3c","slug":"lia-tavern-d4e6","kind":"restaurant","name":"Lia Tavern","lat":37.44620505587329,"lng":25.435439300552154,"url":"https://maps.app.goo.gl/tS93xJU8Wr7t5Kdn6?g_st=ipc","address":"Unnamed Road, Mikonos 846 00","categoryIds":["fish-tavernas"],"categories":["Fish Tavernas"]},{"id":"fishTavernasRestaurants_5745f4ec9e6d","slug":"to-thalassaki-5745","kind":"restaurant","name":"To Θαλασσάκι","lat":37.615230690872465,"lng":25.0428843541274,"url":"https://maps.app.goo.gl/eqUQ8oiZuscvzKLaA?g_st=ipc","address":"bay, Isternia 842 01","categoryIds":["fish-tavernas"],"categories":["Fish Tavernas"]}],"nearby":[{"id":"luxuryDiningRestaurants_dad780fcff6d","slug":"interni-restaurant-dad7","kind":"restaurant","name":"Interni Restaurant","lat":37.44559204956145,"lng":25.328710304133274,"url":"https://maps.app.goo.gl/x3D3HYwjgPTE7gGp6?g_st=ipc","address":"Matogianni, Mikonos 846 00","categoryIds":["luxury-dining"],"categories":["Luxury Dining"],"distanceKm":0.039651594273739064},{"id":"luxuryDiningRestaurants_acb4788667d5","slug":"noema-acb4","kind":"restaurant","name":"Noema","lat":37.44557471142449,"lng":25.32948165492457,"url":"https://maps.app.goo.gl/Zjd8gVv5zkQ4UZxa9?g_st=ipc","address":"Panachra, Mikonos 846 00","categoryIds":["luxury-dining"],"categories":["Luxury Dining"],"distanceKm":0.08385099308495562},{"id":"municipalities_094e7414e11a","slug":"mykonos-094e","kind":"municipality","name":"Μύκονος","lat":37.4467,"lng":25.3289,"aliases":["Mikonos","Μύκονα","Μυκονος","Mykonos","Myconos"],"region":"Κυκλάδες","name_en":"Mykonos","region_en":"Cyclades","distanceKm":0.08659695497540613},{"id":"luxuryDiningRestaurants_864249c0b1ea","slug":"lio-mykonos-8642","kind":"restaurant","name":"Lío Mykonos","lat":37.44500603308255,"lng":25.32823624391178,"url":"https://maps.app.goo.gl/hS1c8JjDNAyUufSc6?g_st=ipc","address":"Enoplon Dinameon 6, Mikonos 846 00","categoryIds":["luxury-dining"],"categories":["Luxury Dining"],"distanceKm":0.11085301988902142},{"id":"luxuryDiningRestaurants_cc0b0cabfb61","slug":"drakoulis-dry-raw-mykonos-cc0b","kind":"restaurant","name":"Drakoulis Dry & Raw Mykonos","lat":37.447121066093636,"lng":25.329034852890235,"url":"https://maps.app.goo.gl/K5Lrunurc26by6vJ6?g_st=ipc","address":"Mykonos 846 00","categoryIds":["luxury-dining"],"categories":["Luxury Dining"],"distanceKm":0.13490694523646435},{"id":"greekRestaurants_e3103759958a","slug":"amades-mykonos-e310","kind":"restaurant","name":"Αμάδες Μύκονος","lat":37.44719522572323,"lng":25.32858432213716,"url":"https://maps.app.goo.gl/cASBbZQCjQukNFg88?g_st=ipc","address":"Καμπάνη 2, Μύκονος 846 00","categoryIds":["greek-restaurants"],"categories":["Greek Restaurants"],"distanceKm":0.13905603962662533},{"id":"dessertsRestaurants_fbeaff5bdac1","slug":"dopio-gelato-mykonos-fbea","kind":"restaurant","name":"Dopio Gelato Mykonos","lat":37.44519875814453,"lng":25.327173016826194,"url":"https://maps.app.goo.gl/Sp8BxDU518brNxns5?g_st=ipc","address":"Dopio Gelato Mykonos","categoryIds":["desserts"],"categories":["Dessert Shops"],"distanceKm":0.1549727164488209},{"id":"italianRestaurants_3ea0826fab26","slug":"casa-di-giorgio-mykonos-3ea0","kind":"restaurant","name":"Casa di Giorgio Mykonos","lat":37.44560651190884,"lng":25.326934720051547,"url":"https://maps.app.goo.gl/Cf4S8nv5DHQYNzkR7?g_st=ipc","address":"Mitropoleos 1, Hora 846 00","categoryIds":["italian"],"categories":["Italian Restaurants"],"distanceKm":0.15647723237083305},{"id":"greekRestaurants_aef3c7ab6fff","slug":"raya-restaurant-aef3","kind":"restaurant","name":"Raya Restaurant","lat":37.447203705932054,"lng":25.32781079619138,"url":"https://maps.app.goo.gl/o2CmGDpmsR1Y7FaG8?g_st=ipc","address":"Akti Kampani, Mykonos,Kyklades, Greece, Mikonos","categoryIds":["greek-restaurants"],"categories":["Greek Restaurants"],"distanceKm":0.15847180523252205},{"id":"fishTavernasRestaurants_f9baec1ee464","slug":"kounelas-fish-tavern-f9ba","kind":"restaurant","name":"Kounelas Fish Tavern","lat":37.447078731895196,"lng":25.327109291093613,"url":"https://maps.app.goo.gl/zGu4QC3RAJ8qwFzE6?g_st=ipc","address":"ODOS SVORONOU, Mikonos 846 00","categoryIds":["fish-tavernas"],"categories":["Fish Tavernas"],"distanceKm":0.18569849611618044},{"id":"fishTavernasRestaurants_27b9fb6e85c7","slug":"captain-s-food-for-sharing-27b9","kind":"restaurant","name":"Captain's - Food for Sharing","lat":37.44729761897664,"lng":25.32716222892849,"url":"https://maps.app.goo.gl/cVYzE7woRBCoPvRG9?g_st=ipc","address":"Mykonos Waterfront, Mikonos 846 00","categoryIds":["fish-tavernas"],"categories":["Fish Tavernas"],"distanceKm":0.1998861127047312},{"id":"italianRestaurants_abc3cc5c720d","slug":"d-angelo-abc3","kind":"restaurant","name":"D'Angelo","lat":37.44362332101064,"lng":25.32719398144958,"url":"https://maps.app.goo.gl/AvAZtykcYFB85kTp6?g_st=ipc","address":"Axioti, Mikonos 846 00","categoryIds":["italian"],"categories":["Italian Restaurants"],"distanceKm":0.2886737870614003},{"id":"asianRestaurants_db50748440dc","slug":"bambao-mykonos-db50","kind":"restaurant","name":"Bambao Mykonos","lat":37.44323173271624,"lng":25.328446119011353,"url":"https://maps.app.goo.gl/5qdrvDCYUmZRn2Jf6?g_st=ipc","address":"Fabrika, Mikonos 846 00","categoryIds":["asian"],"categories":["Asian Restaurants"],"distanceKm":0.3023661005732729},{"id":"luxuryDiningRestaurants_ed9cd1741842","slug":"matsuhisa-mykonos-ed9c","kind":"restaurant","name":"Matsuhisa Mykonos","lat":37.44329085125445,"lng":25.330097754352987,"url":"https://maps.app.goo.gl/WTcgX6M9Jp2R7YGdA?g_st=ipc","address":"Belvedere Hotel School of Fine Arts District, Agiou Ioannou 1, Mikonos 846 00","categoryIds":["luxury-dining"],"categories":["Luxury Dining"],"distanceKm":0.3215376357294908},{"id":"dessertsRestaurants_0d1a14ec5981","slug":"i-scream-homemade-ice-cream-cafe-0d1a","kind":"restaurant","name":"I SCREAM homemade ice cream-cafe","lat":37.443153733966156,"lng":25.32768461351495,"url":"https://maps.app.goo.gl/figeZhjJhW1w1WGh6?g_st=ipc","address":"20 Street Fabrica Sq, Xenias, Mikonos 846 00","categoryIds":["desserts"],"categories":["Dessert Shops"],"distanceKm":0.32207639961528944},{"id":"coffeeBrunchRestaurants_7d7ce290df83","slug":"dalu-7d7c","kind":"restaurant","name":"Dalu","lat":37.44946196330255,"lng":25.332037598705416,"url":"https://maps.app.goo.gl/qaooHUUn5SotjYdJA?g_st=ipc","address":"Dalu, Mikonos 846 00","categoryIds":["coffee-brunch"],"categories":["Coffee & Brunch Spots"],"distanceKm":0.49196459247660695},{"id":"mexicanRestaurants_c15838bdee62","slug":"azul-condesa-mykonos-c158","kind":"restaurant","name":"Azul Condesa Mykonos","lat":37.445318743092045,"lng":25.33424731325651,"url":"https://maps.app.goo.gl/PtCSKGqYbgCdSXyz5?g_st=ipc","address":"Πετειναρος, Μύκονος 846 00","categoryIds":["mexican"],"categories":["Mexican Restaurants"],"distanceKm":0.49860660785421784},{"id":"dessertsRestaurants_84cc29a238aa","slug":"kyklamino-patisserie-84cc","kind":"restaurant","name":"Kyklamino Patisserie","lat":37.44220457179905,"lng":25.335568445326103,"url":"https://maps.app.goo.gl/dBRJbrtLhCesFwGn6?g_st=ic","address":"Mykonos 846 00","categoryIds":["desserts"],"categories":["Dessert Shops"],"distanceKm":0.7386458810526029},{"id":"coffeeBrunchRestaurants_f9e9f62cb460","slug":"el-burro-mykonos-f9e9","kind":"restaurant","name":"El Burro Mykonos","lat":37.44164494565894,"lng":25.3350374340187,"url":"https://maps.app.goo.gl/mFrsGY4rfvzHZgy28?g_st=ipc","address":"37°26'30.4\"N 25°20'06.2\"E, Mikonos 846 00","categoryIds":["coffee-brunch"],"categories":["Coffee & Brunch Spots"],"distanceKm":0.7390672419224471},{"id":"coffeeBrunchRestaurants_ccfcae3739b1","slug":"the-liberty-breakfast-room-ccfc","kind":"restaurant","name":"The Liberty Breakfast Room","lat":37.44002249548534,"lng":25.33319976309242,"url":"https://maps.app.goo.gl/ytWHokwwmW4y1Baq5?g_st=ipc","address":"the liberty breakfast room, Mikonos 846 00","categoryIds":["coffee-brunch"],"categories":["Coffee & Brunch Spots"],"distanceKm":0.7712459203599954},{"id":"greekRestaurants_72c19d32a8b6","slug":"local-bbq-souvlaki-mykonos-delivery-72c1","kind":"restaurant","name":"Local BBQ & Souvlaki Mykonos - Delivery","lat":37.44672138479704,"lng":25.33835911787914,"url":"https://maps.app.goo.gl/smobAtRLSyc56rHg8?g_st=ipc","address":"Argyraina, Επαρ.Οδ. Μυκόνου-'Ανω Μεριάς 1422, Μύκονος 846 00","categoryIds":["greek-restaurants"],"categories":["Greek Restaurants"],"distanceKm":0.8610204066200379},{"id":"mexicanRestaurants_9cdc9098224f","slug":"el-dorado-9cdc","kind":"restaurant","name":"El Dorado","lat":37.4384356377363,"lng":25.332482232008008,"url":"https://maps.app.goo.gl/Z4qdJprni1KMQm3YA?g_st=ipc","address":"Epar.Od. Mikonou, Mikonos 846 00","categoryIds":["mexican"],"categories":["Mexican Restaurants"],"distanceKm":0.9008749817410268},{"id":"greekRestaurants_e4bc58632d82","slug":"i-mortissa-e4bc","kind":"restaurant","name":"Η Μόρτισσα","lat":37.445499840376385,"lng":25.33915107946274,"url":"https://maps.app.goo.gl/N1vfxuYLu3Ld3pfT6?g_st=ipc","address":"Αγιου Γεωργίου Αργύραινα, Μύκονος 846 00","categoryIds":["greek-restaurants"],"categories":["Greek Restaurants"],"distanceKm":0.9279406090620596},{"id":"luxuryDiningRestaurants_137cd7d1e18b","slug":"yevo-by-bill-coo-mykonos-137c","kind":"restaurant","name":"YĒVO By Bill&Coo Mykonos","lat":37.43758072227673,"lng":25.32795511521471,"url":"https://maps.app.goo.gl/dgiE2BaNVt8Jhb1F6?g_st=ipc","address":"Μεγάλη Άμμος, Mikonos 846 00","categoryIds":["luxury-dining"],"categories":["Luxury Dining"],"distanceKm":0.9322169435986977}],"sameRegion":[],"mentionedGuides":[],"canonicalSlug":"to-maereio-08df","enrichment":{"summary_en":"To Maereio is a curated restaurant in Mikonos 846 00 in the Fish Tavernas collection. It is connected to 20 nearby Googlementor picks to help travelers build a stronger local route.","summary_el":"To Maereio είναι ένα επιλεγμένο σημείο φαγητού στην περιοχή Mikonos 846 00 και ανήκει στη συλλογή Fish Tavernas. Συνδέεται με 20 κοντινές προτάσεις του Googlementor για πιο ολοκληρωμένη εμπειρία.","vibe_tags":["curated","seafood-local"],"best_for":["first-time visitors","food lovers"],"visit_moments":["lunch stop","dinner stop"],"practical_note":"Address and direct map link are available for easy turn-by-turn access.","nearby_walkable_count":20,"nearby_count_2km":33,"confidence":0.98},"areaContext":{"slug":"mykonos","name":"Mykonos","nameEl":"Μύκονος"},"intentContexts":[]},"__N_SSG":true}