{"pageProps":{"entity":{"id":"dessertsRestaurants_b4b7dac03ffe","slug":"zacharoplasteia-konstantinidis-kifisias-b4b7","kind":"restaurant","name":"ΖΑΧΑΡΟΠΛΑΣΤΕΙΑ ΚΩΝΣΤΑΝΤΙΝΙΔΗΣ Κηφισιάς","lat":38.07444985049744,"lng":23.81224566979125,"url":"https://maps.app.goo.gl/tHoKhW3BVHGJJqNx7?g_st=ipc","address":"Λεωφ. Κηφισίας 283, Κηφισιά 145 62","categoryIds":["desserts"],"categories":["Dessert Shops"]},"sameCategory":[{"id":"dessertsRestaurants_67eb41f4d85c","slug":"tart-sweet-days-67eb","kind":"restaurant","name":"Tart sweet days","lat":38.07504554962464,"lng":23.81197664881859,"url":"https://maps.app.goo.gl/n5GCkRnzxw6tu9wv5?g_st=ipc","address":"Λεωφόρος Κηφισίας 289 και, Όθωνος, Κηφισιά 145 61","categoryIds":["desserts"],"categories":["Dessert Shops"]},{"id":"dessertsRestaurants_f6573343ee76","slug":"varsos-kifisias-f657","kind":"restaurant","name":"Βάρσος Κηφισιάς","lat":38.072362535009226,"lng":23.812748821182716,"url":"https://maps.app.goo.gl/e8AJnfXdPPGoGzkUA?g_st=ipc","address":"Κασσαβέτη 5, Κηφισιά 145 62","categoryIds":["desserts"],"categories":["Dessert Shops"]},{"id":"dessertsRestaurants_cd2327378af7","slug":"cake-kifisia-cd23","kind":"restaurant","name":"CAKE Kifisia","lat":38.073487839104395,"lng":23.814902720065806,"url":"https://maps.app.goo.gl/VMCR6TNy1UKT5ohW9?g_st=ipc","address":"Αργυροπούλου 3, Κηφισιά 145 62","categoryIds":["desserts"],"categories":["Dessert Shops"]},{"id":"dessertsRestaurants_133f25aa5736","slug":"lartecono-davinci-gelato-kifisia-133f","kind":"restaurant","name":"Lartecono Davinci Gelato (Kifisia)","lat":38.07209287623985,"lng":23.81427887695815,"url":"https://maps.app.goo.gl/TQ8GkG92N85onsZr9?g_st=ipc","address":"Κασσαβέτη 19, Κηφισιά 145 62","categoryIds":["desserts"],"categories":["Dessert Shops"]},{"id":"dessertsRestaurants_269f1a4d58a3","slug":"aristokratikon-kifisia-269f","kind":"restaurant","name":"Αριστοκρατικόν - Κηφισιά","lat":38.073016781498126,"lng":23.816206852783917,"url":"https://maps.app.goo.gl/PVrMudYCzW22zcGeA?g_st=ipc","address":"Αργυροπούλου 8, Κηφισιά 145 62","categoryIds":["desserts"],"categories":["Dessert Shops"]},{"id":"dessertsRestaurants_f804624daa3e","slug":"galaktopoleio-stamoy-f804","kind":"restaurant","name":"Γαλακτοπωλείο ΣΤΑΜΟΥ","lat":38.078347329723904,"lng":23.813788874375867,"url":"https://maps.app.goo.gl/TbxAEXt4zNT9s8Sk6?g_st=ipc","address":"Λεωφ. Κηφισίας 270, Κηφισιά 145 63","categoryIds":["desserts"],"categories":["Dessert Shops"]},{"id":"dessertsRestaurants_1c368e954317","slug":"pavlov-patisserie-1c36","kind":"restaurant","name":"Pavlov Patisserie","lat":38.08975934404975,"lng":23.817098827828467,"url":"https://maps.app.goo.gl/ubJrroH9LAtGxodP6?g_st=ipc","address":"Πατριάρχου Γρηγορίου Ε 15, Νέα Ερυθραία 146 71","categoryIds":["desserts"],"categories":["Dessert Shops"]},{"id":"dessertsRestaurants_f3991d5c3e79","slug":"smyrni-baklava-f399","kind":"restaurant","name":"Smyrni Baklava","lat":38.05518643071446,"lng":23.80748099367396,"url":"https://maps.app.goo.gl/FMXAiNt1SKKDggh88?g_st=ipc","address":"Βασ. Σοφίας 55, Μαρούσι 151 24","categoryIds":["desserts"],"categories":["Dessert Shops"]},{"id":"dessertsRestaurants_11d8eb3a5116","slug":"solo-gelato-pefki-11d8","kind":"restaurant","name":"Solo Gelato Pefki","lat":38.058776038280556,"lng":23.79284350703131,"url":"https://maps.app.goo.gl/SjAsiViMGast8vsf9?g_st=ipc","address":"Σοφούλη 3, Πεύκη 151 21","categoryIds":["desserts"],"categories":["Dessert Shops"]},{"id":"dessertsRestaurants_953419857ace","slug":"zacharoplasteia-konstantinidis-9534","kind":"restaurant","name":"Ζαχαροπλαστεία ΚΩΝΣΤΑΝΤΙΝΙΔΗΣ","lat":38.04797259669027,"lng":23.808277250620737,"url":"https://maps.app.goo.gl/gRUZcBRcbiTVtWhq7?g_st=ipc","address":"Λεωφ. Κηφισίας 86, Μαρούσι 151 25","categoryIds":["desserts"],"categories":["Dessert Shops"]},{"id":"dessertsRestaurants_91ba7ff0c788","slug":"galaktopoleio-stamoy-91ba","kind":"restaurant","name":"Γαλακτοπωλείο ΣΤΑΜΟΥ","lat":38.06327717225913,"lng":23.780942994591154,"url":"https://maps.app.goo.gl/rMwhBDoVuWArY4T36?g_st=ipc","address":"Λεωφ. Αμαρουσίου 29, Λυκόβρυση 141 23","categoryIds":["desserts"],"categories":["Dessert Shops"]},{"id":"dessertsRestaurants_2b678632636d","slug":"gelateria-giovanni-2b67","kind":"restaurant","name":"Gelateria Giovanni","lat":38.05439248631055,"lng":23.83864189197517,"url":"https://maps.app.goo.gl/vHiSCvP87r2bMcgL7?g_st=ipc","address":"Μπουμπουλίνας 1, Μελίσσια 151 27","categoryIds":["desserts"],"categories":["Dessert Shops"]}],"nearby":[{"id":"dessertsRestaurants_67eb41f4d85c","slug":"tart-sweet-days-67eb","kind":"restaurant","name":"Tart sweet days","lat":38.07504554962464,"lng":23.81197664881859,"url":"https://maps.app.goo.gl/n5GCkRnzxw6tu9wv5?g_st=ipc","address":"Λεωφόρος Κηφισίας 289 και, Όθωνος, Κηφισιά 145 61","categoryIds":["desserts"],"categories":["Dessert Shops"],"distanceKm":0.07030001198623584},{"id":"municipalities_f52d5a821d95","slug":"kifisia-f52d","kind":"municipality","name":"Κηφισιά","lat":38.0744,"lng":23.8111,"aliases":["Kifissia","Cephisia","Kephisia","Κηφησία","Κηφηση","Κηφισια","Κηφησια","Κηφησιά","Kefizia"],"region":"Βόρεια Προάστια","name_en":"Kifisia","region_en":"Northern Suburbs","distanceKm":0.10043790740221752},{"id":"luxuryDiningRestaurants_f175cd277867","slug":"il-salumaio-d-atene-f175","kind":"restaurant","name":"Il Salumaio d' Atene","lat":38.07341261438747,"lng":23.81279655771526,"url":"https://maps.app.goo.gl/hdE6Uo7UUV1Sx4i76?g_st=ipc","address":"Παναγίτσας 3, Κηφισιά 145 62","categoryIds":["luxury-dining"],"categories":["Luxury Dining"],"distanceKm":0.12501031689868247},{"id":"familyFriendly_84e8f16ae20b","slug":"ethniko-moyseio-fysikis-istorias-goylandri-84e8","kind":"restaurant","name":"Εθνικό Μουσείο Φυσικής Ιστορίας Γουλανδρή","lat":38.07463041368346,"lng":23.814406620087777,"url":"https://maps.app.goo.gl/3kET1gVajc9wtcHj9?g_st=ipc","address":"Όθωνος 100, Κηφισιά 145 62","categoryIds":["family-friendly"],"categories":["Kid Friendly Locations"],"distanceKm":0.1902184684943825},{"id":"italianRestaurants_f02c78444b4c","slug":"casa-giacomo-kifissia-f02c","kind":"restaurant","name":"Casa Giacomo Kifissia","lat":38.07385898526318,"lng":23.814586935437283,"url":"https://maps.app.goo.gl/1xtm5c4dSnQZtLaY9?g_st=ipc","address":"Λεβίδου 11, Κηφισιά 145 62","categoryIds":["italian"],"categories":["Italian Restaurants"],"distanceKm":0.21521457604697605},{"id":"coffeeBrunchRestaurants_2322e1e847ee","slug":"natu-2322","kind":"restaurant","name":"NATU","lat":38.07417552050554,"lng":23.814760489983165,"url":"https://maps.app.goo.gl/wzJKDW9SrK9LDD9x8?g_st=ipc","address":"Λεβίδου 13, Κηφισιά 145 62","categoryIds":["coffee-brunch","luxury-dining"],"categories":["Coffee & Brunch Spots","Luxury Dining"],"legacySlugs":["natu-8d64"],"distanceKm":0.22223555836954945},{"id":"dessertsRestaurants_f6573343ee76","slug":"varsos-kifisias-f657","kind":"restaurant","name":"Βάρσος Κηφισιάς","lat":38.072362535009226,"lng":23.812748821182716,"url":"https://maps.app.goo.gl/e8AJnfXdPPGoGzkUA?g_st=ipc","address":"Κασσαβέτη 5, Κηφισιά 145 62","categoryIds":["desserts"],"categories":["Dessert Shops"],"distanceKm":0.2362407967809135},{"id":"asianRestaurants_313cbf5dd5ee","slug":"wagamama-kifisia-313c","kind":"restaurant","name":"wagamama kifisia","lat":38.072331147675214,"lng":23.812549926712027,"url":"https://maps.app.goo.gl/ukrWwWHZBibG1ZuR9?g_st=ipc","address":"Κασσαβέτη 3, Αθήνα 145 62","categoryIds":["asian"],"categories":["Asian Restaurants"],"distanceKm":0.23708965271231505},{"id":"mexicanRestaurants_9321a8ed4f82","slug":"ancho-mexican-grill-9321","kind":"restaurant","name":"Ancho Mexican Grill","lat":38.072302577774266,"lng":23.812957916990147,"url":"https://maps.app.goo.gl/9YG5PfTVGoHqdG8N9?g_st=ipc","address":"Κασσαβέτη 9, Κηφισιά 145 62","categoryIds":["mexican"],"categories":["Mexican Restaurants"],"distanceKm":0.24677159717121508},{"id":"dessertsRestaurants_cd2327378af7","slug":"cake-kifisia-cd23","kind":"restaurant","name":"CAKE Kifisia","lat":38.073487839104395,"lng":23.814902720065806,"url":"https://maps.app.goo.gl/VMCR6TNy1UKT5ohW9?g_st=ipc","address":"Αργυροπούλου 3, Κηφισιά 145 62","categoryIds":["desserts"],"categories":["Dessert Shops"],"distanceKm":0.25600326841649435},{"id":"coffeeBrunchRestaurants_be3a53f7f3e4","slug":"paul-kifisia-be3a","kind":"restaurant","name":"PAUL Κηφισιά","lat":38.072447961478396,"lng":23.81379476032691,"url":"https://maps.app.goo.gl/6xevQtpeMeVnnkfT6?g_st=ipc","address":"Λεβίδου 4, Κηφισιά 145 62","categoryIds":["coffee-brunch"],"categories":["Coffee & Brunch Spots"],"distanceKm":0.2606491229899116},{"id":"italianRestaurants_eaba816c4340","slug":"portofino-pizza-kifisia-eaba","kind":"restaurant","name":"Portofino Pizza Kifisia","lat":38.0734702785448,"lng":23.814976694722787,"url":"https://maps.app.goo.gl/b5YoW6FvnhXk97jJ8?g_st=ipc","address":"Levidou 16, Αργυροπούλου 1-3, Κηφισιά 145 62","categoryIds":["italian"],"categories":["Italian Restaurants"],"distanceKm":0.26270379508404096},{"id":"italianRestaurants_9864a763d5a6","slug":"la-pasteria-9864","kind":"restaurant","name":"La Pasteria","lat":38.071971773331484,"lng":23.81375357994017,"url":"https://maps.app.goo.gl/jpzzbHYa7ZkuqiDh9?g_st=ipc","address":"Κασσαβέτη 12, Κηφισιά 145 62","categoryIds":["italian"],"categories":["Italian Restaurants"],"distanceKm":0.30553288667328815},{"id":"dessertsRestaurants_133f25aa5736","slug":"lartecono-davinci-gelato-kifisia-133f","kind":"restaurant","name":"Lartecono Davinci Gelato (Kifisia)","lat":38.07209287623985,"lng":23.81427887695815,"url":"https://maps.app.goo.gl/TQ8GkG92N85onsZr9?g_st=ipc","address":"Κασσαβέτη 19, Κηφισιά 145 62","categoryIds":["desserts"],"categories":["Dessert Shops"],"distanceKm":0.3168022576277407},{"id":"coffeeBrunchRestaurants_6ad2753fc055","slug":"different-beast-6ad2","kind":"restaurant","name":"Different Beast","lat":38.072030542719524,"lng":23.814580386585376,"url":"https://maps.app.goo.gl/uz9Wpn9FMrG1tYuh9?g_st=ipc","address":"Κασσαβέτη 19, Αθήνα 145 61","categoryIds":["coffee-brunch"],"categories":["Coffee & Brunch Spots"],"distanceKm":0.33784021252398244},{"id":"greekRestaurants_ee1040d986a2","slug":"o-tzitzikas-kai-o-mermigkas-ee10","kind":"restaurant","name":"Ο Τζίτζικας και ο Μέρμηγκας","lat":38.071444564634874,"lng":23.81158159449847,"url":"https://maps.app.goo.gl/Baz66z9eF1nXkQDe8","address":"Γεωρ. Δροσίνη 12, Κηφισιά 145 62","categoryIds":["greek-restaurants"],"categories":["Greek Restaurants"],"distanceKm":0.3391908139075347},{"id":"luxuryDiningRestaurants_cde396f023f5","slug":"stoffa-restaurant-cde3","kind":"restaurant","name":"STOFFA Restaurant","lat":38.07709526139845,"lng":23.81028232052578,"url":"https://maps.app.goo.gl/HGyf6NBqrcUdSC2Q6?g_st=ipc","address":"Βασ. Αμαλίας 20, Κηφισιά 145 61","categoryIds":["luxury-dining"],"categories":["Luxury Dining"],"distanceKm":0.3406794443379366},{"id":"dessertsRestaurants_269f1a4d58a3","slug":"aristokratikon-kifisia-269f","kind":"restaurant","name":"Αριστοκρατικόν - Κηφισιά","lat":38.073016781498126,"lng":23.816206852783917,"url":"https://maps.app.goo.gl/PVrMudYCzW22zcGeA?g_st=ipc","address":"Αργυροπούλου 8, Κηφισιά 145 62","categoryIds":["desserts"],"categories":["Dessert Shops"],"distanceKm":0.3816038775910047},{"id":"luxuryDiningRestaurants_7ccb55958eba","slug":"wood-restaurant-7ccb","kind":"restaurant","name":"Wood Restaurant","lat":38.07791110310903,"lng":23.811544603806652,"url":"https://maps.app.goo.gl/Z4tvsZgtjtshZ5in8?g_st=ipc","address":"Εμμανουήλ Μπενάκη 22, Κηφισιά 145 61","categoryIds":["luxury-dining"],"categories":["Luxury Dining"],"distanceKm":0.38973518233357524},{"id":"coffeeBrunchRestaurants_dd445cb17731","slug":"zambri-dd44","kind":"restaurant","name":"ZAMBRI","lat":38.0705711422009,"lng":23.812755176637886,"url":"https://maps.app.goo.gl/mFU9ypU9R2NajcX87?g_st=ipc","address":"Αγίου Δημητρίου 9, Κηφισιά 145 62","categoryIds":["coffee-brunch"],"categories":["Coffee & Brunch Spots"],"distanceKm":0.43359262088496653},{"id":"dessertsRestaurants_f804624daa3e","slug":"galaktopoleio-stamoy-f804","kind":"restaurant","name":"Γαλακτοπωλείο ΣΤΑΜΟΥ","lat":38.078347329723904,"lng":23.813788874375867,"url":"https://maps.app.goo.gl/TbxAEXt4zNT9s8Sk6?g_st=ipc","address":"Λεωφ. Κηφισίας 270, Κηφισιά 145 63","categoryIds":["desserts"],"categories":["Dessert Shops"],"distanceKm":0.4539432403531321},{"id":"mexicanRestaurants_a0149c25ef48","slug":"dos-hermanos-a014","kind":"restaurant","name":"Dos Hermanos","lat":38.070224929633255,"lng":23.812971812919443,"url":"https://maps.app.goo.gl/4EBL1F4dh9gaVYdh7?g_st=ipc","address":"Κυριαζή 24, Κηφισιά 145 62","categoryIds":["mexican"],"categories":["Mexican Restaurants"],"distanceKm":0.4740704491900264},{"id":"luxuryDiningRestaurants_78d7c4b91755","slug":"monzu-kifisia-78d7","kind":"restaurant","name":"Monzu Kifisia","lat":38.07940005653839,"lng":23.813943332774045,"url":"https://maps.app.goo.gl/GXQoSjefiFBRaDGv7?g_st=ipc","address":"Λεωφ. Κηφισίας 317b, Κηφισιά 145 61","categoryIds":["luxury-dining"],"categories":["Luxury Dining"],"distanceKm":0.5701430333333308},{"id":"luxuryDiningRestaurants_92ffc8a7721e","slug":"rick-s-92ff","kind":"restaurant","name":"Rick's","lat":38.073591059792,"lng":23.818979548150455,"url":"https://maps.app.goo.gl/AAxiioC4fKMwJFS26?g_st=ipc","address":"Πεντέλης 1, Κηφισιά 145 62","categoryIds":["luxury-dining"],"categories":["Luxury Dining"],"distanceKm":0.5971303110097813}],"sameRegion":[],"mentionedGuides":[],"canonicalSlug":"zacharoplasteia-konstantinidis-kifisias-b4b7","enrichment":{"summary_en":"ΖΑΧΑΡΟΠΛΑΣΤΕΙΑ ΚΩΝΣΤΑΝΤΙΝΙΔΗΣ Κηφισιάς is a curated restaurant in Κηφισιά 145 62 in the Dessert Shops collection. It is connected to 30 nearby Googlementor picks to help travelers build a stronger local route.","summary_el":"ΖΑΧΑΡΟΠΛΑΣΤΕΙΑ ΚΩΝΣΤΑΝΤΙΝΙΔΗΣ Κηφισιάς είναι ένα επιλεγμένο σημείο φαγητού στην περιοχή Κηφισιά 145 62 και ανήκει στη συλλογή Dessert Shops. Συνδέεται με 30 κοντινές προτάσεις του Googlementor για πιο ολοκληρωμένη εμπειρία.","vibe_tags":["curated","sweet-stop"],"best_for":["first-time visitors","food lovers"],"visit_moments":["afternoon break","after dinner"],"practical_note":"Address and direct map link are available for easy turn-by-turn access.","nearby_walkable_count":30,"nearby_count_2km":51,"confidence":0.98},"areaContext":{"slug":"kifisia","name":"Kifisia","nameEl":"Κηφισιά"},"intentContexts":[{"href":"/desserts/kifisia","label":"Dessert Shops in Kifisia","categorySlug":"desserts","categoryName":"Dessert Shops","areaSlug":"kifisia","areaName":"Kifisia","areaNameEl":"Κηφισιά"}]},"__N_SSG":true}