{"pageProps":{"entity":{"id":"dessertsRestaurants_1f8a84ec27ef","slug":"zacharoplasteio-melina-1f8a","kind":"restaurant","name":"Ζαχαροπλαστείο Μελίνα","lat":37.89634457510765,"lng":23.75272103741247,"url":"https://maps.app.goo.gl/q1hfQmUdAxU7F42R6?g_st=ipc","address":"Τριπόλεως 65, Ελληνικό 167 77","categoryIds":["desserts"],"categories":["Dessert Shops"]},"sameCategory":[{"id":"dessertsRestaurants_9589925a188d","slug":"sweet-spoon-by-dimitris-drakos-9589","kind":"restaurant","name":"Sweet Spoon by Dimitris Drakos","lat":37.90709513956235,"lng":23.74948764110418,"url":"https://maps.app.goo.gl/QU5RbkRc2rsgbL2s5?g_st=ipc","address":"Μαρίνου Γερουλάνου 59, Αργυρούπολη 164 52","categoryIds":["desserts"],"categories":["Dessert Shops"]},{"id":"dessertsRestaurants_0682819026f8","slug":"katsioylis-artopoieio-0682","kind":"restaurant","name":"Κατσιούλης αρτοποιείο","lat":37.90633812907658,"lng":23.743452517791024,"url":"https://maps.app.goo.gl/4juH7NkhLbAnB7vd7?g_st=ipc","address":"Τιτάνων 4, Ελληνικό 167 77","categoryIds":["desserts"],"categories":["Dessert Shops"]},{"id":"dessertsRestaurants_f3a8bc3cdfa9","slug":"ourse-athens-f3a8","kind":"restaurant","name":"Ourse Athens","lat":37.88207729717418,"lng":23.76284471292179,"url":"https://maps.app.goo.gl/diDUu1LQKinrZXQT9?g_st=ipc","address":"Μυστρά 39, Γλυφάδα 165 61","categoryIds":["desserts"],"categories":["Dessert Shops"]},{"id":"dessertsRestaurants_b4416b6328f3","slug":"sovolos-zacharoplasteio-foyrnos-b441","kind":"restaurant","name":"Sovolos - Ζαχαροπλαστείο - Φούρνος","lat":37.88041660741069,"lng":23.757712624330377,"url":"https://maps.app.goo.gl/P3uyZ1oH1pSEfex39?g_st=ipc","address":"Σοφίας Βέμπο 29, Γλυφάδα 165 61","categoryIds":["desserts"],"categories":["Dessert Shops"]},{"id":"dessertsRestaurants_2e03a8c9e4e0","slug":"sovolos-zacharoplasteio-foyrnos-2e03","kind":"restaurant","name":"Sovolos - Ζαχαροπλαστείο - Φούρνος","lat":37.87485505079695,"lng":23.763836128858856,"url":"https://maps.app.goo.gl/RXXKnkZNGbvAgkTW6?g_st=ipc","address":"Δημ. Γούναρη 158, Γλυφάδα 166 74","categoryIds":["desserts"],"categories":["Dessert Shops"]},{"id":"dessertsRestaurants_040357268baa","slug":"galaktopoleio-stamoy-0403","kind":"restaurant","name":"Γαλακτοπωλείο ΣΤΑΜΟΥ","lat":37.874588254746484,"lng":23.763954006260555,"url":"https://maps.app.goo.gl/sGysojdMKvQUw51Q7?g_st=ipc","address":"Δημ. Γούναρη 160, Γλυφάδα 166 74","categoryIds":["desserts"],"categories":["Dessert Shops"]},{"id":"dessertsRestaurants_daa8389af0d5","slug":"zacharoplasteia-konstantinidis-daa8","kind":"restaurant","name":"Ζαχαροπλαστεία Κωνσταντινίδης","lat":37.92117733712683,"lng":23.74398997445251,"url":"https://maps.app.goo.gl/gfQPbYfHSNZUpXX47?g_st=ipc","address":"Παρ. Λεωφ. Βουλιαγμένης 534, Άλιμος 174 56","categoryIds":["desserts"],"categories":["Dessert Shops"]},{"id":"dessertsRestaurants_cd6c99db0548","slug":"royal-pastry-cd6c","kind":"restaurant","name":"ROYAL PASTRY","lat":37.9185478292188,"lng":23.73065461612568,"url":"https://maps.app.goo.gl/kD7yYZ1zi5KhZ3iT9?g_st=ipc","address":"Θεομήτορος 24, Άλιμος 173 42","categoryIds":["desserts"],"categories":["Dessert Shops"]},{"id":"dessertsRestaurants_b3c46904a396","slug":"zacharoplasteia-kosmikon-glyfada-b3c4","kind":"restaurant","name":"ΖΑΧΑΡΟΠΛΑΣΤΕΙΑ ΚΟΣΜΙΚΟΝ ΓΛΥΦΑΔΑ","lat":37.86337786046336,"lng":23.74796656462487,"url":"https://maps.app.goo.gl/1fokhebPfhs4GEHC9?g_st=ipc","address":"ΠΛΑΤΕΙΑ Β.ΚΑΤΡΑΚΗ 6, Γλυφάδα 166 75","categoryIds":["desserts"],"categories":["Dessert Shops"]},{"id":"dessertsRestaurants_be9aa2b3d746","slug":"zacharoplasteia-konstantinidis-be9a","kind":"restaurant","name":"ΖΑΧΑΡΟΠΛΑΣΤΕΙΑ ΚΩΝΣΤΑΝΤΙΝΙΔΗΣ","lat":37.86285457304868,"lng":23.747625446803166,"url":"https://maps.app.goo.gl/g6zb8a7yvG1oTafe7?g_st=ipc","address":"Λεωφ. Ποσειδώνος 67, Γλυφάδα 166 75","categoryIds":["desserts"],"categories":["Dessert Shops"]},{"id":"dessertsRestaurants_69cd6eee7bdc","slug":"feticcio-69cd","kind":"restaurant","name":"Feticcio","lat":37.86242143862677,"lng":23.7483896053031,"url":"https://maps.app.goo.gl/DZAdZa4SXmpc2YmZ9?g_st=ipc","address":"Ανδρέα Παπανδρέου 4, Γλυφάδα 166 75","categoryIds":["desserts"],"categories":["Dessert Shops"]},{"id":"dessertsRestaurants_ba7be89e8ea8","slug":"iceroll-ba7b","kind":"restaurant","name":"IceRoll","lat":37.86208515594954,"lng":23.755076469134906,"url":"https://maps.app.goo.gl/w1pmpophQeL2Fp7M9?g_st=ipc","address":"Γιαννιτσοπούλου 2, Γλυφάδα 166 74","categoryIds":["desserts"],"categories":["Dessert Shops"]}],"nearby":[{"id":"cheapEatsRestaurants_25ffd4c0ef7f","slug":"elliniko-soyvlaki-ap-to1990-25ff","kind":"restaurant","name":"Ελληνικό Σουβλάκι (απ'το1990)","lat":37.892191582868755,"lng":23.75361437896675,"url":"https://maps.app.goo.gl/RAbojGiNVh4trirv7?g_st=ipc","address":"Λεωφ. Ιασωνίδου 40, Ελληνικό 167 77","categoryIds":["cheap-eats"],"categories":["Gyros & Cheap Eats"],"distanceKm":0.46839780779801315},{"id":"cheapEatsRestaurants_833c862346f4","slug":"virtuoso-enjoyment-833c","kind":"restaurant","name":"Virtuoso_enjoyment","lat":37.90017783194547,"lng":23.749997183633212,"url":"https://maps.app.goo.gl/7nLwDeMLLVCCJGGAA?g_st=ipc","address":"Μαρίνου Γερουλάνου 126, Αργυρούπολη 164 52","categoryIds":["cheap-eats"],"categories":["Gyros & Cheap Eats"],"distanceKm":0.48867330531131853},{"id":"burgersRestaurants_797126963f1f","slug":"amam-estiatorio-glyfada-7971","kind":"restaurant","name":"ΑΜΑΜ - ΕΣΤΙΑΤΟΡΙΟ - ΓΛΥΦΑΔΑ","lat":37.895880681449796,"lng":23.761095559330744,"url":"https://maps.app.goo.gl/fAsTx4mwCTHC78t86?g_st=ipc","address":"Γεωρ. Γεννηματά 11, Γλυφάδα 165 62","categoryIds":["burgers","cheap-eats"],"categories":["Burger Spots","Gyros & Cheap Eats"],"legacySlugs":["amam-estiatorio-glyfada-af98"],"distanceKm":0.7366455624663474},{"id":"cheapEatsRestaurants_04e6a1e9ffd2","slug":"to-kalamaki-toy-aggeloy-04e6","kind":"restaurant","name":"Το Καλαμάκι του Αγγέλου","lat":37.90324456071206,"lng":23.748792260475668,"url":"https://maps.app.goo.gl/qgszesYeGs45UoHG6?g_st=ipc","address":"Πόντου 16, Αργυρούπολη 164 52","categoryIds":["cheap-eats"],"categories":["Gyros & Cheap Eats"],"distanceKm":0.8411269220897032},{"id":"cheapEatsRestaurants_14277405021c","slug":"aristofanis-geyseis-estiatoria-psitopoleia-ano-glyfada-1427","kind":"restaurant","name":"Αριστοφάνης Γεύσεις | Εστιατόρια | Ψητοπωλεία Άνω Γλυφάδα","lat":37.890796486374335,"lng":23.76076987782631,"url":"https://maps.app.goo.gl/vR5rdW1p8psGAbRc7?g_st=ipc","address":"Δημ. Γούναρη 46, Ελληνικό 167 77","categoryIds":["cheap-eats"],"categories":["Gyros & Cheap Eats"],"distanceKm":0.9377776152116405},{"id":"burgersRestaurants_9c2f22b0606b","slug":"hashtag-burger-9c2f","kind":"restaurant","name":"Hashtag#Burger","lat":37.89371001882756,"lng":23.763217485797266,"url":"https://maps.app.goo.gl/BsuHdbYYc8dsSTwn8?g_st=ipc","address":"Γεωρ. Γεννηματά 26, Γλυφάδα 165 62","categoryIds":["burgers","cheap-eats"],"categories":["Burger Spots","Gyros & Cheap Eats"],"legacySlugs":["hashtag-burger-30dc"],"distanceKm":0.9665090527967539},{"id":"municipalities_4714f1907ab8","slug":"elliniko-4714","kind":"municipality","name":"Ελληνικό","lat":37.892,"lng":23.743,"region":"Νότια Προάστια","name_en":"Elliniko","region_en":"Southern Suburbs","distanceKm":0.9803113560773548},{"id":"cheapEatsRestaurants_38d81d943048","slug":"oi-pites-toy-nteni-38d8","kind":"restaurant","name":"Οι Πίτες του Ντένη","lat":37.90525389875436,"lng":23.75051113822582,"url":"https://maps.app.goo.gl/LT4SpnfnfY3JNg1K7?g_st=ipc","address":"Μαρίνου Γερουλάνου 81, Αργυρούπολη 164 52","categoryIds":["cheap-eats"],"categories":["Gyros & Cheap Eats"],"distanceKm":1.0094687191612857},{"id":"familyFriendly_ae632d4e248a","slug":"protypo-oikogeneiako-parko-ae63","kind":"restaurant","name":"Πρότυπο Οικογενειακό Πάρκο","lat":37.904103805227116,"lng":23.74422997348302,"url":"https://maps.app.goo.gl/kUkHYYpwWmY27cqm9?g_st=ipc","address":"Δραγατσανίου, Ελληνικό 167 77","categoryIds":["family-friendly"],"categories":["Kid Friendly Locations"],"distanceKm":1.1399381963655275},{"id":"greekRestaurants_f28bb3ae0783","slug":"gioyvetsakia-f28b","kind":"restaurant","name":"Γιουβετσάκια","lat":37.88563428778149,"lng":23.75438021161349,"url":"https://maps.app.goo.gl/tvw66LvtdqTpBCKw9","address":"Moreos 45 & Ithomis 20, Γλυφάδα 165 61","categoryIds":["greek-restaurants"],"categories":["Greek Restaurants"],"distanceKm":1.199796618641593},{"id":"familyFriendly_824dcd75a264","slug":"the-ellinikon-experience-park-824d","kind":"restaurant","name":"The Ellinikon Experience Park","lat":37.889532923626724,"lng":23.741777435195917,"url":"https://maps.app.goo.gl/sqeFJaUrDmxw1UqF7?g_st=ipc","address":"Ελληνικό 167 77","categoryIds":["family-friendly"],"categories":["Kid Friendly Locations"],"distanceKm":1.2230604043179214},{"id":"dessertsRestaurants_9589925a188d","slug":"sweet-spoon-by-dimitris-drakos-9589","kind":"restaurant","name":"Sweet Spoon by Dimitris Drakos","lat":37.90709513956235,"lng":23.74948764110418,"url":"https://maps.app.goo.gl/QU5RbkRc2rsgbL2s5?g_st=ipc","address":"Μαρίνου Γερουλάνου 59, Αργυρούπολη 164 52","categoryIds":["desserts"],"categories":["Dessert Shops"],"distanceKm":1.228611275904652},{"id":"mexicanRestaurants_0b6a5cff52ce","slug":"mejico-restaurant-bar-0b6a","kind":"restaurant","name":"MEJICO RESTAURANT BAR","lat":37.90692111551084,"lng":23.74832700746784,"url":"https://maps.app.goo.gl/opTPE24vtAteYNRS9?g_st=ipc","address":"Θράκης 10 Και 28ης Οκτωβρίου 36, Αργυρούπολη 164 52","categoryIds":["mexican"],"categories":["Mexican Restaurants"],"distanceKm":1.2376377919344599},{"id":"italianRestaurants_73a45e6520a2","slug":"caton-l-anziano-73a4","kind":"restaurant","name":"Caton L'anziano","lat":37.90721241896495,"lng":23.748209011580894,"url":"https://maps.app.goo.gl/myFgmXovKb5x7zc9A?g_st=ipc","address":"Δωδεκανήσου 1, Αργυρούπολη 164 52","categoryIds":["italian"],"categories":["Italian Restaurants"],"distanceKm":1.271642391364967},{"id":"mexicanRestaurants_0c73152ab27f","slug":"abrazo-0c73","kind":"restaurant","name":"ABRAZO","lat":37.90764040669511,"lng":23.748959602183852,"url":"https://maps.app.goo.gl/aK9BaFV3WgpvSdWJ7?g_st=ipc","address":"Μαρίνου Γερουλάνου 55, Αργυρούπολη 164 52","categoryIds":["mexican"],"categories":["Mexican Restaurants"],"distanceKm":1.2986733660664123},{"id":"familyFriendly_9f066a9c3f09","slug":"dei-chocolate-ice-cream-experience-9f06","kind":"restaurant","name":"ΔΕΗ Chocolate & Ice Cream Experience","lat":37.89648025729673,"lng":23.737725296668952,"url":"https://maps.app.goo.gl/u7nRPPFnbvtVeLEQ7?g_st=ipc","address":"The Ellinikon Expérience Park, Ελληνικό 167 77","categoryIds":["family-friendly"],"categories":["Kid Friendly Locations"],"distanceKm":1.3159091113284485},{"id":"cheapEatsRestaurants_1d0eb7258382","slug":"zahoulis-argyroupoli-soyvlaki-1d0e","kind":"restaurant","name":"ZAHOULIS ARGYROUPOLI Σουβλάκι","lat":37.90791549793596,"lng":23.748232505140976,"url":"https://maps.app.goo.gl/kKDkkSTXoQK8Uh328?g_st=ipc","address":"Μαρίνου Γερουλάνου 54, Αργυρούπολη 164 52","categoryIds":["cheap-eats"],"categories":["Gyros & Cheap Eats"],"distanceKm":1.3455508928644293},{"id":"fishTavernasRestaurants_3cf7850d662e","slug":"to-agkistri-3cf7","kind":"restaurant","name":"Το Αγκίστρι","lat":37.88417743586951,"lng":23.75467629204283,"url":"https://maps.app.goo.gl/tT9ydwBCoa2EgT5d7?g_st=ipc","address":"Παλμύρας 2, Γλυφάδα 165 61","categoryIds":["fish-tavernas"],"categories":["Fish Tavernas"],"distanceKm":1.363760898126136},{"id":"dessertsRestaurants_0682819026f8","slug":"katsioylis-artopoieio-0682","kind":"restaurant","name":"Κατσιούλης αρτοποιείο","lat":37.90633812907658,"lng":23.743452517791024,"url":"https://maps.app.goo.gl/4juH7NkhLbAnB7vd7?g_st=ipc","address":"Τιτάνων 4, Ελληνικό 167 77","categoryIds":["desserts"],"categories":["Dessert Shops"],"distanceKm":1.3770158123756653},{"id":"cheapEatsRestaurants_c226e99422f7","slug":"montagu-c226","kind":"restaurant","name":"Montagu","lat":37.90768059040179,"lng":23.745954563287732,"url":"https://maps.app.goo.gl/5VP4Qk8ng1M1pARWA?g_st=ipc","address":"Παρ. Λεωφ. Βουλιαγμένης 66, Αργυρούπολη 164 52","categoryIds":["cheap-eats"],"categories":["Gyros & Cheap Eats"],"distanceKm":1.3933216371563348},{"id":"cheapEatsRestaurants_1229f76d436a","slug":"to-mpifteki-tis-sofias-1229","kind":"restaurant","name":"Το μπιφτέκι της Σοφίας","lat":37.90862324079437,"lng":23.747616716476674,"url":"https://maps.app.goo.gl/81gG3aHCeD1heo749?g_st=ipc","address":"Μαρίνου Γερουλάνου 42, Αργυρούπολη 164 52","categoryIds":["cheap-eats"],"categories":["Gyros & Cheap Eats"],"distanceKm":1.4369001177363097},{"id":"municipalities_4ce899ab5232","slug":"argyroypoli-4ce8","kind":"municipality","name":"Αργυρούπολη","lat":37.905,"lng":23.738,"region":"Νότια Προάστια","name_en":"Argyroupoli","region_en":"Southern Suburbs","distanceKm":1.6107863692848448},{"id":"familyFriendly_605cb6ee53f8","slug":"paidiki-chara-plateias-karaiskaki-605c","kind":"restaurant","name":"Παιδική Χαρά Πλατείας Καραισκάκη","lat":37.90061761752489,"lng":23.771490329070613,"url":"https://maps.app.goo.gl/9R2iG5DSfkWfCzH2A?g_st=ipc","address":"Λευκωσίας 25, Γλυφάδα 165 62","categoryIds":["family-friendly"],"categories":["Kid Friendly Locations"],"distanceKm":1.7140629076011142},{"id":"cheapEatsRestaurants_685be47e5df7","slug":"to-ariston-685b","kind":"restaurant","name":"Το Άριστον","lat":37.88039754118748,"lng":23.75713413104173,"url":"https://maps.app.goo.gl/4zqMC4Phrwrov3rL6?g_st=ipc","address":"Σοφίας Βέμπο 22, Γλυφάδα 166 75","categoryIds":["cheap-eats"],"categories":["Gyros & Cheap Eats"],"distanceKm":1.8150273633734286}],"sameRegion":[],"mentionedGuides":[],"canonicalSlug":"zacharoplasteio-melina-1f8a","enrichment":{"summary_en":"Ζαχαροπλαστείο Μελίνα is a curated restaurant in Ελληνικό 167 77 in the Dessert Shops collection. It is connected to 3 nearby Googlementor picks to help travelers build a stronger local route.","summary_el":"Ζαχαροπλαστείο Μελίνα είναι ένα επιλεγμένο σημείο φαγητού στην περιοχή Ελληνικό 167 77 και ανήκει στη συλλογή Dessert Shops. Συνδέεται με 3 κοντινές προτάσεις του Googlementor για πιο ολοκληρωμένη εμπειρία.","vibe_tags":["curated","sweet-stop"],"best_for":["first-time visitors","food lovers"],"visit_moments":["afternoon break","after dinner"],"practical_note":"Address and direct map link are available for easy turn-by-turn access.","nearby_walkable_count":3,"nearby_count_2km":28,"confidence":0.9},"areaContext":{"slug":"elliniko","name":"Elliniko","nameEl":"Ελληνικό"},"intentContexts":[{"href":"/desserts/elliniko","label":"Dessert Shops in Elliniko","categorySlug":"desserts","categoryName":"Dessert Shops","areaSlug":"elliniko","areaName":"Elliniko","areaNameEl":"Ελληνικό"}]},"__N_SSG":true}