{"pageProps":{"entity":{"id":"municipalities_f5c02f2a2ecc","slug":"acharnes-f5c0","kind":"municipality","name":"Αχαρνές","lat":38.0833,"lng":23.7333,"region":"Βόρεια/Ανατολικά","name_en":"Acharnes","region_en":"North/East"},"sameCategory":[],"nearby":[{"id":"greekRestaurants_ecad8f17d794","slug":"taverna-kitsaronas-ecad","kind":"restaurant","name":"Ταβέρνα Κιτσαρώνας","lat":38.081090797205825,"lng":23.73517147403274,"url":"https://maps.app.goo.gl/CdrwzhJ6AF8GwRvr7","address":"Π. Μελά 8, Αχαρνές 136 75","categoryIds":["greek-restaurants"],"categories":["Greek Restaurants"],"distanceKm":0.2952547346687441},{"id":"dessertsRestaurants_48328c9fc5f0","slug":"galaktopoleio-stamoy-4832","kind":"restaurant","name":"Γαλακτοπωλείο ΣΤΑΜΟΥ","lat":38.07926600844486,"lng":23.73816605072715,"url":"https://maps.app.goo.gl/kVZvesD6UgeQooPB9?g_st=ipc","address":"Κωνσταντινουπόλεως 307, Αχαρνές 136 74","categoryIds":["desserts"],"categories":["Dessert Shops"],"distanceKm":0.618546455786408},{"id":"cheapEatsRestaurants_7db196676e19","slug":"karaflas-7db1","kind":"restaurant","name":"Καράφλας","lat":38.07655628972639,"lng":23.739456286868005,"url":"https://maps.app.goo.gl/DzK7LaFGANeLebDQ7?g_st=ipc","address":"Φιλαδέλφειας 56-58, Αχαρνές 136 71","categoryIds":["cheap-eats"],"categories":["Gyros & Cheap Eats"],"distanceKm":0.9233910058764297},{"id":"italianRestaurants_27d92444b722","slug":"goloso-acharnes-27d9","kind":"restaurant","name":"GOLOSO - ΑΧΑΡΝΕΣ","lat":38.09475606530576,"lng":23.739483205778253,"url":"https://maps.app.goo.gl/fx2nPPeJ6gGMBbSBA","address":"Agiou Eleftheriou 18, Acharnes 136 74","categoryIds":["italian"],"categories":["Italian Restaurants"],"distanceKm":1.3840278824778651},{"id":"dessertsRestaurants_4106b45265a3","slug":"bueno-4106","kind":"restaurant","name":"Bueno","lat":38.101101437687646,"lng":23.743308167267262,"url":"https://maps.app.goo.gl/3f4yVgyuCXzvh6Ac6?g_st=ipc","address":"Leof. Kon/nou Karamanli 53, Acharnes 136 72","categoryIds":["desserts"],"categories":["Dessert Shops"],"distanceKm":2.164540821427057},{"id":"familyFriendly_2b8da1a48e6d","slug":"paradise-park-2b8d","kind":"restaurant","name":"Paradise Park","lat":38.07150243306409,"lng":23.752975610444484,"url":"https://maps.app.goo.gl/gx1m825JjfkqNKfC6?g_st=ipc","address":"Ε.Ο. Κόμβος, Metamorfoseos 100, Acharnes 136 71","categoryIds":["family-friendly"],"categories":["Kid Friendly Locations"],"distanceKm":2.164926565786806},{"id":"coffeeBrunchRestaurants_3e87c6ffcc50","slug":"bueno-3e87","kind":"restaurant","name":"Bueno","lat":38.101108774458396,"lng":23.743311119938365,"url":"https://maps.app.goo.gl/nWns9tgS4rLXo1Dm9?g_st=ipc","address":"Λεωφ. Κωνσταντίνου Καραμανλή 53, Αχαρνές 136 72","categoryIds":["coffee-brunch"],"categories":["Coffee & Brunch Spots"],"distanceKm":2.1653914040966735},{"id":"familyFriendly_2b5afed6feac","slug":"aidonakia-playcity-2b5a","kind":"restaurant","name":"Αηδονάκια PlayCity","lat":38.09606577414195,"lng":23.75333886341834,"url":"https://maps.app.goo.gl/66tZd4g5Ha8fLC1g6?g_st=ipc","address":"Ξενοδοχοϋπαλλήλων 22, Αχαρνές 136 72","categoryIds":["family-friendly"],"categories":["Kid Friendly Locations"],"distanceKm":2.256203705869489}],"sameRegion":[]},"__N_SSG":true}