{"pageProps":{"entity":{"id":"wineriesVineyards_9e37380a5d2e","slug":"achaia-klaoys-9e37","kind":"restaurant","name":"Αχάια Κλάους","lat":38.1969102747539,"lng":21.769694421982503,"url":"https://maps.app.goo.gl/wH7qQkNGXbSkx9SY7?g_st=ipc","address":"Πετρωτό 262 23","categoryIds":["wineries-vineyards"],"categories":["Wineries & Vineyards"]},"sameCategory":[{"id":"wineriesVineyards_2f6094ec16d1","slug":"parparoysis-oinopoiia-2f60","kind":"restaurant","name":"ΠΑΡΠΑΡΟΥΣΗΣ ΟΙΝΟΠΟΙΙΑ","lat":38.283502229311324,"lng":21.768505095628893,"url":"https://maps.app.goo.gl/1mV7U2hRvYf1jzfb9?g_st=ipc","address":"Πολυκαστης, Πάτρα 264 42","categoryIds":["wineries-vineyards"],"categories":["Wineries & Vineyards"]},{"id":"wineriesVineyards_8d14b59ec1a3","slug":"ampelones-rira-rira-vineyards-8d14","kind":"restaurant","name":"Αμπελώνες Ρίρα - Rira Vineyards","lat":38.29370777982869,"lng":22.008479102079523,"url":"https://maps.app.goo.gl/wH1yAZZ9D7nhcAqLA?g_st=ipc","address":"ΠΕΟ, Ν.Ε.Ο. Πατρών - Αθηνών, Νέος Ερινεός 250 09","categoryIds":["wineries-vineyards"],"categories":["Wineries & Vineyards"]},{"id":"wineriesVineyards_b10486ff2d64","slug":"rouvalis-wines-oinoforos-a-e-b104","kind":"restaurant","name":"ROUVALIS WINES (ΟΙΝΟΦΟΡΟΣ Α.Ε.)","lat":38.22055000984663,"lng":22.089166676944025,"url":"https://maps.app.goo.gl/znCHsxFPu7zWUC1b9?g_st=ipc","address":"Αίγιο 251 00","categoryIds":["wineries-vineyards"],"categories":["Wineries & Vineyards"]},{"id":"wineriesVineyards_84ebef8f5b21","slug":"ktima-mega-spilaio-84eb","kind":"restaurant","name":"Κτήμα Μέγα Σπήλαιο","lat":38.112838077733514,"lng":22.169404735261367,"url":"https://maps.app.goo.gl/qGAsm3q6PmBPN3TK6?g_st=ipc","address":"Επαρ.Οδ. Πούντας - Καλαβρύτων, Egialia 250 01","categoryIds":["wineries-vineyards"],"categories":["Wineries & Vineyards"]},{"id":"wineriesVineyards_f80526daec5c","slug":"oinopoieio-tetramythos-f805","kind":"restaurant","name":"Οινοποιείο Τετράμυθος","lat":38.13861434975287,"lng":22.235631269922283,"url":"https://maps.app.goo.gl/n9FxLvDHw2tR949F6?g_st=ipc","address":"8ο ΧΛΜ ΕΠΑΡΧΙΑΚΗΣ ΟΔΟΥ, Επαρ.Οδ. Πούντας - Καλαβρύτων, Άνω Διακοπτό 250 03","categoryIds":["wineries-vineyards"],"categories":["Wineries & Vineyards"]},{"id":"wineriesVineyards_a7f0cdaf8e6a","slug":"ktima-merkoyri-a7f0","kind":"restaurant","name":"Κτήμα Μερκούρη","lat":37.676880743241625,"lng":21.30977411314664,"url":"https://maps.app.goo.gl/xmLZkxqWeDCDbXeVA?g_st=ipc","address":"M8G5+FM, Κορακοχώρι 271 00","categoryIds":["wineries-vineyards"],"categories":["Wineries & Vineyards"]},{"id":"wineriesVineyards_542024b64466","slug":"ktima-papargyrioy-5420","kind":"restaurant","name":"Κτήμα Παπαργυρίου","lat":38.018936342010846,"lng":22.689015035366058,"url":"https://maps.app.goo.gl/CGseBU489tpRFbra7?g_st=ipc","address":"Lalioti Corinthias, Κιάτο 202 00","categoryIds":["wineries-vineyards"],"categories":["Wineries & Vineyards"]},{"id":"wineriesVineyards_2941ab0a3cb2","slug":"ktima-spyropoylos-2941","kind":"restaurant","name":"Κτήμα Σπυρόπουλος","lat":37.63241805452202,"lng":22.386158704913175,"url":"https://maps.app.goo.gl/yaMLQMfuQx4GhqbF7?g_st=ipc","address":"Μαντινεία 221 00","categoryIds":["wineries-vineyards"],"categories":["Wineries & Vineyards"]}],"nearby":[{"id":"dessertsRestaurants_298a5dde0910","slug":"grande-mylonas-298a","kind":"restaurant","name":"GRANDE MYLONAS","lat":38.226507714136424,"lng":21.749216193252526,"url":"https://maps.app.goo.gl/koEwVV1SwKUtb4o86?g_st=ipc","address":"Patron Klaous 54, Patra 263 34","categoryIds":["desserts"],"categories":["Dessert Shops"],"distanceKm":3.7459792926225655},{"id":"vegetarianRestaurants_291831247589","slug":"rubik-s-2918","kind":"restaurant","name":"Rubik's","lat":38.24434291588552,"lng":21.735549427551657,"url":"https://maps.app.goo.gl/6yHAVjve3kJGvFFa9?g_st=ipc","address":"Patreos 92, Patra 262 25","categoryIds":["vegetarian"],"categories":["Vegetarian Friendly Restaurants"],"distanceKm":6.059319044443783},{"id":"coffeeBrunchRestaurants_f84032a69c94","slug":"zeabakery-f840","kind":"restaurant","name":"zeabakery","lat":38.24285092491478,"lng":21.73125949400658,"url":"https://maps.app.goo.gl/2ULzYbujrWoB52n26?g_st=ipc","address":"Korinthou 302, Patra 262 22","categoryIds":["coffee-brunch"],"categories":["Coffee & Brunch Spots"],"distanceKm":6.113039451104729},{"id":"dessertsRestaurants_189ec545bdd1","slug":"lotsares-189e","kind":"restaurant","name":"Lotsárēs","lat":38.245712406206245,"lng":21.73585932751544,"url":"https://maps.app.goo.gl/uHizqRuZ9AFawcUz5?g_st=ipc","address":"Gerokostopoulou 23, Patra 262 21","categoryIds":["desserts"],"categories":["Dessert Shops"],"distanceKm":6.179315020111651},{"id":"dessertsRestaurants_8ff0226983b7","slug":"lotsaris-bros-o-e-8ff0","kind":"restaurant","name":"Lotsaris Bros O.E.","lat":38.24431368433903,"lng":21.73185220313626,"url":"https://maps.app.goo.gl/vW8aWwnYez1UELdL8?g_st=ipc","address":"Maizonos 124, Patra 262 22","categoryIds":["desserts"],"categories":["Dessert Shops"],"distanceKm":6.221914851692908},{"id":"municipalities_9cb35779b9fc","slug":"patra-9cb3","kind":"municipality","name":"Πάτρα","lat":38.2466,"lng":21.7346,"aliases":["Patra","Patrae","Πάτραι","Πάτρη","Πατρα"],"region":"Δυτική Ελλάδα","name_en":"Patras","region_en":"Western Greece","distanceKm":6.318793926139973},{"id":"cheapEatsRestaurants_1354d27873fc","slug":"choiropoiito-soyvlakopoieio-1354","kind":"restaurant","name":"Χοιροποίητο Σουβλακοποιείο","lat":38.2456567707955,"lng":21.73248119818369,"url":"https://maps.app.goo.gl/kQo4C3a3QHbyJMpq6?g_st=ipc","address":"Riga Fereou 139, Patra 262 21","categoryIds":["cheap-eats"],"categories":["Gyros & Cheap Eats"],"distanceKm":6.320478395808085},{"id":"dessertsRestaurants_6449be12e482","slug":"da-vinci-6449","kind":"restaurant","name":"DA VINCI","lat":38.24539440430271,"lng":21.731371228848985,"url":"https://maps.app.goo.gl/cgshZD6Sh33x15CL8?g_st=ipc","address":"Dim. Gounari 11, Patra 262 21","categoryIds":["desserts"],"categories":["Dessert Shops"],"distanceKm":6.346094189502338}],"sameRegion":[]},"__N_SSG":true}