{"pageProps":{"entity":{"id":"municipalities_99d9186f1f31","slug":"agathonisi-99d9","kind":"municipality","name":"Αγαθονήσι","lat":37.456,"lng":26.963,"region":"Δωδεκάνησα","name_en":"Agathonisi","region_en":"Dodecanese"},"sameCategory":[],"nearby":[{"id":"municipalities_a1a685a55092","slug":"arkoi-a1a6","kind":"municipality","name":"Αρκοί","lat":37.372,"lng":26.736,"region":"Δωδεκάνησα","name_en":"Arki","region_en":"Dodecanese","distanceKm":22.11730824777077},{"id":"mustSeeAttractions_54fb3772eb37","slug":"archaeological-site-of-heraion-of-samos-54fb","kind":"restaurant","name":"Archaeological Site of Heraion of Samos","lat":37.67350522925315,"lng":26.88799727034567,"url":"https://maps.app.goo.gl/aSS6QjyqGgHanzsj8?g_st=ipc","address":"Pythagoreio 831 03","categoryIds":["attractions"],"categories":["Must-See Attractions"],"distanceKm":25.072682276004414},{"id":"municipalities_a49800fc1df5","slug":"leipsoi-a498","kind":"municipality","name":"Λειψοί","lat":37.2833,"lng":26.7667,"region":"Δωδεκάνησα","name_en":"Lipsi","region_en":"Dodecanese","distanceKm":25.87841333836735},{"id":"mustSeeAttractions_0e0154b8338b","slug":"pythagoras-statue-0e01","kind":"restaurant","name":"Pythagoras Statue","lat":37.689752282548156,"lng":26.94490447179151,"url":"https://maps.app.goo.gl/9QY7VwS3H1acWG6g8?g_st=ipc","address":"Samos 831 03","categoryIds":["attractions"],"categories":["Must-See Attractions"],"distanceKm":26.040946231960913},{"id":"municipalities_928b419eccb6","slug":"samos-928b","kind":"municipality","name":"Σάμος","lat":37.754,"lng":26.977,"aliases":["Σαμος"],"region":"Βόρειο Αιγαίο","name_en":"Samos","region_en":"North Aegean","distanceKm":33.159031198841035},{"id":"fishTavernasRestaurants_4004def7cd13","slug":"fish-tavern-lampi-4004","kind":"restaurant","name":"FISH TAVERN LAMPI","lat":37.36640737144112,"lng":26.576359128489035,"url":"https://maps.app.goo.gl/PxsWuCmfXd3XNHAx7?g_st=ipc","address":"Patmos 855 00","categoryIds":["fish-tavernas"],"categories":["Fish Tavernas"],"distanceKm":35.57221254322214},{"id":"municipalities_426a1844230a","slug":"leros-426a","kind":"municipality","name":"Λέρος","lat":37.133,"lng":26.85,"aliases":["Λερος"],"region":"Δωδεκάνησα","name_en":"Leros","region_en":"Dodecanese","distanceKm":37.281001658059935},{"id":"vegetarianRestaurants_325f7a0c0fd0","slug":"pernera-vegan-restaurant-fairtrade-coffee-shop-market-325f","kind":"restaurant","name":"Pernera Vegan Restaurant & Fairtrade Coffee Shop & Market","lat":37.32400648961271,"lng":26.54252733878879,"url":"https://maps.app.goo.gl/N2k56TsPjEKAnPtL9?g_st=ipc","address":"Σκάλα 855 00","categoryIds":["vegetarian"],"categories":["Vegetarian Friendly Restaurants"],"distanceKm":39.94166435849481}],"sameRegion":[{"id":"municipalities_0334126572d2","slug":"rodos-0334","kind":"municipality","name":"Ρόδος","lat":36.434,"lng":28.217,"aliases":["Rodos","Rhodos","Ρόδη","Ροδος"],"region":"Δωδεκάνησα","name_en":"Rhodes","region_en":"Dodecanese"},{"id":"municipalities_1e15a9b9c22f","slug":"tilos-1e15","kind":"municipality","name":"Τήλος","lat":36.4167,"lng":27.3833,"aliases":["Τηλος"],"region":"Δωδεκάνησα","name_en":"Tilos","region_en":"Dodecanese"},{"id":"municipalities_1ff64765be31","slug":"chalki-1ff6","kind":"municipality","name":"Χάλκη","lat":36.2167,"lng":27.6167,"aliases":["Χαλκη"],"region":"Δωδεκάνησα","name_en":"Halki","region_en":"Dodecanese"},{"id":"municipalities_23af7cf13cb7","slug":"kos-23af","kind":"municipality","name":"Κως","lat":36.892,"lng":27.287,"aliases":["Kos","Κώς","Κω","Κος"],"region":"Δωδεκάνησα","name_en":"Kos","region_en":"Dodecanese"},{"id":"municipalities_426a1844230a","slug":"leros-426a","kind":"municipality","name":"Λέρος","lat":37.133,"lng":26.85,"aliases":["Λερος"],"region":"Δωδεκάνησα","name_en":"Leros","region_en":"Dodecanese"},{"id":"municipalities_6a80701acb8f","slug":"symi-6a80","kind":"municipality","name":"Σύμη","lat":36.6167,"lng":27.8333,"aliases":["Συμη","Συμι"],"region":"Δωδεκάνησα","name_en":"Symi","region_en":"Dodecanese"},{"id":"municipalities_8f7e81543417","slug":"patmos-8f7e","kind":"municipality","name":"Πάτμος","lat":37.308,"lng":26.547,"aliases":["Πατμος"],"region":"Δωδεκάνησα","name_en":"Patmos","region_en":"Dodecanese"},{"id":"municipalities_a1a685a55092","slug":"arkoi-a1a6","kind":"municipality","name":"Αρκοί","lat":37.372,"lng":26.736,"region":"Δωδεκάνησα","name_en":"Arki","region_en":"Dodecanese"}]},"__N_SSG":true}