{"pageProps":{"entity":{"id":"fishTavernasRestaurants_d1fdd80a5c4e","slug":"akrogiali-d1fd","kind":"restaurant","name":"Ακρογιάλι","lat":38.07176023911009,"lng":23.99585573289976,"url":"https://maps.app.goo.gl/xsBV1faj5k58gwi47?g_st=ipc","address":"Μιαούλη 8, Νέα Μάκρη 190 05","categoryIds":["fish-tavernas"],"categories":["Fish Tavernas"]},"sameCategory":[{"id":"fishTavernasRestaurants_0b56e36ee289","slug":"trata-i-0b56","kind":"restaurant","name":"ΤΡΑΤΑ (Η)","lat":38.09030258735327,"lng":23.982252068927664,"url":"https://maps.app.goo.gl/4cT7yir2FyLEmVPB8?g_st=ipc","address":"Λεωφ. Ποσειδώνος 30, Νέα Μάκρη 190 05","categoryIds":["fish-tavernas"],"categories":["Fish Tavernas"]},{"id":"fishTavernasRestaurants_120bf543e9c4","slug":"to-plokami-120b","kind":"restaurant","name":"Το πλοκάμι","lat":38.09102735114395,"lng":23.981804303325717,"url":"https://maps.app.goo.gl/QuJBtKF3QD3n78sW8?g_st=ipc","address":"Λεωφ. Ποσειδώνος, Νέα Μάκρη 190 05","categoryIds":["fish-tavernas"],"categories":["Fish Tavernas"]},{"id":"fishTavernasRestaurants_c8d79ddce787","slug":"ayra-c8d7","kind":"restaurant","name":"Αύρα","lat":38.09393032588583,"lng":23.981355142971612,"url":"https://maps.app.goo.gl/Qd74p6vmhVLEfQxg7?g_st=ipc","address":"Τέρμα, Λεωφ. Ποσειδώνος, Νέα Μάκρη 190 05","categoryIds":["fish-tavernas"],"categories":["Fish Tavernas"]},{"id":"fishTavernasRestaurants_cfc96ee9ddf3","slug":"isidora-cfc9","kind":"restaurant","name":"Ισιδώρα","lat":38.11335499841936,"lng":23.98507325460099,"url":"https://maps.app.goo.gl/USycaJUwTZTzMdADA?g_st=ipc","address":"Περικλέους ΠΑΡΑΛΙΑ, Μαραθώνας 190 07","categoryIds":["fish-tavernas"],"categories":["Fish Tavernas"]},{"id":"fishTavernasRestaurants_0618ada54b19","slug":"o-psaras-restaurant-0618","kind":"restaurant","name":"Ο Ψαράς Restaurant","lat":38.11793561687655,"lng":23.99065580006594,"url":"https://maps.app.goo.gl/fSjcPNAg9aRVEF926?g_st=ipc","address":"Παραλία Μαραθώνα, Λεωφ. Ποσειδώνος 3, Αγ. Παντελεήμων 190 07","categoryIds":["fish-tavernas"],"categories":["Fish Tavernas"]},{"id":"fishTavernasRestaurants_4a2d79882f36","slug":"panormitis-4a2d","kind":"restaurant","name":"Πανορμίτης","lat":38.121572702191,"lng":23.99671729866393,"url":"https://maps.app.goo.gl/aXSXemiooEkkE8AKA?g_st=ipc","address":"Λεωφ. Ποσειδώνος 55, Αγ. Παντελεήμων 190 07","categoryIds":["fish-tavernas"],"categories":["Fish Tavernas"]},{"id":"fishTavernasRestaurants_7e271dc392e1","slug":"xypolitos-7e27","kind":"restaurant","name":"Ξυπόλητος","lat":37.99242931751304,"lng":24.031438739737503,"url":"https://maps.app.goo.gl/Z6jt2F2sqvbCMw5DA?g_st=ipc","address":"25ης Μαρτίου Αγιος Νικολας, Άρτεμις 190 16","categoryIds":["fish-tavernas"],"categories":["Fish Tavernas"]},{"id":"fishTavernasRestaurants_43c82b52a2f5","slug":"nisiotissa-taverna-vrilissia-43c8","kind":"restaurant","name":"Νησιώτισσα | Ταβέρνα - Βριλήσσια","lat":38.049892048450445,"lng":23.844559347971032,"url":"https://maps.app.goo.gl/GRmK1dMStEro6P898?g_st=ipc","address":"Λεωφ. Πεντέλης 168, Βριλήσσια 152 35","categoryIds":["fish-tavernas"],"categories":["Fish Tavernas"]}],"nearby":[{"id":"coffeeBrunchRestaurants_cdd028e1f028","slug":"indianos-cdd0","kind":"restaurant","name":"Indianos","lat":38.07177701154969,"lng":23.99543112392712,"url":"https://maps.app.goo.gl/fQgSyiTZjMscc9UW9?g_st=ipc","address":"Μιαούλη 12, Νέα Μάκρη 190 05","categoryIds":["coffee-brunch"],"categories":["Coffee & Brunch Spots"],"distanceKm":0.03721574685470529},{"id":"familyFriendly_db07c7976a87","slug":"jumicar-db07","kind":"restaurant","name":"Jumicar","lat":38.07454902492717,"lng":23.982372514870235,"url":"https://maps.app.goo.gl/b5HKTfYuBC6WE3XP7?g_st=ipc","address":"Λεωφ. Μαραθώνος 1, Νέα Μάκρη 190 05","categoryIds":["family-friendly"],"categories":["Kid Friendly Locations"],"distanceKm":1.2203154328638872},{"id":"dessertsRestaurants_5958ec3ad958","slug":"to-plesti-5958","kind":"restaurant","name":"Το Πλέστι","lat":38.06758002269708,"lng":23.98228118791333,"url":"https://maps.app.goo.gl/8uS8BHW1y7vuZtMn8?g_st=ipc","address":"Λεωφ. Μαραθώνος 31ο, Νέα Μάκρη 190 05","categoryIds":["desserts"],"categories":["Dessert Shops"],"distanceKm":1.2759836306080505},{"id":"coffeeBrunchRestaurants_6aac58356d58","slug":"dimitris-kasimis-foyrnos-6aac","kind":"restaurant","name":"ΔΗΜΗΤΡΗΣ ΚΑΣΙΜΗΣ Φούρνος","lat":38.0797197655773,"lng":23.980827928192117,"url":"https://maps.app.goo.gl/HVgjvMDChspNvrjy7?g_st=ipc","address":"44 Marathonos Ave, Enanti DEI, Nea Makri, 19005","categoryIds":["coffee-brunch"],"categories":["Coffee & Brunch Spots"],"distanceKm":1.5854500096874913},{"id":"municipalities_dba8e62f5c2c","slug":"nea-makri-dba8","kind":"municipality","name":"Νέα Μάκρη","lat":38.083,"lng":23.983,"aliases":["Nea Makri","Nea Makry"],"region":"Ανατολικά Προάστια","name_en":"Nea Makri","region_en":"Eastern Suburbs","distanceKm":1.6817353625865397},{"id":"italianRestaurants_2acf318486cb","slug":"toto-s-little-italy-2acf","kind":"restaurant","name":"Toto's Little Italy","lat":38.083162778426875,"lng":23.980726245351242,"url":"https://maps.app.goo.gl/oSFQmUYzAW2nsJ8z6?g_st=ipc","address":"Νικ. Πλαστήρα 29, Νέα Μάκρη 190 05","categoryIds":["italian"],"categories":["Italian Restaurants"],"distanceKm":1.8333894022998196},{"id":"greekRestaurants_e13d6a44e9be","slug":"stoy-ladokosta-e13d","kind":"restaurant","name":"Στου Λαδόκωστα","lat":38.08813666230261,"lng":23.982996365102682,"url":"https://maps.app.goo.gl/mXkB4S51cYRYxwCe8","address":"Λεωφ. Ποσειδώνος, Νέα Μάκρη 190 05","categoryIds":["greek-restaurants"],"categories":["Greek Restaurants"],"distanceKm":2.140747661103441},{"id":"fishTavernasRestaurants_0b56e36ee289","slug":"trata-i-0b56","kind":"restaurant","name":"ΤΡΑΤΑ (Η)","lat":38.09030258735327,"lng":23.982252068927664,"url":"https://maps.app.goo.gl/4cT7yir2FyLEmVPB8?g_st=ipc","address":"Λεωφ. Ποσειδώνος 30, Νέα Μάκρη 190 05","categoryIds":["fish-tavernas"],"categories":["Fish Tavernas"],"distanceKm":2.380920629986616}],"sameRegion":[]},"__N_SSG":true}