{"pageProps":{"entity":{"id":"cheapEatsRestaurants_72bd27acb0a5","slug":"alexandrino-kempap-pagkrati-72bd","kind":"restaurant","name":"Αλεξανδρινό Κεμπάπ - Παγκράτι","lat":37.9678577883098,"lng":23.74996983153058,"url":"https://maps.app.goo.gl/kBQE51oPhVR5sCDu5?g_st=ipc","address":"Υμηττού 90 &, Ιφικράτους, Αθήνα 116 34","categoryIds":["cheap-eats"],"categories":["Gyros & Cheap Eats"]},"sameCategory":[{"id":"cheapEatsRestaurants_b3b7afefba63","slug":"chicken-queen-b3b7","kind":"restaurant","name":"Chicken Queen","lat":37.967645038147204,"lng":23.749273032780096,"url":"https://maps.app.goo.gl/Nd77xxazm6AtfQmU8?g_st=ipc","address":"Ευτυχίδου 47, Αθήνα 116 34","categoryIds":["cheap-eats"],"categories":["Gyros & Cheap Eats"]},{"id":"cheapEatsRestaurants_f61ee90e96c0","slug":"mikra-asia-kebap-pagrati-f61e","kind":"restaurant","name":"Mikra Asia kebap Pagrati","lat":37.96824148094212,"lng":23.7487971975962,"url":"https://maps.app.goo.gl/4TKpFuTdcwscVBCg8?g_st=ipc","address":"Πλ. Μεσολογγίου 2-4, Αθήνα 116 34","categoryIds":["cheap-eats"],"categories":["Gyros & Cheap Eats"]},{"id":"cheapEatsRestaurants_eaa51e908f69","slug":"to-pikantiko-eaa5","kind":"restaurant","name":"Το Πικάντικο","lat":37.967862602711925,"lng":23.74738582728181,"url":"https://maps.app.goo.gl/s2djMEVxUXSybams9?g_st=ipc","address":"Ευτυχίδου 23, Αθήνα 116 34","categoryIds":["cheap-eats"],"categories":["Gyros & Cheap Eats"]},{"id":"cheapEatsRestaurants_f4243fccdc09","slug":"i-thraka-f424","kind":"restaurant","name":"Η Θράκα","lat":37.96908730439045,"lng":23.752466160817594,"url":"https://maps.app.goo.gl/P6rYV5DBevfNLik18?g_st=ipc","address":"Υμηττού 58, Αθήνα 116 34","categoryIds":["cheap-eats"],"categories":["Gyros & Cheap Eats"]},{"id":"cheapEatsRestaurants_bf6249591df7","slug":"taverna-psistaria-mandrakis-bf62","kind":"restaurant","name":"Ταβέρνα - Ψησταριά Μανδράκης","lat":37.96926409248282,"lng":23.754508850206804,"url":"https://maps.app.goo.gl/oqmBo1caT2qX5wtB9?g_st=ipc","address":"Λεωφ. Εθ. Αντιστάσεως 11, Καισαριανή 161 21","categoryIds":["cheap-eats"],"categories":["Gyros & Cheap Eats"]},{"id":"cheapEatsRestaurants_78307b191873","slug":"piggy-popoylo-7830","kind":"restaurant","name":"Piggy - Πόπουλο","lat":37.97132961125026,"lng":23.74642727932896,"url":"https://maps.app.goo.gl/cPZpCzgEKX45Ej6G8?g_st=ipc","address":"Αρχελάου 16, Αθήνα 116 35","categoryIds":["cheap-eats"],"categories":["Gyros & Cheap Eats"]},{"id":"cheapEatsRestaurants_56207a3913eb","slug":"elvis-soyvlakia-5620","kind":"restaurant","name":"Ελβις Σουβλακια","lat":37.96785045064934,"lng":23.7436306831368,"url":"https://maps.app.goo.gl/umPfqHULRVG9njbt5?g_st=ipc","address":"Αρχιμήδους 1-5, Αθήνα 116 35","categoryIds":["cheap-eats"],"categories":["Gyros & Cheap Eats"]},{"id":"cheapEatsRestaurants_c3e978d4eac2","slug":"5f-c3e9","kind":"restaurant","name":"5Φ","lat":37.97277642269308,"lng":23.753966804299914,"url":"https://maps.app.goo.gl/Jtpipww8tzt83Z1fA?g_st=ipc","address":"Diocharous 31 &, Κλεισούρας, Αθήνα 161 21","categoryIds":["cheap-eats"],"categories":["Gyros & Cheap Eats"]}],"nearby":[{"id":"asianRestaurants_de634fe107b8","slug":"sushi-j-de63","kind":"restaurant","name":"SUSHI J","lat":37.967626679750225,"lng":23.75054798444388,"url":"https://maps.app.goo.gl/5moDtNiYaQjm8UsX9?g_st=ipc","address":"Υμηττού 101, Αθήνα 116 33","categoryIds":["asian"],"categories":["Asian Restaurants"],"distanceKm":0.056824484899087556},{"id":"cheapEatsRestaurants_b3b7afefba63","slug":"chicken-queen-b3b7","kind":"restaurant","name":"Chicken Queen","lat":37.967645038147204,"lng":23.749273032780096,"url":"https://maps.app.goo.gl/Nd77xxazm6AtfQmU8?g_st=ipc","address":"Ευτυχίδου 47, Αθήνα 116 34","categoryIds":["cheap-eats"],"categories":["Gyros & Cheap Eats"],"distanceKm":0.06550334389023425},{"id":"burgersRestaurants_333f3b6e6592","slug":"chicken-queen-333f","kind":"restaurant","name":"Chicken Queen","lat":37.96764787341708,"lng":23.749271201498335,"url":"https://maps.app.goo.gl/y9qpEuxuYdxvEzYY9?g_st=ipc","address":"Ευτυχίδου 47, Αθήνα 116 34","categoryIds":["burgers"],"categories":["Burger Spots"],"distanceKm":0.06554012563342779},{"id":"vegetarianRestaurants_26aa685f16e1","slug":"fresh-patisserie-26aa","kind":"restaurant","name":"Fresh Patisserie","lat":37.96747222997714,"lng":23.749300179574934,"url":"https://maps.app.goo.gl/M6kixY8DuERoUL8U8?g_st=ipc","address":"Ευτυχίδου 48, Αθήνα 116 34","categoryIds":["vegetarian"],"categories":["Vegetarian Friendly Restaurants"],"distanceKm":0.07269126198139818},{"id":"cheapEatsRestaurants_f61ee90e96c0","slug":"mikra-asia-kebap-pagrati-f61e","kind":"restaurant","name":"Mikra Asia kebap Pagrati","lat":37.96824148094212,"lng":23.7487971975962,"url":"https://maps.app.goo.gl/4TKpFuTdcwscVBCg8?g_st=ipc","address":"Πλ. Μεσολογγίου 2-4, Αθήνα 116 34","categoryIds":["cheap-eats"],"categories":["Gyros & Cheap Eats"],"distanceKm":0.11129656420360524},{"id":"cheapEatsRestaurants_eaa51e908f69","slug":"to-pikantiko-eaa5","kind":"restaurant","name":"Το Πικάντικο","lat":37.967862602711925,"lng":23.74738582728181,"url":"https://maps.app.goo.gl/s2djMEVxUXSybams9?g_st=ipc","address":"Ευτυχίδου 23, Αθήνα 116 34","categoryIds":["cheap-eats"],"categories":["Gyros & Cheap Eats"],"distanceKm":0.2265175086225205},{"id":"dessertsRestaurants_055560d21207","slug":"zacharoplasteio-lido-0555","kind":"restaurant","name":"Ζαχαροπλαστείο Lido","lat":37.96582623086202,"lng":23.750235658736546,"url":"https://maps.app.goo.gl/6RDutorGFGKRD3ru9?g_st=ipc","address":"Χρεμωνίδου 35, Αθήνα 116 33","categoryIds":["desserts"],"categories":["Dessert Shops"],"distanceKm":0.22709763715996734},{"id":"dessertsRestaurants_7eaf4eddf047","slug":"loukoumania-pagrati-loykoymades-7eaf","kind":"restaurant","name":"Loukoumania Pagrati - Λουκουμάδες","lat":37.96735501275489,"lng":23.74736088525619,"url":"https://maps.app.goo.gl/T1YQTDedH6uY5vzR7?g_st=ipc","address":"Φρύνης 4, Αθήνα 116 34","categoryIds":["desserts"],"categories":["Dessert Shops"],"distanceKm":0.23543802332383532}],"sameRegion":[]},"__N_SSG":true}