{"pageProps":{"entity":{"id":"greekRestaurants_f396e19049a3","slug":"alexandros-cafe-restaurant-bar-f396","kind":"restaurant","name":"Alexandros Cafe Restaurant Bar","lat":40.215334673838484,"lng":23.6678969632437,"url":"https://maps.app.goo.gl/Ro9BpyMU87qLU8Uc8?g_st=ipc","address":"Αιγιαλού 30, Νικήτη 630 88","categoryIds":["greek-restaurants"],"categories":["Greek Restaurants"]},"sameCategory":[{"id":"greekRestaurants_f0a356ccb873","slug":"taverna-mantsios-f0a3","kind":"restaurant","name":"ΤΑΒΕΡΝΑ ΜΑΝΤΣΙΟΣ","lat":40.2251007447917,"lng":23.66996943488826,"url":"https://maps.app.goo.gl/TGb93Ar7UHWnmUaf8?g_st=ipc","address":"Νεακίτου 10, Νικήτη 630 88","categoryIds":["greek-restaurants"],"categories":["Greek Restaurants"]},{"id":"greekRestaurants_5811e9277d25","slug":"ergon-beach-house-nikiti-5811","kind":"restaurant","name":"ERGON Beach House Nikiti","lat":40.203687236758725,"lng":23.679869629322766,"url":"https://maps.app.goo.gl/oNuxKgnHi57ErVbj7?g_st=ipc","address":"Αιγιαλού 1, Νικήτη 630 88","categoryIds":["greek-restaurants"],"categories":["Greek Restaurants"]},{"id":"greekRestaurants_43468164bfe6","slug":"gorgona-i-poylman-4346","kind":"restaurant","name":"Γοργόνα ή Πούλμαν","lat":40.18844887866331,"lng":23.799070114643,"url":"https://maps.app.goo.gl/eCPfEYcm6XmwdGov6?g_st=ipc","address":"Βουρβουρού 630 78","categoryIds":["greek-restaurants"],"categories":["Greek Restaurants"]},{"id":"greekRestaurants_55cc517b34bd","slug":"klimataria-taverna-55cc","kind":"restaurant","name":"Κληματαριά Ταβέρνα","lat":40.32390424532117,"lng":23.65627015174525,"url":"https://maps.app.goo.gl/UP2j7uNG1z1XVsRY7?g_st=ipc","address":"Μεταγκιτσι Χαλκιδικής, Μεταγκίτσι 630 78","categoryIds":["greek-restaurants"],"categories":["Greek Restaurants"]},{"id":"greekRestaurants_b3c17d231447","slug":"mellia-restaurant-b3c1","kind":"restaurant","name":"Melliá Restaurant","lat":40.19208860749863,"lng":23.80767095185341,"url":"https://maps.app.goo.gl/1uxCAvJPume7NxnN7?g_st=ipc","address":"Βουρβουρού 630 78","categoryIds":["greek-restaurants"],"categories":["Greek Restaurants"]},{"id":"greekRestaurants_2313eb757566","slug":"to-palio-rementzo-2313","kind":"restaurant","name":"To Palio Rementzo","lat":40.09848139695357,"lng":23.43773202901174,"url":"https://maps.app.goo.gl/2T1nNQxZML5ZNxhC9?g_st=ipc","address":"Άφυτος 630 77","categoryIds":["greek-restaurants"],"categories":["Greek Restaurants"]},{"id":"greekRestaurants_9f92ac7d9fa1","slug":"kardamo-9f92","kind":"restaurant","name":"Kardamo","lat":40.097556175200374,"lng":23.437132587550042,"url":"https://maps.app.goo.gl/ePoWRBDG86ratDjz8?g_st=ipc","address":"Άφυτος 630 77","categoryIds":["greek-restaurants"],"categories":["Greek Restaurants"]},{"id":"greekRestaurants_5f291c18ffbb","slug":"dias-restaurant-5f29","kind":"restaurant","name":"Dias Restaurant","lat":40.06967513248834,"lng":23.453446118410188,"url":"https://maps.app.goo.gl/CuNAkyg2DXjQVmd46?g_st=ipc","address":"Καλλιθέα Κασσανδρεια, Κασσανδρεία 630 77","categoryIds":["greek-restaurants"],"categories":["Greek Restaurants"]}],"nearby":[{"id":"coffeeBrunchRestaurants_546a0710ab1d","slug":"alexandros-cafe-restaurant-bar-546a","kind":"restaurant","name":"Alexandros Cafe Restaurant Bar","lat":40.21526877453814,"lng":23.66789134136706,"url":"https://maps.app.goo.gl/3iczx4sTEWWz3ZCY9?g_st=ipc","address":"Egialou 30, Nikiti 630 88","categoryIds":["coffee-brunch"],"categories":["Coffee & Brunch Spots"],"distanceKm":0.007343200157006606},{"id":"italianRestaurants_ffaa4186c19b","slug":"alexandros-cafe-restaurant-bar-ffaa","kind":"restaurant","name":"Alexandros Cafe Restaurant Bar","lat":40.21526800111842,"lng":23.667889434197388,"url":"https://maps.app.goo.gl/jzS5R55938F8T3nV6?g_st=ipc","address":"Egialou 30, Nikiti 630 88","categoryIds":["italian"],"categories":["Italian Restaurants"],"distanceKm":0.007441181368366112},{"id":"fishTavernasRestaurants_5ddf9e953038","slug":"thymari-taverna-5ddf","kind":"restaurant","name":"Thymari taverna","lat":40.21611233902217,"lng":23.666893873150787,"url":"https://maps.app.goo.gl/PcZJeEER8XQLBzFZ8?g_st=ipc","address":"παραλία Νικήτης, Nikiti 630 88","categoryIds":["fish-tavernas"],"categories":["Fish Tavernas"],"distanceKm":0.12137506828149522},{"id":"fishTavernasRestaurants_e355b9bd1307","slug":"arsanas-restaurant-e355","kind":"restaurant","name":"Arsanas Restaurant","lat":40.2141250129841,"lng":23.668831311582355,"url":"https://maps.app.goo.gl/RAaNDUnjFSAhBEiK6?g_st=ipc","address":"Epar.Od. Nikitis-Sartis, Sithonia 630 88","categoryIds":["fish-tavernas"],"categories":["Fish Tavernas"],"distanceKm":0.15616283807255357},{"id":"luxuryDiningRestaurants_833534a7f3fd","slug":"arsanas-restaurant-8335","kind":"restaurant","name":"Arsanas Restaurant","lat":40.21412369806133,"lng":23.668831407001306,"url":"https://maps.app.goo.gl/ozns5EfUF1bBobta7?g_st=ipc","address":"Epar.Od. Nikitis-Sartis, Sithonia 630 88","categoryIds":["luxury-dining"],"categories":["Luxury Dining"],"distanceKm":0.15629290701112183},{"id":"cheapEatsRestaurants_777a89009202","slug":"o-gyros-tis-nikitis-777a","kind":"restaurant","name":"Ο Γύρος της Νικήτης","lat":40.21635208465205,"lng":23.666421853120887,"url":"https://maps.app.goo.gl/tK8o5vXTSUBvD7U3A?g_st=ipc","address":"Egialou, Nikiti 630 88","categoryIds":["cheap-eats"],"categories":["Gyros & Cheap Eats"],"distanceKm":0.16878007650563678},{"id":"dessertsRestaurants_98dd00cbac34","slug":"gelateria-ksilaki-98dd","kind":"restaurant","name":"Gelateria Ksilaki","lat":40.21685753813557,"lng":23.667097053863888,"url":"https://maps.app.goo.gl/YNZtpmoKz7NF28Uy9?g_st=ipc","address":"Unnamed Road, Nikiti 630 88","categoryIds":["desserts"],"categories":["Dessert Shops"],"distanceKm":0.1824484729639188},{"id":"dessertsRestaurants_2e19f32f107c","slug":"revani-me-pagoto-patisserie-anatoli-2e19","kind":"restaurant","name":"Revani me Pagoto - Patisserie Anatoli","lat":40.21741442419358,"lng":23.666604738726736,"url":"https://maps.app.goo.gl/h2Tc6Wrf9W1Td7877?g_st=ipc","address":"Nikiti 630 88","categoryIds":["desserts"],"categories":["Dessert Shops"],"distanceKm":0.25596704975853274}],"sameRegion":[]},"__N_SSG":true}