{"pageProps":{"entity":{"id":"coffeeBrunchRestaurants_9ce003d4ec0a","slug":"alto-corto-cafe-9ce0","kind":"restaurant","name":"Alto Corto Cafe","lat":38.012694707387,"lng":23.81807168304755,"url":"https://maps.app.goo.gl/1oTiFbFAjGwZTcXq9?g_st=ipc","address":"Λεωφόρος Μεσογείων 400 και, Αἰγαίου Πελάγους, Αγ. Παρασκευή 153 42","categoryIds":["coffee-brunch"],"categories":["Coffee & Brunch Spots"]},"sameCategory":[{"id":"coffeeBrunchRestaurants_a15eff32047d","slug":"wallstreet-athens-a15e","kind":"restaurant","name":"WallStreet Athens","lat":38.01470612030241,"lng":23.8212081874615,"url":"https://maps.app.goo.gl/mBES32gA39m1YfEdA?g_st=ipc","address":"Ελπίδος, Δημ. Γούναρη 2-4, Αγ. Παρασκευή 153 43","categoryIds":["coffee-brunch"],"categories":["Coffee & Brunch Spots"]},{"id":"coffeeBrunchRestaurants_f0c9993cb8f3","slug":"piccadilly-cafe-bar-f0c9","kind":"restaurant","name":"Piccadilly Cafe - Bar","lat":38.00719392579973,"lng":23.82715472856948,"url":"https://maps.app.goo.gl/sjLV2JRan1wDF2hM6?g_st=ipc","address":"Eleftherias, Αγίου Ιωάννου 63, Αγ. Παρασκευή 153 42","categoryIds":["coffee-brunch"],"categories":["Coffee & Brunch Spots"]},{"id":"coffeeBrunchRestaurants_047701412132","slug":"big-spoon-0477","kind":"restaurant","name":"Big Spoon","lat":38.00695313454604,"lng":23.827222163103215,"url":"https://maps.app.goo.gl/xKV3uQ5sHdPxcNpR6?g_st=ipc","address":"Αγίου Ιωάννου 65, Αγ. Παρασκευή 153 42","categoryIds":["coffee-brunch"],"categories":["Coffee & Brunch Spots"]},{"id":"coffeeBrunchRestaurants_9c4fad0bdb87","slug":"opus-coffee-and-more-9c4f","kind":"restaurant","name":"Opus coffee and more","lat":38.001260916187285,"lng":23.825716095768566,"url":"https://maps.app.goo.gl/ZsSXep3FZfHkFyPYA?g_st=ipc","address":"Αιγαίου Πελάγους, Γραβιάς και, Αγ. Παρασκευή 153 42","categoryIds":["coffee-brunch"],"categories":["Coffee & Brunch Spots"]},{"id":"coffeeBrunchRestaurants_c6ccd807225a","slug":"bread-b-c-bread-before-christ-c6cc","kind":"restaurant","name":"BREAD B.C. Bread Before Christ","lat":38.02007274297337,"lng":23.803168344895795,"url":"https://maps.app.goo.gl/TyGqvKXydEaJvedUA?g_st=ipc","address":"Αγίας Παρασκευής 59, Χαλάνδρι 152 34","categoryIds":["coffee-brunch"],"categories":["Coffee & Brunch Spots"]},{"id":"coffeeBrunchRestaurants_19b78b1041b1","slug":"fisi-the-project-19b7","kind":"restaurant","name":"Fisi The Project","lat":38.02103923737401,"lng":23.803142982241283,"url":"https://maps.app.goo.gl/9VmK3qL1LECkBAycA?g_st=ipc","address":"Αγίου Γεωργίου 28, Χαλάνδρι 152 31","categoryIds":["coffee-brunch"],"categories":["Coffee & Brunch Spots"]},{"id":"coffeeBrunchRestaurants_c2dcfed13dc1","slug":"to-vazaki-juice-bar-c2dc","kind":"restaurant","name":"Το Βαζάκι Juice Bar","lat":38.021003514175945,"lng":23.80272580711501,"url":"https://maps.app.goo.gl/nDbFuEsz56BPrtWV8?g_st=ipc","address":"Αριστοτέλους 33, Χαλάνδρι 152 34","categoryIds":["coffee-brunch"],"categories":["Coffee & Brunch Spots"]},{"id":"coffeeBrunchRestaurants_6c7c61c89617","slug":"the-blind-spot-chalandri-6c7c","kind":"restaurant","name":"The Blind Spot Chalandri","lat":38.02081193268296,"lng":23.800852260132338,"url":"https://maps.app.goo.gl/meU9KZcd4KyskmW5A?g_st=ipc","address":"Αγίας Παρασκευής 29, Χαλάνδρι 152 34","categoryIds":["coffee-brunch"],"categories":["Coffee & Brunch Spots"]}],"nearby":[{"id":"dessertsRestaurants_4de4990e8c52","slug":"galaktopoleio-stamoy-4de4","kind":"restaurant","name":"Γαλακτοπωλείο ΣΤΑΜΟΥ","lat":38.01272894935628,"lng":23.81812735076741,"url":"https://maps.app.goo.gl/45pSKohNfJSTdCAA6?g_st=ipc","address":"Λεωφ. Μεσογείων 400b, Αγ. Παρασκευή 153 42","categoryIds":["desserts"],"categories":["Dessert Shops"],"distanceKm":0.0061872139713580595},{"id":"cheapEatsRestaurants_ba28713d01c5","slug":"jackaroo-ba28","kind":"restaurant","name":"Jackaroo","lat":38.012488048135104,"lng":23.81953806352836,"url":"https://maps.app.goo.gl/ixb3zjYZ1Wg65gYq8?g_st=ipc","address":"Ηρ. Πολυτεχνείου 8, Αγ. Παρασκευή 153 43","categoryIds":["cheap-eats"],"categories":["Gyros & Cheap Eats"],"distanceKm":0.13050534448837042},{"id":"mexicanRestaurants_8063d3de98b0","slug":"juan-s-cantina-8063","kind":"restaurant","name":"Juan's Cantina","lat":38.01206107178295,"lng":23.81957316690922,"url":"https://maps.app.goo.gl/BrMEKeu7hk8gqjtQ6?g_st=ipc","address":"Ευεργέτου Γιαβάση 13Α, Αγ. Παρασκευή 153 42","categoryIds":["mexican"],"categories":["Mexican Restaurants"],"distanceKm":0.14922298006205825},{"id":"cheapEatsRestaurants_2194bc1389f8","slug":"pita-pan-2194","kind":"restaurant","name":"Πίτα Παν","lat":38.012724500083856,"lng":23.82116799472927,"url":"https://maps.app.goo.gl/dizAr5MBZxwBUbmGA?g_st=ipc","address":"Ευεργέτου Γιαβάση 1, Αγ. Παρασκευή 153 42","categoryIds":["cheap-eats"],"categories":["Gyros & Cheap Eats"],"distanceKm":0.2712806945265001},{"id":"asianRestaurants_4641bf909241","slug":"wasabe-asian-fusion-4641","kind":"restaurant","name":"Wasabe Asian Fusion","lat":38.01234432312043,"lng":23.815000066422606,"url":"https://maps.app.goo.gl/E1rgPWQWHHSpVx7UA?g_st=ipc","address":"Λεωφ. Μεσογείων 401, Αγ. Παρασκευή 153 43","categoryIds":["asian"],"categories":["Asian Restaurants"],"distanceKm":0.27190351636900845},{"id":"dessertsRestaurants_456ff03615cf","slug":"poulette-456f","kind":"restaurant","name":"Poulette","lat":38.01540164071511,"lng":23.819922887018567,"url":"https://maps.app.goo.gl/HvM2PHcBBq1Dcqka8?g_st=ipc","address":"Ellinoservikis Filias 64, Ag. Paraskevi 153 43","categoryIds":["desserts"],"categories":["Dessert Shops"],"distanceKm":0.34190728836812484},{"id":"coffeeBrunchRestaurants_a15eff32047d","slug":"wallstreet-athens-a15e","kind":"restaurant","name":"WallStreet Athens","lat":38.01470612030241,"lng":23.8212081874615,"url":"https://maps.app.goo.gl/mBES32gA39m1YfEdA?g_st=ipc","address":"Ελπίδος, Δημ. Γούναρη 2-4, Αγ. Παρασκευή 153 43","categoryIds":["coffee-brunch"],"categories":["Coffee & Brunch Spots"],"distanceKm":0.35429680459469365},{"id":"dessertsRestaurants_0abf80a62983","slug":"zacharoplasteia-kosmikon-ag-paraskeyi-0abf","kind":"restaurant","name":"ΖΑΧΑΡΟΠΛΑΣΤΕΙΑ ΚΟΣΜΙΚΟΝ ΑΓ.ΠΑΡΑΣΚΕΥΗ","lat":38.015552019857395,"lng":23.816005253846708,"url":"https://maps.app.goo.gl/KMvANWbGzpUHc27L8?g_st=ipc","address":"Χαλανδρίου 34, Αγ. Παρασκευή 153 43","categoryIds":["desserts"],"categories":["Dessert Shops"],"distanceKm":0.3656740628412081}],"sameRegion":[]},"__N_SSG":true}