{"pageProps":{"entity":{"id":"coffeeBrunchRestaurants_d230a95180a5","slug":"anafiotika-cafe-restaurant-d230","kind":"restaurant","name":"Anafiotika Cafe - Restaurant","lat":37.97339153102626,"lng":23.727755098705728,"url":"https://maps.app.goo.gl/5TUnwM6DgvopJtKt9?g_st=ipc","address":"Μνησικλέους 24β, Αθήνα 105 56","categoryIds":["coffee-brunch"],"categories":["Coffee & Brunch Spots"]},"sameCategory":[{"id":"coffeeBrunchRestaurants_ef8ff3ba5523","slug":"melina-mercouri-cafe-ef8f","kind":"restaurant","name":"Melina Mercouri Café","lat":37.973329408985265,"lng":23.72859454809977,"url":"https://maps.app.goo.gl/fE5D7HkmY8kdkhM6A?g_st=ic","address":"Lisiou 22, Athina 105 56","categoryIds":["coffee-brunch"],"categories":["Coffee & Brunch Spots"]},{"id":"coffeeBrunchRestaurants_af73cfd62392","slug":"the-zillers-pastry-bar-af73","kind":"restaurant","name":"The Zillers Pastry Bar","lat":37.97475815330705,"lng":23.729657937121086,"url":"https://maps.app.goo.gl/F16LXUX65PanPNx76?g_st=ipc","address":"Παλαιολόγου Μπενιζέλου 6, Αθήνα 105 56","categoryIds":["coffee-brunch"],"categories":["Coffee & Brunch Spots"]},{"id":"coffeeBrunchRestaurants_52c7c7c59252","slug":"ciel-athens-52c7","kind":"restaurant","name":"Ciel Athens","lat":37.975701684177345,"lng":23.72877509005901,"url":"https://maps.app.goo.gl/U1toAvoUiB34xk528?g_st=ipc","address":"ΜΝΗΣΙΚΛΕΟΥΣ, Μητροπόλεως 2, Αθήνα 105 56","categoryIds":["coffee-brunch"],"categories":["Coffee & Brunch Spots"]},{"id":"coffeeBrunchRestaurants_278a93a562e8","slug":"vrysaki-278a","kind":"restaurant","name":"Βρυσάκι","lat":37.97478391705531,"lng":23.724523558556633,"url":"https://maps.app.goo.gl/Ji4XoLwygMsPtG528?g_st=ipc","address":"Βρυσακίου 17, Αθήνα 105 55","categoryIds":["coffee-brunch"],"categories":["Coffee & Brunch Spots"]},{"id":"coffeeBrunchRestaurants_6b3f7db90a24","slug":"nonnas-athens-6b3f","kind":"restaurant","name":"Nonnas Athens","lat":37.971651792837406,"lng":23.731123841030353,"url":"https://maps.app.goo.gl/5RFfLvtqnpk2BDQp8?g_st=ipc","address":"Pl. Filomousou Eterias 3, Athina 105 58","categoryIds":["coffee-brunch"],"categories":["Coffee & Brunch Spots"]},{"id":"coffeeBrunchRestaurants_ca5c6fd3b033","slug":"plakaki-cafe-ca5c","kind":"restaurant","name":"Plakaki Cafe","lat":37.97168034602651,"lng":23.731177071228885,"url":"https://maps.app.goo.gl/fCZvCfcqYbM4mrRz8?g_st=ic","address":"Pl. Filomousou Eterias 2, Athina 105 58","categoryIds":["coffee-brunch"],"categories":["Coffee & Brunch Spots"]},{"id":"coffeeBrunchRestaurants_d761c46075d4","slug":"le-petit-village-d761","kind":"restaurant","name":"Le Petit Village","lat":37.97573184070448,"lng":23.730557151684366,"url":"https://maps.app.goo.gl/yQDokn8qrofNRvbN9?g_st=ipc","address":"Φωκίωνος 2, Αθήνα 105 63","categoryIds":["coffee-brunch"],"categories":["Coffee & Brunch Spots"]},{"id":"coffeeBrunchRestaurants_86c49b223ca7","slug":"gaya-athens-86c4","kind":"restaurant","name":"GAYA Athens","lat":37.97655155960143,"lng":23.729000167842386,"url":"https://maps.app.goo.gl/wY2FhMBr8ApzzSLw5?g_st=ipc","address":"Καλαμιώτου 2, Αθήνα 105 63","categoryIds":["coffee-brunch"],"categories":["Coffee & Brunch Spots"]}],"nearby":[{"id":"rooftopLoungesRestaurants_d90628c167d7","slug":"anefani-d906","kind":"restaurant","name":"Ανεφάνη","lat":37.97353358251965,"lng":23.727822920102838,"url":"https://maps.app.goo.gl/cvCxoTrVfjboNT7X7?g_st=ipc","address":"Μνησικλέους 24, Αθήνα 105 56","categoryIds":["rooftop-lounges"],"categories":["Rooftop Lounges"],"distanceKm":0.01687708735324416},{"id":"fishTavernasRestaurants_2ec8563b4367","slug":"anefani-2ec8","kind":"restaurant","name":"Ανεφάνη","lat":37.973535712152035,"lng":23.727823659961384,"url":"https://maps.app.goo.gl/ZNPzCDATcCosWfhTA?g_st=ipc","address":"Μνησικλέους 24, Αθήνα 105 56","categoryIds":["fish-tavernas"],"categories":["Fish Tavernas"],"distanceKm":0.017121573202313393},{"id":"rooftopLoungesRestaurants_6bc9125d2c6e","slug":"odos-lysioy-6bc9","kind":"restaurant","name":"Οδος Λυσιου","lat":37.97368556896764,"lng":23.727989877138466,"url":"https://maps.app.goo.gl/QFStwG4KRSZkG2Em7?g_st=ipc","address":"Mnisikleous 22 and, Lisiou corner, Athina 105 56","categoryIds":["rooftop-lounges"],"categories":["Rooftop Lounges"],"distanceKm":0.038632987540948634},{"id":"monasteriesChurches_8533fc9b9b94","slug":"ieros-naos-agion-anargyron-kolokynthi-metochion-panagioy-tafoy-8533","kind":"restaurant","name":"Ιερός Ναός Αγίων Αναργύρων Κολοκύνθη - Μετόχιον Παναγίου Τάφου","lat":37.97293435768165,"lng":23.728208879310362,"url":"https://maps.app.goo.gl/nKcEJuoZ25jXrQqeA?g_st=ipc","address":"Ερεχθέως 18, Αθήνα 105 56","categoryIds":["monasteries-churches"],"categories":["Monasteries & Spiritual Sites"],"distanceKm":0.06454741996715617},{"id":"coffeeBrunchRestaurants_ef8ff3ba5523","slug":"melina-mercouri-cafe-ef8f","kind":"restaurant","name":"Melina Mercouri Café","lat":37.973329408985265,"lng":23.72859454809977,"url":"https://maps.app.goo.gl/fE5D7HkmY8kdkhM6A?g_st=ic","address":"Lisiou 22, Athina 105 56","categoryIds":["coffee-brunch"],"categories":["Coffee & Brunch Spots"],"distanceKm":0.07390514138050351},{"id":"gyrosSouvlakiRestaurants_ddb106f4030b","slug":"gyros-psyrri-ddb1","kind":"restaurant","name":"Gyros Psyrri","lat":37.974,"lng":23.727,"url":"https://maps.app.goo.gl/sample30","address":"Agiou Filippou 19, Athina 105 55","categoryIds":["cheap-eats"],"categories":["Gyros & Cheap Eats"],"distanceKm":0.09464930663752143},{"id":"mustSeeAttractions_f9286196691d","slug":"anafiotika-f928","kind":"restaurant","name":"Αναφιώτικα","lat":37.97237012452399,"lng":23.728116657972198,"url":"https://maps.app.goo.gl/tWCR6cy3umt66P4p6?g_st=ipc","address":"Αθήνα 105 58","categoryIds":["attractions"],"categories":["Must-See Attractions"],"distanceKm":0.11791415669536703},{"id":"greekRestaurants_60d2190d08b8","slug":"aerides-mezedopoleio-plaka-60d2","kind":"restaurant","name":"Αέρηδες Μεζεδοπωλείο Πλάκα","lat":37.974495755428926,"lng":23.72798871305526,"url":"https://maps.app.goo.gl/Cx6gQQWkCy2n1mXw6","address":"Διογένους 3, Αθήνα 105 56","categoryIds":["greek-restaurants"],"categories":["Greek Restaurants"],"distanceKm":0.12447997484352429}],"sameRegion":[]},"__N_SSG":true}