{"pageProps":{"entity":{"id":"municipalities_7c02ce6807c9","slug":"apokoronoy-7c02","kind":"municipality","name":"Αποκορώνου","lat":35.437,"lng":24.215,"region":"Δυτική Κρήτη","name_en":"Apokoronas","region_en":"West Crete"},"sameCategory":[],"nearby":[{"id":"greekRestaurants_5e3d51ca0200","slug":"parasia-chania-vamos-parasia-chania-vamos-5e3d","kind":"restaurant","name":"Παρασιά Χανιά Βάμος- Parasia Chania Vamos","lat":35.4074884812459,"lng":24.18598092998549,"url":"https://maps.app.goo.gl/BmHbkuLGE1ioGoyp8?g_st=ipc","address":"διαλέξτε τον επαρχιακό δρόμο, Από Ρέθυμνο βγείτε δεξιά στην έξοδο στο ελαιουργειο Κανάκη και έπειτα πάρτε τον επαρχιακό δρόμο προς Παρασιά, Από, Βρύσες 730 08","categoryIds":["greek-restaurants"],"categories":["Greek Restaurants"],"distanceKm":4.205086464565707},{"id":"wineriesVineyards_b838da26d565","slug":"dourakis-winery-b838","kind":"restaurant","name":"Dourakis Winery","lat":35.34955760746719,"lng":24.203022751558134,"url":"https://maps.app.goo.gl/RrgeX3PAEePKPZU79?g_st=ipc","address":"Alikampos, Apokoronou, CHANIA 730 07","categoryIds":["wineries-vineyards"],"categories":["Wineries & Vineyards"],"distanceKm":9.783576341102236},{"id":"italianRestaurants_d9cd36fbb3ef","slug":"don-rosario-restaurant-d9cd","kind":"restaurant","name":"Don Rosario Restaurant","lat":35.47882388836681,"lng":24.099356912172677,"url":"https://maps.app.goo.gl/bPiGaxVDa8GANuXW8?g_st=ipc","address":"Πλατάνι 732 00","categoryIds":["italian"],"categories":["Italian Restaurants"],"distanceKm":11.460172197796014},{"id":"familyFriendly_647731b73787","slug":"lake-kournas-6477","kind":"restaurant","name":"Lake Kournas","lat":35.33085393719484,"lng":24.275768556511693,"url":"https://maps.app.goo.gl/jBCqSTmypZMRabtf7?g_st=ipc","address":"Georgioupoli 730 07","categoryIds":["family-friendly"],"categories":["Kid Friendly Locations"],"distanceKm":13.025285618201469},{"id":"wineriesVineyards_218b1ae88a57","slug":"agia-triada-winery-218b","kind":"restaurant","name":"Αgia Triada Winery","lat":35.56054075236249,"lng":24.135001472011776,"url":"https://maps.app.goo.gl/75yFj7YEiVy8Cvdz7?g_st=ipc","address":"Μόνη Αγίας Τριάδος των Τζαγκαρόλων 731 00","categoryIds":["wineries-vineyards"],"categories":["Wineries & Vineyards"],"distanceKm":15.529160745851087},{"id":"coffeeBrunchRestaurants_4060062a68f1","slug":"carte-postale-4060","kind":"restaurant","name":"Carte Postale","lat":35.523454895956455,"lng":24.056556730944372,"url":"https://maps.app.goo.gl/5NWTh15BbgeGgYsx6?g_st=ipc","address":"Michail Kalorizikou 2, Chania 731 33","categoryIds":["coffee-brunch"],"categories":["Coffee & Brunch Spots"],"distanceKm":17.2697348569934},{"id":"greekRestaurants_585e0390a5d3","slug":"ntoynias-585e","kind":"restaurant","name":"Ντουνιάς","lat":35.40906562971069,"lng":24.014822409059008,"url":"https://maps.app.goo.gl/fPzWW7jmw3vrMepH9?g_st=ipc","address":"Keramion, Νεροκούρος 731 00","categoryIds":["greek-restaurants"],"categories":["Greek Restaurants"],"distanceKm":18.402561090343216},{"id":"cheapEatsRestaurants_f847faf9509f","slug":"chicktok-f847","kind":"restaurant","name":"Chicktok","lat":35.50994487194263,"lng":24.03139722977992,"url":"https://maps.app.goo.gl/GFvVfqZw2Pr8rjDM9?g_st=ipc","address":"Papanastasiou 2, Chania 731 34","categoryIds":["cheap-eats"],"categories":["Gyros & Cheap Eats"],"distanceKm":18.49921734619444}],"sameRegion":[{"id":"municipalities_08004ad1efaf","slug":"platanias-0800","kind":"municipality","name":"Πλατανιάς","lat":35.517,"lng":23.883,"region":"Δυτική Κρήτη","name_en":"Platanias","region_en":"West Crete"},{"id":"municipalities_0ffa5a36fefc","slug":"palaiochora-0ffa","kind":"municipality","name":"Παλαιοχώρα","lat":35.2308,"lng":23.6839,"aliases":["Παλαιοχωρα","Paleohora"],"region":"Δυτική Κρήτη","name_en":"Paleochora","region_en":"West Crete"},{"id":"municipalities_62af137be2d2","slug":"kissamos-62af","kind":"municipality","name":"Κίσσαμος","lat":35.493,"lng":23.653,"region":"Δυτική Κρήτη","name_en":"Kissamos","region_en":"West Crete"},{"id":"municipalities_a217cf921275","slug":"chania-a217","kind":"municipality","name":"Χανιά","lat":35.5138,"lng":24.018,"aliases":["Chania","Hania","Χάνια","Χανιών","Χανια","Xania"],"region":"Δυτική Κρήτη","name_en":"Chania","region_en":"West Crete"},{"id":"municipalities_c3a3f80c3d67","slug":"kandanos-selinoy-c3a3","kind":"municipality","name":"Κάνδανος - Σελίνου","lat":35.277,"lng":23.687,"region":"Δυτική Κρήτη","name_en":"Kandanos - Selino","region_en":"West Crete"}]},"__N_SSG":true}