{"pageProps":{"entity":{"id":"municipalities_cfaa6a6444bc","slug":"aridaia-cfaa","kind":"municipality","name":"Αριδαία","lat":40.9333,"lng":22.05,"region":"Κεντρική Μακεδονία","name_en":"Aridaia","region_en":"Central Macedonia"},"sameCategory":[],"nearby":[{"id":"familyFriendly_0fe2b96ad54c","slug":"paramythochora-powered-by-unboxholics-0fe2","kind":"restaurant","name":"Παραμυθοχώρα powered by Unboxholics","lat":40.96985491269367,"lng":21.914553567562834,"url":"https://maps.app.goo.gl/38dNg4YHr7NMSpqy8?g_st=ipc","address":"Pozar Baths 584 00","categoryIds":["family-friendly"],"categories":["Kid Friendly Locations"],"distanceKm":12.079421108285159},{"id":"familyFriendly_20ce7f662369","slug":"waterfalls-of-edessa-20ce","kind":"restaurant","name":"Waterfalls of Edessa","lat":40.80389706859676,"lng":22.056027729555048,"url":"https://maps.app.goo.gl/jGXWJC6i6KeqGJ128?g_st=ipc","address":"Tsimiski 2, Edessa 582 00","categoryIds":["family-friendly"],"categories":["Kid Friendly Locations"],"distanceKm":14.397873689200875},{"id":"familyFriendly_6d37527d6031","slug":"aravissos-6d37","kind":"restaurant","name":"Aravissos","lat":40.84372836252556,"lng":22.29977887392331,"url":"https://maps.app.goo.gl/hexPdMp2cuZPUgmA8?g_st=ic","address":"Αραβησσος 581 00","categoryIds":["family-friendly"],"categories":["Kid Friendly Locations"],"distanceKm":23.239320689410775},{"id":"wineriesVineyards_a36d8bf4fc67","slug":"kir-yianni-winery-a36d","kind":"restaurant","name":"Kir-Yianni Winery","lat":40.65941086004422,"lng":22.071160405925678,"url":"https://maps.app.goo.gl/J5SjPASnL6fBMV2DA?g_st=ipc","address":"Γιαννακοχώρι 592 00","categoryIds":["wineries-vineyards"],"categories":["Wineries & Vineyards"],"distanceKm":30.507128941011555},{"id":"wineriesVineyards_49827f52117e","slug":"oinopoieia-vegoritis-4982","kind":"restaurant","name":"Οινοποιεία Βεγορίτις","lat":40.73416864325467,"lng":21.7391401355809,"url":"https://maps.app.goo.gl/MXd7HMch31d1vFaGA?g_st=ipc","address":"Αγ. Παντελεήμονας, Ag. Panteleimon 532 00","categoryIds":["wineries-vineyards"],"categories":["Wineries & Vineyards"],"distanceKm":34.267523364878244},{"id":"municipalities_68933443b9ec","slug":"naoysa-6893","kind":"municipality","name":"Νάουσα","lat":40.624,"lng":22.144,"region":"Κεντρική Μακεδονία","name_en":"Naousa","region_en":"Central Macedonia","distanceKm":35.2915778614246},{"id":"wineriesVineyards_1a8430108b4e","slug":"boutari-winery-s-a-1a84","kind":"restaurant","name":"Boutari Winery S.A.","lat":40.604954538648315,"lng":22.130368216830174,"url":"https://maps.app.goo.gl/faa8usVkmkz6Gxog6?g_st=ipc","address":"592 00, Epar.Od. Naousas-Kato Vermiou, Stenimachos","categoryIds":["wineries-vineyards"],"categories":["Wineries & Vineyards"],"distanceKm":37.13235589566523},{"id":"wineriesVineyards_5861d01e2ac1","slug":"alpha-estate-5861","kind":"restaurant","name":"Alpha Estate","lat":40.6946468662729,"lng":21.7063723336842,"url":"https://maps.app.goo.gl/3PDmKNgZdxnTo6Yg8?g_st=ipc","address":"2ο χλμ, Ag. Panteleimon 532 00","categoryIds":["wineries-vineyards"],"categories":["Wineries & Vineyards"],"distanceKm":39.248997929502075}],"sameRegion":[{"id":"municipalities_447a33d90dfe","slug":"polygyros-447a","kind":"municipality","name":"Πολύγυρος","lat":40.3167,"lng":23.5167,"region":"Κεντρική Μακεδονία","name_en":"Polygyros","region_en":"Central Macedonia"},{"id":"municipalities_48180ac7ab6a","slug":"kavala-4818","kind":"municipality","name":"Καβάλα","lat":40.937,"lng":24.406,"region":"Κεντρική Μακεδονία","name_en":"Kavala","region_en":"Central Macedonia"},{"id":"municipalities_68933443b9ec","slug":"naoysa-6893","kind":"municipality","name":"Νάουσα","lat":40.624,"lng":22.144,"region":"Κεντρική Μακεδονία","name_en":"Naousa","region_en":"Central Macedonia"},{"id":"municipalities_c1f706b91268","slug":"kilkis-c1f7","kind":"municipality","name":"Κιλκίς","lat":40.99,"lng":22.875,"region":"Κεντρική Μακεδονία","name_en":"Kilkis","region_en":"Central Macedonia"}]},"__N_SSG":true}