{"pageProps":{"entity":{"id":"luxuryDiningRestaurants_833534a7f3fd","slug":"arsanas-restaurant-8335","kind":"restaurant","name":"Arsanas Restaurant","lat":40.21412369806133,"lng":23.668831407001306,"url":"https://maps.app.goo.gl/ozns5EfUF1bBobta7?g_st=ipc","address":"Epar.Od. Nikitis-Sartis, Sithonia 630 88","categoryIds":["luxury-dining"],"categories":["Luxury Dining"]},"sameCategory":[{"id":"luxuryDiningRestaurants_196e6aef577f","slug":"the-squirrel-within-the-danai-196e","kind":"restaurant","name":"The Squirrel (within THE DANAI)","lat":40.227442786976205,"lng":23.62922543555653,"url":"https://maps.app.goo.gl/D9QsWypNZeRP7Tdi7?g_st=ipc","address":"6JGH+XM, Sithonia 630 88","categoryIds":["luxury-dining"],"categories":["Luxury Dining"]},{"id":"luxuryDiningRestaurants_f6d3a7539ed9","slug":"bubo-f6d3","kind":"restaurant","name":"Bubo","lat":40.19127812556052,"lng":23.80445470083623,"url":"https://maps.app.goo.gl/n2fTsV6Gr8NWKq3k7?g_st=ipc","address":"5RR3+FH, Sithonia 630 78 (within Ekies All Senses Resort)","categoryIds":["luxury-dining"],"categories":["Luxury Dining"]},{"id":"luxuryDiningRestaurants_2d2c5322c1ce","slug":"uma-chefs-home-experience-2d2c","kind":"restaurant","name":"UMA chefs home experience","lat":40.560444872075784,"lng":23.032058735745576,"url":"https://maps.app.goo.gl/RiQip9TNX7v886747?g_st=ipc","address":"Ελευθερίας, Πανόραμα - Θέρμη, Τ.Θ.Δ3026, Thessaloniki 570 01","categoryIds":["luxury-dining"],"categories":["Luxury Dining"]},{"id":"luxuryDiningRestaurants_bbb8974858e3","slug":"duck-bbb8","kind":"restaurant","name":"Duck","lat":40.56052899575869,"lng":22.986792720078764,"url":"https://maps.app.goo.gl/5gpSyYcYprQvjjq88?g_st=ipc","address":"Chalkis 3, Pilea Chortiatis 570 01","categoryIds":["luxury-dining"],"categories":["Luxury Dining"]},{"id":"luxuryDiningRestaurants_20a0f2d7ec25","slug":"maiami-seafood-restaurant-20a0","kind":"restaurant","name":"Maiami Seafood Restaurant","lat":40.56607027401273,"lng":22.958428998890472,"url":"https://maps.app.goo.gl/Py5DhXkzzrWSZ9VV6?g_st=ipc","address":"Thetidos 18, Kalamaria 551 32","categoryIds":["luxury-dining"],"categories":["Luxury Dining"]},{"id":"luxuryDiningRestaurants_e02771b2a295","slug":"mavri-thalassa-e027","kind":"restaurant","name":"Mavri Thalassa","lat":40.57843617435474,"lng":22.943234064415787,"url":"https://maps.app.goo.gl/CFRMztsRLco8Wy1G9?g_st=ipc","address":"Nik. Plastira 3, Kalamaria 551 32","categoryIds":["luxury-dining"],"categories":["Luxury Dining"]},{"id":"luxuryDiningRestaurants_aa49ab401c78","slug":"opsopoion-maganeiai-aa49","kind":"restaurant","name":"Opsopoion Maganeiai","lat":40.59504961870734,"lng":22.950911901497957,"url":"https://maps.app.goo.gl/bY2dGZAgk6wxVc1e9?g_st=ipc","address":"Komotinis 6, Thessaloniki 546 55","categoryIds":["luxury-dining"],"categories":["Luxury Dining"]},{"id":"luxuryDiningRestaurants_6c2f9d989a6a","slug":"shark-bar-restaurant-thessaloniki-6c2f","kind":"restaurant","name":"SHARK Bar | Restaurant - Thessaloniki","lat":40.59118558847925,"lng":22.946520720029824,"url":"https://maps.app.goo.gl/gugoZEiFmeixR8B67?g_st=ipc","address":"Argonafton 2, Kalamaria 551 31","categoryIds":["luxury-dining"],"categories":["Luxury Dining"]}],"nearby":[{"id":"fishTavernasRestaurants_e355b9bd1307","slug":"arsanas-restaurant-e355","kind":"restaurant","name":"Arsanas Restaurant","lat":40.2141250129841,"lng":23.668831311582355,"url":"https://maps.app.goo.gl/RAaNDUnjFSAhBEiK6?g_st=ipc","address":"Epar.Od. Nikitis-Sartis, Sithonia 630 88","categoryIds":["fish-tavernas"],"categories":["Fish Tavernas"],"distanceKm":0.00014643705927203094},{"id":"coffeeBrunchRestaurants_546a0710ab1d","slug":"alexandros-cafe-restaurant-bar-546a","kind":"restaurant","name":"Alexandros Cafe Restaurant Bar","lat":40.21526877453814,"lng":23.66789134136706,"url":"https://maps.app.goo.gl/3iczx4sTEWWz3ZCY9?g_st=ipc","address":"Egialou 30, Nikiti 630 88","categoryIds":["coffee-brunch"],"categories":["Coffee & Brunch Spots"],"distanceKm":0.150278906659921},{"id":"italianRestaurants_ffaa4186c19b","slug":"alexandros-cafe-restaurant-bar-ffaa","kind":"restaurant","name":"Alexandros Cafe Restaurant Bar","lat":40.21526800111842,"lng":23.667889434197388,"url":"https://maps.app.goo.gl/jzS5R55938F8T3nV6?g_st=ipc","address":"Egialou 30, Nikiti 630 88","categoryIds":["italian"],"categories":["Italian Restaurants"],"distanceKm":0.15029217004724335},{"id":"greekRestaurants_f396e19049a3","slug":"alexandros-cafe-restaurant-bar-f396","kind":"restaurant","name":"Alexandros Cafe Restaurant Bar","lat":40.215334673838484,"lng":23.6678969632437,"url":"https://maps.app.goo.gl/Ro9BpyMU87qLU8Uc8?g_st=ipc","address":"Αιγιαλού 30, Νικήτη 630 88","categoryIds":["greek-restaurants"],"categories":["Greek Restaurants"],"distanceKm":0.15629290701112183},{"id":"fishTavernasRestaurants_5ddf9e953038","slug":"thymari-taverna-5ddf","kind":"restaurant","name":"Thymari taverna","lat":40.21611233902217,"lng":23.666893873150787,"url":"https://maps.app.goo.gl/PcZJeEER8XQLBzFZ8?g_st=ipc","address":"παραλία Νικήτης, Nikiti 630 88","categoryIds":["fish-tavernas"],"categories":["Fish Tavernas"],"distanceKm":0.27561458587419113},{"id":"italianRestaurants_733e26d4376e","slug":"capri-nuovo-733e","kind":"restaurant","name":"Capri Nuovo","lat":40.21248872613691,"lng":23.671364142442222,"url":"https://maps.app.goo.gl/rZCcxBdEfxEpaj619?g_st=ipc","address":"Egialou, Nikiti 630 88","categoryIds":["italian"],"categories":["Italian Restaurants"],"distanceKm":0.28160932319067283},{"id":"cheapEatsRestaurants_777a89009202","slug":"o-gyros-tis-nikitis-777a","kind":"restaurant","name":"Ο Γύρος της Νικήτης","lat":40.21635208465205,"lng":23.666421853120887,"url":"https://maps.app.goo.gl/tK8o5vXTSUBvD7U3A?g_st=ipc","address":"Egialou, Nikiti 630 88","categoryIds":["cheap-eats"],"categories":["Gyros & Cheap Eats"],"distanceKm":0.32133765291406646},{"id":"dessertsRestaurants_98dd00cbac34","slug":"gelateria-ksilaki-98dd","kind":"restaurant","name":"Gelateria Ksilaki","lat":40.21685753813557,"lng":23.667097053863888,"url":"https://maps.app.goo.gl/YNZtpmoKz7NF28Uy9?g_st=ipc","address":"Unnamed Road, Nikiti 630 88","categoryIds":["desserts"],"categories":["Dessert Shops"],"distanceKm":0.33778172207761353}],"sameRegion":[]},"__N_SSG":true}