{"pageProps":{"entity":{"id":"dessertsRestaurants_1784b9fa852d","slug":"baklamania-1784","kind":"restaurant","name":"Baklamania","lat":37.985982058793134,"lng":23.733879471082627,"url":"https://maps.app.goo.gl/dVejuM8qJpCUsYq38?g_st=ipc","address":"Θεμιστοκλέους 49, Αθήνα 106 83","categoryIds":["desserts"],"categories":["Dessert Shops"]},"sameCategory":[{"id":"dessertsRestaurants_0a4575669b20","slug":"sorolop-0a45","kind":"restaurant","name":"Sorolop","lat":37.98564970745245,"lng":23.73486137468713,"url":"https://maps.app.goo.gl/JHNfHtwZtaTRv5c86?g_st=ipc","address":"Ανδρέα Μεταξά 17, Αθήνα 106 81","categoryIds":["desserts"],"categories":["Dessert Shops"]},{"id":"dessertsRestaurants_ba20d8faff31","slug":"craquelin-ba20","kind":"restaurant","name":"Craquelin","lat":37.9865815151158,"lng":23.732749024802267,"url":"https://maps.app.goo.gl/m9Z1VRpp25owhfSz8?g_st=ipc","address":"Σολωμού 23, Αθήνα 106 82","categoryIds":["desserts"],"categories":["Dessert Shops"]},{"id":"dessertsRestaurants_be636dabd487","slug":"afoi-asimakopoyloi-be63","kind":"restaurant","name":"Αφοι Ασημακόπουλοι","lat":37.98543510745225,"lng":23.738217370820664,"url":"https://maps.app.goo.gl/zhMqHSFRswEjySMi9?g_st=ipc","address":"Χαρ. Τρικούπη 82, Αθήνα 106 80","categoryIds":["desserts"],"categories":["Dessert Shops"]},{"id":"dessertsRestaurants_50c92ff86d1d","slug":"portatif-factory-50c9","kind":"restaurant","name":"Πορτατίφ - Factory","lat":37.98547841789868,"lng":23.739345621810312,"url":"https://maps.app.goo.gl/Q5VYitKyncAmC1Wn8?g_st=ipc","address":"Μαυρομιχάλη 81, Αθήνα 114 72","categoryIds":["desserts"],"categories":["Dessert Shops"]},{"id":"dessertsRestaurants_ebf937ba8b50","slug":"stani-ebf9","kind":"restaurant","name":"Στάνη","lat":37.9854576770231,"lng":23.727929129339035,"url":"https://maps.app.goo.gl/eghkbGAv61qnF46Z8?g_st=ipc","address":"Μαρίκας Κοτοπούλη 10, Αθήνα 104 32","categoryIds":["desserts"],"categories":["Dessert Shops"]},{"id":"dessertsRestaurants_9c94210f8850","slug":"portatif-9c94","kind":"restaurant","name":"Πορτατίφ","lat":37.98143747413951,"lng":23.73741735308623,"url":"https://maps.app.goo.gl/SMmjRRT6odmioe2Z7?g_st=ipc","address":"Σίνα 21, Αθήνα 106 72","categoryIds":["desserts"],"categories":["Dessert Shops"]},{"id":"dessertsRestaurants_bc01e604b5d0","slug":"loykoymades-chanion-th-ktistaki-bc01","kind":"restaurant","name":"Λουκουμάδες Χανίων Θ.Κτιστάκη","lat":37.98396443932887,"lng":23.726671901662836,"url":"https://maps.app.goo.gl/JiNj7VSFZZXUBr419?g_st=ipc","address":"Σωκράτους 59, Αθήνα 104 31","categoryIds":["desserts"],"categories":["Dessert Shops"]},{"id":"dessertsRestaurants_6380c13ce6fb","slug":"petek-zacharoplasteio-6380","kind":"restaurant","name":"Πετέκ - Ζαχαροπλαστείο","lat":37.992161285064114,"lng":23.729868228783843,"url":"https://maps.app.goo.gl/bya8rkC9eSnHKYnU9?g_st=ipc","address":"3ης Σεπτεμβρίου 81, Αθήνα 104 34","categoryIds":["desserts"],"categories":["Dessert Shops"]}],"nearby":[{"id":"burgersRestaurants_293449c2193c","slug":"exberg-2934","kind":"restaurant","name":"Exberg","lat":37.985722017039464,"lng":23.73377568835493,"url":"https://maps.app.goo.gl/671QPGYqt87fhozt8?g_st=ipc","address":"Θεμιστοκλέους 56, Αθήνα 106 81","categoryIds":["burgers"],"categories":["Burger Spots"],"distanceKm":0.030312107008275472},{"id":"vegetarianRestaurants_77e942c763e9","slug":"magic-kitchen-chortofagia-themistokleoys-kentro-77e9","kind":"restaurant","name":"Magic Kitchen Χορτοφαγία Θεμιστοκλέους Κέντρο","lat":37.98582880467768,"lng":23.733583710090212,"url":"https://maps.app.goo.gl/ZQqCgQBx8g5Gjgrh7?g_st=ipc","address":"Θεμιστοκλέους 45, Αθήνα 106 82","categoryIds":["vegetarian"],"categories":["Vegetarian Friendly Restaurants"],"distanceKm":0.031020393374274525},{"id":"vegetarianRestaurants_ad1aabfd0107","slug":"cookoomela-grill-vegan-ad1a","kind":"restaurant","name":"Cookoomela Grill Vegan","lat":37.985828644021424,"lng":23.73352687550602,"url":"https://maps.app.goo.gl/QbLppt3u9uZg36Xi6?g_st=ipc","address":"Θεμιστοκλέους 43, Αθήνα 106 83","categoryIds":["vegetarian"],"categories":["Vegetarian Friendly Restaurants"],"distanceKm":0.03529732123248336},{"id":"vegetarianRestaurants_49bc3b76300b","slug":"falafelo-street-food-49bc","kind":"restaurant","name":"Falafelo Street Food","lat":37.98589482225123,"lng":23.733448804787468,"url":"https://maps.app.goo.gl/R4ear5h1EDzpwe8Y8?g_st=ipc","address":"Σουλτάνη 2-4, Αθήνα 106 83","categoryIds":["vegetarian"],"categories":["Vegetarian Friendly Restaurants"],"distanceKm":0.0389699991860837},{"id":"cheapEatsRestaurants_724c8ca91031","slug":"mangal-724c","kind":"restaurant","name":"Mangal","lat":37.98648075392058,"lng":23.733903117356245,"url":"https://maps.app.goo.gl/fZ3o2N67Ya2WA1aQA?g_st=ipc","address":"Σολωμού 12, Αθήνα 106 83","categoryIds":["cheap-eats"],"categories":["Gyros & Cheap Eats"],"distanceKm":0.055491077924500455},{"id":"greekRestaurants_5d1d35aa177d","slug":"gioysoyroym-5d1d","kind":"restaurant","name":"Γιουσουρούμ","lat":37.98634442442922,"lng":23.733413179378076,"url":"https://maps.app.goo.gl/jh9iV3W2AMUY6Pev5","address":"Σουλτάνη 11, Αθήνα 106 82","categoryIds":["greek-restaurants"],"categories":["Greek Restaurants"],"distanceKm":0.05738930219806064},{"id":"cheapEatsRestaurants_cab7e72e3b11","slug":"psitopoleion-giorgos-manos-cab7","kind":"restaurant","name":"Ψητοπωλείον Γιώργος - Μάνος","lat":37.9855993281782,"lng":23.733208439532696,"url":"https://maps.app.goo.gl/jYKrRJuSFDD632N47?g_st=ipc","address":"Θεμιστοκλέους 39, Αθήνα 106 77","categoryIds":["cheap-eats"],"categories":["Gyros & Cheap Eats"],"distanceKm":0.07259244262716953},{"id":"cheapEatsRestaurants_cda079c65f38","slug":"lorda-cda0","kind":"restaurant","name":"Λόρδα","lat":37.986574816164286,"lng":23.734456878858524,"url":"https://maps.app.goo.gl/nBaQ33jw6JEZQp7X9?g_st=ipc","address":"Σπύρου Τρικούπη 3, Αθήνα 106 83","categoryIds":["cheap-eats"],"categories":["Gyros & Cheap Eats"],"distanceKm":0.08309669016928242}],"sameRegion":[]},"__N_SSG":true}