{"pageProps":{"entity":{"id":"rooftopLoungesRestaurants_ce098f537717","slug":"boo-athens-ce09","kind":"restaurant","name":"BOO! Athens","lat":37.978424318586704,"lng":23.72253528291444,"url":"https://maps.app.goo.gl/ChnF9FM8eC4nBqLQ6?g_st=ipc","address":"BOO! Athens","categoryIds":["rooftop-lounges"],"categories":["Rooftop Lounges"]},"sameCategory":[{"id":"rooftopLoungesRestaurants_618102314dfe","slug":"momix-bar-athens-6181","kind":"restaurant","name":"MoMix Bar Athens","lat":37.97873103162127,"lng":23.723898549953017,"url":"https://maps.app.goo.gl/sokqQJABVgjaTNcT9?g_st=ipc","address":"Αγ. Αναργύρων 21, Αθήνα 105 54","categoryIds":["rooftop-lounges"],"categories":["Rooftop Lounges"]},{"id":"rooftopLoungesRestaurants_a05f7e0fe4fe","slug":"mira-me-athens-a05f","kind":"restaurant","name":"Mira Me Athens","lat":37.977359535612116,"lng":23.72186806927444,"url":"https://maps.app.goo.gl/yeJpvac8bRksiNEV9?g_st=ipc","address":"Ερμού 118, Αθήνα 105 54","categoryIds":["rooftop-lounges"],"categories":["Rooftop Lounges"]},{"id":"rooftopLoungesRestaurants_d2b2d3a1881c","slug":"luv-n-roll-house-tattoo-piercing-studio-athens-d2b2","kind":"restaurant","name":"LUV N ROLL HOUSE Tattoo & Piercing Studio | Athens","lat":37.977424235887426,"lng":23.72409772692034,"url":"https://maps.app.goo.gl/wef8tXnuzgY2o9iBA?g_st=ipc","address":"Καραϊσκάκη 14, Αθήνα 105 54","categoryIds":["rooftop-lounges"],"categories":["Rooftop Lounges"]},{"id":"rooftopLoungesRestaurants_8a3b6090d0ba","slug":"buena-vista-social-bar-8a3b","kind":"restaurant","name":"Buena Vista Social Bar","lat":37.97675314568566,"lng":23.72345728050679,"url":"https://maps.app.goo.gl/q9TPDZzxPX6Gn6hv8?g_st=ipc","address":"Αγίου Φιλίππου 7, Αθήνα 105 55","categoryIds":["rooftop-lounges"],"categories":["Rooftop Lounges"]},{"id":"rooftopLoungesRestaurants_a6f3f7763fdc","slug":"cafe-avissinia-a6f3","kind":"restaurant","name":"Cafe Avissinia","lat":37.976617858661804,"lng":23.723660269964185,"url":"https://maps.app.goo.gl/XrFr3v9aufbhaUdc7?g_st=ipc","address":"Κυνέτου 7, Αθήνα 105 55","categoryIds":["rooftop-lounges"],"categories":["Rooftop Lounges"]},{"id":"rooftopLoungesRestaurants_484f7844d0e6","slug":"liystor-484f","kind":"restaurant","name":"LIYSTOR","lat":37.97699862058507,"lng":23.724754043275098,"url":"https://maps.app.goo.gl/VJigoWChXTdvaWWm8?g_st=ipc","address":"Ερμού 92-94, Αθήνα 105 54","categoryIds":["rooftop-lounges"],"categories":["Rooftop Lounges"]},{"id":"rooftopLoungesRestaurants_fd2aeb4fbf06","slug":"couleur-locale-fd2a","kind":"restaurant","name":"Couleur Locale","lat":37.97665657873508,"lng":23.724495249053955,"url":"https://maps.app.goo.gl/xcPngBCfpyfPpqpi9?g_st=ipc","address":"Νορμανού 3, Αθήνα 105 55","categoryIds":["rooftop-lounges"],"categories":["Rooftop Lounges"]},{"id":"rooftopLoungesRestaurants_7332acc097be","slug":"attic-urban-rooftop-7332","kind":"restaurant","name":"Attic Urban Rooftop","lat":37.97687080438377,"lng":23.725410532690592,"url":"https://maps.app.goo.gl/QSZ7GB5QdH583XqD6?g_st=ipc","address":"Ερμού 86, Αθήνα 105 54","categoryIds":["rooftop-lounges"],"categories":["Rooftop Lounges"]}],"nearby":[{"id":"vegetarianRestaurants_6e1c781427b5","slug":"ntao-vietnameziki-koyzina-6e1c","kind":"restaurant","name":"Ντάο Βιετναμέζικη Κουζίνα","lat":37.97853266592714,"lng":23.722814547226115,"url":"https://maps.app.goo.gl/MyM1aFjtySe38NKA9?g_st=ipc","address":"Λεπενιώτου 14, Αθήνα 105 54","categoryIds":["vegetarian"],"categories":["Vegetarian Friendly Restaurants"],"distanceKm":0.027281401629757333},{"id":"coffeeBrunchRestaurants_042f902bce89","slug":"usurum-042f","kind":"restaurant","name":"Usurum","lat":37.97818787977545,"lng":23.72228180277763,"url":"https://maps.app.goo.gl/ySxc5dRDtaNkenof9?g_st=ipc","address":"Λεπενιώτου 19, Αθήνα 105 54","categoryIds":["coffee-brunch"],"categories":["Coffee & Brunch Spots"],"distanceKm":0.03442107318288416},{"id":"cheapEatsRestaurants_6df03a7d154b","slug":"to-soyvlaki-tis-sarri-6df0","kind":"restaurant","name":"το σουβλάκι της σαρρή","lat":37.978860476586924,"lng":23.722082836375154,"url":"https://maps.app.goo.gl/4dueoYmWEmQ4i8jF8?g_st=ipc","address":"Σαρρή 36, Αθήνα 105 53","categoryIds":["cheap-eats"],"categories":["Gyros & Cheap Eats"],"distanceKm":0.06264760338919356},{"id":"burgersRestaurants_09af19b27a7c","slug":"po-boys-bbq-09af","kind":"restaurant","name":"PO'BOYS BBQ","lat":37.97837875741083,"lng":23.723280392822467,"url":"https://maps.app.goo.gl/j39YQoSzREu8gQk77?g_st=ipc","address":"Agatharchou 12 &, Λεπενιώτου, Αθήνα 105 54","categoryIds":["burgers"],"categories":["Burger Spots"],"distanceKm":0.06550404500832276},{"id":"dessertsRestaurants_e14aac326296","slug":"fairytale-athens-cafe-suites-e14a","kind":"restaurant","name":"Fairytale Athens Café & Suites","lat":37.978055870009605,"lng":23.721759750185587,"url":"https://maps.app.goo.gl/RRwtMb4QWCm2gxDA6?g_st=ipc","address":"Λεωκορίου 16, Αθήνα 105 54","categoryIds":["desserts"],"categories":["Dessert Shops"],"distanceKm":0.0793665081321934},{"id":"coffeeBrunchRestaurants_fb26a559a60b","slug":"fairytale-athens-cafe-suites-fb26","kind":"restaurant","name":"Fairytale Athens Café & Suites","lat":37.97805432206773,"lng":23.72175598680767,"url":"https://maps.app.goo.gl/4J2S3rbDjHuSFWW98?g_st=ipc","address":"Λεωκορίου 16, Αθήνα 105 54","categoryIds":["coffee-brunch"],"categories":["Coffee & Brunch Spots"],"distanceKm":0.07973787258053673},{"id":"vegetarianRestaurants_e12f835ae279","slug":"fairytale-athens-cafe-suites-e12f","kind":"restaurant","name":"Fairytale Athens Café & Suites","lat":37.97804693538564,"lng":23.721754929553363,"url":"https://maps.app.goo.gl/JXiyguWxrWe1Wgrf9?g_st=ipc","address":"Leokoriou 16, Athina 105 54","categoryIds":["vegetarian"],"categories":["Vegetarian Friendly Restaurants"],"distanceKm":0.08024372640492684},{"id":"coffeeBrunchRestaurants_1ddb16fae75f","slug":"picky-brunch-specialty-coffee-1ddb","kind":"restaurant","name":"Picky Brunch & Specialty Coffee","lat":37.97805825269081,"lng":23.723335268192,"url":"https://maps.app.goo.gl/yvybgbadXBxDYdiG9?g_st=ipc","address":"Χριστοκοπίδου 14 &, Ναυάρχου Αποστόλη, Αθήνα 105 54","categoryIds":["coffee-brunch"],"categories":["Coffee & Brunch Spots"],"distanceKm":0.08107630864728448}],"sameRegion":[]},"__N_SSG":true}