{"pageProps":{"entity":{"id":"coffeeBrunchRestaurants_de7e3474dbb3","slug":"bouka-bouka-mare-de7e","kind":"restaurant","name":"Bouka Bouka Mare","lat":37.013989599006756,"lng":21.99717016667302,"url":"https://maps.app.goo.gl/8DUAGWFE2uqSxjoi6?g_st=ipc","address":"Παραλία, Messini 242 00","categoryIds":["coffee-brunch"],"categories":["Coffee & Brunch Spots"]},"sameCategory":[{"id":"coffeeBrunchRestaurants_b9249c7456d4","slug":"patriko-pub-cafe-b924","kind":"restaurant","name":"Patriko Pub-Cafe","lat":36.844945849235245,"lng":22.259663624938703,"url":"https://maps.app.goo.gl/cmXtN3A11tRUN13MA?g_st=ipc","address":"Παραλία Στούπας, Stoupa 240 24","categoryIds":["coffee-brunch"],"categories":["Coffee & Brunch Spots"]},{"id":"coffeeBrunchRestaurants_63f25ca28818","slug":"ear-cafe-bar-63f2","kind":"restaurant","name":"Έαρ Cafe Bar","lat":37.67079207904159,"lng":22.182043630957757,"url":"https://maps.app.goo.gl/JnZa27RuEpaKVL4p6?g_st=ipc","address":"Τρύφωνα Ζαχαρόπουλου, Vitina 220 10","categoryIds":["coffee-brunch"],"categories":["Coffee & Brunch Spots"]},{"id":"coffeeBrunchRestaurants_4eafd9c8fe54","slug":"ar-ko-4eaf","kind":"restaurant","name":"Ar&Ko","lat":37.565832099209665,"lng":22.80288803557191,"url":"https://maps.app.goo.gl/VsqimzGRSLvrL3FN7?g_st=ipc","address":"Πάρκο Κολοκοτρώνη, Vasileos Pavlou, Nafplio 211 00","categoryIds":["coffee-brunch"],"categories":["Coffee & Brunch Spots"]},{"id":"coffeeBrunchRestaurants_1d9f7f941901","slug":"liberty-view-of-nafplio-1d9f","kind":"restaurant","name":"Liberty View Of Nafplio","lat":37.56620305969031,"lng":22.806201213990434,"url":"https://maps.app.goo.gl/ZB4UYRxyx55zXBkS9?g_st=ipc","address":"Sidiras Merarchias 39, Nafplio 211 00","categoryIds":["coffee-brunch"],"categories":["Coffee & Brunch Spots"]},{"id":"coffeeBrunchRestaurants_e7e97fb2d3e5","slug":"anemos-cafe-bar-e7e9","kind":"restaurant","name":"Anemos Cafe Bar","lat":37.77116024105471,"lng":21.29250825374054,"url":"https://maps.app.goo.gl/M2pxCK9uxiBVApkD7?g_st=ipc","address":"Kourouta 272 00","categoryIds":["coffee-brunch"],"categories":["Coffee & Brunch Spots"]},{"id":"coffeeBrunchRestaurants_4e218b55f113","slug":"madisons-kitchen-bar-4e21","kind":"restaurant","name":"Madisons Kitchen Bar","lat":37.78371523709895,"lng":20.898097278049377,"url":"https://maps.app.goo.gl/Anc3Yu4uRzD8XagR9?g_st=ipc","address":"Lomvardou 36, Zakinthos 291 00","categoryIds":["coffee-brunch"],"categories":["Coffee & Brunch Spots"]},{"id":"coffeeBrunchRestaurants_ebff8d600624","slug":"jenkins-lounge-eatery-ebff","kind":"restaurant","name":"Jenkins Lounge Eatery","lat":37.786543893628924,"lng":20.898568985854595,"url":"https://maps.app.goo.gl/1TG8uMAi1MTZQgiY8?g_st=ipc","address":"Psaron 3, Zakinthos 291 00","categoryIds":["coffee-brunch"],"categories":["Coffee & Brunch Spots"]},{"id":"coffeeBrunchRestaurants_24def4a9906d","slug":"ydroneta-24de","kind":"restaurant","name":"Υδρονέτα","lat":37.35156953668086,"lng":23.462454743451826,"url":"https://maps.app.goo.gl/JdZyRYb4EEJyr1MGA?g_st=ipc","address":"Επαρ.Οδ. Μανδρακίου-Μωλόυ, Ύδρα 180 40","categoryIds":["coffee-brunch"],"categories":["Coffee & Brunch Spots"]}],"nearby":[{"id":"greekRestaurants_d642ef20da89","slug":"taverna-stoy-kosta-vasileiadis-d642","kind":"restaurant","name":"Ταβέρνα ...Στου Κώστα (Βασιλειάδης)","lat":37.03271251663096,"lng":22.08556254235988,"url":"https://maps.app.goo.gl/kFDrXkX44UQVsEuj6?g_st=ipc","address":"Μπουρνιάς 241 00","categoryIds":["greek-restaurants"],"categories":["Greek Restaurants"],"distanceKm":8.118675404625844},{"id":"greekRestaurants_b6d91074b1e0","slug":"to-chagiati-b6d9","kind":"restaurant","name":"Το Χαγιάτι","lat":37.02551903300677,"lng":22.1045265688528,"url":"https://maps.app.goo.gl/ULLkprr1KA3431Kr5?g_st=ipc","address":"Χρυσοστόμου Σμύρνης 14, Καλαμάτα 241 00","categoryIds":["greek-restaurants"],"categories":["Greek Restaurants"],"distanceKm":9.617056544830428},{"id":"greekRestaurants_b977f4338c5f","slug":"i-goyrnopoyla-b977","kind":"restaurant","name":"Η Γουρνοπούλα","lat":37.04086694947287,"lng":22.10214692733091,"url":"https://maps.app.goo.gl/t4ZM2LzPoSJAP4xr7?g_st=ipc","address":"Αγίου Δημητρίου 3, Μπουρνιάς 241 00","categoryIds":["greek-restaurants"],"categories":["Greek Restaurants"],"distanceKm":9.786516622863264},{"id":"municipalities_27bb87995f2c","slug":"kalamata-27bb","kind":"municipality","name":"Καλαμάτα","lat":37.0389,"lng":22.1142,"aliases":["Kalamata","Καλαματα"],"region":"Μεσσηνία","name_en":"Kalamata","region_en":"Messinia","distanceKm":10.752039057415658},{"id":"dessertsRestaurants_0a8378cb10e5","slug":"chrysanthe-0a83","kind":"restaurant","name":"Chrysánthē","lat":37.04381316216458,"lng":22.112403710830222,"url":"https://maps.app.goo.gl/CqfQrVAqTCRArs3DA?g_st=ipc","address":"Ithomis 8, Kalamata 241 00","categoryIds":["desserts"],"categories":["Dessert Shops"],"distanceKm":10.753446927127715},{"id":"dessertsRestaurants_56efe2dc9d58","slug":"mama-s-sweethouse-56ef","kind":"restaurant","name":"Mama's Sweethouse","lat":37.04347618258237,"lng":22.112767283500112,"url":"https://maps.app.goo.gl/S4yCk6avJpgbawKA7?g_st=ipc","address":"Amfias 20, Kalamata 241 00","categoryIds":["desserts"],"categories":["Dessert Shops"],"distanceKm":10.772711175937108},{"id":"cheapEatsRestaurants_4a509c86a037","slug":"souvlakia-o-tzimis-4a50","kind":"restaurant","name":"Souvlakia o Tzimis","lat":37.04342911583992,"lng":22.113254908943482,"url":"https://maps.app.goo.gl/VEjvVPTR3XkkoZxW8?g_st=ipc","address":"Mpenaki 1, Kalamata 241 00","categoryIds":["cheap-eats"],"categories":["Gyros & Cheap Eats"],"distanceKm":10.812369782981465},{"id":"greekRestaurants_4b292579b6c1","slug":"kastraki-4b29","kind":"restaurant","name":"Καστράκι","lat":36.99814863061726,"lng":22.16327783385712,"url":"https://maps.app.goo.gl/ruMr5U1HpLAsRyMj8?g_st=ipc","address":"Verga, Καλαμάτα 241 00","categoryIds":["greek-restaurants"],"categories":["Greek Restaurants"],"distanceKm":14.854685024275588}],"sameRegion":[]},"__N_SSG":true}