{"pageProps":{"entity":{"id":"dessertsRestaurants_cc34d8a19c1a","slug":"caffe-greco-cc34","kind":"restaurant","name":"Caffe Greco","lat":37.0628393807371,"lng":25.48217786098,"url":"https://maps.app.goo.gl/LEeuqgamRoLhRLwm7?g_st=ipc","address":"Χαλκείο 843 02","categoryIds":["desserts"],"categories":["Dessert Shops"]},"sameCategory":[{"id":"dessertsRestaurants_d95b7562195c","slug":"fasolas-gastrokafeneio-d95b","kind":"restaurant","name":"Fasolas Gastrokafeneio","lat":37.05047818826614,"lng":25.497802541590467,"url":"https://maps.app.goo.gl/BMT18eHqusic7eRN8?g_st=ipc","address":"Filoti 843 02","categoryIds":["desserts"],"categories":["Dessert Shops"]},{"id":"dessertsRestaurants_eb323a6e2ce5","slug":"aktaion-eb32","kind":"restaurant","name":"Aktaíon","lat":37.10978039540428,"lng":25.383810454464182,"url":"https://maps.app.goo.gl/2DJ9CavskAENKDWQ6?g_st=ipc","address":"Naxou, Krinides 843 00","categoryIds":["desserts"],"categories":["Dessert Shops"]},{"id":"dessertsRestaurants_fb9eb4b1bad8","slug":"chou-chouro-fb9e","kind":"restaurant","name":"Chou-Chouro","lat":37.10481340685538,"lng":25.376412266991043,"url":"https://maps.app.goo.gl/Phd5ZDeXAdM1ZXne8?g_st=ipc","address":"Castle Area, Naxos 843 00","categoryIds":["desserts"],"categories":["Dessert Shops"]},{"id":"dessertsRestaurants_394832dca619","slug":"waffle-house-3948","kind":"restaurant","name":"Waffle House","lat":37.10467061317303,"lng":25.375709513413007,"url":"https://maps.app.goo.gl/HYZR2GPUwwpWpFCz6?g_st=ipc","address":"Naxos 843 00","categoryIds":["desserts"],"categories":["Dessert Shops"]},{"id":"dessertsRestaurants_c2d46d4f052a","slug":"aktaion-pastry-ice-cream-downtown-c2d4","kind":"restaurant","name":"Aktaion Pastry & Ice Cream | Downtown","lat":37.105490385586045,"lng":25.375549550238706,"url":"https://maps.app.goo.gl/WWUz17HUPNByCsTf9?g_st=ipc","address":"Π. Πρωτοπαπαδάκη, Naxos 843 00","categoryIds":["desserts"],"categories":["Dessert Shops"]},{"id":"dessertsRestaurants_3d1262fd2666","slug":"fystiki-gelato-3d12","kind":"restaurant","name":"Fystiki Gelato","lat":36.93198529080786,"lng":25.599118541452043,"url":"https://maps.app.goo.gl/SRnK7VZPNJJSVHfq6?g_st=ipc","address":"Κουφονησίων, Koufonisi 843 00","categoryIds":["desserts"],"categories":["Dessert Shops"]},{"id":"dessertsRestaurants_8e6cc5f0cd66","slug":"xilofournos-8e6c","kind":"restaurant","name":"Xilofournos","lat":37.08496749131104,"lng":25.244272132832048,"url":"https://maps.app.goo.gl/rAbxWJidxPCZz1CF9?g_st=ipc","address":"Epar.Od. Naoussas-Marpissas, Paros 844 01","categoryIds":["desserts"],"categories":["Dessert Shops"]},{"id":"dessertsRestaurants_29b6b55e1474","slug":"batistas-bakery-29b6","kind":"restaurant","name":"Batistas Bakery","lat":37.12004600596808,"lng":25.241091128823886,"url":"https://maps.app.goo.gl/WzK8QW7pCKsm8q7M6?g_st=ipc","address":"Naousa 844 01","categoryIds":["desserts"],"categories":["Dessert Shops"]}],"nearby":[{"id":"coffeeBrunchRestaurants_4d900c72bc80","slug":"caffe-greco-4d90","kind":"restaurant","name":"Caffe Greco","lat":37.06283829210554,"lng":25.482179694372245,"url":"https://maps.app.goo.gl/bvxkDLgLP2gCrEDeA?g_st=ipc","address":"Χαλκείο 843 02","categoryIds":["coffee-brunch"],"categories":["Coffee & Brunch Spots"],"distanceKm":0.00020277427945983813},{"id":"greekRestaurants_694ee1d214aa","slug":"paravas-traditional-tavern-souvlaki-694e","kind":"restaurant","name":"PARAVAS Traditional Tavern & Souvlaki","lat":37.06316256125292,"lng":25.482406792920514,"url":"https://maps.app.goo.gl/fmFJ2qDuDCSYVraUA?g_st=ipc","address":"Χαλκείο 843 02","categoryIds":["greek-restaurants"],"categories":["Greek Restaurants"],"distanceKm":0.04127986459215053},{"id":"italianRestaurants_4f96313e6daa","slug":"mitos-arternative-bar-4f96","kind":"restaurant","name":"Mitos ARTernative BAR","lat":37.06317254380818,"lng":25.48274579484659,"url":"https://maps.app.goo.gl/jstAML7uYBqEdQYq6?g_st=ipc","address":"Χαλκείο 843 02","categoryIds":["italian"],"categories":["Italian Restaurants"],"distanceKm":0.06254497355513501},{"id":"coffeeBrunchRestaurants_a1d642828b23","slug":"halki-cafe-bistro-a1d6","kind":"restaurant","name":"Halki Cafe Bistro","lat":37.0642321945567,"lng":25.484940977880758,"url":"https://maps.app.goo.gl/EM1dP9kHW3eWkooMA?g_st=ipc","address":"Epar.Od. Naxou-Apiranthou, Chalkio 843 00","categoryIds":["coffee-brunch"],"categories":["Coffee & Brunch Spots"],"distanceKm":0.2899911036355872},{"id":"coffeeBrunchRestaurants_adc2f257af84","slug":"platanos-cafe-restaurant-adc2","kind":"restaurant","name":"Platanos Cafe Restaurant","lat":37.0520184479865,"lng":25.4980988789785,"url":"https://maps.app.goo.gl/GftgqDRmHM6GREdg9?g_st=ipc","address":"Epar.Od. Naxou-Apiranthou, Filoti 843 02","categoryIds":["coffee-brunch"],"categories":["Coffee & Brunch Spots"],"distanceKm":1.8557290969643874},{"id":"greekRestaurants_1c5a5710b282","slug":"amvrosia-1c5a","kind":"restaurant","name":"Αμβροσία","lat":37.05198027328874,"lng":25.498122685244876,"url":"https://maps.app.goo.gl/hServvR8erYFDEW79?g_st=ipc","address":"Επαρ.Οδ. Δαμαριώνα-Δανακού, Φιλότι 843 02","categoryIds":["greek-restaurants"],"categories":["Greek Restaurants"],"distanceKm":1.8600908653141548},{"id":"dessertsRestaurants_d95b7562195c","slug":"fasolas-gastrokafeneio-d95b","kind":"restaurant","name":"Fasolas Gastrokafeneio","lat":37.05047818826614,"lng":25.497802541590467,"url":"https://maps.app.goo.gl/BMT18eHqusic7eRN8?g_st=ipc","address":"Filoti 843 02","categoryIds":["desserts"],"categories":["Dessert Shops"],"distanceKm":1.9523436380213193},{"id":"coffeeBrunchRestaurants_409a1c00e009","slug":"fasolas-gastrokafeneio-409a","kind":"restaurant","name":"Fasolas Gastrokafeneio","lat":37.05047829842748,"lng":25.497802752574465,"url":"https://maps.app.goo.gl/s28qFqLPN9on9SZy8?g_st=ipc","address":"Filoti 843 02","categoryIds":["coffee-brunch"],"categories":["Coffee & Brunch Spots"],"distanceKm":1.9523483096195258}],"sameRegion":[]},"__N_SSG":true}