{"pageProps":{"entity":{"id":"dessertsRestaurants_c351ea4104d5","slug":"carpo-psychiko-c351","kind":"restaurant","name":"carpo psychiko","lat":38.004332008333996,"lng":23.775883928805627,"url":"https://maps.app.goo.gl/ipvrg2WYGAj3yFzR6?g_st=ipc","address":"Dim. Vasiliou 1, Neo Psichiko 154 51","categoryIds":["desserts"],"categories":["Dessert Shops"]},"sameCategory":[{"id":"dessertsRestaurants_c99ab06196ae","slug":"carpo-psychiko-c99a","kind":"restaurant","name":"carpo psychiko","lat":38.00433299399579,"lng":23.77588410102084,"url":"https://maps.app.goo.gl/cHiF8braV8253FBP6?g_st=ipc","address":"Dim. Vasiliou 1, Neo Psichiko 154 51","categoryIds":["desserts"],"categories":["Dessert Shops"]},{"id":"dessertsRestaurants_b43c17b9e94d","slug":"le-greche-neo-psychiko-b43c","kind":"restaurant","name":"Le Greche NEO Psychiko","lat":38.00380450511544,"lng":23.775289515752554,"url":"https://maps.app.goo.gl/hRu6XR8fQTV8oMCF6?g_st=ipc","address":"Λυκούργου 2, Νέο Ψυχικό 154 51","categoryIds":["desserts"],"categories":["Dessert Shops"]},{"id":"dessertsRestaurants_44539c96154c","slug":"katamaya-sweet-savory-4453","kind":"restaurant","name":"Katamaya Sweet & Savory","lat":38.001728655646296,"lng":23.776605222448108,"url":"https://maps.app.goo.gl/d4khgseTBK8h5W1MA?g_st=ipc","address":"Δημ. Βασιλείου 20, Ψυχικό 154 51","categoryIds":["desserts"],"categories":["Dessert Shops"]},{"id":"dessertsRestaurants_69d8bc325b59","slug":"the-sweet-spot-69d8","kind":"restaurant","name":"The Sweet Spot","lat":38.000116106882906,"lng":23.77349448800709,"url":"https://maps.app.goo.gl/CH4eLFxcoxyVn5pM9?g_st=ipc","address":"Αδριανείου 46, Αθήνα 115 25","categoryIds":["desserts"],"categories":["Dessert Shops"]},{"id":"dessertsRestaurants_578f4bf4ed9c","slug":"dimitris-economides-athens-578f","kind":"restaurant","name":"Dimitris Economides Athens","lat":38.008931143721306,"lng":23.779615664170734,"url":"https://maps.app.goo.gl/wRvmhWMFJRUQ21b49?g_st=ipc","address":"Λεωφ. Κηφισίας 340, Νέο Ψυχικό 154 51","categoryIds":["desserts"],"categories":["Dessert Shops"]},{"id":"dessertsRestaurants_bdb87120c3b8","slug":"athina-kon-bdb8","kind":"restaurant","name":"ΑΘΗΝΑΪΚΟΝ","lat":38.00959872140439,"lng":23.78101021168435,"url":"https://maps.app.goo.gl/ACrYfvjmkufL8q3g9?g_st=ipc","address":"Νικολάου Μάντζαρου 1 &, Εθ. Αντιστάσεως, Νέο Ψυχικό 154 51","categoryIds":["desserts"],"categories":["Dessert Shops"]},{"id":"dessertsRestaurants_0c24728d84f7","slug":"zacharoplasteia-konstantinidis-0c24","kind":"restaurant","name":"Ζαχαροπλαστεία Κωνσταντινίδης","lat":37.994489109318636,"lng":23.768109247569534,"url":"https://maps.app.goo.gl/KRDBFxECZQJmykCB8?g_st=ipc","address":"Λεωφ. Κηφισίας 116, Αθήνα 115 26","categoryIds":["desserts"],"categories":["Dessert Shops"]},{"id":"dessertsRestaurants_12623fbd2b22","slug":"the-cookie-spot-1262","kind":"restaurant","name":"The Cookie Spot","lat":37.99444679765089,"lng":23.767246870295605,"url":"https://maps.app.goo.gl/RvKCNW6xRcbro6To7?g_st=ipc","address":"Λεωφ. Κηφισίας 129, Αθήνα 115 24","categoryIds":["desserts"],"categories":["Dessert Shops"]}],"nearby":[{"id":"dessertsRestaurants_c99ab06196ae","slug":"carpo-psychiko-c99a","kind":"restaurant","name":"carpo psychiko","lat":38.00433299399579,"lng":23.77588410102084,"url":"https://maps.app.goo.gl/cHiF8braV8253FBP6?g_st=ipc","address":"Dim. Vasiliou 1, Neo Psichiko 154 51","categoryIds":["desserts"],"categories":["Dessert Shops"],"distanceKm":0.00011063439804791154},{"id":"burgersRestaurants_d3fef77d7e5b","slug":"the-burger-joint-d3fe","kind":"restaurant","name":"The Burger Joint","lat":38.00432835767844,"lng":23.776577706406886,"url":"https://maps.app.goo.gl/zX4seBG8wnwkkKZo6?g_st=ipc","address":"Σολωμού 4, Νέο Ψυχικό 154 51","categoryIds":["burgers"],"categories":["Burger Spots"],"distanceKm":0.06078850031665999},{"id":"burgersRestaurants_709666ea6902","slug":"akoko-athens-7096","kind":"restaurant","name":"Akoko Athens","lat":38.00485425312051,"lng":23.776133914107284,"url":"https://maps.app.goo.gl/bo55c6wZEvkSgiHn7?g_st=ipc","address":"Σολωμού 1, Νέο Ψυχικό 154 51","categoryIds":["burgers"],"categories":["Burger Spots"],"distanceKm":0.062064327793271847},{"id":"dessertsRestaurants_b43c17b9e94d","slug":"le-greche-neo-psychiko-b43c","kind":"restaurant","name":"Le Greche NEO Psychiko","lat":38.00380450511544,"lng":23.775289515752554,"url":"https://maps.app.goo.gl/hRu6XR8fQTV8oMCF6?g_st=ipc","address":"Λυκούργου 2, Νέο Ψυχικό 154 51","categoryIds":["desserts"],"categories":["Dessert Shops"],"distanceKm":0.07844071081150472},{"id":"asianRestaurants_7aa0cb0c0f53","slug":"sister-7aa0","kind":"restaurant","name":"Sister","lat":38.003216085112086,"lng":23.7757633660399,"url":"https://maps.app.goo.gl/kRDH6Sdii2eyeoRw9?g_st=ipc","address":"Περικλέους 11, Νέο Ψυχικό 154 51","categoryIds":["asian"],"categories":["Asian Restaurants"],"distanceKm":0.12453383083840419},{"id":"mexicanRestaurants_2a24bc59bf5a","slug":"casa-mexicana-2a24","kind":"restaurant","name":"Casa Mexicana","lat":38.00238200041886,"lng":23.77636430613833,"url":"https://maps.app.goo.gl/hZssyRcz7Rfft2mi6?g_st=ipc","address":"Δημ. Βασιλείου 16, Νέο Ψυχικό 154 51","categoryIds":["mexican"],"categories":["Mexican Restaurants"],"distanceKm":0.2208783640700166},{"id":"asianRestaurants_01f6cf956e90","slug":"hachiko-sushi-tales-cocktails-psychiko-01f6","kind":"restaurant","name":"Hachikō Sushi Tales & Cocktails Psychiko","lat":38.0061489322681,"lng":23.777100959451648,"url":"https://maps.app.goo.gl/zRs2QPwRWoXnA8cn9","address":"Olimpionikon 280, Neo Psichiko 154 51","categoryIds":["asian"],"categories":["Asian Restaurants"],"distanceKm":0.22844606990595318},{"id":"dessertsRestaurants_44539c96154c","slug":"katamaya-sweet-savory-4453","kind":"restaurant","name":"Katamaya Sweet & Savory","lat":38.001728655646296,"lng":23.776605222448108,"url":"https://maps.app.goo.gl/d4khgseTBK8h5W1MA?g_st=ipc","address":"Δημ. Βασιλείου 20, Ψυχικό 154 51","categoryIds":["desserts"],"categories":["Dessert Shops"],"distanceKm":0.2962981243728149}],"sameRegion":[]},"__N_SSG":true}