{"pageProps":{"entity":{"id":"municipalities_a217cf921275","slug":"chania-a217","kind":"municipality","name":"Χανιά","lat":35.5138,"lng":24.018,"aliases":["Chania","Hania","Χάνια","Χανιών","Χανια","Xania"],"region":"Δυτική Κρήτη","name_en":"Chania","region_en":"West Crete"},"sameCategory":[],"nearby":[{"id":"cheapEatsRestaurants_57bd67d6d5e4","slug":"delish-food-streat-story-57bd","kind":"restaurant","name":"Delish Food Streat Story","lat":35.515029891736845,"lng":24.02042482402925,"url":"https://maps.app.goo.gl/UfCwCDqjCiAuobpi9?g_st=ipc","address":"Tsouderon 69, Chania 731 32","categoryIds":["cheap-eats"],"categories":["Gyros & Cheap Eats"],"distanceKm":0.2585910602184485},{"id":"cheapEatsRestaurants_620134dd9978","slug":"oasis-6201","kind":"restaurant","name":"Oasis","lat":35.51332964693983,"lng":24.021015604554556,"url":"https://maps.app.goo.gl/cmq1VkqB1tUYSWUX9?g_st=ipc","address":"Voloudaki 4, Chania 731 34","categoryIds":["cheap-eats"],"categories":["Gyros & Cheap Eats"],"distanceKm":0.27790877825719207},{"id":"coffeeBrunchRestaurants_8cd2a3bebc65","slug":"red-jane-bakery-8cd2","kind":"restaurant","name":"Red Jαne Bakery","lat":35.51226915120583,"lng":24.01521028800191,"url":"https://maps.app.goo.gl/qBPXWtniji8hcKB88?g_st=ipc","address":"Kidonias 101, Chania 731 36","categoryIds":["coffee-brunch"],"categories":["Coffee & Brunch Spots"],"distanceKm":0.3045185554699127},{"id":"cheapEatsRestaurants_e3e8b9399916","slug":"chicktok-e3e8","kind":"restaurant","name":"Chicktok","lat":35.509944678509925,"lng":24.031396796267106,"url":"https://maps.app.goo.gl/BCA2nTq76iJ2grhB7?g_st=ipc","address":"Papanastasiou 2, Chania 731 34","categoryIds":["cheap-eats"],"categories":["Gyros & Cheap Eats"],"distanceKm":1.2861218178744946},{"id":"cheapEatsRestaurants_f847faf9509f","slug":"chicktok-f847","kind":"restaurant","name":"Chicktok","lat":35.50994487194263,"lng":24.03139722977992,"url":"https://maps.app.goo.gl/GFvVfqZw2Pr8rjDM9?g_st=ipc","address":"Papanastasiou 2, Chania 731 34","categoryIds":["cheap-eats"],"categories":["Gyros & Cheap Eats"],"distanceKm":1.2861516418674104},{"id":"greekRestaurants_4a595232b3a3","slug":"o-koympes-4a59","kind":"restaurant","name":"Ο Κουμπές","lat":35.5043816279159,"lng":24.026404656039464,"url":"https://maps.app.goo.gl/aq1X1YzrveFNjWCR6?g_st=ipc","address":"Παναγούλη 1, Χανιά 731 34","categoryIds":["greek-restaurants"],"categories":["Greek Restaurants"],"distanceKm":1.2944208883429433},{"id":"fishTavernasRestaurants_052e930b9594","slug":"thalassino-ageri-052e","kind":"restaurant","name":"Thalassino Ageri","lat":35.519850213268185,"lng":24.037118927264085,"url":"https://maps.app.goo.gl/6SKxxTD4XKy95nvdA?g_st=ipc","address":"Vivilaki str 35 Tabakaria, Chania 731 33","categoryIds":["fish-tavernas"],"categories":["Fish Tavernas"],"distanceKm":1.8565666535491494},{"id":"luxuryDiningRestaurants_7d75993a4b6a","slug":"thalassino-ageri-7d75","kind":"restaurant","name":"Thalassino Ageri","lat":35.51984802590005,"lng":24.037120467560246,"url":"https://maps.app.goo.gl/6Db89EHL2DCe7XDbA?g_st=ipc","address":"Vivilaki str 35 Tabakaria, Chania 731 33","categoryIds":["luxury-dining"],"categories":["Luxury Dining"],"distanceKm":1.8566084928292164}],"sameRegion":[{"id":"municipalities_08004ad1efaf","slug":"platanias-0800","kind":"municipality","name":"Πλατανιάς","lat":35.517,"lng":23.883,"region":"Δυτική Κρήτη","name_en":"Platanias","region_en":"West Crete"},{"id":"municipalities_0ffa5a36fefc","slug":"palaiochora-0ffa","kind":"municipality","name":"Παλαιοχώρα","lat":35.2308,"lng":23.6839,"aliases":["Παλαιοχωρα","Paleohora"],"region":"Δυτική Κρήτη","name_en":"Paleochora","region_en":"West Crete"},{"id":"municipalities_62af137be2d2","slug":"kissamos-62af","kind":"municipality","name":"Κίσσαμος","lat":35.493,"lng":23.653,"region":"Δυτική Κρήτη","name_en":"Kissamos","region_en":"West Crete"},{"id":"municipalities_7c02ce6807c9","slug":"apokoronoy-7c02","kind":"municipality","name":"Αποκορώνου","lat":35.437,"lng":24.215,"region":"Δυτική Κρήτη","name_en":"Apokoronas","region_en":"West Crete"},{"id":"municipalities_c3a3f80c3d67","slug":"kandanos-selinoy-c3a3","kind":"municipality","name":"Κάνδανος - Σελίνου","lat":35.277,"lng":23.687,"region":"Δυτική Κρήτη","name_en":"Kandanos - Selino","region_en":"West Crete"}]},"__N_SSG":true}