{"pageProps":{"entity":{"id":"greekRestaurants_c29be60e5285","slug":"choirofreno-c29b","kind":"restaurant","name":"Χοιρόφρενο","lat":40.61678728213184,"lng":22.972877458653127,"url":"https://maps.app.goo.gl/fCEBNZq73XUBc6R68?g_st=ipc","address":"Ικαρίας 5, Θεσσαλονίκη 543 51","categoryIds":["greek-restaurants"],"categories":["Greek Restaurants"]},"sameCategory":[{"id":"greekRestaurants_0677d6c362a6","slug":"evora-eatery-0677","kind":"restaurant","name":"Εβόρα Eatery","lat":40.61655136125546,"lng":22.969054811212995,"url":"https://maps.app.goo.gl/K4Cnh5DSvkNE3ttK8?g_st=ipc","address":"Διογένους 13, Θεσσαλονίκη 544 53","categoryIds":["greek-restaurants"],"categories":["Greek Restaurants"]},{"id":"greekRestaurants_5c376770db26","slug":"kafeneion-to-dallaveri-5c37","kind":"restaurant","name":"Kafeneion To Dallaveri","lat":40.61571484515384,"lng":22.976632129539492,"url":"https://maps.app.goo.gl/6CZnkJNTLRD3MjRz7?g_st=ipc","address":"Diagora 51, Thessaloniki 543 51","categoryIds":["greek-restaurants"],"categories":["Greek Restaurants"]},{"id":"greekRestaurants_d088423c78a1","slug":"sygchrono-kafeneion-o-tzertzeles-d088","kind":"restaurant","name":"Σύγχρονο Καφενείον ο Τζερτζελές","lat":40.617294004272665,"lng":22.977421178943235,"url":"https://maps.app.goo.gl/E8KAZpAFgpwoquHv9?g_st=ipc","address":"Καθηγητού Νικολάου Ανδριώτη 13, Θεσσαλονίκη 543 51","categoryIds":["greek-restaurants"],"categories":["Greek Restaurants"]},{"id":"greekRestaurants_2b555dc83271","slug":"soyvlakia-o-giannis-2b55","kind":"restaurant","name":"Σουβλάκια \"Ο Γιάννης\"","lat":40.61367230211868,"lng":22.968664986882153,"url":"https://maps.app.goo.gl/rGd5Se34NDg2Q9er5?g_st=ipc","address":"Κλεάνθους 54, Θεσσαλονίκη 544 53","categoryIds":["greek-restaurants"],"categories":["Greek Restaurants"]},{"id":"greekRestaurants_4d78fe3c61be","slug":"rou-leisure-gatherings-4d78","kind":"restaurant","name":"Rou Leisure Gatherings","lat":40.61281592695175,"lng":22.975955444197268,"url":"https://maps.app.goo.gl/ms5wLYa1p3XXEfE18?g_st=ipc","address":"Πραξαγόρα 22, Θεσσαλονίκη 543 51","categoryIds":["greek-restaurants"],"categories":["Greek Restaurants"]},{"id":"greekRestaurants_7a4337bc20a6","slug":"akrovatis-7a43","kind":"restaurant","name":"Ακροβάτης","lat":40.61307041653645,"lng":22.9677238002552,"url":"https://maps.app.goo.gl/kcK7ME3teiYGRent6?g_st=ipc","address":"Papafi 113, Thessaloniki 544 53","categoryIds":["greek-restaurants"],"categories":["Greek Restaurants"]},{"id":"greekRestaurants_e19673ba852f","slug":"pire-kai-vradiazei-e196","kind":"restaurant","name":"Πήρε και Βραδιάζει","lat":40.6161654625719,"lng":22.96166588679185,"url":"https://maps.app.goo.gl/Y7iaetGgvQnRv1wAA?g_st=ipc","address":"Ομήρου 7, Θεσσαλονίκη 546 39","categoryIds":["greek-restaurants"],"categories":["Greek Restaurants"]},{"id":"greekRestaurants_5da15306c517","slug":"to-kokoraki-5da1","kind":"restaurant","name":"ΤΟ ΚΟΚΟΡΑΚΙ","lat":40.608830562214756,"lng":22.967918600227904,"url":"https://maps.app.goo.gl/8vq7T6uEjaXUnqnWA?g_st=ipc","address":"Mark. Mpotsari 105, Thessaloniki 544 53","categoryIds":["greek-restaurants"],"categories":["Greek Restaurants"]}],"nearby":[{"id":"italianRestaurants_ef2ba38809cf","slug":"funky-s-thessaloniki-ef2b","kind":"restaurant","name":"Funky's Thessaloniki","lat":40.61554997696099,"lng":22.97491381907505,"url":"https://maps.app.goo.gl/mj3rDwuGXJXV42F6A","address":"Grigoriou Lampraki 110, Thessaloniki 543 51","categoryIds":["italian"],"categories":["Italian Restaurants"],"distanceKm":0.22016448215191028},{"id":"cheapEatsRestaurants_8f3b208739c0","slug":"funky-s-thessaloniki-8f3b","kind":"restaurant","name":"Funky's Thessaloniki","lat":40.615543107651526,"lng":22.974915159309568,"url":"https://maps.app.goo.gl/QNUEoQzqLuXtrpVc7?g_st=ipc","address":"Grigoriou Lampraki 110, Thessaloniki 543 51","categoryIds":["cheap-eats"],"categories":["Gyros & Cheap Eats"],"distanceKm":0.22073075467504},{"id":"greekRestaurants_0677d6c362a6","slug":"evora-eatery-0677","kind":"restaurant","name":"Εβόρα Eatery","lat":40.61655136125546,"lng":22.969054811212995,"url":"https://maps.app.goo.gl/K4Cnh5DSvkNE3ttK8?g_st=ipc","address":"Διογένους 13, Θεσσαλονίκη 544 53","categoryIds":["greek-restaurants"],"categories":["Greek Restaurants"],"distanceKm":0.3237192921181846},{"id":"burgersRestaurants_d1aa1b03e041","slug":"evora-eatery-d1aa","kind":"restaurant","name":"Evora Eatery","lat":40.616537415041016,"lng":22.969055137519607,"url":"https://maps.app.goo.gl/nXZzhY9yFR2kDUGA9?g_st=ipc","address":"Diogenous 13, Thessaloniki 544 53","categoryIds":["burgers"],"categories":["Burger Spots"],"distanceKm":0.3238212413030839},{"id":"fishTavernasRestaurants_482591e75ff4","slug":"kritamos-meze-bar-4825","kind":"restaurant","name":"Kritamos Meze-Bar","lat":40.61409377580344,"lng":22.97473899193856,"url":"https://maps.app.goo.gl/PC1XeAa9i5F1wcwX7?g_st=ipc","address":"Tirolois 38, Thessaloniki 543 51","categoryIds":["fish-tavernas"],"categories":["Fish Tavernas"],"distanceKm":0.33821866578471727},{"id":"greekRestaurants_5c376770db26","slug":"kafeneion-to-dallaveri-5c37","kind":"restaurant","name":"Kafeneion To Dallaveri","lat":40.61571484515384,"lng":22.976632129539492,"url":"https://maps.app.goo.gl/6CZnkJNTLRD3MjRz7?g_st=ipc","address":"Diagora 51, Thessaloniki 543 51","categoryIds":["greek-restaurants"],"categories":["Greek Restaurants"],"distanceKm":0.33861199757882493},{"id":"cheapEatsRestaurants_543fb752ef8d","slug":"souvlatzidiko-543f","kind":"restaurant","name":"Souvlatzidiko","lat":40.615140054166176,"lng":22.976602700104493,"url":"https://maps.app.goo.gl/dKu85q9fYtc6krXf7?g_st=ipc","address":"Διαγορα, με Λαμπρακη, Thessaloniki 543 51","categoryIds":["cheap-eats"],"categories":["Gyros & Cheap Eats"],"distanceKm":0.36389421722777426},{"id":"greekRestaurants_d088423c78a1","slug":"sygchrono-kafeneion-o-tzertzeles-d088","kind":"restaurant","name":"Σύγχρονο Καφενείον ο Τζερτζελές","lat":40.617294004272665,"lng":22.977421178943235,"url":"https://maps.app.goo.gl/E8KAZpAFgpwoquHv9?g_st=ipc","address":"Καθηγητού Νικολάου Ανδριώτη 13, Θεσσαλονίκη 543 51","categoryIds":["greek-restaurants"],"categories":["Greek Restaurants"],"distanceKm":0.3876323171212707}],"sameRegion":[]},"__N_SSG":true}