{"pageProps":{"entity":{"id":"rooftopLoungesRestaurants_f5cf87cae9d4","slug":"city-zen-all-day-bar-restaurant-f5cf","kind":"restaurant","name":"City ZEN All Day Bar Restaurant","lat":37.97627508580123,"lng":23.72741558524515,"url":"https://maps.app.goo.gl/jqRmCH3g4tS3Er5o8?g_st=ipc","address":"Αιόλου 11, Αθήνα 105 55","categoryIds":["rooftop-lounges"],"categories":["Rooftop Lounges"]},"sameCategory":[{"id":"rooftopLoungesRestaurants_912cd994ade6","slug":"okra-912c","kind":"restaurant","name":"Okra","lat":37.97626609583597,"lng":23.72702294452752,"url":"https://maps.app.goo.gl/ZPqVVmebDU5mua9w9?g_st=ipc","address":"Μητροπόλεως 82, Αθήνα 105 55","categoryIds":["rooftop-lounges"],"categories":["Rooftop Lounges"]},{"id":"rooftopLoungesRestaurants_fd3b2b6edd97","slug":"anglais-athens-fd3b","kind":"restaurant","name":"Anglais Athens","lat":37.97603265069114,"lng":23.726612987310695,"url":"https://maps.app.goo.gl/3tBECibCkAn27cvf9?g_st=ipc","address":"Κηρυκείου 6, Αθήνα 105 55","categoryIds":["rooftop-lounges"],"categories":["Rooftop Lounges"]},{"id":"rooftopLoungesRestaurants_6749bcabe1a1","slug":"dolli-s-6749","kind":"restaurant","name":"DOLLI•S","lat":37.975812516804545,"lng":23.72812700621026,"url":"https://maps.app.goo.gl/zGocv2wEa4M7oU8NA?g_st=ipc","address":"Μητροπόλεως 49, Αθήνα 105 56","categoryIds":["rooftop-lounges"],"categories":["Rooftop Lounges"]},{"id":"rooftopLoungesRestaurants_304d8926bc1b","slug":"hyper-astro-bar-304d","kind":"restaurant","name":"Hyper Astro Bar","lat":37.97675012881044,"lng":23.726361870755426,"url":"https://maps.app.goo.gl/fGYKpxkmiHEMsHYe9?g_st=ipc","address":"Ερμού 78, & Αθηνάς 2, Αθήνα 105 51","categoryIds":["rooftop-lounges"],"categories":["Rooftop Lounges"]},{"id":"rooftopLoungesRestaurants_24e545264e5c","slug":"ms-24e5","kind":"restaurant","name":"MS","lat":37.97691417323162,"lng":23.726058429208038,"url":"https://maps.app.goo.gl/bs3sf3hsdSxC6Beo9?g_st=ipc","address":"Athinas 1 &, Ερμού, Αθήνα 105 54","categoryIds":["rooftop-lounges"],"categories":["Rooftop Lounges"]},{"id":"rooftopLoungesRestaurants_18ce337fd426","slug":"a-for-athens-18ce","kind":"restaurant","name":"A for Athens","lat":37.97687634031922,"lng":23.725767271545557,"url":"https://maps.app.goo.gl/Vq5qVpsf9STrBATY9?g_st=ipc","address":"Μιαούλη 2-4, Αθήνα 105 54","categoryIds":["rooftop-lounges"],"categories":["Rooftop Lounges"]},{"id":"rooftopLoungesRestaurants_9481fd0f2935","slug":"360-cocktail-bar-9481","kind":"restaurant","name":"360 Cocktail Bar","lat":37.97638780084513,"lng":23.72554423506802,"url":"https://maps.app.goo.gl/MDc3Ag3ciiiASdRN8?g_st=ipc","address":"Ηφαίστου 2, Αθήνα 105 55","categoryIds":["rooftop-lounges"],"categories":["Rooftop Lounges"]},{"id":"rooftopLoungesRestaurants_dccec8a54ab2","slug":"taratsa-athens-dcce","kind":"restaurant","name":"Taratsa Athens","lat":37.97577225088555,"lng":23.729185158634564,"url":"https://maps.app.goo.gl/jwnF2SS5G6PYqRPf9?g_st=ipc","address":"Μητροπόλεως 60, Αθήνα 105 63","categoryIds":["rooftop-lounges"],"categories":["Rooftop Lounges"]}],"nearby":[{"id":"dessertsRestaurants_5e0cb4cc4116","slug":"zuccherino-5e0c","kind":"restaurant","name":"Zuccherino","lat":37.97623565675873,"lng":23.72722343699636,"url":"https://maps.app.goo.gl/boMtKFAnr9YpgWRf9?g_st=ipc","address":"Μητροπόλεως 80, Αθήνα 105 60","categoryIds":["desserts"],"categories":["Dessert Shops"],"distanceKm":0.017403324681607407},{"id":"luxuryDiningRestaurants_1ec414f34680","slug":"okra-1ec4","kind":"restaurant","name":"Okra","lat":37.976265060511366,"lng":23.727023267502062,"url":"https://maps.app.goo.gl/WKQy9EmSUhqhWCug7?g_st=ipc","address":"Μητροπόλεως 82, Αθήνα 105 55","categoryIds":["luxury-dining"],"categories":["Luxury Dining"],"distanceKm":0.03440516324044656},{"id":"rooftopLoungesRestaurants_912cd994ade6","slug":"okra-912c","kind":"restaurant","name":"Okra","lat":37.97626609583597,"lng":23.72702294452752,"url":"https://maps.app.goo.gl/ZPqVVmebDU5mua9w9?g_st=ipc","address":"Μητροπόλεως 82, Αθήνα 105 55","categoryIds":["rooftop-lounges"],"categories":["Rooftop Lounges"],"distanceKm":0.03442992247140188},{"id":"vegetarianRestaurants_7e314f6791f9","slug":"fontana-7e31","kind":"restaurant","name":"Fontana","lat":37.976643434278735,"lng":23.727544640785275,"url":"https://maps.app.goo.gl/AuBtWGWtH3xRZBEV8?g_st=ipc","address":"Αιόλου 17, Αθήνα 105 51","categoryIds":["vegetarian"],"categories":["Vegetarian Friendly Restaurants"],"distanceKm":0.042491821423072125},{"id":"cheapEatsRestaurants_f2848f6727ab","slug":"tylixto-monastiraki-f284","kind":"restaurant","name":"TYLIXTO MONASTIRAKI","lat":37.976859135543,"lng":23.727597993730694,"url":"https://maps.app.goo.gl/s8G17xLU1a1prvZq8?g_st=ipc","address":"Aiolou 19 TYLIXTO, Αιόλου 19, Αθήνα 105 51","categoryIds":["cheap-eats"],"categories":["Gyros & Cheap Eats"],"distanceKm":0.06688247255485955},{"id":"asianRestaurants_3e39975f70d5","slug":"streetwok-3e39","kind":"restaurant","name":"StreetWok","lat":37.97689230907057,"lng":23.727592595188877,"url":"https://maps.app.goo.gl/qhpXyetVXaLisBEWA?g_st=ipc","address":"Αιόλου 21, Αθήνα 105 63","categoryIds":["asian"],"categories":["Asian Restaurants"],"distanceKm":0.07036392284518118},{"id":"cheapEatsRestaurants_723925883510","slug":"streetwok-7239","kind":"restaurant","name":"StreetWok","lat":37.976894650216366,"lng":23.727593295730628,"url":"https://maps.app.goo.gl/ttsNgvAmT6HK6Umz7?g_st=ipc","address":"Αιόλου 21, Αθήνα 105 63","categoryIds":["cheap-eats"],"categories":["Gyros & Cheap Eats"],"distanceKm":0.0706313783792244},{"id":"rooftopLoungesRestaurants_fd3b2b6edd97","slug":"anglais-athens-fd3b","kind":"restaurant","name":"Anglais Athens","lat":37.97603265069114,"lng":23.726612987310695,"url":"https://maps.app.goo.gl/3tBECibCkAn27cvf9?g_st=ipc","address":"Κηρυκείου 6, Αθήνα 105 55","categoryIds":["rooftop-lounges"],"categories":["Rooftop Lounges"],"distanceKm":0.07533694106973145}],"sameRegion":[]},"__N_SSG":true}