{"pageProps":{"entity":{"id":"mexicanRestaurants_35c4494094cc","slug":"cocorico-35c4","kind":"restaurant","name":"Cocorico","lat":38.03523336222832,"lng":23.705870421998508,"url":"https://maps.app.goo.gl/cr3WMKBAZV8ioDio8?g_st=ipc","address":"Ιφιγένειας 31, Ίλιον 131 22","categoryIds":["mexican"],"categories":["Mexican Restaurants"]},"sameCategory":[{"id":"mexicanRestaurants_c5563429e3b3","slug":"agavita-cantina-mexicana-c556","kind":"restaurant","name":"Agavita Cantina Mexicana","lat":38.03199225780443,"lng":23.737193509502852,"url":"https://maps.app.goo.gl/YNaKL4jWfw735LRo9?g_st=ipc","address":"Λεωφ. Δεκελείας 86, Νέα Φιλαδέλφεια Αττικής 143 41","categoryIds":["mexican"],"categories":["Mexican Restaurants"]},{"id":"mexicanRestaurants_249dc358fb68","slug":"item-249d","kind":"restaurant","name":"𝖫𝖠 𝖢𝖠𝖲𝖠 𝖠𝖹𝖴𝖫","lat":38.01238167042839,"lng":23.68855888974166,"url":"https://maps.app.goo.gl/w4rjy3ViFe7tB9vZ8?g_st=ipc","address":"Θηβών 143, Περιστέρι 121 34","categoryIds":["mexican"],"categories":["Mexican Restaurants"]},{"id":"mexicanRestaurants_cccdda88c52d","slug":"la-casa-azul-cccd","kind":"restaurant","name":"La Casa Azul","lat":38.01237602759444,"lng":23.68855969778912,"url":"https://maps.app.goo.gl/HmeGfenDmu6xhBo27","address":"Thivon 143, Peristeri 121 34","categoryIds":["mexican"],"categories":["Mexican Restaurants"]},{"id":"mexicanRestaurants_4fd2b517e59f","slug":"chicos-tequileria-mexicana-4fd2","kind":"restaurant","name":"Chicos Tequileria Mexicana","lat":38.00505726765837,"lng":23.664098826548518,"url":"https://maps.app.goo.gl/EqAGEAoJuRooejLJA?g_st=ipc","address":"Στρ. Καραϊσκάκη 49, Χαϊδάρι 124 61","categoryIds":["mexican"],"categories":["Mexican Restaurants"]},{"id":"mexicanRestaurants_67556fc4ed45","slug":"foinikas-cocina-y-cocteleria-mexicana-6755","kind":"restaurant","name":"Foinikas Cocina Y Cocteleria Mexicana","lat":38.015441217507856,"lng":23.650413232343997,"url":"https://maps.app.goo.gl/opzLk9C1z99QsEwW7?g_st=ipc","address":"Ηρ. Πολυτεχνείου 76, Χαϊδάρι 124 62","categoryIds":["mexican"],"categories":["Mexican Restaurants"]},{"id":"mexicanRestaurants_624c5c1ab8d8","slug":"mentirosa-tacos-cocktails-624c","kind":"restaurant","name":"Mentirosa - Tacos & Cocktails","lat":37.982550988441936,"lng":23.717503924756294,"url":"https://maps.app.goo.gl/1xXknD2jtrEpodcR7?g_st=ipc","address":"Θερμοπυλών 41, Αθήνα 104 35","categoryIds":["mexican"],"categories":["Mexican Restaurants"]},{"id":"mexicanRestaurants_5d5b665dab34","slug":"poncho-tacos-5d5b","kind":"restaurant","name":"Poncho TACOS","lat":37.986865601219684,"lng":23.73564152842256,"url":"https://maps.app.goo.gl/UDV48UEWHbvnBPVPA?g_st=ipc","address":"Θεμιστοκλέους 63, Αθήνα 106 83","categoryIds":["mexican"],"categories":["Mexican Restaurants"]},{"id":"mexicanRestaurants_68ac307861c4","slug":"morenita-all-day-bar-restaurant-68ac","kind":"restaurant","name":"Morenita All Day Bar Restaurant","lat":37.978327591113846,"lng":23.724081018892964,"url":"https://maps.app.goo.gl/HF699YbZfp4NJUYi7?g_st=ipc","address":"Τάκη 13, Αθήνα 105 54","categoryIds":["mexican"],"categories":["Mexican Restaurants"]}],"nearby":[{"id":"cheapEatsRestaurants_158ee5dd1d4f","slug":"cocorico-158e","kind":"restaurant","name":"Cocorico","lat":38.03523380190847,"lng":23.705868008544936,"url":"https://maps.app.goo.gl/4u4xPrqXGjRF9V9cA?g_st=ipc","address":"Ιφιγένειας 31, Ίλιον 131 22","categoryIds":["cheap-eats"],"categories":["Gyros & Cheap Eats"],"distanceKm":0.00021695238545753063},{"id":"dessertsRestaurants_4eb0f195642c","slug":"the-twins-inspiration-4eb0","kind":"restaurant","name":"The Twins Inspiration","lat":38.03397180922058,"lng":23.706833795528777,"url":"https://maps.app.goo.gl/yUZVBieRsMh4Pe6P8?g_st=ipc","address":"Αίαντος 103, Ίλιον 131 22","categoryIds":["desserts"],"categories":["Dessert Shops"],"distanceKm":0.16369761994383808},{"id":"cheapEatsRestaurants_9bf1f7743a87","slug":"dekapentalepto-9bf1","kind":"restaurant","name":"Δεκαπενταλεπτο","lat":38.0332432504206,"lng":23.708153853689517,"url":"https://maps.app.goo.gl/pgrPE8JqcHDwR95q6?g_st=ipc","address":"Πάριδος 90, Ίλιον 131 22","categoryIds":["cheap-eats"],"categories":["Gyros & Cheap Eats"],"distanceKm":0.2982688441366522},{"id":"cheapEatsRestaurants_23208072a530","slug":"o-mparmpas-choriatiki-kantina-2320","kind":"restaurant","name":"Ο Μπάρμπας Χωριάτικη Καντίνα","lat":38.03834405515059,"lng":23.705313931462435,"url":"https://maps.app.goo.gl/rw8Py2VR6j9NeDLn6?g_st=ipc","address":"Αγίου Νικολάου 2, Ίλιον 131 23","categoryIds":["cheap-eats"],"categories":["Gyros & Cheap Eats"],"distanceKm":0.34930993330005805},{"id":"municipalities_ef8568a05e9e","slug":"ilion-ef85","kind":"municipality","name":"Ίλιον","lat":38.038,"lng":23.703,"region":"Δυτικά Προάστια","name_en":"Ilion","region_en":"Western Suburbs","distanceKm":0.39728613787984157},{"id":"italianRestaurants_f98d171cbc3e","slug":"la-greca-ilion-f98d","kind":"restaurant","name":"La Greca Ίλιον","lat":38.033370068810264,"lng":23.70123370557317,"url":"https://maps.app.goo.gl/Btmva8rtUGkuoUtX6?g_st=ipc","address":"Έκτορος 140, Ίλιον 131 23","categoryIds":["italian"],"categories":["Italian Restaurants"],"distanceKm":0.45589238675436516},{"id":"coffeeBrunchRestaurants_6a4b180ed5c1","slug":"le-pain-du-chef-6a4b","kind":"restaurant","name":"LE PAIN - Du chef","lat":38.03133472316872,"lng":23.707950598464468,"url":"https://maps.app.goo.gl/qm2cf1KQg3gUAF9QA?g_st=ipc","address":"Idomeneos, Nestoros 41, Ilion 131 22","categoryIds":["coffee-brunch"],"categories":["Coffee & Brunch Spots"],"distanceKm":0.47023660621467145},{"id":"asianRestaurants_d86051389e82","slug":"kaii-sushi-bar-d860","kind":"restaurant","name":"Kaii sushi bar","lat":38.029067505855075,"lng":23.706941325356716,"url":"https://maps.app.goo.gl/oEMoWWtVbmE4QW2W7?g_st=ipc","address":"Βρισηίδος 47, Δαναών 44, Ίλιον 131 22","categoryIds":["asian"],"categories":["Asian Restaurants"],"distanceKm":0.691997926824318}],"sameRegion":[]},"__N_SSG":true}