{"pageProps":{"entity":{"id":"cheapEatsRestaurants_4ad6c8183391","slug":"crats-mexican-4ad6","kind":"restaurant","name":"Crats Mexican","lat":40.646440943227944,"lng":22.920915607467233,"url":"https://maps.app.goo.gl/L84rScHZkgehJUri7?g_st=ipc","address":"Giannitson 61, Thessaloniki 546 27","categoryIds":["cheap-eats"],"categories":["Gyros & Cheap Eats"]},"sameCategory":[{"id":"cheapEatsRestaurants_6688c0081a92","slug":"ta-babatsika-giro-6688","kind":"restaurant","name":"Ta Babatsika Giro","lat":40.647745410832044,"lng":22.928067747195957,"url":"https://maps.app.goo.gl/gB9jG1sW8aaCssEs7?g_st=ipc","address":"Αγίων Πάντων 28, Thessaloniki 561 23","categoryIds":["cheap-eats"],"categories":["Gyros & Cheap Eats"]},{"id":"cheapEatsRestaurants_65901adf52a7","slug":"mama-tereza-6590","kind":"restaurant","name":"Μαμά Τερέζα","lat":40.64077907495011,"lng":22.91819947384191,"url":"https://maps.app.goo.gl/huQUwoVx5eZ9dY357?g_st=ipc","address":"26is Oktovriou 15, Thessaloniki 546 27","categoryIds":["cheap-eats"],"categories":["Gyros & Cheap Eats"]},{"id":"cheapEatsRestaurants_2966a9f7f7df","slug":"karbouniariko-2966","kind":"restaurant","name":"Karbouniáriko","lat":40.65687885553669,"lng":22.9247874320993,"url":"https://maps.app.goo.gl/HehrRz31yKnDYNa49?g_st=ipc","address":"Nik. Plastira 11, Ampelokipi 561 23","categoryIds":["cheap-eats"],"categories":["Gyros & Cheap Eats"]},{"id":"cheapEatsRestaurants_41498834b457","slug":"crats-fried-chicken-egnatia-4149","kind":"restaurant","name":"Crats Fried Chicken Egnatia","lat":40.63898844732417,"lng":22.938638631354078,"url":"https://maps.app.goo.gl/ck9L5Pz4C9MGKVbV7?g_st=ipc","address":"Egnatia 27, Thessaloniki 546 30","categoryIds":["cheap-eats"],"categories":["Gyros & Cheap Eats"]},{"id":"cheapEatsRestaurants_47ac0ee57ead","slug":"pratina-burger-project-47ac","kind":"restaurant","name":"PRATINA Burger Project","lat":40.63713687744245,"lng":22.93759768195784,"url":"https://maps.app.goo.gl/K3sutrhR1ozDJoT67?g_st=ipc","address":"Veroias 5, Thessaloniki 546 25","categoryIds":["cheap-eats"],"categories":["Gyros & Cheap Eats"]},{"id":"cheapEatsRestaurants_a3eaaa94c58d","slug":"raw-street-burger-thessaloniki-a3ea","kind":"restaurant","name":"Raw Street Burger - Thessaloniki","lat":40.63602099868007,"lng":22.937352405537926,"url":"https://maps.app.goo.gl/gUdJfgvKc5M5F6TR7?g_st=ipc","address":"Politechniou 53, Thessaloniki 546 25","categoryIds":["cheap-eats"],"categories":["Gyros & Cheap Eats"]},{"id":"cheapEatsRestaurants_763f0b4ef33d","slug":"pizza-poselli-763f","kind":"restaurant","name":"Pízza Poselli","lat":40.63738632422352,"lng":22.938994583377827,"url":"https://maps.app.goo.gl/msSh5RZw3k81mKHWA?g_st=ipc","address":"Vilara 2, Thessaloniki 546 25","categoryIds":["cheap-eats"],"categories":["Gyros & Cheap Eats"]},{"id":"cheapEatsRestaurants_2a2e59392a41","slug":"pizza-poselli-2a2e","kind":"restaurant","name":"Pízza Poselli","lat":40.63738614523292,"lng":22.938994770654872,"url":"https://maps.app.goo.gl/GHNR3JPnavP3hDJJ8?g_st=ipc","address":"Vilara 2, Thessaloniki 546 25","categoryIds":["cheap-eats"],"categories":["Gyros & Cheap Eats"]}],"nearby":[{"id":"mexicanRestaurants_d628d8ccc639","slug":"crats-mexican-d628","kind":"restaurant","name":"Crats Mexican","lat":40.64644154324893,"lng":22.920914799027102,"url":"https://maps.app.goo.gl/pYid3ZEGTyzFePMP6?g_st=ipc","address":"Giannitson 61, Thessaloniki 546 27","categoryIds":["mexican"],"categories":["Mexican Restaurants"],"distanceKm":0.00009541297185437204},{"id":"dessertsRestaurants_19a8d37c0b4c","slug":"cinnabon-19a8","kind":"restaurant","name":"Cinnabon","lat":40.646492769432,"lng":22.920799139987686,"url":"https://maps.app.goo.gl/Ndu5vJgYbtj4ou9s5?g_st=ipc","address":"Giannitson 61, Thessaloniki 546 27","categoryIds":["desserts"],"categories":["Dessert Shops"],"distanceKm":0.011391387581900843},{"id":"coffeeBrunchRestaurants_9b9341bfba14","slug":"join-juice-bars-9b93","kind":"restaurant","name":"JOIN juice bars","lat":40.646571727400875,"lng":22.92141339579847,"url":"https://maps.app.goo.gl/pSgB53k7vyQwHX78A?g_st=ipc","address":"Giannitson 61, Thessaloniki 546 27","categoryIds":["coffee-brunch"],"categories":["Coffee & Brunch Spots"],"distanceKm":0.04444414755458249},{"id":"vegetarianRestaurants_3c92bd342c75","slug":"join-juice-bars-3c92","kind":"restaurant","name":"JOIN juice bars","lat":40.646575800803696,"lng":22.9214129245501,"url":"https://maps.app.goo.gl/sS3YEfQ9u5LtTpL57?g_st=ipc","address":"Giannitson 61, Thessaloniki 546 27","categoryIds":["vegetarian"],"categories":["Vegetarian Friendly Restaurants"],"distanceKm":0.044556965865496644},{"id":"luxuryDiningRestaurants_f884c9044ca6","slug":"iberico-f884","kind":"restaurant","name":"Iberico","lat":40.644771791421974,"lng":22.920737302788805,"url":"https://maps.app.goo.gl/zswCQ5dz9hpLhfwE6?g_st=ipc","address":"Νικ. Μάντζαρου 18 &, Kotta Roulia, Thessaloniki 546 27","categoryIds":["luxury-dining"],"categories":["Luxury Dining"],"distanceKm":0.18620987156169577},{"id":"cheapEatsRestaurants_6688c0081a92","slug":"ta-babatsika-giro-6688","kind":"restaurant","name":"Ta Babatsika Giro","lat":40.647745410832044,"lng":22.928067747195957,"url":"https://maps.app.goo.gl/gB9jG1sW8aaCssEs7?g_st=ipc","address":"Αγίων Πάντων 28, Thessaloniki 561 23","categoryIds":["cheap-eats"],"categories":["Gyros & Cheap Eats"],"distanceKm":0.6205980271127605},{"id":"dessertsRestaurants_31d6f488c2f0","slug":"terkenlis-ose-31d6","kind":"restaurant","name":"Terkenlis OSE","lat":40.64470252527838,"lng":22.92850176756682,"url":"https://maps.app.goo.gl/6mo1DJtrfFXMber56?g_st=ipc","address":"Monastiriou, Thessaloniki 546 27","categoryIds":["desserts"],"categories":["Dessert Shops"],"distanceKm":0.6685943266842753},{"id":"cheapEatsRestaurants_65901adf52a7","slug":"mama-tereza-6590","kind":"restaurant","name":"Μαμά Τερέζα","lat":40.64077907495011,"lng":22.91819947384191,"url":"https://maps.app.goo.gl/huQUwoVx5eZ9dY357?g_st=ipc","address":"26is Oktovriou 15, Thessaloniki 546 27","categoryIds":["cheap-eats"],"categories":["Gyros & Cheap Eats"],"distanceKm":0.6699825233449141}],"sameRegion":[]},"__N_SSG":true}