{"pageProps":{"entity":{"id":"greekRestaurants_e2d4737d2e6a","slug":"deka-trapezia-e2d4","kind":"restaurant","name":"Δέκα Τραπέζια","lat":40.62814201457264,"lng":22.946897711090458,"url":"https://maps.app.goo.gl/rmRGahPcj5NACQVp9?g_st=ipc","address":"Στρ. Καλλάρη 4, Θεσσαλονίκη 546 22","categoryIds":["greek-restaurants"],"categories":["Greek Restaurants"]},"sameCategory":[{"id":"greekRestaurants_5db983812e0a","slug":"to-elliniko-5db9","kind":"restaurant","name":"Το Ελληνικό","lat":40.62835209292357,"lng":22.947350658434885,"url":"https://maps.app.goo.gl/xnCJBuGfhotgXpup6?g_st=ipc","address":"Στρ. Καλλάρη 9, Θεσσαλονίκη 546 22","categoryIds":["greek-restaurants"],"categories":["Greek Restaurants"]},{"id":"greekRestaurants_bc2682007b45","slug":"canteen-all-day-bar-restaurant-bc26","kind":"restaurant","name":"Canteen All day Bar Restaurant","lat":40.628045759253304,"lng":22.94769823250704,"url":"https://maps.app.goo.gl/4PvAxWQTpkBWbzxZ6?g_st=ipc","address":"Δημ. Γούναρη 7, Θεσσαλονίκη 546 22","categoryIds":["greek-restaurants"],"categories":["Greek Restaurants"]},{"id":"greekRestaurants_9ca9bccdb731","slug":"diagonios-1977-9ca9","kind":"restaurant","name":"Διαγώνιος 1977","lat":40.628424051093205,"lng":22.94777702854618,"url":"https://maps.app.goo.gl/NGT8FMWUaiPpBxYGA?g_st=ipc","address":"Πλ. Φαναριωτῶν 2, Θεσσαλονίκη 546 22","categoryIds":["greek-restaurants"],"categories":["Greek Restaurants"]},{"id":"greekRestaurants_8e1d134cbe5a","slug":"diavasi-8e1d","kind":"restaurant","name":"Διάβαση","lat":40.629392533313,"lng":22.947707172796427,"url":"https://maps.app.goo.gl/MvYkV7ZoB8ykDseV7?g_st=ipc","address":"Π. Μελά 13, Θεσσαλονίκη 546 22","categoryIds":["greek-restaurants"],"categories":["Greek Restaurants"]},{"id":"greekRestaurants_90c55ea6b27c","slug":"rogkoti-1928-90c5","kind":"restaurant","name":"Ρογκότη 1928","lat":40.63063704521069,"lng":22.947121329539414,"url":"https://maps.app.goo.gl/oYN4BameZGmdPwsE8?g_st=ipc","address":"Grigoriou Palama 8, Thessaloniki 546 22","categoryIds":["greek-restaurants"],"categories":["Greek Restaurants"]},{"id":"greekRestaurants_028889ec4c7c","slug":"kafeneion-giasemi-0288","kind":"restaurant","name":"Καφενείον Γιασεμί","lat":40.62700271205112,"lng":22.950250188903894,"url":"https://maps.app.goo.gl/igCkYjicpsFhyKi79?g_st=ipc","address":"Τσόπελα 4, Θεσσαλονίκη 546 21","categoryIds":["greek-restaurants"],"categories":["Greek Restaurants"]},{"id":"greekRestaurants_96300d908e41","slug":"massalia-9630","kind":"restaurant","name":"Μασσαλία","lat":40.62879227637267,"lng":22.950820456091158,"url":"https://maps.app.goo.gl/Woet67mPUQvmRPAY6?g_st=ipc","address":"Μανουσογιαννάκη 6, Θεσσαλονίκη 546 21","categoryIds":["greek-restaurants"],"categories":["Greek Restaurants"]},{"id":"greekRestaurants_dd92d680950f","slug":"local-thessaloniki-dd92","kind":"restaurant","name":"LOCAL Thessaloniki","lat":40.631447319193505,"lng":22.946995352889463,"url":"https://maps.app.goo.gl/iMk8Tx82t81vQe5y5?g_st=ipc","address":"Παλαιών Πατρών Γερμανού 17, Θεσσαλονίκη 546 22","categoryIds":["greek-restaurants"],"categories":["Greek Restaurants"]}],"nearby":[{"id":"greekRestaurants_5db983812e0a","slug":"to-elliniko-5db9","kind":"restaurant","name":"Το Ελληνικό","lat":40.62835209292357,"lng":22.947350658434885,"url":"https://maps.app.goo.gl/xnCJBuGfhotgXpup6?g_st=ipc","address":"Στρ. Καλλάρη 9, Θεσσαλονίκη 546 22","categoryIds":["greek-restaurants"],"categories":["Greek Restaurants"],"distanceKm":0.04479747946711956},{"id":"vegetarianRestaurants_c6f3e8f66558","slug":"join-juice-bars-c6f3","kind":"restaurant","name":"JOIN juice bars","lat":40.62769116289148,"lng":22.94711801674614,"url":"https://maps.app.goo.gl/nimzQmKjxrKbiFuKA?g_st=ipc","address":"Leof. Nikis 73, Thessaloniki 546 22","categoryIds":["vegetarian"],"categories":["Vegetarian Friendly Restaurants"],"distanceKm":0.05346888838493335},{"id":"coffeeBrunchRestaurants_459993a6b6f4","slug":"join-juice-bars-4599","kind":"restaurant","name":"JOIN juice bars","lat":40.62769069211422,"lng":22.947117280367095,"url":"https://maps.app.goo.gl/7fKny43wd3q96T1s5?g_st=ipc","address":"Leof. Nikis 73, Thessaloniki 546 22","categoryIds":["coffee-brunch"],"categories":["Coffee & Brunch Spots"],"distanceKm":0.05349641596111662},{"id":"vegetarianRestaurants_b82222e81ca2","slug":"merry-berry-health-bar-b822","kind":"restaurant","name":"Merry Berry Health Bar","lat":40.62787788837935,"lng":22.947534537868144,"url":"https://maps.app.goo.gl/9NhW77pMY2C6xJxq8?g_st=ipc","address":"Dim. Gounari 5, Thessaloniki 546 22","categoryIds":["vegetarian"],"categories":["Vegetarian Friendly Restaurants"],"distanceKm":0.061244329982884906},{"id":"fishTavernasRestaurants_d45de4d8396f","slug":"marea-sea-spirit-d45d","kind":"restaurant","name":"MAREA sea spirit","lat":40.628341964657956,"lng":22.947576121389986,"url":"https://maps.app.goo.gl/Ck1Kd1PfuHwFhziJ6?g_st=ipc","address":"Margariti Lori 13, Thessaloniki 546 22","categoryIds":["fish-tavernas"],"categories":["Fish Tavernas"],"distanceKm":0.06141758328790075},{"id":"dessertsRestaurants_9cb3b10fe36b","slug":"yum-tree-9cb3","kind":"restaurant","name":"Yum Tree","lat":40.62786519012478,"lng":22.94755218130747,"url":"https://maps.app.goo.gl/zfkjDiD3iU8Rv19E6?g_st=ipc","address":"Dim. Gounari 5, Thessaloniki 546 22","categoryIds":["desserts"],"categories":["Dessert Shops"],"distanceKm":0.06323021217715834},{"id":"cheapEatsRestaurants_09ba201c7611","slug":"yum-tree-09ba","kind":"restaurant","name":"Yum Tree","lat":40.62786595411914,"lng":22.947554429551257,"url":"https://maps.app.goo.gl/8t8Wb8QaYGPzQ1F76?g_st=ipc","address":"Dim. Gounari 5, Thessaloniki 546 22","categoryIds":["cheap-eats"],"categories":["Gyros & Cheap Eats"],"distanceKm":0.06335480756616249},{"id":"greekRestaurants_bc2682007b45","slug":"canteen-all-day-bar-restaurant-bc26","kind":"restaurant","name":"Canteen All day Bar Restaurant","lat":40.628045759253304,"lng":22.94769823250704,"url":"https://maps.app.goo.gl/4PvAxWQTpkBWbzxZ6?g_st=ipc","address":"Δημ. Γούναρη 7, Θεσσαλονίκη 546 22","categoryIds":["greek-restaurants"],"categories":["Greek Restaurants"],"distanceKm":0.0683998953414052}],"sameRegion":[]},"__N_SSG":true}