{"pageProps":{"entity":{"id":"municipalities_bbf01ed9244c","slug":"drapetsona-bbf0","kind":"municipality","name":"Δραπετσώνα","lat":37.9456,"lng":23.6283,"aliases":["Δραπετσονα"],"region":"Πειραιάς","name_en":"Drapetsona","region_en":"Piraeus"},"sameCategory":[],"nearby":[{"id":"greekRestaurants_0105e2b1bfb5","slug":"i-taverna-toy-katsogiannoy-0105","kind":"restaurant","name":"Η ταβέρνα του Κατσόγιαννου","lat":37.9460888309485,"lng":23.627498476767997,"url":"https://maps.app.goo.gl/JYrJ78md5Yy4N4n89","address":"Αγίου Παντελεήμονος 15, Δραπετσώνα 186 48","categoryIds":["greek-restaurants"],"categories":["Greek Restaurants"],"distanceKm":0.08884986654328197},{"id":"rooftopLoungesRestaurants_43009144e178","slug":"la-luna-see-the-view-4300","kind":"restaurant","name":"La Luna See The View","lat":37.94499432681891,"lng":23.62996124370496,"url":"https://maps.app.goo.gl/uPm46zTckTNqv3Qu9?g_st=ipc","address":"Παύλου, Κουντουριώτου 73, Δραπετσώνα 186 48","categoryIds":["rooftop-lounges"],"categories":["Rooftop Lounges"],"distanceKm":0.1604863291556957},{"id":"greekRestaurants_f42ac62c3249","slug":"bounty-all-aboard-f42a","kind":"restaurant","name":"Bounty all aboard","lat":37.949723445369806,"lng":23.63332963263093,"url":"https://maps.app.goo.gl/2iShe5bzo7qg3ohc6","address":"Εθ. Αντιστάσεως 10, Δραπετσώνα 186 48","categoryIds":["greek-restaurants"],"categories":["Greek Restaurants"],"distanceKm":0.6361845953239592},{"id":"burgersRestaurants_5482afc0ba76","slug":"what-they-said-5482","kind":"restaurant","name":"What They Said","lat":37.94935009682426,"lng":23.633928621056967,"url":"https://maps.app.goo.gl/FpNeWBXuGZZArkse7?g_st=ic","address":"Eth. Antistaseos 37, Drapetsona 186 48","categoryIds":["burgers"],"categories":["Burger Spots"],"distanceKm":0.6461209585335397},{"id":"burgersRestaurants_d46a3e1807bd","slug":"what-they-said-d46a","kind":"restaurant","name":"What They Said","lat":37.94935179980419,"lng":23.633928811446484,"url":"https://maps.app.goo.gl/1hcPfQeHfJrzqf8KA","address":"Eth. Antistaseos 37, Drapetsona 186 48","categoryIds":["burgers"],"categories":["Burger Spots"],"distanceKm":0.6462559306746383},{"id":"greekRestaurants_899916cf9819","slug":"izampela-armenikes-nostimies-8999","kind":"restaurant","name":"Ιζαμπέλα - Αρμένικες νοστιμιές","lat":37.95153993965958,"lng":23.631088706562064,"url":"https://maps.app.goo.gl/r3twrz7bwRr76j8n8","address":"Αναπαύσεως 36, Δραπετσώνα 185 46","categoryIds":["greek-restaurants"],"categories":["Greek Restaurants"],"distanceKm":0.7043019980509757},{"id":"cheapEatsRestaurants_06c18b2e0a28","slug":"o-polyvios-06c1","kind":"restaurant","name":"ο Πολύβιος","lat":37.94989609662676,"lng":23.635292950073545,"url":"https://maps.app.goo.gl/hykabQee4Gtqnvuk9?g_st=ipc","address":"Αγίου Δημητρίου 28, Πειραιάς 185 45","categoryIds":["cheap-eats"],"categories":["Gyros & Cheap Eats"],"distanceKm":0.7772957827339275},{"id":"burgersRestaurants_108c8d4114f6","slug":"bbc-burger-barbeque-corner-108c","kind":"restaurant","name":"BBC Burger Barbeque Corner","lat":37.952390409927204,"lng":23.625437904614223,"url":"https://maps.app.goo.gl/G6x3d2ZUCEMQrN3k7?g_st=ipc","address":"Ἀναπαύσεως 90, Κερατσίνι 187 55","categoryIds":["burgers"],"categories":["Burger Spots"],"distanceKm":0.7956725324755441}],"sameRegion":[{"id":"municipalities_14b2964f3eeb","slug":"keratsini-14b2","kind":"municipality","name":"Κερατσίνι","lat":37.9639,"lng":23.6194,"aliases":["Κερατσινι"],"region":"Πειραιάς","name_en":"Keratsini","region_en":"Piraeus"},{"id":"municipalities_367507a29ecc","slug":"perama-3675","kind":"municipality","name":"Πέραμα","lat":37.9681,"lng":23.5667,"region":"Πειραιάς","name_en":"Perama","region_en":"Piraeus"},{"id":"municipalities_3ebd848d109d","slug":"kastella-3ebd","kind":"municipality","name":"Καστέλλα","lat":37.9319,"lng":23.6533,"region":"Πειραιάς","name_en":"Kastella","region_en":"Piraeus"},{"id":"municipalities_3f3b35dfaf09","slug":"kaminia-3f3b","kind":"municipality","name":"Καμίνια","lat":37.9525,"lng":23.6406,"aliases":["Καμινια"],"region":"Πειραιάς","name_en":"Kaminia","region_en":"Piraeus"},{"id":"municipalities_45e34fb512ae","slug":"peiraias-45e3","kind":"municipality","name":"Πειραιάς","lat":37.9421,"lng":23.6465,"aliases":["Πειραιας","Πειραια","Pireaus","Pireus","Piraeus"],"region":"Πειραιάς","name_en":"Piraeus","region_en":"Piraeus"},{"id":"municipalities_786d04a0f1cf","slug":"mikrolimano-786d","kind":"municipality","name":"Μικρολίμανο","lat":37.9363,"lng":23.6609,"region":"Πειραιάς","name_en":"Mikrolimano","region_en":"Piraeus"},{"id":"municipalities_88d7451feb4f","slug":"pasalimani-88d7","kind":"municipality","name":"Πασαλιμάνι","lat":37.9384,"lng":23.653,"region":"Πειραιάς","name_en":"Pasalimani","region_en":"Piraeus"},{"id":"municipalities_b065b48a967f","slug":"freattyda-b065","kind":"municipality","name":"Φρεαττύδα","lat":37.9399,"lng":23.676,"region":"Πειραιάς","name_en":"Freattyda","region_en":"Piraeus"}]},"__N_SSG":true}