{"pageProps":{"entity":{"id":"dessertsRestaurants_a6a41ba19f78","slug":"exereton-a6a4","kind":"restaurant","name":"Exereton","lat":40.63128878529408,"lng":22.94431478557479,"url":"https://maps.app.goo.gl/gScJKVggjQfTPnLP8?g_st=ipc","address":"Mitropoleos 69, Thessaloniki 546 23","categoryIds":["desserts"],"categories":["Dessert Shops"]},"sameCategory":[{"id":"dessertsRestaurants_79ecf778d058","slug":"trigona-elenidis-kentro-79ec","kind":"restaurant","name":"Trigona Elenidis (Κέντρο)","lat":40.631364775002,"lng":22.945577888917885,"url":"https://maps.app.goo.gl/vemhynL6jAV74wkZA?g_st=ipc","address":"Iktinou 1, Thessaloniki 546 22","categoryIds":["desserts"],"categories":["Dessert Shops"]},{"id":"dessertsRestaurants_d34c7b1101fe","slug":"gellissimo-biscoto-brunch-coffee-thessaloniki-d34c","kind":"restaurant","name":"Gellissimo Biscoto | Brunch • Coffee | Thessaloniki","lat":40.63140057893351,"lng":22.942411089115478,"url":"https://maps.app.goo.gl/hKBcrUZHdy4zfWBD6?g_st=ipc","address":"Proxenou Koromila 8, Thessaloniki 546 23","categoryIds":["desserts"],"categories":["Dessert Shops"]},{"id":"dessertsRestaurants_d0ca7ccef948","slug":"choureal-choux-profiterole-d0ca","kind":"restaurant","name":"Choureál | Choux & Profiterole","lat":40.63128497514692,"lng":22.94642870495605,"url":"https://maps.app.goo.gl/a3ZWXrDCAGuMcPwA6?g_st=ipc","address":"Paleon Patron Germanou 9, Thessaloniki 546 22","categoryIds":["desserts"],"categories":["Dessert Shops"]},{"id":"dessertsRestaurants_9a44dfef37c2","slug":"softie-9a44","kind":"restaurant","name":"Softie","lat":40.63175293928538,"lng":22.94216885639287,"url":"https://maps.app.goo.gl/wypmiNMsE5au37Mr7?g_st=ic","address":"Proxenou Koromila 5, Thessaloniki 546 23","categoryIds":["desserts"],"categories":["Dessert Shops"]},{"id":"dessertsRestaurants_3b2fc988e719","slug":"cookie-man-3b2f","kind":"restaurant","name":"Cookie Man","lat":40.632757475000446,"lng":22.946181479303316,"url":"https://maps.app.goo.gl/WDjY5yJNSF5kSpkeA?g_st=ipc","address":"Makenzi King 8, Thessaloniki 546 22","categoryIds":["desserts"],"categories":["Dessert Shops"]},{"id":"dessertsRestaurants_9d2a4d7ae9ae","slug":"hatzifotiou-9d2a","kind":"restaurant","name":"Hatzifotiou","lat":40.632118329149435,"lng":22.94703754885986,"url":"https://maps.app.goo.gl/65SPRQQN5mowAwhw8?g_st=ipc","address":"P. Mela 37, Thessaloniki 546 22","categoryIds":["desserts"],"categories":["Dessert Shops"]},{"id":"dessertsRestaurants_07f7d8449744","slug":"tzeneral-zacharoplasteio-07f7","kind":"restaurant","name":"Tzeneral Ζαχαροπλαστείο","lat":40.631986554661324,"lng":22.94743879678818,"url":"https://maps.app.goo.gl/tBpAuNdF8KmF9aXe6?g_st=ipc","address":"P. Mela 44, Thessaloniki 546 22","categoryIds":["desserts"],"categories":["Dessert Shops"]},{"id":"dessertsRestaurants_fa6b1cda2935","slug":"terkenlis-fa6b","kind":"restaurant","name":"Terkenlis","lat":40.63318101509439,"lng":22.941941930979123,"url":"https://maps.app.goo.gl/x8RmTioRat9tbKBd8?g_st=ipc","address":"Tsimiski 30, Thessaloniki 546 36","categoryIds":["desserts"],"categories":["Dessert Shops"]}],"nearby":[{"id":"vegetarianRestaurants_e657a11ff030","slug":"exereton-e657","kind":"restaurant","name":"Exereton","lat":40.63128653966046,"lng":22.94431457365469,"url":"https://maps.app.goo.gl/5FEXt9rVscqgVtM8A?g_st=ipc","address":"Mitropoleos 69, Thessaloniki 546 23","categoryIds":["vegetarian"],"categories":["Vegetarian Friendly Restaurants"],"distanceKm":0.00025034264149179525},{"id":"cheapEatsRestaurants_3e2ba0cbb305","slug":"jackaroo-3e2b","kind":"restaurant","name":"Jackaroo","lat":40.631343527256554,"lng":22.944174715835555,"url":"https://maps.app.goo.gl/cRpaEqK3F7inKXVy5?g_st=ipc","address":"Mitropoleos 67, Thessaloniki 546 22","categoryIds":["cheap-eats"],"categories":["Gyros & Cheap Eats"],"distanceKm":0.013295400971097104},{"id":"cheapEatsRestaurants_12c533aae8f8","slug":"derlicatesen-all-souvlaki-12c5","kind":"restaurant","name":"Derlicatesen all Souvlaki","lat":40.630948535574674,"lng":22.944881639476645,"url":"https://maps.app.goo.gl/nooaQmgbY9VX2WGv7?g_st=ipc","address":"John Kouskoura 3, Thessaloniki 546 22","categoryIds":["cheap-eats"],"categories":["Gyros & Cheap Eats"],"distanceKm":0.06098897554015028},{"id":"asianRestaurants_829415263030","slug":"mongo-asian-food-8294","kind":"restaurant","name":"Mongo Asian Food","lat":40.63082745054034,"lng":22.945340872957278,"url":"https://maps.app.goo.gl/sb6JL78bVoxjZHir9","address":"John Kouskoura 6, Thessaloniki 546 22","categoryIds":["asian"],"categories":["Asian Restaurants"],"distanceKm":0.1006439613277352},{"id":"dessertsRestaurants_79ecf778d058","slug":"trigona-elenidis-kentro-79ec","kind":"restaurant","name":"Trigona Elenidis (Κέντρο)","lat":40.631364775002,"lng":22.945577888917885,"url":"https://maps.app.goo.gl/vemhynL6jAV74wkZA?g_st=ipc","address":"Iktinou 1, Thessaloniki 546 22","categoryIds":["desserts"],"categories":["Dessert Shops"],"distanceKm":0.1069245725363299},{"id":"coffeeBrunchRestaurants_8e7fd42757f5","slug":"koukos-8e7f","kind":"restaurant","name":"Koukos","lat":40.6303171719103,"lng":22.944717929555512,"url":"https://maps.app.goo.gl/igjo7pYZywYHB7n77?g_st=ipc","address":"Βογατσικού 10, Thessaloniki 546 22","categoryIds":["coffee-brunch"],"categories":["Coffee & Brunch Spots"],"distanceKm":0.11326832681300944},{"id":"coffeeBrunchRestaurants_4e3f63a5537a","slug":"garcon-brasserie-4e3f","kind":"restaurant","name":"Garçon Brasserie","lat":40.630505389559524,"lng":22.943205623552505,"url":"https://maps.app.goo.gl/GrJYGuBQazoFTfHm9?g_st=ipc","address":"Agias Sofias 2, Thessaloniki 546 22","categoryIds":["coffee-brunch"],"categories":["Coffee & Brunch Spots"],"distanceKm":0.12786343685114177},{"id":"coffeeBrunchRestaurants_987872bb6308","slug":"country-breadery-9878","kind":"restaurant","name":"COUNTRY BREADERY","lat":40.63135416254277,"lng":22.942765966640508,"url":"https://maps.app.goo.gl/xymcn1s9hE8P57deA?g_st=ipc","address":"Proxenou Koromila 13, Thessaloniki 546 23","categoryIds":["coffee-brunch"],"categories":["Coffee & Brunch Spots"],"distanceKm":0.1309030428061802}],"sameRegion":[]},"__N_SSG":true}