{"pageProps":{"entity":{"id":"municipalities_a670e0839011","slug":"faliraki-a670","kind":"municipality","name":"Φαληράκι","lat":36.339,"lng":28.199,"region":"Ρόδος","name_en":"Faliraki","region_en":"Rhodes"},"sameCategory":[],"nearby":[{"id":"familyFriendly_569351c660b6","slug":"waterpark-5693","kind":"restaurant","name":"WaterPark","lat":36.36437213652793,"lng":28.212294371159473,"url":"https://maps.app.goo.gl/6wgTeh9tgUC2bD1a8?g_st=ipc","address":"Athanaton, Rodos 851 05","categoryIds":["family-friendly"],"categories":["Kid Friendly Locations"],"distanceKm":3.0621830240324597},{"id":"luxuryDiningRestaurants_f925bc8a8505","slug":"noble-gourmet-restaurant-f925","kind":"restaurant","name":"Noble Gourmet Restaurant","lat":36.37247796232997,"lng":28.224879049367335,"url":"https://maps.app.goo.gl/ymJ2kfjKBHsihXtt9?g_st=ipc","address":"Elysium Resort & Spa | 5 star hotel in Rhodes, Leoforos Rodou - Kallitheas, Ammoudes 851 00","categoryIds":["luxury-dining"],"categories":["Luxury Dining"],"distanceKm":4.385018419083364},{"id":"municipalities_a9dfbd3c4048","slug":"kolympia-a9df","kind":"municipality","name":"Κολύμπια","lat":36.2943,"lng":28.2011,"region":"Ρόδος","name_en":"Kolympia","region_en":"Rhodes","distanceKm":4.973973121123252},{"id":"municipalities_00d2375b94d4","slug":"kallithea-rodoy-00d2","kind":"municipality","name":"Καλλιθέα Ρόδου","lat":36.3856,"lng":28.2236,"aliases":["Καλλιθεα Ροδου","Kallithea Springs","Kalithea Springs"],"region":"Ρόδος","name_en":"Kalithea Rhodes","region_en":"Rhodes","distanceKm":5.630456522882852},{"id":"municipalities_f04269be7e15","slug":"ialysos-f042","kind":"municipality","name":"Ιαλυσός","lat":36.4149,"lng":28.1588,"region":"Ρόδος","name_en":"Ialysos","region_en":"Rhodes","distanceKm":9.175022541789108},{"id":"municipalities_949baf66ab53","slug":"ixia-949b","kind":"municipality","name":"Ίξια","lat":36.4328,"lng":28.2056,"aliases":["Ιξια"],"region":"Ρόδος","name_en":"Ixia","region_en":"Rhodes","distanceKm":10.44680374359585},{"id":"municipalities_0334126572d2","slug":"rodos-0334","kind":"municipality","name":"Ρόδος","lat":36.434,"lng":28.217,"aliases":["Rodos","Rhodos","Ρόδη","Ροδος"],"region":"Δωδεκάνησα","name_en":"Rhodes","region_en":"Dodecanese","distanceKm":10.685697938734794},{"id":"coffeeBrunchRestaurants_e533a6bcb85f","slug":"naval-cafe-bar-restaurant-e533","kind":"restaurant","name":"NAVAL Cafe Bar Restaurant","lat":36.43323816273261,"lng":28.237832164715215,"url":"https://maps.app.goo.gl/LEtJZTyLhqkrZEGE7?g_st=ipc","address":"Rhodes","categoryIds":["coffee-brunch"],"categories":["Coffee & Brunch Spots"],"distanceKm":11.040319527550764}],"sameRegion":[{"id":"municipalities_00d2375b94d4","slug":"kallithea-rodoy-00d2","kind":"municipality","name":"Καλλιθέα Ρόδου","lat":36.3856,"lng":28.2236,"aliases":["Καλλιθεα Ροδου","Kallithea Springs","Kalithea Springs"],"region":"Ρόδος","name_en":"Kalithea Rhodes","region_en":"Rhodes"},{"id":"municipalities_949baf66ab53","slug":"ixia-949b","kind":"municipality","name":"Ίξια","lat":36.4328,"lng":28.2056,"aliases":["Ιξια"],"region":"Ρόδος","name_en":"Ixia","region_en":"Rhodes"},{"id":"municipalities_a9dfbd3c4048","slug":"kolympia-a9df","kind":"municipality","name":"Κολύμπια","lat":36.2943,"lng":28.2011,"region":"Ρόδος","name_en":"Kolympia","region_en":"Rhodes"},{"id":"municipalities_f04269be7e15","slug":"ialysos-f042","kind":"municipality","name":"Ιαλυσός","lat":36.4149,"lng":28.1588,"region":"Ρόδος","name_en":"Ialysos","region_en":"Rhodes"},{"id":"municipalities_f23b3fb563b4","slug":"lindos-f23b","kind":"municipality","name":"Λίνδος","lat":36.0914,"lng":28.085,"region":"Ρόδος","name_en":"Lindos","region_en":"Rhodes"}]},"__N_SSG":true}