{"pageProps":{"entity":{"id":"coffeeBrunchRestaurants_a7d2f7f99d61","slug":"flaked-croissanterie-moschato-a7d2","kind":"restaurant","name":"Flaked Croissanterie Moschato","lat":37.950290767501926,"lng":23.678176231264157,"url":"https://maps.app.goo.gl/dnEf78CD1KTT1Ewu8?g_st=ipc","address":"Ομήρου 67, Μοσχάτο 183 45","categoryIds":["coffee-brunch"],"categories":["Coffee & Brunch Spots"]},"sameCategory":[{"id":"coffeeBrunchRestaurants_ae83561038ee","slug":"earth-athens-cafe-ae83","kind":"restaurant","name":"Earth Athens Cafe","lat":37.941294659441795,"lng":23.687632862231634,"url":"https://maps.app.goo.gl/ZTYgTAJLEes56zpH6?g_st=ipc","address":"Λεωφ. Ποσειδώνος 16, Αθήνα 176 74","categoryIds":["coffee-brunch"],"categories":["Coffee & Brunch Spots"]},{"id":"coffeeBrunchRestaurants_4b099057dd52","slug":"jardin-all-day-stories-all-day-bar-restaurant-4b09","kind":"restaurant","name":"Jardin All Day Stories ALL DAY BAR RESTAURANT","lat":37.9431877608235,"lng":23.691220347054728,"url":"https://maps.app.goo.gl/6WktKFcLfn3upUnQ6?g_st=ipc","address":"Ναυάρχου Βότση 1, Καλλιθέα 176 74","categoryIds":["coffee-brunch"],"categories":["Coffee & Brunch Spots"]},{"id":"coffeeBrunchRestaurants_e8ba4bec6d9a","slug":"zatopek-book-cafe-e8ba","kind":"restaurant","name":"Zatopek book cafe","lat":37.95902409225205,"lng":23.698098106664805,"url":"https://maps.app.goo.gl/2WQxsGPEDfG7d62UA?g_st=ipc","address":"Π. Τσαλδάρη 209, Καλλιθέα 176 76","categoryIds":["coffee-brunch"],"categories":["Coffee & Brunch Spots"]},{"id":"coffeeBrunchRestaurants_6619baa2337c","slug":"istioploikos-6619","kind":"restaurant","name":"Ιστιοπλοϊκός","lat":37.93594003787034,"lng":23.659959429233506,"url":"https://maps.app.goo.gl/SwZBGSrcnHzSh6sz8?g_st=ipc","address":"T.K, Ακτή Μικρολίμανου, Πειραιάς 185 33","categoryIds":["coffee-brunch"],"categories":["Coffee & Brunch Spots"]},{"id":"coffeeBrunchRestaurants_2d5ab042fd9b","slug":"acera-the-brunch-project-2d5a","kind":"restaurant","name":"Acera The Brunch Project","lat":37.95687155697196,"lng":23.702731169430688,"url":"https://maps.app.goo.gl/evNfcdJQ34R2FXQR8?g_st=ipc","address":"Μαντζαγριωτάκη 105, Καλλιθέα 176 76","categoryIds":["coffee-brunch"],"categories":["Coffee & Brunch Spots"]},{"id":"coffeeBrunchRestaurants_897460bbed61","slug":"sovolos-zacharoplasteio-foyrnos-8974","kind":"restaurant","name":"Sovolos - Ζαχαροπλαστείο - Φούρνος","lat":37.95381653096959,"lng":23.704528203629867,"url":"https://maps.app.goo.gl/wLU7EVqzFWR8dPoq6?g_st=ipc","address":"Συνταγματάρχου Δαβάκη 52, Καλλιθέα 176 72","categoryIds":["coffee-brunch"],"categories":["Coffee & Brunch Spots"]},{"id":"coffeeBrunchRestaurants_bcfaf36dacbe","slug":"tyropites-o-mitsos-bcfa","kind":"restaurant","name":"Τυρόπιτες ο Μήτσος","lat":37.95255129753746,"lng":23.705922909041465,"url":"https://maps.app.goo.gl/SR156bdeLaJYk1WY6?g_st=ipc","address":"Συνταγματάρχου Δαβάκη 32A, Καλλιθέα 176 72","categoryIds":["coffee-brunch"],"categories":["Coffee & Brunch Spots"]},{"id":"coffeeBrunchRestaurants_85d40f2fead5","slug":"koyl-athens-koul-athens-85d4","kind":"restaurant","name":"Κούλ Άθενς (Koul Athens)","lat":37.962653742021914,"lng":23.705449559299996,"url":"https://maps.app.goo.gl/nrAGHFNRzBKSDpfL9?g_st=ipc","address":"P. Tsaldari 129, Kallithea 176 76","categoryIds":["coffee-brunch"],"categories":["Coffee & Brunch Spots"]}],"nearby":[{"id":"cheapEatsRestaurants_06d5422f5e7f","slug":"o-mitsos-06d5","kind":"restaurant","name":"Ο Μήτσος","lat":37.951501915719206,"lng":23.678968163051703,"url":"https://maps.app.goo.gl/dt9dXWs5vWdhfFah6?g_st=ipc","address":"Στρ. Μακρυγιάννη 92, Μοσχάτο 183 45","categoryIds":["cheap-eats"],"categories":["Gyros & Cheap Eats"],"distanceKm":0.15152081728422784},{"id":"greekRestaurants_be3d05b1fe1e","slug":"to-zempereki-koytoyki-moschato-be3d","kind":"restaurant","name":"Το Ζεμπερέκι - Κουτούκι | Μοσχάτο","lat":37.95039414676294,"lng":23.681530575454058,"url":"https://maps.app.goo.gl/D3JyGs93dHL849c59","address":"Σολωμού 92, Μοσχάτο 183 45","categoryIds":["greek-restaurants"],"categories":["Greek Restaurants"],"distanceKm":0.29434048783155187},{"id":"fishTavernasRestaurants_074f55a0dc1f","slug":"argoyra-074f","kind":"restaurant","name":"Άργουρα","lat":37.94571544668026,"lng":23.686046120341317,"url":"https://maps.app.goo.gl/1kvNDFxr5cv6uWZC9?g_st=ipc","address":"Αγησιλάου 49, Καλλιθέα 176 75","categoryIds":["fish-tavernas"],"categories":["Fish Tavernas"],"distanceKm":0.8573366645563983},{"id":"cheapEatsRestaurants_a8d42456619d","slug":"k-grill-a8d4","kind":"restaurant","name":"K Grill","lat":37.94385577895444,"lng":23.685146441261658,"url":"https://maps.app.goo.gl/jm56NTQ4kCuysLqy9?g_st=ipc","address":"Λεωφ. Ελ. Βενιζέλου 330, Καλλιθέα 176 75","categoryIds":["cheap-eats"],"categories":["Gyros & Cheap Eats"],"distanceKm":0.9410354637720846},{"id":"greekRestaurants_16a49956bee9","slug":"mparmpalexis-anatolitikes-geyseis-16a4","kind":"restaurant","name":"Μπαρμπαλέξης Ανατολίτικες Γεύσεις","lat":37.95564763526353,"lng":23.669084735339375,"url":"https://maps.app.goo.gl/8iwKbcyFQg5iwckU9?g_st=ipc","address":"Flemingk 48, Ag. Ioannis Rentis 182 33","categoryIds":["greek-restaurants"],"categories":["Greek Restaurants"],"distanceKm":0.9951017970715911},{"id":"cheapEatsRestaurants_d6753e770498","slug":"o-aris-d675","kind":"restaurant","name":"Ο ΑΡΗΣ","lat":37.95672934899719,"lng":23.669396304305284,"url":"https://maps.app.goo.gl/UpknKH1CFKmC87ij6?g_st=ipc","address":"Π. Μελά 14, Αγ. Ιωάννης Ρέντης 182 33","categoryIds":["cheap-eats"],"categories":["Gyros & Cheap Eats"],"distanceKm":1.0512720232984192},{"id":"municipalities_b065b48a967f","slug":"freattyda-b065","kind":"municipality","name":"Φρεαττύδα","lat":37.9399,"lng":23.676,"region":"Πειραιάς","name_en":"Freattyda","region_en":"Piraeus","distanceKm":1.1710536971035332},{"id":"cheapEatsRestaurants_5a582036089f","slug":"soyvlakia-o-leyteris-5a58","kind":"restaurant","name":"Σουβλάκια Ο Λευτέρης","lat":37.9462875556964,"lng":23.690611255358668,"url":"https://maps.app.goo.gl/ZYkxvzMHun71tMk86?g_st=ipc","address":"Ξενοφώντος 146, Καλλιθέα 176 74","categoryIds":["cheap-eats"],"categories":["Gyros & Cheap Eats"],"distanceKm":1.1777226175887492}],"sameRegion":[]},"__N_SSG":true}