{"pageProps":{"entity":{"id":"municipalities_7fd935ddd138","slug":"florina-7fd9","kind":"municipality","name":"Φλώρινα","lat":40.8167,"lng":21.4167,"region":"Δυτική Μακεδονία","name_en":"Florina","region_en":"Western Macedonia"},"sameCategory":[],"nearby":[{"id":"greekRestaurants_61b5e2a0e0ab","slug":"estiatorio-thomas-61b5","kind":"restaurant","name":"ΕΣΤΙΑΤΟΡΙΟ ΘΩΜΑΣ","lat":40.624719539192625,"lng":21.50165204724572,"url":"https://maps.app.goo.gl/2bdGzZibgXKMFbu56?g_st=ipc","address":"ΑΜΥΝΤΑΙΟ 530 75","categoryIds":["greek-restaurants"],"categories":["Greek Restaurants"],"distanceKm":22.515783076374692},{"id":"wineriesVineyards_b94be12d54af","slug":"ktima-dimopoylos-b94b","kind":"restaurant","name":"Κτήμα Δημόπουλος","lat":40.69536137671463,"lng":21.639884501803266,"url":"https://maps.app.goo.gl/vbjKsFrGPLCsWRvm7?g_st=ipc","address":"1ο χλμ, Xino Nero 530 72","categoryIds":["wineries-vineyards"],"categories":["Wineries & Vineyards"],"distanceKm":23.139442006291866},{"id":"wineriesVineyards_5861d01e2ac1","slug":"alpha-estate-5861","kind":"restaurant","name":"Alpha Estate","lat":40.6946468662729,"lng":21.7063723336842,"url":"https://maps.app.goo.gl/3PDmKNgZdxnTo6Yg8?g_st=ipc","address":"2ο χλμ, Ag. Panteleimon 532 00","categoryIds":["wineries-vineyards"],"categories":["Wineries & Vineyards"],"distanceKm":27.919676839772205},{"id":"wineriesVineyards_49827f52117e","slug":"oinopoieia-vegoritis-4982","kind":"restaurant","name":"Οινοποιεία Βεγορίτις","lat":40.73416864325467,"lng":21.7391401355809,"url":"https://maps.app.goo.gl/MXd7HMch31d1vFaGA?g_st=ipc","address":"Αγ. Παντελεήμονας, Ag. Panteleimon 532 00","categoryIds":["wineries-vineyards"],"categories":["Wineries & Vineyards"],"distanceKm":28.66008934283223},{"id":"municipalities_6cef2b87b118","slug":"kastoria-6cef","kind":"municipality","name":"Καστοριά","lat":40.5181,"lng":21.26,"region":"Δυτική Μακεδονία","name_en":"Kastoria","region_en":"Western Macedonia","distanceKm":35.736503478406945},{"id":"municipalities_56af70d2af49","slug":"ptolemaida-56af","kind":"municipality","name":"Πτολεμαΐδα","lat":40.5167,"lng":21.6667,"region":"Δυτική Μακεδονία","name_en":"Ptolemaida","region_en":"Western Macedonia","distanceKm":39.4637991830632},{"id":"familyFriendly_0fe2b96ad54c","slug":"paramythochora-powered-by-unboxholics-0fe2","kind":"restaurant","name":"Παραμυθοχώρα powered by Unboxholics","lat":40.96985491269367,"lng":21.914553567562834,"url":"https://maps.app.goo.gl/38dNg4YHr7NMSpqy8?g_st=ipc","address":"Pozar Baths 584 00","categoryIds":["family-friendly"],"categories":["Kid Friendly Locations"],"distanceKm":45.179843217334344},{"id":"familyFriendly_20ce7f662369","slug":"waterfalls-of-edessa-20ce","kind":"restaurant","name":"Waterfalls of Edessa","lat":40.80389706859676,"lng":22.056027729555048,"url":"https://maps.app.goo.gl/jGXWJC6i6KeqGJ128?g_st=ipc","address":"Tsimiski 2, Edessa 582 00","categoryIds":["family-friendly"],"categories":["Kid Friendly Locations"],"distanceKm":53.82513862537557}],"sameRegion":[{"id":"municipalities_409628a3ab17","slug":"kozani-4096","kind":"municipality","name":"Κοζάνη","lat":40.3,"lng":21.7833,"region":"Δυτική Μακεδονία","name_en":"Kozani","region_en":"Western Macedonia"},{"id":"municipalities_56af70d2af49","slug":"ptolemaida-56af","kind":"municipality","name":"Πτολεμαΐδα","lat":40.5167,"lng":21.6667,"region":"Δυτική Μακεδονία","name_en":"Ptolemaida","region_en":"Western Macedonia"},{"id":"municipalities_6cef2b87b118","slug":"kastoria-6cef","kind":"municipality","name":"Καστοριά","lat":40.5181,"lng":21.26,"region":"Δυτική Μακεδονία","name_en":"Kastoria","region_en":"Western Macedonia"},{"id":"municipalities_9f6af8365720","slug":"grevena-9f6a","kind":"municipality","name":"Γρεβενά","lat":39.9833,"lng":21.4333,"region":"Δυτική Μακεδονία","name_en":"Grevena","region_en":"Western Macedonia"},{"id":"municipalities_cd2916d304ca","slug":"servia-cd29","kind":"municipality","name":"Σέρβια","lat":40.15,"lng":21.8833,"region":"Δυτική Μακεδονία","name_en":"Servia","region_en":"Western Macedonia"}]},"__N_SSG":true}