{"pageProps":{"entity":{"id":"italianRestaurants_a02be0df2fa9","slug":"frankie-a02b","kind":"restaurant","name":"Frankie","lat":37.98052235951531,"lng":23.738034947822758,"url":"https://maps.app.goo.gl/Ju5CstFm66m8QTbA9?g_st=ipc","address":"Σκουφά 42, Αθήνα 106 72","categoryIds":["italian"],"categories":["Italian Restaurants"]},"sameCategory":[{"id":"italianRestaurants_52398969c9ea","slug":"alex-the-fresh-pasta-bar-5239","kind":"restaurant","name":"ALEX the fresh pasta bar","lat":37.98144779340368,"lng":23.73652703184346,"url":"https://maps.app.goo.gl/sAWyTjj3m9qMaTaY8?g_st=ipc","address":"Μασσαλίας 16, Αθήνα 106 80","categoryIds":["italian"],"categories":["Italian Restaurants"]},{"id":"italianRestaurants_d9eb835a787b","slug":"il-postino-d9eb","kind":"restaurant","name":"IL POSTINO","lat":37.982131533851984,"lng":23.737093611323974,"url":"https://maps.app.goo.gl/7Te4ShNfhnjxZ4C97?g_st=ipc","address":"Γριβαίων 3, Αθήνα 106 80","categoryIds":["italian"],"categories":["Italian Restaurants"]},{"id":"italianRestaurants_b4580bbde39a","slug":"piadina-lumbro-b458","kind":"restaurant","name":"Piadina Lumbro","lat":37.97943796124596,"lng":23.735657958882037,"url":"https://maps.app.goo.gl/uGAbtwYha4Eeb7c56?g_st=ipc","address":"Ομήρου 15, Αθήνα 106 72","categoryIds":["italian"],"categories":["Italian Restaurants"]},{"id":"italianRestaurants_c9470358a12d","slug":"la-pasteria-c947","kind":"restaurant","name":"La Pasteria","lat":37.97832911911956,"lng":23.73614187652223,"url":"https://maps.app.goo.gl/4tmrg1wVrWp5rgjx6?g_st=ipc","address":"Βαλαωρίτου 15, Αθήνα 106 71","categoryIds":["italian"],"categories":["Italian Restaurants"]},{"id":"italianRestaurants_26c15b5688a4","slug":"valtezziana-2-0-26c1","kind":"restaurant","name":"Valtezziana 2.0","lat":37.985220488107345,"lng":23.735852167301612,"url":"https://maps.app.goo.gl/qNCJTFj4cbH4ymKR8?g_st=ipc","address":"Βαλτετσίου 41, Αθήνα 106 81","categoryIds":["italian"],"categories":["Italian Restaurants"]},{"id":"italianRestaurants_5bb1f8760120","slug":"brunello-5bb1","kind":"restaurant","name":"Brunello","lat":37.97774328484756,"lng":23.74346729703624,"url":"https://maps.app.goo.gl/71Ffa4D3sz17HHuJ7?g_st=ipc","address":"Λουκιανού 21b, Αθήνα 106 75","categoryIds":["italian"],"categories":["Italian Restaurants"]},{"id":"italianRestaurants_15f54ac83ec4","slug":"gloria-gati-15f5","kind":"restaurant","name":"Gloria Gati","lat":37.97802514944533,"lng":23.731662994218254,"url":"https://maps.app.goo.gl/VyAef5tB1eVm8LECA?g_st=ipc","address":"Πλ. Αγίου Γεωργίου Καρύτση 6, Αθήνα 105 61","categoryIds":["italian"],"categories":["Italian Restaurants"]},{"id":"italianRestaurants_f3fa54dd222e","slug":"mystic-pizza-pasta-f3fa","kind":"restaurant","name":"Mystic Pizza & Pasta","lat":37.98571885741884,"lng":23.735343296198398,"url":"https://maps.app.goo.gl/1SJBX6YThtp2jdfQ8?g_st=ipc","address":"Εμμανουήλ Μπενάκη 76, Αθήνα 106 81","categoryIds":["italian"],"categories":["Italian Restaurants"]}],"nearby":[{"id":"vegetarianRestaurants_1d02bb631594","slug":"nice-n-easy-1d02","kind":"restaurant","name":"nice n easy","lat":37.98055624645478,"lng":23.738055581611157,"url":"https://maps.app.goo.gl/5WJ6mEF77rV1Cpfv8?g_st=ipc","address":"Ομήρου 60, Αθήνα 106 72","categoryIds":["vegetarian"],"categories":["Vegetarian Friendly Restaurants"],"distanceKm":0.004179570273687404},{"id":"coffeeBrunchRestaurants_19d13a25b343","slug":"filion-19d1","kind":"restaurant","name":"Φίλιον","lat":37.980020632255595,"lng":23.738452651724426,"url":"https://maps.app.goo.gl/Ts2X8wZmEjWPZrR3A?g_st=ipc","address":"Σκουφά 34, Αθήνα 106 72","categoryIds":["coffee-brunch"],"categories":["Coffee & Brunch Spots"],"distanceKm":0.0667291542673797},{"id":"monasteriesChurches_4b11b4e1cf5d","slug":"ieros-naos-agioy-dionysioy-areopagitoy-polioychoy-athinon-4b11","kind":"restaurant","name":"Ιερός Ναός Αγίου Διονυσίου Αρεοπαγίτου, Πολιούχου Αθηνών","lat":37.97972265813733,"lng":23.73873188558116,"url":"https://maps.app.goo.gl/m2sqAvFCJXsVJyjB8?g_st=ipc","address":"Σκουφά 34, Αθήνα 106 72","categoryIds":["monasteries-churches"],"categories":["Monasteries & Spiritual Sites"],"distanceKm":0.10788202192145256},{"id":"dessertsRestaurants_9c94210f8850","slug":"portatif-9c94","kind":"restaurant","name":"Πορτατίφ","lat":37.98143747413951,"lng":23.73741735308623,"url":"https://maps.app.goo.gl/SMmjRRT6odmioe2Z7?g_st=ipc","address":"Σίνα 21, Αθήνα 106 72","categoryIds":["desserts"],"categories":["Dessert Shops"],"distanceKm":0.11525752793338333},{"id":"vegetarianRestaurants_4aaf4cac48a9","slug":"pure-juice-bar-kolonaki-4aaf","kind":"restaurant","name":"PURE Juice Bar | Kolonaki","lat":37.981469364192144,"lng":23.7374505875668,"url":"https://maps.app.goo.gl/5fer5pjj8yDkf3VZ7?g_st=ipc","address":"Σίνα 21, Αθήνα 106 80","categoryIds":["vegetarian"],"categories":["Vegetarian Friendly Restaurants"],"distanceKm":0.11709684110129963},{"id":"coffeeBrunchRestaurants_ad607df7652f","slug":"samba-coffee-roasters-the-shop-ad60","kind":"restaurant","name":"Samba Coffee Roasters | The Shop","lat":37.9794317267494,"lng":23.73762622482217,"url":"https://maps.app.goo.gl/34yfEmMHeLiaz3iD9?g_st=ipc","address":"Σόλωνος 36, Αθήνα 106 73","categoryIds":["coffee-brunch"],"categories":["Coffee & Brunch Spots"],"distanceKm":0.12645316574674387},{"id":"dessertsRestaurants_96fe8f32b3e6","slug":"kora-96fe","kind":"restaurant","name":"KORA","lat":37.98015086678449,"lng":23.739699532790965,"url":"https://maps.app.goo.gl/UK3LPUGZqVW7TtoQ6?g_st=ipc","address":"Παναγιώτου Αναγνωστοπούλου 44, Αθήνα 106 73","categoryIds":["desserts"],"categories":["Dessert Shops"],"distanceKm":0.15162988114223652},{"id":"coffeeBrunchRestaurants_b9df566768c1","slug":"kora-b9df","kind":"restaurant","name":"KORA","lat":37.98011321585773,"lng":23.739705197719534,"url":"https://maps.app.goo.gl/bGLYXaCD894A2zsQ8?g_st=ipc","address":"Παναγιώτου Αναγνωστοπούλου 44, Αθήνα 106 73","categoryIds":["coffee-brunch"],"categories":["Coffee & Brunch Spots"],"distanceKm":0.15329762764817204}],"sameRegion":[]},"__N_SSG":true}