{"pageProps":{"entity":{"id":"municipalities_ee091e4b6525","slug":"gaydos-ee09","kind":"municipality","name":"Γαύδος","lat":34.838,"lng":24.083,"region":"Νότια Κρήτη","name_en":"Gavdos","region_en":"South Crete"},"sameCategory":[],"nearby":[{"id":"municipalities_768e95ff815f","slug":"loytro-768e","kind":"municipality","name":"Λουτρό","lat":35.1956,"lng":24.0781,"aliases":["Λουτρο"],"region":"Νότια Κρήτη","name_en":"Loutro","region_en":"South Crete","distanceKm":39.76580947288373},{"id":"municipalities_cb8d047a94ef","slug":"plakias-cb8d","kind":"municipality","name":"Πλακιάς","lat":35.176,"lng":24.3935,"region":"Κρήτη","name_en":"Plakias","region_en":"Crete","distanceKm":47.034884080643366},{"id":"greekRestaurants_454ccdf9aa06","slug":"vrisi-restaurant-454c","kind":"restaurant","name":"Vrisi Restaurant","lat":35.19843251555281,"lng":24.402218916691474,"url":"https://maps.app.goo.gl/hnANNzynf7sfyaKTA?g_st=ipc","address":"Μύρθιος, 740 60","categoryIds":["greek-restaurants"],"categories":["Greek Restaurants"],"distanceKm":49.51071234683697},{"id":"municipalities_0ffa5a36fefc","slug":"palaiochora-0ffa","kind":"municipality","name":"Παλαιοχώρα","lat":35.2308,"lng":23.6839,"aliases":["Παλαιοχωρα","Paleohora"],"region":"Δυτική Κρήτη","name_en":"Paleochora","region_en":"West Crete","distanceKm":56.81612547810531},{"id":"vegetarianRestaurants_17922606ce48","slug":"thirdeye-1792","kind":"restaurant","name":"ThirdEye","lat":35.23035637395369,"lng":23.680431168077206,"url":"https://maps.app.goo.gl/3unNAK47vshJHbgj7?g_st=ipc","address":"Griechenland, Epar.Od. Strovlon-Paleochoras 28, Paleochora 730 01","categoryIds":["vegetarian"],"categories":["Vegetarian Friendly Restaurants"],"distanceKm":56.98091468052923},{"id":"familyFriendly_647731b73787","slug":"lake-kournas-6477","kind":"restaurant","name":"Lake Kournas","lat":35.33085393719484,"lng":24.275768556511693,"url":"https://maps.app.goo.gl/jBCqSTmypZMRabtf7?g_st=ipc","address":"Georgioupoli 730 07","categoryIds":["family-friendly"],"categories":["Kid Friendly Locations"],"distanceKm":57.5413792087456},{"id":"wineriesVineyards_b838da26d565","slug":"dourakis-winery-b838","kind":"restaurant","name":"Dourakis Winery","lat":35.34955760746719,"lng":24.203022751558134,"url":"https://maps.app.goo.gl/RrgeX3PAEePKPZU79?g_st=ipc","address":"Alikampos, Apokoronou, CHANIA 730 07","categoryIds":["wineries-vineyards"],"categories":["Wineries & Vineyards"],"distanceKm":57.92125110665937},{"id":"municipalities_c3a3f80c3d67","slug":"kandanos-selinoy-c3a3","kind":"municipality","name":"Κάνδανος - Σελίνου","lat":35.277,"lng":23.687,"region":"Δυτική Κρήτη","name_en":"Kandanos - Selino","region_en":"West Crete","distanceKm":60.679914645695874}],"sameRegion":[{"id":"municipalities_0cae5b3ad249","slug":"viannos-0cae","kind":"municipality","name":"Βιάννος","lat":35.05,"lng":25.45,"region":"Νότια Κρήτη","name_en":"Viannos","region_en":"South Crete"},{"id":"municipalities_768e95ff815f","slug":"loytro-768e","kind":"municipality","name":"Λουτρό","lat":35.1956,"lng":24.0781,"aliases":["Λουτρο"],"region":"Νότια Κρήτη","name_en":"Loutro","region_en":"South Crete"},{"id":"municipalities_7e06ecfbbc32","slug":"gortyna-7e06","kind":"municipality","name":"Γόρτυνα","lat":35.05,"lng":24.95,"aliases":["Gortyna","Gortina"],"region":"Νότια Κρήτη","name_en":"Gortyna","region_en":"South Crete"},{"id":"municipalities_a229663fa0f9","slug":"faistos-a229","kind":"municipality","name":"Φαιστός","lat":35.05,"lng":24.88,"region":"Νότια Κρήτη","name_en":"Phaistos","region_en":"South Crete"}]},"__N_SSG":true}