{"pageProps":{"entity":{"id":"fishTavernasRestaurants_3eebfb65840d","slug":"glykanisos-3eeb","kind":"restaurant","name":"Glykanisos","lat":40.59789425560311,"lng":22.984970079796003,"url":"https://maps.app.goo.gl/uuxCBL4zdiCK3Cui9?g_st=ipc","address":"Meg. Alexandrou 46, Pilea 555 35","categoryIds":["fish-tavernas"],"categories":["Fish Tavernas"]},"sameCategory":[{"id":"fishTavernasRestaurants_e3cad400eebc","slug":"panos-cafe-e3ca","kind":"restaurant","name":"Panos Cafe","lat":40.59910171918994,"lng":22.972711652033485,"url":"https://maps.app.goo.gl/2xVCRJ82JXQ9xNYm7?g_st=ipc","address":"Alkamenous 5, Thessaloniki 542 50","categoryIds":["fish-tavernas"],"categories":["Fish Tavernas"]},{"id":"fishTavernasRestaurants_4b85b6df400f","slug":"alepoy-mezedopoleio-4b85","kind":"restaurant","name":"Αλεπού Μεζεδοπωλείο","lat":40.607668350364605,"lng":22.993173165196392,"url":"https://maps.app.goo.gl/fMUK2hozw9hQG8zN8?g_st=ipc","address":"17is Noemvriou 26, Thessaloniki 555 34","categoryIds":["fish-tavernas"],"categories":["Fish Tavernas"]},{"id":"fishTavernasRestaurants_482591e75ff4","slug":"kritamos-meze-bar-4825","kind":"restaurant","name":"Kritamos Meze-Bar","lat":40.61409377580344,"lng":22.97473899193856,"url":"https://maps.app.goo.gl/PC1XeAa9i5F1wcwX7?g_st=ipc","address":"Tirolois 38, Thessaloniki 543 51","categoryIds":["fish-tavernas"],"categories":["Fish Tavernas"]},{"id":"fishTavernasRestaurants_e4a529eccfe5","slug":"akti-ntovil-sea-taste-e4a5","kind":"restaurant","name":"Akti Ntovil sea taste","lat":40.590227199252006,"lng":22.94525345267167,"url":"https://maps.app.goo.gl/qLvCE8t6ieDmXdt57?g_st=ipc","address":"Themistokli Sofouli 86, Kalamaria 551 31","categoryIds":["fish-tavernas"],"categories":["Fish Tavernas"]},{"id":"fishTavernasRestaurants_8c218ee54db9","slug":"trizoni-exclusive-8c21","kind":"restaurant","name":"Trizoni Exclusive","lat":40.6187461914036,"lng":22.951970459036858,"url":"https://maps.app.goo.gl/mWZS1wKdUUfV8Ris7?g_st=ipc","address":"Leof. Meg. Alexandrou 2, Thessaloniki 546 40","categoryIds":["fish-tavernas"],"categories":["Fish Tavernas"]},{"id":"fishTavernasRestaurants_8519dfc7e5a0","slug":"prigkipas-8519","kind":"restaurant","name":"Prigkipas","lat":40.56870307397198,"lng":22.96042239278236,"url":"https://maps.app.goo.gl/CftYQWb7WS78EL267?g_st=ipc","address":"Chanion 8, Kalamaria 551 32","categoryIds":["fish-tavernas"],"categories":["Fish Tavernas"]},{"id":"fishTavernasRestaurants_696f7178604d","slug":"petros-ouzo-tavern-696f","kind":"restaurant","name":"\"Petros\" Ouzo Tavern","lat":40.5758568701644,"lng":22.94955610306511,"url":"https://maps.app.goo.gl/zWRjvQW7U7jg2RVz9?g_st=ipc","address":"Evelpidou 12, Kalamaria 551 32","categoryIds":["fish-tavernas"],"categories":["Fish Tavernas"]},{"id":"fishTavernasRestaurants_36204a46aece","slug":"to-karnagio-3620","kind":"restaurant","name":"Το Καρνάγιο","lat":40.574881874460935,"lng":22.94956377176227,"url":"https://maps.app.goo.gl/pPBVRQW1crZFz6ho8?g_st=ipc","address":"Agiou Nikolaou 4, Thessaloniki 551 32","categoryIds":["fish-tavernas"],"categories":["Fish Tavernas"]}],"nearby":[{"id":"dessertsRestaurants_cc58df47a36e","slug":"nick-alexoudas-cc58","kind":"restaurant","name":"NICK ALEXOUDAS","lat":40.60097575143556,"lng":22.988160776463623,"url":"https://maps.app.goo.gl/svQRP7nS7UargNrc9?g_st=ipc","address":"Profitou Ilia 77, Pilea 555 35","categoryIds":["desserts"],"categories":["Dessert Shops"],"distanceKm":0.43586039769773216},{"id":"dessertsRestaurants_4314e81fb349","slug":"boutique-baking-pepi-beza-4314","kind":"restaurant","name":"Boutique Baking Pepi Beza","lat":40.59730321322995,"lng":22.979587033632086,"url":"https://maps.app.goo.gl/daRMg1RfmVJcgATKA?g_st=ipc","address":"Meg. Alexandrou 3, Pilea 555 35","categoryIds":["desserts"],"categories":["Dessert Shops"],"distanceKm":0.4592185388687945},{"id":"familyFriendly_b986941160fd","slug":"elaiorema-b986","kind":"restaurant","name":"Elaiorema","lat":40.60429462558645,"lng":22.984614393067023,"url":"https://maps.app.goo.gl/2QyvxSuh6SKLNY7X8?g_st=ic","address":"Pylaia 555 35","categoryIds":["family-friendly"],"categories":["Kid Friendly Locations"],"distanceKm":0.7123219158470052},{"id":"greekRestaurants_87ad943f04be","slug":"mpaloyxis-87ad","kind":"restaurant","name":"ΜΠΑΛΟΥΞΗΣ","lat":40.60469663357637,"lng":22.980860258041304,"url":"https://maps.app.goo.gl/mkwSB515HmQ3h8yA8?g_st=ipc","address":"Δορυλαίου 86, Πυλαία 544 54","categoryIds":["greek-restaurants"],"categories":["Greek Restaurants"],"distanceKm":0.8321757292297761},{"id":"municipalities_743916b7b194","slug":"charilaoy-7439","kind":"municipality","name":"Χαριλάου","lat":40.6054,"lng":22.9851,"region":"Θεσσαλονίκη","name_en":"Charilaou","region_en":"Thessaloniki","distanceKm":0.8346727699309492},{"id":"fishTavernasRestaurants_e3cad400eebc","slug":"panos-cafe-e3ca","kind":"restaurant","name":"Panos Cafe","lat":40.59910171918994,"lng":22.972711652033485,"url":"https://maps.app.goo.gl/2xVCRJ82JXQ9xNYm7?g_st=ipc","address":"Alkamenous 5, Thessaloniki 542 50","categoryIds":["fish-tavernas"],"categories":["Fish Tavernas"],"distanceKm":1.0436395007162145},{"id":"municipalities_4a13189642f7","slug":"aggelochori-4a13","kind":"municipality","name":"Αγγελοχώρι","lat":40.5886,"lng":22.9875,"aliases":["Αγγελοχωρι"],"region":"Θεσσαλονίκη","name_en":"Angelochori","region_en":"Thessaloniki","distanceKm":1.0553199569293024},{"id":"cheapEatsRestaurants_8ba579af851d","slug":"steakhouse-costas-8ba5","kind":"restaurant","name":"Steakhouse Costas","lat":40.607757700164754,"lng":22.984167654560377,"url":"https://maps.app.goo.gl/vkLu33M5Ct15FeXa6?g_st=ipc","address":"Emmanouil Fili 15, Pilea 555 34","categoryIds":["cheap-eats"],"categories":["Gyros & Cheap Eats"],"distanceKm":1.0988551526410784}],"sameRegion":[]},"__N_SSG":true}