{"pageProps":{"entity":{"id":"burgersRestaurants_ceb67d2517dd","slug":"godgilla-umami-street-food-ceb6","kind":"restaurant","name":"Godgilla umami street food","lat":38.056565975998105,"lng":23.814008768575892,"url":"https://maps.app.goo.gl/WyovvCKHo17WtrPb8?g_st=ipc","address":"Γεωρ. Κοτζιά 2, Μαρούσι 151 26","categoryIds":["burgers"],"categories":["Burger Spots"]},"sameCategory":[{"id":"burgersRestaurants_264306258d6e","slug":"busty-s-burger-2643","kind":"restaurant","name":"Busty's Burger","lat":38.05283037769694,"lng":23.815776704443905,"url":"https://maps.app.goo.gl/ZPYfcdYHMWXyKwF16?g_st=ipc","address":"Οδός Πεντέλης, Μαρούσι 151 26","categoryIds":["burgers"],"categories":["Burger Spots"]},{"id":"burgersRestaurants_3d23e4017c79","slug":"f-smashing-marousi-delivery-take-away-only-3d23","kind":"restaurant","name":"F* Smashing Marousi (Delivery & Take away Only!)","lat":38.05659414043942,"lng":23.807978426457023,"url":"https://maps.app.goo.gl/YDf78cc6DThEFAdSA?g_st=ipc","address":"Π. Κυριακού 18, Μαρούσι 151 24","categoryIds":["burgers"],"categories":["Burger Spots"]},{"id":"burgersRestaurants_6d610eb79dbd","slug":"taz-smash-burger-6d61","kind":"restaurant","name":"Taz Smash Burger","lat":38.05644521597169,"lng":23.804667787562405,"url":"https://maps.app.goo.gl/tj3ojXGmrnTvMA9c7?g_st=ipc","address":"Περικλέους 2, Μαρούσι 151 22","categoryIds":["burgers"],"categories":["Burger Spots"]},{"id":"burgersRestaurants_cdde40de0c45","slug":"the-burger-dudes-cdde","kind":"restaurant","name":"The Burger Dudes","lat":38.037808685524865,"lng":23.82651013380888,"url":"https://maps.app.goo.gl/nCm18QqReRW4TNmb6?g_st=ipc","address":"Θέτιδος 1, Βριλήσσια 152 35","categoryIds":["burgers"],"categories":["Burger Spots"]},{"id":"burgersRestaurants_11e6ae00efca","slug":"melt-burgers-11e6","kind":"restaurant","name":"Melt Burgers","lat":38.037895872437886,"lng":23.799602975307902,"url":"https://maps.app.goo.gl/17z1ma6NXSDvgsM2A?g_st=ipc","address":"Λεωφ. Κηφισίας 59, Μαρούσι 151 24","categoryIds":["burgers"],"categories":["Burger Spots"]},{"id":"burgersRestaurants_b5cd5e9d8f33","slug":"comet-street-gourmet-athens-b5cd","kind":"restaurant","name":"Comet Street Gourmet Athens","lat":38.05458806834009,"lng":23.84252767987863,"url":"https://maps.app.goo.gl/7yT5TAqAFBttQ8yZ7?g_st=ipc","address":"Σωκράτους 3, Μελίσσια 151 27","categoryIds":["burgers"],"categories":["Burger Spots"]},{"id":"burgersRestaurants_fe3476589c94","slug":"barbara-que-fe34","kind":"restaurant","name":"BarBara Que","lat":38.035803199648754,"lng":23.82668456854574,"url":"https://maps.app.goo.gl/qDrH9onsxTkW9iau8?g_st=ipc","address":"Εθ. Αντιστάσεως 27, Βριλήσσια 152 35","categoryIds":["burgers"],"categories":["Burger Spots"]},{"id":"burgersRestaurants_a0d6a061aa9e","slug":"mvp-restaurant-a0d6","kind":"restaurant","name":"MVP RESTAURANT","lat":38.08823770971798,"lng":23.816227663317804,"url":"https://maps.app.goo.gl/JjXo3mQwSBz49WBp9?g_st=ipc","address":"Χαρ. Τρικούπη 127, Νέα Ερυθραία 146 71","categoryIds":["burgers"],"categories":["Burger Spots"]}],"nearby":[{"id":"cheapEatsRestaurants_784daab038a5","slug":"godgilla-umami-street-food-784d","kind":"restaurant","name":"Godgilla umami street food","lat":38.05657303145754,"lng":23.81400951461543,"url":"https://maps.app.goo.gl/DZ65AFNyxzrNRbqm9?g_st=ipc","address":"Γεωρ. Κοτζιά 2, Μαρούσι 151 26","categoryIds":["cheap-eats"],"categories":["Gyros & Cheap Eats"],"distanceKm":0.0007872458343697184},{"id":"burgersRestaurants_264306258d6e","slug":"busty-s-burger-2643","kind":"restaurant","name":"Busty's Burger","lat":38.05283037769694,"lng":23.815776704443905,"url":"https://maps.app.goo.gl/ZPYfcdYHMWXyKwF16?g_st=ipc","address":"Οδός Πεντέλης, Μαρούσι 151 26","categoryIds":["burgers"],"categories":["Burger Spots"],"distanceKm":0.44328541281645584},{"id":"burgersRestaurants_3d23e4017c79","slug":"f-smashing-marousi-delivery-take-away-only-3d23","kind":"restaurant","name":"F* Smashing Marousi (Delivery & Take away Only!)","lat":38.05659414043942,"lng":23.807978426457023,"url":"https://maps.app.goo.gl/YDf78cc6DThEFAdSA?g_st=ipc","address":"Π. Κυριακού 18, Μαρούσι 151 24","categoryIds":["burgers"],"categories":["Burger Spots"],"distanceKm":0.5279968083296165},{"id":"municipalities_cb47d94cb6da","slug":"maroysi-cb47","kind":"municipality","name":"Μαρούσι","lat":38.0543,"lng":23.808,"aliases":["Marousi","Maroussi","Μαρουσι","Αμαρουσιο","Αμαρούσιο","Marusi","Amarousion"],"region":"Βόρεια Προάστια","name_en":"Marousi","region_en":"Northern Suburbs","distanceKm":0.5833308150082169},{"id":"dessertsRestaurants_f3991d5c3e79","slug":"smyrni-baklava-f399","kind":"restaurant","name":"Smyrni Baklava","lat":38.05518643071446,"lng":23.80748099367396,"url":"https://maps.app.goo.gl/FMXAiNt1SKKDggh88?g_st=ipc","address":"Βασ. Σοφίας 55, Μαρούσι 151 24","categoryIds":["desserts"],"categories":["Dessert Shops"],"distanceKm":0.5917733558485199},{"id":"italianRestaurants_c5639b50090e","slug":"the-italians-c563","kind":"restaurant","name":"The italians","lat":38.05489203613415,"lng":23.80737502626759,"url":"https://maps.app.goo.gl/JMrxX5Rq7Q7HgR487?g_st=ipc","address":"Βασ. Σοφίας 47, Μαρούσι 151 24","categoryIds":["italian"],"categories":["Italian Restaurants"],"distanceKm":0.6099208852326534},{"id":"coffeeBrunchRestaurants_7046edfbce5c","slug":"janet-craig-7046","kind":"restaurant","name":"Janet Craig","lat":38.05641063632366,"lng":23.806182036715274,"url":"https://maps.app.goo.gl/o5wNnYy8d5rdfCBx5?g_st=ipc","address":"28ης Οκτωβρίου 5, Μαρούσι 151 24","categoryIds":["coffee-brunch"],"categories":["Coffee & Brunch Spots"],"distanceKm":0.6854892135152052},{"id":"asianRestaurants_02d0f232a272","slug":"new-great-wall-marousi-02d0","kind":"restaurant","name":"New Great Wall Marousi","lat":38.05713122309269,"lng":23.805863056780513,"url":"https://maps.app.goo.gl/UXfhhMjtr2rYJfNW7?g_st=ipc","address":"Βασ. Αμαλίας 1, Μαρούσι 151 22","categoryIds":["asian"],"categories":["Asian Restaurants"],"distanceKm":0.7159605991493836}],"sameRegion":[]},"__N_SSG":true}