{"pageProps":{"entity":{"id":"italianRestaurants_6f0d9cef63fd","slug":"goloso-ristorante-pizzeria-6f0d","kind":"restaurant","name":"GOLOSO ristorante pizzeria","lat":38.139099968736645,"lng":23.85960963696723,"url":"https://maps.app.goo.gl/kpW87YGKNcL27Bhi9","address":"Grigoriou Lampraki 6, Ag. Stefanos 145 65","categoryIds":["italian"],"categories":["Italian Restaurants"]},"sameCategory":[{"id":"italianRestaurants_493a4203dbb3","slug":"da-michele-493a","kind":"restaurant","name":"Da Michele","lat":38.133061719353606,"lng":23.858730163431314,"url":"https://maps.app.goo.gl/ZAb7BbVjZ5jTGd8i8?g_st=ipc","address":"Λεωφ. Μαραθώνος 61, Άνοιξη 145 69","categoryIds":["italian"],"categories":["Italian Restaurants"]},{"id":"italianRestaurants_7494ebc89891","slug":"amici-miei-cucina-italiana-7494","kind":"restaurant","name":"Amici Miei Cucina Italiana","lat":38.1201358654641,"lng":23.85982839112877,"url":"https://maps.app.goo.gl/TKR7jw9ozmdL38DBA?g_st=ipc","address":"στρατηγού πετρίτη 7, Δροσιά 145 72","categoryIds":["italian"],"categories":["Italian Restaurants"]},{"id":"italianRestaurants_b94ef05a5cdb","slug":"nebbiolo-b94e","kind":"restaurant","name":"Nebbiolo","lat":38.114438017917074,"lng":23.849732672241302,"url":"https://maps.app.goo.gl/wzivni6cAptzeBTTA","address":"Leof. Thiseos 111, Ekali 145 78","categoryIds":["italian"],"categories":["Italian Restaurants"]},{"id":"italianRestaurants_d9d720a42c99","slug":"pizza-park-d9d7","kind":"restaurant","name":"Pizza Park","lat":38.09198960934523,"lng":23.81402750121575,"url":"https://maps.app.goo.gl/Qw99VuJkc2GbipvDA?g_st=ipc","address":"Ηρ. Πολυτεχνείου 24, Νέα Ερυθραία 146 71","categoryIds":["italian"],"categories":["Italian Restaurants"]},{"id":"italianRestaurants_e295fedca4ff","slug":"margherita-pizza-artigianale-nea-erythraia-e295","kind":"restaurant","name":"Margherita Pizza Artigianale Νέα Ερυθραία","lat":38.08856611677621,"lng":23.816718880082657,"url":"https://maps.app.goo.gl/v1cfqn2UJ11ZTMJq6?g_st=ipc","address":"Χαριλάου τρικούπη 146 &, Strofiliou, Nea Erithrea 146 71","categoryIds":["italian"],"categories":["Italian Restaurants"]},{"id":"italianRestaurants_f02c78444b4c","slug":"casa-giacomo-kifissia-f02c","kind":"restaurant","name":"Casa Giacomo Kifissia","lat":38.07385898526318,"lng":23.814586935437283,"url":"https://maps.app.goo.gl/1xtm5c4dSnQZtLaY9?g_st=ipc","address":"Λεβίδου 11, Κηφισιά 145 62","categoryIds":["italian"],"categories":["Italian Restaurants"]},{"id":"italianRestaurants_eaba816c4340","slug":"portofino-pizza-kifisia-eaba","kind":"restaurant","name":"Portofino Pizza Kifisia","lat":38.0734702785448,"lng":23.814976694722787,"url":"https://maps.app.goo.gl/b5YoW6FvnhXk97jJ8?g_st=ipc","address":"Levidou 16, Αργυροπούλου 1-3, Κηφισιά 145 62","categoryIds":["italian"],"categories":["Italian Restaurants"]},{"id":"italianRestaurants_9864a763d5a6","slug":"la-pasteria-9864","kind":"restaurant","name":"La Pasteria","lat":38.071971773331484,"lng":23.81375357994017,"url":"https://maps.app.goo.gl/jpzzbHYa7ZkuqiDh9?g_st=ipc","address":"Κασσαβέτη 12, Κηφισιά 145 62","categoryIds":["italian"],"categories":["Italian Restaurants"]}],"nearby":[{"id":"municipalities_da89497c2656","slug":"agios-stefanos-da89","kind":"municipality","name":"Άγιος Στέφανος","lat":38.1369,"lng":23.8586,"region":"Βόρεια Προάστια","name_en":"Agios Stefanos","region_en":"North Suburbs","distanceKm":0.260074111496533},{"id":"dessertsRestaurants_f058cc3bd51b","slug":"galaktopoleio-stamoy-f058","kind":"restaurant","name":"Γαλακτοπωλείο ΣΤΑΜΟΥ","lat":38.1355559087603,"lng":23.85739092129188,"url":"https://maps.app.goo.gl/qoaBzXLhGQRUPCxZ8?g_st=ipc","address":"Λεωφ. Μαραθώνος 88, Άνοιξη 145 69","categoryIds":["desserts"],"categories":["Dessert Shops"],"distanceKm":0.43926513874730894},{"id":"italianRestaurants_493a4203dbb3","slug":"da-michele-493a","kind":"restaurant","name":"Da Michele","lat":38.133061719353606,"lng":23.858730163431314,"url":"https://maps.app.goo.gl/ZAb7BbVjZ5jTGd8i8?g_st=ipc","address":"Λεωφ. Μαραθώνος 61, Άνοιξη 145 69","categoryIds":["italian"],"categories":["Italian Restaurants"],"distanceKm":0.6758142700404735},{"id":"fishTavernasRestaurants_eaec6bd11d2a","slug":"tsipoyradiko-anoixi-para-tetarto-eaec","kind":"restaurant","name":"Τσιπουράδικο \"Άνοιξη παρά Τέταρτο\"","lat":38.13115537085702,"lng":23.860540472523713,"url":"https://maps.app.goo.gl/sSz3YRigMVCbLBcq6?g_st=ipc","address":"Αθηνών Χαλκίδος 17, Άνοιξη 145 69","categoryIds":["fish-tavernas"],"categories":["Fish Tavernas"],"distanceKm":0.8871424084649635},{"id":"municipalities_9db4da788e71","slug":"rodopoli-9db4","kind":"municipality","name":"Ροδόπολη","lat":38.1307,"lng":23.8504,"region":"Βόρεια Προάστια","name_en":"Rodopoli","region_en":"North Suburbs","distanceKm":1.2333813054315088},{"id":"cheapEatsRestaurants_0da1d84ce28f","slug":"mitsos-0da1","kind":"restaurant","name":"Μητσος","lat":38.120677354658696,"lng":23.859244908556484,"url":"https://maps.app.goo.gl/5G7Zm7z9NT4rMbC6A?g_st=ipc","address":"Λεωφ. Δροσιάς Σταματάς 4, Δροσιά 145 75","categoryIds":["cheap-eats"],"categories":["Gyros & Cheap Eats"],"distanceKm":2.0487496137099486},{"id":"burgersRestaurants_95cc953a5a70","slug":"con-voi-brunch-burgers-cocktails-95cc","kind":"restaurant","name":"Con Voi Brunch - Burgers & Cocktails","lat":38.12062536277459,"lng":23.858921152377892,"url":"https://maps.app.goo.gl/Nzdtzrh2vbG4T4VM8?g_st=ipc","address":"Λεωφ. Δροσιάς Σταματάς 2, Δροσιά 145 72","categoryIds":["burgers"],"categories":["Burger Spots"],"distanceKm":2.055164919851406},{"id":"italianRestaurants_7494ebc89891","slug":"amici-miei-cucina-italiana-7494","kind":"restaurant","name":"Amici Miei Cucina Italiana","lat":38.1201358654641,"lng":23.85982839112877,"url":"https://maps.app.goo.gl/TKR7jw9ozmdL38DBA?g_st=ipc","address":"στρατηγού πετρίτη 7, Δροσιά 145 72","categoryIds":["italian"],"categories":["Italian Restaurants"],"distanceKm":2.1087988786936167}],"sameRegion":[]},"__N_SSG":true}