{"pageProps":{"entity":{"id":"cheapEatsRestaurants_59fb21ba5f98","slug":"hobos-street-grill-59fb","kind":"restaurant","name":"Hobos Street Grill","lat":38.04249747641086,"lng":23.753515339761147,"url":"https://maps.app.goo.gl/YHJtEHPvQRVXwD3F7?g_st=ipc","address":"Λεωφ. Ηρακλείου 254, Νέα Ιωνία 142 31","categoryIds":["cheap-eats"],"categories":["Gyros & Cheap Eats"]},"sameCategory":[{"id":"cheapEatsRestaurants_58791178b56b","slug":"draminos-5879","kind":"restaurant","name":"Δραμινός","lat":38.03491475648599,"lng":23.754928540856955,"url":"https://maps.app.goo.gl/uhi56PKbCSVGMvqf8?g_st=ipc","address":"Σινώπης 62, Νέα Ιωνία 142 33","categoryIds":["cheap-eats"],"categories":["Gyros & Cheap Eats"]},{"id":"cheapEatsRestaurants_25538f73c661","slug":"koutsi-katsika-street-food-nea-filadelfeia-2553","kind":"restaurant","name":"Koutsi Katsika Street Food Νέα Φιλαδέλφεια","lat":38.036295969328165,"lng":23.73867352816236,"url":"https://maps.app.goo.gl/SfprcJNzr7drSK6A6?g_st=ipc","address":"Λεωφ. Δεκελείας 109, Νέα Φιλαδέλφεια Αττικής 143 41","categoryIds":["cheap-eats"],"categories":["Gyros & Cheap Eats"]},{"id":"cheapEatsRestaurants_5f9d5dd343a6","slug":"ypoyrgeio-geyseon-soyvlaki-psita-5f9d","kind":"restaurant","name":"ΥΠΟΥΡΓΕΙΟ ΓΕΥΣΕΩΝ-Σουβλάκι,Ψητά","lat":38.04303394507047,"lng":23.771779772357615,"url":"https://maps.app.goo.gl/LCrvDRPpRco2nVuF9?g_st=ipc","address":"Φιλοθέης 67, Ηράκλειο 141 21","categoryIds":["cheap-eats"],"categories":["Gyros & Cheap Eats"]},{"id":"cheapEatsRestaurants_ae066a0c8be0","slug":"street-wok-ae06","kind":"restaurant","name":"Street wok","lat":38.03415581458627,"lng":23.737421868861436,"url":"https://maps.app.goo.gl/2Mpgb24E2Bp7GYMDA?g_st=ipc","address":"Βρυούλων 4, Νέα Φιλαδέλφεια Αττικής 143 41","categoryIds":["cheap-eats"],"categories":["Gyros & Cheap Eats"]},{"id":"cheapEatsRestaurants_93852e0ca98a","slug":"i-vromiara-the-gourmet-street-food-nea-filadelfeia-9385","kind":"restaurant","name":"Η Βρωμιάρα - The Gourmet Street Food - Νεα Φιλαδέλφεια","lat":38.03438911435279,"lng":23.73692338806855,"url":"https://maps.app.goo.gl/Q23dgN65gryr9fpi7?g_st=ipc","address":"Βρυούλων 5, Νέα Φιλαδέλφεια Αττικής 143 41","categoryIds":["cheap-eats"],"categories":["Gyros & Cheap Eats"]},{"id":"cheapEatsRestaurants_708ba2b3a806","slug":"eyripidis-1955-708b","kind":"restaurant","name":"Ευριπίδης 1955","lat":38.03354736852586,"lng":23.737489018536408,"url":"https://maps.app.goo.gl/oALQiKiSKqqQt7VE8?g_st=ipc","address":"Λεωφ. Δεκελείας 83, Νέα Φιλαδέλφεια Αττικής 143 41","categoryIds":["cheap-eats"],"categories":["Gyros & Cheap Eats"]},{"id":"cheapEatsRestaurants_8e920e95e567","slug":"slum-it-8e92","kind":"restaurant","name":"Slum it","lat":38.034971479219536,"lng":23.73628101866516,"url":"https://maps.app.goo.gl/m2fyvmtGXXiGevuC6?g_st=ipc","address":"Βρυούλων 15, Νέα Φιλαδέλφεια Αττικής 143 41","categoryIds":["cheap-eats"],"categories":["Gyros & Cheap Eats"]},{"id":"cheapEatsRestaurants_f3077615404b","slug":"kantina-o-alekos-f307","kind":"restaurant","name":"Καντίνα \"ο Αλεκος\"","lat":38.04208740467577,"lng":23.77486464859004,"url":"https://maps.app.goo.gl/4oCtgVQEesHACQsu8?g_st=ipc","address":"Μαρίνου Αντύπα 47, Ηράκλειο 141 21","categoryIds":["cheap-eats"],"categories":["Gyros & Cheap Eats"]}],"nearby":[{"id":"dessertsRestaurants_265283fa47ed","slug":"zacharoplasteio-ta-gioylia-2652","kind":"restaurant","name":"Ζαχαροπλαστείο Τα Γιούλια","lat":38.04320708683717,"lng":23.75268041981327,"url":"https://maps.app.goo.gl/yT8dXGYHeqfAeL4K8?g_st=ipc","address":"Μεσολογγίου 24, Νέα Ιωνία 142 31","categoryIds":["desserts"],"categories":["Dessert Shops"],"distanceKm":0.10757254165730064},{"id":"coffeeBrunchRestaurants_e705f1112f3d","slug":"dimitra-goynaridi-e705","kind":"restaurant","name":"Δήμητρα Γουναρίδη","lat":38.04165697380787,"lng":23.75123284178688,"url":"https://maps.app.goo.gl/b5dp6jq3caW91FoHA?g_st=ipc","address":"Ευαγγελικής Σχολής 5, Νέα Ιωνία 142 31","categoryIds":["coffee-brunch"],"categories":["Coffee & Brunch Spots"],"distanceKm":0.22065433598069067},{"id":"coffeeBrunchRestaurants_a5983b685dbd","slug":"to-peinirli-tis-neas-ionias-a598","kind":"restaurant","name":"To Peinirli tis Neas Ionias","lat":38.039553570278855,"lng":23.75782693390007,"url":"https://maps.app.goo.gl/Dgayt5WtWZw7apFh8?g_st=ic","address":"Ramnountos 76, Nea Ionia 142 34","categoryIds":["coffee-brunch"],"categories":["Coffee & Brunch Spots"],"distanceKm":0.49972480459380286},{"id":"dessertsRestaurants_4ba5b007aaee","slug":"san-zachari-4ba5","kind":"restaurant","name":"Σαν Ζάχαρη","lat":38.0467822413905,"lng":23.750604774962436,"url":"https://maps.app.goo.gl/hEf4BAiafjzg3vVT6?g_st=ipc","address":"Ελ. Βενιζέλου 119, Νέα Ιωνία 142 31","categoryIds":["desserts"],"categories":["Dessert Shops"],"distanceKm":0.5403341964143156},{"id":"familyFriendly_9c22759cd93a","slug":"alsos-neas-filadelfeias-9c22","kind":"restaurant","name":"Άλσος Νέας Φιλαδέλφειας","lat":38.042763651734646,"lng":23.744714870891837,"url":"https://maps.app.goo.gl/xdffZruJ9uqfJ5wx8?g_st=ipc","address":"Λεωφ. Δεκελείας 152, Αθήνα 143 42","categoryIds":["family-friendly"],"categories":["Kid Friendly Locations"],"distanceKm":0.7712413572905215},{"id":"municipalities_a312b31dd129","slug":"nea-ionia-a312","kind":"municipality","name":"Νέα Ιωνία","lat":38.0357,"lng":23.7573,"aliases":["Nea Ionia","Νεα Ιωνια"],"region":"Βόρεια Προάστια","name_en":"Nea Ionia","region_en":"Northern Suburbs","distanceKm":0.8253227909424038},{"id":"cheapEatsRestaurants_58791178b56b","slug":"draminos-5879","kind":"restaurant","name":"Δραμινός","lat":38.03491475648599,"lng":23.754928540856955,"url":"https://maps.app.goo.gl/uhi56PKbCSVGMvqf8?g_st=ipc","address":"Σινώπης 62, Νέα Ιωνία 142 33","categoryIds":["cheap-eats"],"categories":["Gyros & Cheap Eats"],"distanceKm":0.8521948741494688},{"id":"dessertsRestaurants_f7f9c93c456d","slug":"zacharoplasteio-ta-gioylia-f7f9","kind":"restaurant","name":"Ζαχαροπλαστείο Τα Γιούλια","lat":38.04173959626081,"lng":23.76335652551234,"url":"https://maps.app.goo.gl/7AogHoPypPVPFN8p7?g_st=ipc","address":"Αλέκου Παναγούλη 74, Νέα Ιωνία 141 21","categoryIds":["desserts"],"categories":["Dessert Shops"],"distanceKm":0.8659272179675844}],"sameRegion":[]},"__N_SSG":true}