{"pageProps":{"entity":{"id":"rooftopLoungesRestaurants_e13e9020f860","slug":"horostasio-e13e","kind":"restaurant","name":"Horostasio","lat":37.979148709346994,"lng":23.729708422545425,"url":"https://maps.app.goo.gl/z4BDM28nzQm5DRAz5?g_st=ipc","address":"Σκουλενίου 2B, Αθήνα 105 61","categoryIds":["rooftop-lounges"],"categories":["Rooftop Lounges"]},"sameCategory":[{"id":"rooftopLoungesRestaurants_f8aeb4ce5c33","slug":"olympias-athinas-f8ae","kind":"restaurant","name":"Olympias Athinas","lat":37.98091887904227,"lng":23.72707749971783,"url":"https://maps.app.goo.gl/GanjxfuK53HVBugq8?g_st=ipc","address":"Αθηνάς 57, Αθήνα 105 51","categoryIds":["rooftop-lounges"],"categories":["Rooftop Lounges"]},{"id":"rooftopLoungesRestaurants_62315092aa2e","slug":"theathine-6231","kind":"restaurant","name":"Theathine","lat":37.976366087632414,"lng":23.72946341912717,"url":"https://maps.app.goo.gl/5zX4VEAQCzogaiPF9?g_st=ipc","address":"Ερμού 46, Αθήνα 105 63","categoryIds":["rooftop-lounges"],"categories":["Rooftop Lounges"]},{"id":"rooftopLoungesRestaurants_f5cf87cae9d4","slug":"city-zen-all-day-bar-restaurant-f5cf","kind":"restaurant","name":"City ZEN All Day Bar Restaurant","lat":37.97627508580123,"lng":23.72741558524515,"url":"https://maps.app.goo.gl/jqRmCH3g4tS3Er5o8?g_st=ipc","address":"Αιόλου 11, Αθήνα 105 55","categoryIds":["rooftop-lounges"],"categories":["Rooftop Lounges"]},{"id":"rooftopLoungesRestaurants_dccec8a54ab2","slug":"taratsa-athens-dcce","kind":"restaurant","name":"Taratsa Athens","lat":37.97577225088555,"lng":23.729185158634564,"url":"https://maps.app.goo.gl/jwnF2SS5G6PYqRPf9?g_st=ipc","address":"Μητροπόλεως 60, Αθήνα 105 63","categoryIds":["rooftop-lounges"],"categories":["Rooftop Lounges"]},{"id":"rooftopLoungesRestaurants_a85e8793b95e","slug":"galaxy-bar-a85e","kind":"restaurant","name":"Galaxy Bar","lat":37.97799760915879,"lng":23.73380131955468,"url":"https://maps.app.goo.gl/onyhWrgj9TNpbXLX8?g_st=ipc","address":"Σταδίου 10, Αθήνα 105 62","categoryIds":["rooftop-lounges"],"categories":["Rooftop Lounges"]},{"id":"rooftopLoungesRestaurants_986af6d41f8f","slug":"ermou-18-beyond-the-horizon-986a","kind":"restaurant","name":"Ermou 18 Beyond the Horizon","lat":37.97612467035227,"lng":23.731892472806617,"url":"https://maps.app.goo.gl/29x8TUkS1Zi5ckeK6?g_st=ipc","address":"Ermou 18 Beyond the Horizon","categoryIds":["rooftop-lounges"],"categories":["Rooftop Lounges"]},{"id":"rooftopLoungesRestaurants_deda42ca6a1c","slug":"the-zillers-rooftop-gastronomy-deda","kind":"restaurant","name":"The Zillers Rooftop Gastronomy","lat":37.975610918169195,"lng":23.729618662596703,"url":"https://maps.app.goo.gl/ewydNFU5RP3inTPF7?g_st=ipc","address":"Μητροπόλεως 54, Αθήνα 105 63","categoryIds":["rooftop-lounges"],"categories":["Rooftop Lounges"]},{"id":"rooftopLoungesRestaurants_6749bcabe1a1","slug":"dolli-s-6749","kind":"restaurant","name":"DOLLI•S","lat":37.975812516804545,"lng":23.72812700621026,"url":"https://maps.app.goo.gl/zGocv2wEa4M7oU8NA?g_st=ipc","address":"Μητροπόλεως 49, Αθήνα 105 56","categoryIds":["rooftop-lounges"],"categories":["Rooftop Lounges"]}],"nearby":[{"id":"cheapEatsRestaurants_c89c11621856","slug":"kapsa-c89c","kind":"restaurant","name":"Κάψα","lat":37.9791128198558,"lng":23.729644254058044,"url":"https://maps.app.goo.gl/GnCnbQadKKWk2pSs5?g_st=ipc","address":"Σκουλενίου 4, Αθήνα 105 61","categoryIds":["cheap-eats"],"categories":["Gyros & Cheap Eats"],"distanceKm":0.006896215965990579},{"id":"italianRestaurants_03011a4360cb","slug":"odori-0301","kind":"restaurant","name":"Odori","lat":37.97921353082345,"lng":23.729753241851572,"url":"https://maps.app.goo.gl/7pV3HgnuTMx17JXu9?g_st=ipc","address":"Σκουλενίου 2, Αθήνα 105 61","categoryIds":["italian"],"categories":["Italian Restaurants"],"distanceKm":0.008208791636482832},{"id":"coffeeBrunchRestaurants_03891d56076e","slug":"odori-0389","kind":"restaurant","name":"Odori","lat":37.97922436265169,"lng":23.729754698272135,"url":"https://maps.app.goo.gl/Wa5G5txL7dyLZjDX9?g_st=ipc","address":"Σκουλενίου 2, Αθήνα 105 61","categoryIds":["coffee-brunch"],"categories":["Coffee & Brunch Spots"],"distanceKm":0.009339003423040988},{"id":"greekRestaurants_4e928b322f7b","slug":"dopios-athens-4e92","kind":"restaurant","name":"Dopios Athens","lat":37.9792133312479,"lng":23.729886930144186,"url":"https://maps.app.goo.gl/nEVnGCyfc79ueYWh7","address":"Σκουλενίου 1, Αθήνα 105 61","categoryIds":["greek-restaurants"],"categories":["Greek Restaurants"],"distanceKm":0.017216954030806177},{"id":"greekRestaurants_0010dafcf3e9","slug":"manari-taverna-0010","kind":"restaurant","name":"Manári Taverna","lat":37.97931896525327,"lng":23.72965489387422,"url":"https://maps.app.goo.gl/o8x2B33WaG8QRBXq8","address":"Πλ. Αγίων Θεοδώρων 3, Αθήνα 105 61","categoryIds":["greek-restaurants"],"categories":["Greek Restaurants"],"distanceKm":0.01950427864300219},{"id":"coffeeBrunchRestaurants_3bd143dc0b3c","slug":"anana-coffee-food-3bd1","kind":"restaurant","name":"Anana Coffee|Food","lat":37.9790791623964,"lng":23.72939339771832,"url":"https://maps.app.goo.gl/LVwtjjfHm1ZP7KNd9?g_st=ipc","address":"Πραξιτέλους 33, Αθήνα 105 60","categoryIds":["coffee-brunch"],"categories":["Coffee & Brunch Spots"],"distanceKm":0.02867372854230353},{"id":"vegetarianRestaurants_aa8084f25928","slug":"anana-coffee-food-aa80","kind":"restaurant","name":"Anana Coffee|Food","lat":37.979074429744934,"lng":23.72938956678435,"url":"https://maps.app.goo.gl/cDLfqH5tSTmhvzCn8?g_st=ipc","address":"Πραξιτέλους 33, Αθήνα 105 60","categoryIds":["vegetarian"],"categories":["Vegetarian Friendly Restaurants"],"distanceKm":0.029141960139802817},{"id":"dessertsRestaurants_02af5db1ffaa","slug":"overoll-croissanterie-02af","kind":"restaurant","name":"Overoll Croissanterie","lat":37.9788693032848,"lng":23.729688539887693,"url":"https://maps.app.goo.gl/eMRJKRxLBxxiGu628?g_st=ipc","address":"Πραξιτέλους 27, Αθήνα 105 60","categoryIds":["desserts"],"categories":["Dessert Shops"],"distanceKm":0.031117372539753108}],"sameRegion":[]},"__N_SSG":true}