{"pageProps":{"entity":{"id":"coffeeBrunchRestaurants_a5bfbc32c87f","slug":"hurmas-all-day-bistro-restaurant-a5bf","kind":"restaurant","name":"HURMAS | All Day Bistro & Restaurant","lat":37.105038240518304,"lng":25.37570759141786,"url":"https://maps.app.goo.gl/69BkMU2pWVao3FWX7?g_st=ipc","address":"Protopapadaki, Naxos 843 00","categoryIds":["coffee-brunch"],"categories":["Coffee & Brunch Spots"]},"sameCategory":[{"id":"coffeeBrunchRestaurants_e00fbc861ff8","slug":"avaton-1739-coffee-wine-roof-e00f","kind":"restaurant","name":"AVATON 1739 - Coffee & Wine Roof","lat":37.10529514165084,"lng":25.377380277769117,"url":"https://maps.app.goo.gl/31ofe6z6fLcDE8U48?g_st=ipc","address":"Kastro, Naxos 843 00","categoryIds":["coffee-brunch"],"categories":["Coffee & Brunch Spots"]},{"id":"coffeeBrunchRestaurants_901c6f873e9a","slug":"pantry-coffee-and-brunch-spot-901c","kind":"restaurant","name":"Pantry coffee and brunch spot","lat":37.10537841466819,"lng":25.380795502578987,"url":"https://maps.app.goo.gl/ExrjzA4WbcAXVt436?g_st=ipc","address":"Naxos 843 00","categoryIds":["coffee-brunch"],"categories":["Coffee & Brunch Spots"]},{"id":"coffeeBrunchRestaurants_bcf369879144","slug":"melimilon-naxos-bcf3","kind":"restaurant","name":"Melimilon Naxos","lat":37.1012124273558,"lng":25.373816192509402,"url":"https://maps.app.goo.gl/24h3FMgmoD9y36B69?g_st=ipc","address":"Naxos 843 00","categoryIds":["coffee-brunch"],"categories":["Coffee & Brunch Spots"]},{"id":"coffeeBrunchRestaurants_6269550b6464","slug":"naxaki-beach-lounge-bar-restaurant-6269","kind":"restaurant","name":"Naxaki Beach Lounge Bar & Restaurant","lat":37.096820663451155,"lng":25.37554032822482,"url":"https://maps.app.goo.gl/pycw7dvrTdi8yEicA?g_st=ipc","address":"Agios Georgios Beach - Naxos, Naxos 843 00","categoryIds":["coffee-brunch"],"categories":["Coffee & Brunch Spots"]},{"id":"coffeeBrunchRestaurants_11b9ac0dc44e","slug":"macao-beach-naxos-11b9","kind":"restaurant","name":"Macao beach naxos","lat":37.07477452112851,"lng":25.350720849700185,"url":"https://maps.app.goo.gl/VMcfVNerQn3tSzED8?g_st=ipc","address":"Agios Prokopios 843 00","categoryIds":["coffee-brunch"],"categories":["Coffee & Brunch Spots"]},{"id":"coffeeBrunchRestaurants_1ed3ff082f80","slug":"goat-in-a-boat-1ed3","kind":"restaurant","name":"goat in a boat","lat":37.06717854640464,"lng":25.356316886639643,"url":"https://maps.app.goo.gl/RjakHZ5s5a6HV2Rj8?g_st=ipc","address":"Αγ. Αννα 843 00","categoryIds":["coffee-brunch"],"categories":["Coffee & Brunch Spots"]},{"id":"coffeeBrunchRestaurants_06b43145276e","slug":"yazoo-summer-bliss-06b4","kind":"restaurant","name":"Yazoo Summer Bliss","lat":37.05936629317493,"lng":25.358292075823126,"url":"https://maps.app.goo.gl/6st7M6E2gAiTKTuK7?g_st=ipc","address":"Beach, Plaka 843 00","categoryIds":["coffee-brunch"],"categories":["Coffee & Brunch Spots"]},{"id":"coffeeBrunchRestaurants_3c0e0ba19c1e","slug":"cedar-naxos-3c0e","kind":"restaurant","name":"Cedar Naxos","lat":37.05894909734054,"lng":25.359010791260953,"url":"https://maps.app.goo.gl/sMRnKogU1qsVLy5N7?g_st=ipc","address":"Plaka beach island, Cyclades, Town 84300, 843 00","categoryIds":["coffee-brunch"],"categories":["Coffee & Brunch Spots"]}],"nearby":[{"id":"dessertsRestaurants_394832dca619","slug":"waffle-house-3948","kind":"restaurant","name":"Waffle House","lat":37.10467061317303,"lng":25.375709513413007,"url":"https://maps.app.goo.gl/HYZR2GPUwwpWpFCz6?g_st=ipc","address":"Naxos 843 00","categoryIds":["desserts"],"categories":["Dessert Shops"],"distanceKm":0.04087865103295169},{"id":"dessertsRestaurants_c2d46d4f052a","slug":"aktaion-pastry-ice-cream-downtown-c2d4","kind":"restaurant","name":"Aktaion Pastry & Ice Cream | Downtown","lat":37.105490385586045,"lng":25.375549550238706,"url":"https://maps.app.goo.gl/WWUz17HUPNByCsTf9?g_st=ipc","address":"Π. Πρωτοπαπαδάκη, Naxos 843 00","categoryIds":["desserts"],"categories":["Dessert Shops"],"distanceKm":0.05219317814637556},{"id":"dessertsRestaurants_fb9eb4b1bad8","slug":"chou-chouro-fb9e","kind":"restaurant","name":"Chou-Chouro","lat":37.10481340685538,"lng":25.376412266991043,"url":"https://maps.app.goo.gl/Phd5ZDeXAdM1ZXne8?g_st=ipc","address":"Castle Area, Naxos 843 00","categoryIds":["desserts"],"categories":["Dessert Shops"],"distanceKm":0.06730698916940903},{"id":"cheapEatsRestaurants_4dbaa21f0de9","slug":"yasouvlaki-4dba","kind":"restaurant","name":"Yasouvlaki!","lat":37.104045402591176,"lng":25.37553445494035,"url":"https://maps.app.goo.gl/B6fuRTJ3jQNZCZMJ8?g_st=ipc","address":"Naxos 843 00","categoryIds":["cheap-eats"],"categories":["Gyros & Cheap Eats"],"distanceKm":0.11146113954239963},{"id":"rooftopLoungesRestaurants_b11d5369fcab","slug":"swing-cocktail-bar-naxos-b11d","kind":"restaurant","name":"Swing Cocktail Bar Naxos","lat":37.10397730324002,"lng":25.375517434266428,"url":"https://maps.app.goo.gl/wrFubAW9MXvR6z5Y6?g_st=ipc","address":"Protopapadaki, Naxos 843 00","categoryIds":["rooftop-lounges"],"categories":["Rooftop Lounges"],"distanceKm":0.119170038206576},{"id":"rooftopLoungesRestaurants_741da60ba975","slug":"avaton-1739-coffee-wine-roof-741d","kind":"restaurant","name":"AVATON 1739 - Coffee & Wine Roof","lat":37.10529463592704,"lng":25.37737954083749,"url":"https://maps.app.goo.gl/T7jbKyc9RSyKYmeG8?g_st=ipc","address":"Kastro, Naxos 843 00","categoryIds":["rooftop-lounges"],"categories":["Rooftop Lounges"],"distanceKm":0.15098664489452368},{"id":"coffeeBrunchRestaurants_e00fbc861ff8","slug":"avaton-1739-coffee-wine-roof-e00f","kind":"restaurant","name":"AVATON 1739 - Coffee & Wine Roof","lat":37.10529514165084,"lng":25.377380277769117,"url":"https://maps.app.goo.gl/31ofe6z6fLcDE8U48?g_st=ipc","address":"Kastro, Naxos 843 00","categoryIds":["coffee-brunch"],"categories":["Coffee & Brunch Spots"],"distanceKm":0.1510614451870394},{"id":"fishTavernasRestaurants_d7e3e1315391","slug":"sarris-tavern-d7e3","kind":"restaurant","name":"Sarris Tavern","lat":37.10364861622317,"lng":25.37580990635783,"url":"https://maps.app.goo.gl/AXzYwLeXrYvTjRri8?g_st=ipc","address":"Sarris Tavern 8, Naxos 843 00","categoryIds":["fish-tavernas"],"categories":["Fish Tavernas"],"distanceKm":0.15478534503805522}],"sameRegion":[]},"__N_SSG":true}