{"pageProps":{"entity":{"id":"cheapEatsRestaurants_ff94ef2f8897","slug":"i-vromiara-the-gourmet-street-food-ff94","kind":"restaurant","name":"Η Βρωμιάρα - The Gourmet Street Food","lat":39.6691471152778,"lng":20.85696993484649,"url":"https://maps.app.goo.gl/qCiHQcXfuVPpbvs5A?g_st=ipc","address":"Averof 60, Ioannina 452 21","categoryIds":["cheap-eats"],"categories":["Gyros & Cheap Eats"]},"sameCategory":[{"id":"cheapEatsRestaurants_22e46faae4a1","slug":"di-santo-premium-sandwiches-22e4","kind":"restaurant","name":"Di Santo Premium Sandwiches","lat":39.6237687550092,"lng":19.923112693259046,"url":"https://maps.app.goo.gl/bBz55JsBTZudAbHR9?g_st=ipc","address":"Evgeniou Voulgareos 3, Kerkira 491 00","categoryIds":["cheap-eats"],"categories":["Gyros & Cheap Eats"]},{"id":"cheapEatsRestaurants_bc792aeec77f","slug":"pitta-pappou-bc79","kind":"restaurant","name":"Pitta pappou","lat":39.62391916981706,"lng":19.9227027256586,"url":"https://maps.app.goo.gl/3x2uABEYb4yf4U9ZA?g_st=ipc","address":"ΑΓΙΩΝ ΠΑΝΤΩΝ 12, agion panton 12, Kerkira 491 00","categoryIds":["cheap-eats"],"categories":["Gyros & Cheap Eats"]},{"id":"cheapEatsRestaurants_1fcaa4d5db8a","slug":"sweet-and-salty-1fca","kind":"restaurant","name":"Sweet and Salty","lat":38.3929233936639,"lng":21.828605110521075,"url":"https://maps.app.goo.gl/poWZpbGwDcXD9udJ6?g_st=ipc","address":"Καναβού και Κλεονίκου, Nafpaktos 303 00","categoryIds":["cheap-eats"],"categories":["Gyros & Cheap Eats"]},{"id":"cheapEatsRestaurants_2a50f6b61745","slug":"opsarion-fish-bar-2a50","kind":"restaurant","name":"Οψάριον fish bar","lat":38.17459374377572,"lng":20.491243945671638,"url":"https://maps.app.goo.gl/KSYp7smPeLPMNF7y6?g_st=ipc","address":"Drakopoulou 2, Argostoli 281 00","categoryIds":["cheap-eats"],"categories":["Gyros & Cheap Eats"]},{"id":"cheapEatsRestaurants_fab534827f1a","slug":"rigas-fab5","kind":"restaurant","name":"Rigas","lat":38.250839822865835,"lng":21.737567051131727,"url":"https://maps.app.goo.gl/p9VptZqYVY3ELr9j8?g_st=ipc","address":"Αγίου Ανδρέου κ, Zaimi, Patra 262 23","categoryIds":["cheap-eats"],"categories":["Gyros & Cheap Eats"]},{"id":"cheapEatsRestaurants_1354d27873fc","slug":"choiropoiito-soyvlakopoieio-1354","kind":"restaurant","name":"Χοιροποίητο Σουβλακοποιείο","lat":38.2456567707955,"lng":21.73248119818369,"url":"https://maps.app.goo.gl/kQo4C3a3QHbyJMpq6?g_st=ipc","address":"Riga Fereou 139, Patra 262 21","categoryIds":["cheap-eats"],"categories":["Gyros & Cheap Eats"]},{"id":"cheapEatsRestaurants_6442c1dc3a96","slug":"to-souvlaki-tis-alexandras-6442","kind":"restaurant","name":"To souvlaki tis Alexandras","lat":39.360700263391244,"lng":22.945330534308695,"url":"https://maps.app.goo.gl/i3EkwXq8bXbY5rfm8?g_st=ipc","address":"El. Venizelou 3, Volos 383 33","categoryIds":["cheap-eats"],"categories":["Gyros & Cheap Eats"]},{"id":"cheapEatsRestaurants_14fc216d1bd2","slug":"makis-14fc","kind":"restaurant","name":"Makis","lat":39.35994931747672,"lng":22.947511340680645,"url":"https://maps.app.goo.gl/Dd1J2caUfwteeWVJA?g_st=ipc","address":"Dimitriados 126, Volos 382 21","categoryIds":["cheap-eats"],"categories":["Gyros & Cheap Eats"]}],"nearby":[{"id":"greekRestaurants_9563a3f3deb0","slug":"presveia-restaurant-9563","kind":"restaurant","name":"ΠΡΕΣΒΕΙΑ Restaurant","lat":39.67117709848311,"lng":20.857314565299106,"url":"https://maps.app.goo.gl/kkBJ4gJX3sVvx1L98?g_st=ipc","address":"Λεωφ. Καραμανλή 17, Ιωάννινα 452 21","categoryIds":["greek-restaurants"],"categories":["Greek Restaurants"],"distanceKm":0.22764297389594235},{"id":"municipalities_01ab94a963a7","slug":"ioannina-01ab","kind":"municipality","name":"Ιωάννινα","lat":39.6675,"lng":20.85,"aliases":["Ioannina","Janina","Ιωάννινα","Γιάννινα","Ιωαννινα","Γιαννενα","Γιάννενα"],"region":"Ήπειρος","name_en":"Ioannina","region_en":"Epirus","distanceKm":0.6240557962896912},{"id":"familyFriendly_fca4b1834b63","slug":"play-hall-fca4","kind":"restaurant","name":"PLAY HALL","lat":39.65033321631473,"lng":20.865657018209728,"url":"https://maps.app.goo.gl/SFFV3HjpyPgVaZLc9?g_st=ipc","address":"Leof. Geor. Gennimata, Ioannina 452 21","categoryIds":["family-friendly"],"categories":["Kid Friendly Locations"],"distanceKm":2.2202500132498173},{"id":"mustSeeAttractions_55879b7962ff","slug":"perama-cave-5587","kind":"restaurant","name":"Perama Cave","lat":39.694982816550095,"lng":20.846498129141942,"url":"https://maps.app.goo.gl/tihw1UrAiri8GoD29?g_st=ipc","address":"19, Spilaiou, Σπηλαίου 19, Πέραμα, Perama 455 00","categoryIds":["attractions"],"categories":["Must-See Attractions"],"distanceKm":3.009322776510183},{"id":"municipalities_78251352f402","slug":"dodoni-7825","kind":"municipality","name":"Δωδώνη","lat":39.6167,"lng":20.7833,"region":"Ήπειρος","name_en":"Dodoni","region_en":"Epirus","distanceKm":8.590711450520908},{"id":"mustSeeAttractions_49ba95768f7d","slug":"archaeological-site-of-dodoni-49ba","kind":"restaurant","name":"Archaeological Site of Dodoni","lat":39.54577918295188,"lng":20.784950664414183,"url":"https://maps.app.goo.gl/5eDCvX8HkvWgXBL19?g_st=ipc","address":"Dodoni 455 00","categoryIds":["attractions"],"categories":["Must-See Attractions"],"distanceKm":15.041480106141213},{"id":"coffeeBrunchRestaurants_cd5c3a883c61","slug":"to-mantani-anthochori-cd5c","kind":"restaurant","name":"Το Μαντάνι Ανθοχώρι","lat":39.736473800129,"lng":21.128099892927416,"url":"https://maps.app.goo.gl/hhweii9Uj8Q5zzg69?g_st=ipc","address":"Ανθοχώρι 442 00","categoryIds":["coffee-brunch"],"categories":["Coffee & Brunch Spots"],"distanceKm":24.373329924788894},{"id":"greekRestaurants_df023e747e5f","slug":"kanela-kai-garyfallo-mushroom-restaurant-df02","kind":"restaurant","name":"ΚΑΝΕΛΑ ΚΑΙ ΓΑΡΥΦΑΛΛΟ, Mushroom Restaurant","lat":39.873717064633475,"lng":20.75043313227449,"url":"https://maps.app.goo.gl/RMbRCUycwB1E3Sf99?g_st=ipc","address":"Κεντρική Οδός Βίτσας, Βίτσα Ζαγορίου 440 07","categoryIds":["greek-restaurants"],"categories":["Greek Restaurants"],"distanceKm":24.501747619503547}],"sameRegion":[]},"__N_SSG":true}