{"pageProps":{"entity":{"id":"coffeeBrunchRestaurants_ebff8d600624","slug":"jenkins-lounge-eatery-ebff","kind":"restaurant","name":"Jenkins Lounge Eatery","lat":37.786543893628924,"lng":20.898568985854595,"url":"https://maps.app.goo.gl/1TG8uMAi1MTZQgiY8?g_st=ipc","address":"Psaron 3, Zakinthos 291 00","categoryIds":["coffee-brunch"],"categories":["Coffee & Brunch Spots"]},"sameCategory":[{"id":"coffeeBrunchRestaurants_4e218b55f113","slug":"madisons-kitchen-bar-4e21","kind":"restaurant","name":"Madisons Kitchen Bar","lat":37.78371523709895,"lng":20.898097278049377,"url":"https://maps.app.goo.gl/Anc3Yu4uRzD8XagR9?g_st=ipc","address":"Lomvardou 36, Zakinthos 291 00","categoryIds":["coffee-brunch"],"categories":["Coffee & Brunch Spots"]},{"id":"coffeeBrunchRestaurants_f69353dde3df","slug":"ammos-beach-bar-restaurant-kefalonia-f693","kind":"restaurant","name":"Ammos Beach Bar & Restaurant | Kefalonia","lat":38.08122535953636,"lng":20.800056619766497,"url":"https://maps.app.goo.gl/SxeeHeaBpXq8VgZe8?g_st=ipc","address":"Κεφαλληνίας, Skala 281 00","categoryIds":["coffee-brunch"],"categories":["Coffee & Brunch Spots"]},{"id":"coffeeBrunchRestaurants_e7e97fb2d3e5","slug":"anemos-cafe-bar-e7e9","kind":"restaurant","name":"Anemos Cafe Bar","lat":37.77116024105471,"lng":21.29250825374054,"url":"https://maps.app.goo.gl/M2pxCK9uxiBVApkD7?g_st=ipc","address":"Kourouta 272 00","categoryIds":["coffee-brunch"],"categories":["Coffee & Brunch Spots"]},{"id":"coffeeBrunchRestaurants_b203c212827d","slug":"remetzo-kafe-b203","kind":"restaurant","name":"Ρεμετζο καφέ","lat":38.14775445639953,"lng":20.7788036615171,"url":"https://maps.app.goo.gl/DJjkbdzn9Sg4yrHY7?g_st=ipc","address":"Metaxa, Kefalonia 280 82","categoryIds":["coffee-brunch"],"categories":["Coffee & Brunch Spots"]},{"id":"coffeeBrunchRestaurants_caa1d894f98a","slug":"kafepoleion-caa1","kind":"restaurant","name":"Kafepoleion","lat":38.14255916452544,"lng":20.54310186456745,"url":"https://maps.app.goo.gl/YKFX8hPovFNGt9pDA?g_st=ipc","address":"Κοκύλια, Kefalonia 281 00","categoryIds":["coffee-brunch"],"categories":["Coffee & Brunch Spots"]},{"id":"coffeeBrunchRestaurants_febf410e8642","slug":"costa-costa-beach-bar-febf","kind":"restaurant","name":"Costa Costa Beach Bar","lat":38.15380761963389,"lng":20.4824739703724,"url":"https://maps.app.goo.gl/TgFrHfc8nxYVBh9z7?g_st=ipc","address":"Lassi, Argostoli 281 00","categoryIds":["coffee-brunch"],"categories":["Coffee & Brunch Spots"]},{"id":"coffeeBrunchRestaurants_9057c09060eb","slug":"espresso-house-9057","kind":"restaurant","name":"Espresso house","lat":38.17163745193254,"lng":20.492476064422643,"url":"https://maps.app.goo.gl/yzerSoB1WzcjYnKq5?g_st=ipc","address":"Devosetou 15, Argostoli 281 00","categoryIds":["coffee-brunch"],"categories":["Coffee & Brunch Spots"]},{"id":"coffeeBrunchRestaurants_b487e1e8e4bb","slug":"la-mer-b487","kind":"restaurant","name":"La Mer","lat":38.15655535964722,"lng":21.36777415023951,"url":"https://maps.app.goo.gl/ijDMxEmSaLdDH7FR8?g_st=ipc","address":"Larisos 270 52","categoryIds":["coffee-brunch"],"categories":["Coffee & Brunch Spots"]}],"nearby":[{"id":"municipalities_baf5b688aa1e","slug":"zakynthos-baf5","kind":"municipality","name":"Ζάκυνθος","lat":37.787,"lng":20.899,"aliases":["Zakynthos","Zante","Ζακύνθη","Ζακύνθια","Ζακυνθος","Ζακυνθο"],"region":"Ιόνιο","name_en":"Zakynthos","region_en":"Ionian Islands","distanceKm":0.06329923103945387},{"id":"luxuryDiningRestaurants_297c60e6e419","slug":"prosilio-restaurant-297c","kind":"restaurant","name":"Prosilio Restaurant","lat":37.788001222025756,"lng":20.899925444650034,"url":"https://maps.app.goo.gl/ubyLMAurXvicrjVq5?g_st=ipc","address":"Ag. Panton 15, Zakinthos 291 00","categoryIds":["luxury-dining"],"categories":["Luxury Dining"],"distanceKm":0.20116709362339785},{"id":"coffeeBrunchRestaurants_4e218b55f113","slug":"madisons-kitchen-bar-4e21","kind":"restaurant","name":"Madisons Kitchen Bar","lat":37.78371523709895,"lng":20.898097278049377,"url":"https://maps.app.goo.gl/Anc3Yu4uRzD8XagR9?g_st=ipc","address":"Lomvardou 36, Zakinthos 291 00","categoryIds":["coffee-brunch"],"categories":["Coffee & Brunch Spots"],"distanceKm":0.3172521157071377},{"id":"greekRestaurants_86504f0faf2d","slug":"taverna-kanalos-8650","kind":"restaurant","name":"Ταβέρνα Κανάλος","lat":37.74512607213738,"lng":20.917628670414246,"url":"https://maps.app.goo.gl/ebFS85SgPTyHbVcT9?g_st=ipc","address":"Ζάκυνθος 291 00","categoryIds":["greek-restaurants"],"categories":["Greek Restaurants"],"distanceKm":4.9007231792537},{"id":"greekRestaurants_b11ec83ff251","slug":"windmill-restaurant-vasilikos-b11e","kind":"restaurant","name":"Windmill Restaurant Vasilikos","lat":37.740610146426334,"lng":20.948246366300793,"url":"https://maps.app.goo.gl/V9M7P1MyavrnAWWj7?g_st=ipc","address":"Ζάκυνθος 291 00","categoryIds":["greek-restaurants"],"categories":["Greek Restaurants"],"distanceKm":6.7199031721198565},{"id":"luxuryDiningRestaurants_889a9d30e511","slug":"melia-fine-dining-889a","kind":"restaurant","name":"Melia fine dining","lat":37.828072825552965,"lng":20.841384143587636,"url":"https://maps.app.goo.gl/vE8rWsiQpSVYvijD9?g_st=ipc","address":"Τραγάκι 291 00","categoryIds":["luxury-dining"],"categories":["Luxury Dining"],"distanceKm":6.823711219934484},{"id":"wineriesVineyards_fdc81e37eccd","slug":"ktima-grampsa-grampsas-winery-restaurant-fdc8","kind":"restaurant","name":"Κτήμα Γράμψα ( Grampsas Winery & Restaurant)","lat":37.75447353990938,"lng":20.823574548385672,"url":"https://maps.app.goo.gl/m1RiUmNLtuMu1JHV9?g_st=ipc","address":"Lagopodo 290 92","categoryIds":["wineries-vineyards"],"categories":["Wineries & Vineyards"],"distanceKm":7.494513375541756},{"id":"greekRestaurants_e73aaa95127b","slug":"paradosiaki-taverna-to-piroynaki-e73a","kind":"restaurant","name":"Παραδοσιακή Ταβέρνα Το Πηρουνάκι","lat":37.775396020007214,"lng":20.812027974617365,"url":"https://maps.app.goo.gl/fGjWbBB2hRjDmHD9A?g_st=ipc","address":"Ζάκυνθος, Λαγκαδάκια 290 92","categoryIds":["greek-restaurants"],"categories":["Greek Restaurants"],"distanceKm":7.705912343336122}],"sameRegion":[]},"__N_SSG":true}