{"pageProps":{"entity":{"id":"vegetarianRestaurants_6deacfd2e12e","slug":"join-juice-bars-6dea","kind":"restaurant","name":"JOIN Juice bars","lat":40.631118918304644,"lng":22.946639928874713,"url":"https://maps.app.goo.gl/UVLvkFVnZ6xST6Mh7?g_st=ipc","address":"Paleon Patron Germanou 10, Thessaloniki 546 22","categoryIds":["vegetarian"],"categories":["Vegetarian Friendly Restaurants"]},"sameCategory":[{"id":"vegetarianRestaurants_ae93f5705c93","slug":"mushroom-skg-ae93","kind":"restaurant","name":"mushroom skg","lat":40.63168703304935,"lng":22.946978697189547,"url":"https://maps.app.goo.gl/F7WJFJ3rEhib4fX86?g_st=ipc","address":"Zefxidos 10, Thessaloniki 546 22","categoryIds":["vegetarian"],"categories":["Vegetarian Friendly Restaurants"]},{"id":"vegetarianRestaurants_e657a11ff030","slug":"exereton-e657","kind":"restaurant","name":"Exereton","lat":40.63128653966046,"lng":22.94431457365469,"url":"https://maps.app.goo.gl/5FEXt9rVscqgVtM8A?g_st=ipc","address":"Mitropoleos 69, Thessaloniki 546 23","categoryIds":["vegetarian"],"categories":["Vegetarian Friendly Restaurants"]},{"id":"vegetarianRestaurants_06643fab1947","slug":"the-heavy-melon-to-vari-peponi-0664","kind":"restaurant","name":"The Heavy Melon - To vari peponi","lat":40.6309548038653,"lng":22.94951618640559,"url":"https://maps.app.goo.gl/6ZPuKUN8mPNN6b4C9?g_st=ipc","address":"Apellou 4, Thessaloniki 546 22","categoryIds":["vegetarian"],"categories":["Vegetarian Friendly Restaurants"]},{"id":"vegetarianRestaurants_1e9851e5feae","slug":"handwich-1e98","kind":"restaurant","name":"HANDWICH","lat":40.63375897578191,"lng":22.947935333630785,"url":"https://maps.app.goo.gl/JccdCGeGNfXKNSwQ7?g_st=ipc","address":"Egnatia 112, Thessaloniki 546 22","categoryIds":["vegetarian"],"categories":["Vegetarian Friendly Restaurants"]},{"id":"vegetarianRestaurants_b82222e81ca2","slug":"merry-berry-health-bar-b822","kind":"restaurant","name":"Merry Berry Health Bar","lat":40.62787788837935,"lng":22.947534537868144,"url":"https://maps.app.goo.gl/9NhW77pMY2C6xJxq8?g_st=ipc","address":"Dim. Gounari 5, Thessaloniki 546 22","categoryIds":["vegetarian"],"categories":["Vegetarian Friendly Restaurants"]},{"id":"vegetarianRestaurants_c6f3e8f66558","slug":"join-juice-bars-c6f3","kind":"restaurant","name":"JOIN juice bars","lat":40.62769116289148,"lng":22.94711801674614,"url":"https://maps.app.goo.gl/nimzQmKjxrKbiFuKA?g_st=ipc","address":"Leof. Nikis 73, Thessaloniki 546 22","categoryIds":["vegetarian"],"categories":["Vegetarian Friendly Restaurants"]},{"id":"vegetarianRestaurants_40634af2ec79","slug":"falafel-taste-middle-east-4063","kind":"restaurant","name":"Falafel Taste Middle East","lat":40.62785484140031,"lng":22.949330420414434,"url":"https://maps.app.goo.gl/bHy6BTfdp9RBhdBt6?g_st=ipc","address":"Mitropoleos 106 &, Romanou, Thessaloniki 546 21","categoryIds":["vegetarian"],"categories":["Vegetarian Friendly Restaurants"]},{"id":"vegetarianRestaurants_2475d58129d5","slug":"roots-2475","kind":"restaurant","name":"rOOTS","lat":40.63467670599439,"lng":22.944084463130924,"url":"https://maps.app.goo.gl/rcikrHzBuB8MLxMXA?g_st=ipc","address":"Mpalanou 4, Thessaloniki 546 23","categoryIds":["vegetarian"],"categories":["Vegetarian Friendly Restaurants"]}],"nearby":[{"id":"coffeeBrunchRestaurants_1b425a72f2b5","slug":"join-juice-bars-1b42","kind":"restaurant","name":"JOIN Juice bars","lat":40.63111893989398,"lng":22.94663938125253,"url":"https://maps.app.goo.gl/N6nKzENHvyunx5Mi6?g_st=ipc","address":"Paleon Patron Germanou 10, Thessaloniki 546 22","categoryIds":["coffee-brunch"],"categories":["Coffee & Brunch Spots"],"distanceKm":0.00004627494369309584},{"id":"cheapEatsRestaurants_6c50423bab44","slug":"hot-pot-pasteria-city-center-6c50","kind":"restaurant","name":"Hot Pot Pasteria City Center","lat":40.63116120039778,"lng":22.946781922089382,"url":"https://maps.app.goo.gl/VGaiUJdvDDnid5Kk9?g_st=ipc","address":"Paleon Patron Germanou 12, Thessaloniki 546 22","categoryIds":["cheap-eats"],"categories":["Gyros & Cheap Eats"],"distanceKm":0.012871857551978023},{"id":"dessertsRestaurants_d0ca7ccef948","slug":"choureal-choux-profiterole-d0ca","kind":"restaurant","name":"Choureál | Choux & Profiterole","lat":40.63128497514692,"lng":22.94642870495605,"url":"https://maps.app.goo.gl/a3ZWXrDCAGuMcPwA6?g_st=ipc","address":"Paleon Patron Germanou 9, Thessaloniki 546 22","categoryIds":["desserts"],"categories":["Dessert Shops"],"distanceKm":0.025664455681309803},{"id":"coffeeBrunchRestaurants_f6927d333ac7","slug":"local-thessaloniki-f692","kind":"restaurant","name":"LOCAL Thessaloniki","lat":40.63143794324686,"lng":22.94699527001704,"url":"https://maps.app.goo.gl/RCLyEycZ8dqaLJjT6?g_st=ipc","address":"Paleon Patron Germanou 17, Thessaloniki 546 22","categoryIds":["coffee-brunch"],"categories":["Coffee & Brunch Spots"],"distanceKm":0.046449810177030544},{"id":"greekRestaurants_dd92d680950f","slug":"local-thessaloniki-dd92","kind":"restaurant","name":"LOCAL Thessaloniki","lat":40.631447319193505,"lng":22.946995352889463,"url":"https://maps.app.goo.gl/iMk8Tx82t81vQe5y5?g_st=ipc","address":"Παλαιών Πατρών Γερμανού 17, Θεσσαλονίκη 546 22","categoryIds":["greek-restaurants"],"categories":["Greek Restaurants"],"distanceKm":0.04725524752293644},{"id":"coffeeBrunchRestaurants_59f3ca123c97","slug":"72h-artisanal-bakery-59f3","kind":"restaurant","name":"72H Artisanal Bakery","lat":40.630980814351275,"lng":22.946106919469365,"url":"https://maps.app.goo.gl/xY83zLTaRAhzVGBo8?g_st=ipc","address":"Paleon Patron Germanou 2, Thessaloniki 546 22","categoryIds":["coffee-brunch"],"categories":["Coffee & Brunch Spots"],"distanceKm":0.047528725654012616},{"id":"greekRestaurants_90c55ea6b27c","slug":"rogkoti-1928-90c5","kind":"restaurant","name":"Ρογκότη 1928","lat":40.63063704521069,"lng":22.947121329539414,"url":"https://maps.app.goo.gl/oYN4BameZGmdPwsE8?g_st=ipc","address":"Grigoriou Palama 8, Thessaloniki 546 22","categoryIds":["greek-restaurants"],"categories":["Greek Restaurants"],"distanceKm":0.06724108262923242},{"id":"coffeeBrunchRestaurants_cbf12f48a77e","slug":"mandarini-skg-cbf1","kind":"restaurant","name":"Mandarini_skg","lat":40.63174083169372,"lng":22.946676387172698,"url":"https://maps.app.goo.gl/CEdKb7KcdrPJwXZdA?g_st=ipc","address":"Zefxidos 6, Thessaloniki 546 22","categoryIds":["coffee-brunch"],"categories":["Coffee & Brunch Spots"],"distanceKm":0.0692220187761763}],"sameRegion":[]},"__N_SSG":true}