{"pageProps":{"entity":{"id":"coffeeBrunchRestaurants_8bc5f44d74ac","slug":"kalimeres-8bc5","kind":"restaurant","name":"Kalimeres","lat":37.978483021682415,"lng":23.72389713601111,"url":"https://maps.app.goo.gl/ZPnBqVvxDVsiGKHW9?g_st=ipc","address":"Τάκη 14, Αθήνα 105 54","categoryIds":["coffee-brunch"],"categories":["Coffee & Brunch Spots"]},"sameCategory":[{"id":"coffeeBrunchRestaurants_0cf84ce87995","slug":"tragos-monterno-kafeneio-0cf8","kind":"restaurant","name":"Τράγος - Μοντέρνο καφενείο","lat":37.978852815263814,"lng":23.723863790699163,"url":"https://maps.app.goo.gl/bBjGmrefeTQEp69R6?g_st=ipc","address":"Πλ. Αγίων Αναργύρων, Αθήνα 105 54","categoryIds":["coffee-brunch"],"categories":["Coffee & Brunch Spots"]},{"id":"coffeeBrunchRestaurants_78ed4f7cb116","slug":"wanna-flirt-athens-78ed","kind":"restaurant","name":"Wanna Flirt Athens","lat":37.97798701722354,"lng":23.723877845804303,"url":"https://maps.app.goo.gl/thvA3YKydqCEyTJY6?g_st=ipc","address":"Μίκωνος 15, Αθήνα 105 54","categoryIds":["coffee-brunch"],"categories":["Coffee & Brunch Spots"]},{"id":"coffeeBrunchRestaurants_1ddb16fae75f","slug":"picky-brunch-specialty-coffee-1ddb","kind":"restaurant","name":"Picky Brunch & Specialty Coffee","lat":37.97805825269081,"lng":23.723335268192,"url":"https://maps.app.goo.gl/yvybgbadXBxDYdiG9?g_st=ipc","address":"Χριστοκοπίδου 14 &, Ναυάρχου Αποστόλη, Αθήνα 105 54","categoryIds":["coffee-brunch"],"categories":["Coffee & Brunch Spots"]},{"id":"coffeeBrunchRestaurants_06cd6550247a","slug":"to-koyloyri-toy-psyrri-06cd","kind":"restaurant","name":"Το Κουλούρι του Ψυρρή","lat":37.977887972011985,"lng":23.724432470303434,"url":"https://maps.app.goo.gl/mrSptKu5z8RBZP9j8?g_st=ipc","address":"Γεωργίου Καραϊσκάκη 23, Αθήνα 105 54","categoryIds":["coffee-brunch"],"categories":["Coffee & Brunch Spots"]},{"id":"coffeeBrunchRestaurants_37e37277bf11","slug":"zampano-37e3","kind":"restaurant","name":"Zampanó","lat":37.97950983062841,"lng":23.723099894539097,"url":"https://maps.app.goo.gl/mnTDWvpyMKKxYj9B8?g_st=ipc","address":"Σαρρή 18, Αθήνα 105 53","categoryIds":["coffee-brunch"],"categories":["Coffee & Brunch Spots"]},{"id":"coffeeBrunchRestaurants_042f902bce89","slug":"usurum-042f","kind":"restaurant","name":"Usurum","lat":37.97818787977545,"lng":23.72228180277763,"url":"https://maps.app.goo.gl/ySxc5dRDtaNkenof9?g_st=ipc","address":"Λεπενιώτου 19, Αθήνα 105 54","categoryIds":["coffee-brunch"],"categories":["Coffee & Brunch Spots"]},{"id":"coffeeBrunchRestaurants_26528fa68af9","slug":"the-brunchers-2652","kind":"restaurant","name":"The Brunchers","lat":37.97723167635048,"lng":23.724930062728706,"url":"https://maps.app.goo.gl/28Tan1nmqMaPBFMr7?g_st=ipc","address":"Αγ. Θέκλας 5, Αθήνα 105 54","categoryIds":["coffee-brunch"],"categories":["Coffee & Brunch Spots"]},{"id":"coffeeBrunchRestaurants_988f2cbbbd9c","slug":"liystor-988f","kind":"restaurant","name":"LIYSTOR","lat":37.97700032542266,"lng":23.724753676313323,"url":"https://maps.app.goo.gl/7douBXS6i4VTSVMM9?g_st=ipc","address":"Ερμού 92-94, Αθήνα 105 54","categoryIds":["coffee-brunch"],"categories":["Coffee & Brunch Spots"]}],"nearby":[{"id":"greekRestaurants_01412cd104e7","slug":"bandiera-0141","kind":"restaurant","name":"Bandiera","lat":37.978324295237165,"lng":23.723850317882693,"url":"https://maps.app.goo.gl/Qi3TiLypHkh8kAfv8","address":"Τάκη 19, Αθήνα 105 54","categoryIds":["greek-restaurants"],"categories":["Greek Restaurants"],"distanceKm":0.018120336086616562},{"id":"mexicanRestaurants_68ac307861c4","slug":"morenita-all-day-bar-restaurant-68ac","kind":"restaurant","name":"Morenita All Day Bar Restaurant","lat":37.978327591113846,"lng":23.724081018892964,"url":"https://maps.app.goo.gl/HF699YbZfp4NJUYi7?g_st=ipc","address":"Τάκη 13, Αθήνα 105 54","categoryIds":["mexican"],"categories":["Mexican Restaurants"],"distanceKm":0.023631871726688677},{"id":"greekRestaurants_47e0fbf99993","slug":"nikitas-psyrri-47e0","kind":"restaurant","name":"Νικήτας Ψυρρή","lat":37.97869467804771,"lng":23.723980497190343,"url":"https://maps.app.goo.gl/cnKsmpXwbUi4ehMj9","address":"Αγ. Αναργύρων 19, Αθήνα 105 54","categoryIds":["greek-restaurants"],"categories":["Greek Restaurants"],"distanceKm":0.024643175981608915},{"id":"rooftopLoungesRestaurants_618102314dfe","slug":"momix-bar-athens-6181","kind":"restaurant","name":"MoMix Bar Athens","lat":37.97873103162127,"lng":23.723898549953017,"url":"https://maps.app.goo.gl/sokqQJABVgjaTNcT9?g_st=ipc","address":"Αγ. Αναργύρων 21, Αθήνα 105 54","categoryIds":["rooftop-lounges"],"categories":["Rooftop Lounges"],"distanceKm":0.02757772541942572},{"id":"coffeeBrunchRestaurants_0cf84ce87995","slug":"tragos-monterno-kafeneio-0cf8","kind":"restaurant","name":"Τράγος - Μοντέρνο καφενείο","lat":37.978852815263814,"lng":23.723863790699163,"url":"https://maps.app.goo.gl/bBjGmrefeTQEp69R6?g_st=ipc","address":"Πλ. Αγίων Αναργύρων, Αθήνα 105 54","categoryIds":["coffee-brunch"],"categories":["Coffee & Brunch Spots"],"distanceKm":0.041222907362791515},{"id":"mustSeeAttractions_1d05d319a6bb","slug":"psyrri-1d05","kind":"restaurant","name":"Ψυρρή","lat":37.9780643555903,"lng":23.723930742700833,"url":"https://maps.app.goo.gl/JcpJbaRT1V7eBHEa9?g_st=ipc","address":"Αθήνα 105 54","categoryIds":["attractions"],"categories":["Must-See Attractions"],"distanceKm":0.046646640358526927},{"id":"coffeeBrunchRestaurants_78ed4f7cb116","slug":"wanna-flirt-athens-78ed","kind":"restaurant","name":"Wanna Flirt Athens","lat":37.97798701722354,"lng":23.723877845804303,"url":"https://maps.app.goo.gl/thvA3YKydqCEyTJY6?g_st=ipc","address":"Μίκωνος 15, Αθήνα 105 54","categoryIds":["coffee-brunch"],"categories":["Coffee & Brunch Spots"],"distanceKm":0.055179089164871055},{"id":"burgersRestaurants_09af19b27a7c","slug":"po-boys-bbq-09af","kind":"restaurant","name":"PO'BOYS BBQ","lat":37.97837875741083,"lng":23.723280392822467,"url":"https://maps.app.goo.gl/j39YQoSzREu8gQk77?g_st=ipc","address":"Agatharchou 12 &, Λεπενιώτου, Αθήνα 105 54","categoryIds":["burgers"],"categories":["Burger Spots"],"distanceKm":0.05528593650813403}],"sameRegion":[]},"__N_SSG":true}