{"pageProps":{"entity":{"id":"dessertsRestaurants_4247bc679f6e","slug":"kallisto-4247","kind":"restaurant","name":"Kallisto","lat":36.83193327608509,"lng":25.897182643444378,"url":"https://maps.app.goo.gl/zxMDWyaDa8oTgjvt6?g_st=ipc","address":"Χώρα 840 08","categoryIds":["desserts"],"categories":["Dessert Shops"]},"sameCategory":[{"id":"dessertsRestaurants_2726c61e3f6e","slug":"mikraki-gelato-2726","kind":"restaurant","name":"Μικράκι gelato","lat":36.83144131849213,"lng":25.898487086486654,"url":"https://maps.app.goo.gl/QD97vczb4ZtE7gzR9?g_st=ipc","address":"Χώρα 840 08","categoryIds":["desserts"],"categories":["Dessert Shops"]},{"id":"dessertsRestaurants_3d1262fd2666","slug":"fystiki-gelato-3d12","kind":"restaurant","name":"Fystiki Gelato","lat":36.93198529080786,"lng":25.599118541452043,"url":"https://maps.app.goo.gl/SRnK7VZPNJJSVHfq6?g_st=ipc","address":"Κουφονησίων, Koufonisi 843 00","categoryIds":["desserts"],"categories":["Dessert Shops"]},{"id":"dessertsRestaurants_d95b7562195c","slug":"fasolas-gastrokafeneio-d95b","kind":"restaurant","name":"Fasolas Gastrokafeneio","lat":37.05047818826614,"lng":25.497802541590467,"url":"https://maps.app.goo.gl/BMT18eHqusic7eRN8?g_st=ipc","address":"Filoti 843 02","categoryIds":["desserts"],"categories":["Dessert Shops"]},{"id":"dessertsRestaurants_cc34d8a19c1a","slug":"caffe-greco-cc34","kind":"restaurant","name":"Caffe Greco","lat":37.0628393807371,"lng":25.48217786098,"url":"https://maps.app.goo.gl/LEeuqgamRoLhRLwm7?g_st=ipc","address":"Χαλκείο 843 02","categoryIds":["desserts"],"categories":["Dessert Shops"]},{"id":"dessertsRestaurants_30901429574f","slug":"kolokytha-3090","kind":"restaurant","name":"Kolokytha","lat":36.54727053954883,"lng":26.353646884859614,"url":"https://maps.app.goo.gl/2T2VnbDknHbHu6nF7?g_st=ipc","address":"Unnamed Rd, Astipalea 859 00","categoryIds":["desserts"],"categories":["Dessert Shops"]},{"id":"dessertsRestaurants_57c847d6a034","slug":"meltemi-57c8","kind":"restaurant","name":"Meltemi","lat":36.545357632908505,"lng":26.352356694518964,"url":"https://maps.app.goo.gl/cu1BEud71YMnJy2E9?g_st=ipc","address":"Astypalaia 859 00","categoryIds":["desserts"],"categories":["Dessert Shops"]},{"id":"dessertsRestaurants_eb323a6e2ce5","slug":"aktaion-eb32","kind":"restaurant","name":"Aktaíon","lat":37.10978039540428,"lng":25.383810454464182,"url":"https://maps.app.goo.gl/2DJ9CavskAENKDWQ6?g_st=ipc","address":"Naxou, Krinides 843 00","categoryIds":["desserts"],"categories":["Dessert Shops"]},{"id":"dessertsRestaurants_fb9eb4b1bad8","slug":"chou-chouro-fb9e","kind":"restaurant","name":"Chou-Chouro","lat":37.10481340685538,"lng":25.376412266991043,"url":"https://maps.app.goo.gl/Phd5ZDeXAdM1ZXne8?g_st=ipc","address":"Castle Area, Naxos 843 00","categoryIds":["desserts"],"categories":["Dessert Shops"]}],"nearby":[{"id":"greekRestaurants_3fefb3b2b9b2","slug":"mpyr-zolaki-3fef","kind":"restaurant","name":"Μπυρ...ζολάκι","lat":36.83162335048387,"lng":25.897767804584305,"url":"https://maps.app.goo.gl/qnA3672RAyo5iyaZ9?g_st=ipc","address":"Amorgos island, Χώρα 840 08","categoryIds":["greek-restaurants"],"categories":["Greek Restaurants"],"distanceKm":0.06244931327309983},{"id":"greekRestaurants_988a85889bca","slug":"tranzistoraki-988a","kind":"restaurant","name":"ΤρανζισΤοΡάκι","lat":36.83158272407629,"lng":25.897896255980164,"url":"https://maps.app.goo.gl/sp5wVpBx6d45B63S8?g_st=ipc","address":"Χώρα 840 08","categoryIds":["greek-restaurants"],"categories":["Greek Restaurants"],"distanceKm":0.0745194764416791},{"id":"greekRestaurants_b0d37034cad9","slug":"liotrivi-estiatorio-kafe-mpar-b0d3","kind":"restaurant","name":"Λιοτρίβι εστιατόριο καφέ μπαρ","lat":36.83150696646691,"lng":25.89638993777969,"url":"https://maps.app.goo.gl/CYARdJ4AMpe1LegF8?g_st=ipc","address":"ΑΜΟΡΓΟΣ ΧΩΡΑ ΧΩΡΑ, ΑΜΟΡΓΟΥ 840 08","categoryIds":["greek-restaurants"],"categories":["Greek Restaurants"],"distanceKm":0.08499733379589411},{"id":"greekRestaurants_47770432a20a","slug":"kastanis-estiatorio-4777","kind":"restaurant","name":"Καστάνης Εστιατόριο","lat":36.83158752520646,"lng":25.898124106946245,"url":"https://maps.app.goo.gl/HGPYt5HhJh8iT4G56?g_st=ipc","address":"Χώρα 840 08","categoryIds":["greek-restaurants"],"categories":["Greek Restaurants"],"distanceKm":0.09218966050398353},{"id":"coffeeBrunchRestaurants_15f758934efb","slug":"jazzmin-15f7","kind":"restaurant","name":"Jazzmin","lat":36.83137874729602,"lng":25.898307325862916,"url":"https://maps.app.goo.gl/YcQVqpGJyQtWEuk59?g_st=ipc","address":"Χώρα 840 08","categoryIds":["coffee-brunch"],"categories":["Coffee & Brunch Spots"],"distanceKm":0.11756492156431647},{"id":"italianRestaurants_f73393157432","slug":"pizza-petrino-f733","kind":"restaurant","name":"Pizza Petrino","lat":36.83162048389455,"lng":25.898532535817935,"url":"https://maps.app.goo.gl/BxpBdgAak6UKLRYL7?g_st=ipc","address":"Χώρα 840 08","categoryIds":["italian"],"categories":["Italian Restaurants"],"distanceKm":0.1250741096082726},{"id":"dessertsRestaurants_2726c61e3f6e","slug":"mikraki-gelato-2726","kind":"restaurant","name":"Μικράκι gelato","lat":36.83144131849213,"lng":25.898487086486654,"url":"https://maps.app.goo.gl/QD97vczb4ZtE7gzR9?g_st=ipc","address":"Χώρα 840 08","categoryIds":["desserts"],"categories":["Dessert Shops"],"distanceKm":0.12833827766715483},{"id":"luxuryDiningRestaurants_da6f148eb7d8","slug":"apospero-da6f","kind":"restaurant","name":"Apospero","lat":36.83183844559143,"lng":25.899499966261363,"url":"https://maps.app.goo.gl/j3TAqCiUnajPnQUUA?g_st=ipc","address":"Χώρα 840 08","categoryIds":["luxury-dining"],"categories":["Luxury Dining"],"distanceKm":0.20651154265842653}],"sameRegion":[]},"__N_SSG":true}