{"pageProps":{"entity":{"id":"cheapEatsRestaurants_13f771b69476","slug":"kalotaritissa-beach-canteen-13f7","kind":"restaurant","name":"Kalotaritissa Beach canteen","lat":36.79366881646542,"lng":25.743376582113193,"url":"https://maps.app.goo.gl/r2Vfu2hZFXLEjrmk8?g_st=ipc","address":"Καλοταρίτισσα 840 08","categoryIds":["cheap-eats"],"categories":["Gyros & Cheap Eats"]},"sameCategory":[{"id":"cheapEatsRestaurants_45215b23c30d","slug":"bloom-brothers-canteen-4521","kind":"restaurant","name":"Bloom Brothers canteen","lat":36.90173482477818,"lng":25.977068594760553,"url":"https://maps.app.goo.gl/JYSXRpKjkMx7aNHS7?g_st=ipc","address":"Λιμάνι, Lagada 840 08","categoryIds":["cheap-eats"],"categories":["Gyros & Cheap Eats"]},{"id":"cheapEatsRestaurants_492ec545e3cb","slug":"fbi-food-truck-492e","kind":"restaurant","name":"FBI Food Truck","lat":36.98018032275085,"lng":25.38911877245444,"url":"https://maps.app.goo.gl/tVknNoCtf1VeNxVy7?g_st=ipc","address":"X9JQ+3J, Naxos 843 02","categoryIds":["cheap-eats"],"categories":["Gyros & Cheap Eats"]},{"id":"cheapEatsRestaurants_4dbaa21f0de9","slug":"yasouvlaki-4dba","kind":"restaurant","name":"Yasouvlaki!","lat":37.104045402591176,"lng":25.37553445494035,"url":"https://maps.app.goo.gl/B6fuRTJ3jQNZCZMJ8?g_st=ipc","address":"Naxos 843 00","categoryIds":["cheap-eats"],"categories":["Gyros & Cheap Eats"]},{"id":"cheapEatsRestaurants_de78a5847b53","slug":"pitogyros-traditional-grill-house-gyros-souvlaki-kebab-de78","kind":"restaurant","name":"Pitogyros Traditional Grill House - Gyros, souvlaki, kebab.","lat":36.462570266691884,"lng":25.37797515114607,"url":"https://maps.app.goo.gl/Xyq1DhyUhw2mJaPq9?g_st=ipc","address":"Oia 847 02","categoryIds":["cheap-eats"],"categories":["Gyros & Cheap Eats"]},{"id":"cheapEatsRestaurants_666655654a40","slug":"souvlakia-kargas-6666","kind":"restaurant","name":"Souvlakia KARGAS","lat":37.124561868830334,"lng":25.238091044543676,"url":"https://maps.app.goo.gl/5vu438KzmoWTk1dRA?g_st=ipc","address":"Naousa 844 01","categoryIds":["cheap-eats"],"categories":["Gyros & Cheap Eats"]},{"id":"cheapEatsRestaurants_d0529bd9203e","slug":"filia-giannari-d052","kind":"restaurant","name":"Filia Giannari","lat":35.33111188005716,"lng":25.144727327039348,"url":"https://maps.app.goo.gl/p8LFpYc2vTdDWnYp6?g_st=ipc","address":"kavpevtan Mavnoli Mpantouva 65, Iraklio 713 07","categoryIds":["cheap-eats"],"categories":["Gyros & Cheap Eats"]},{"id":"cheapEatsRestaurants_598437c8481b","slug":"gyradiko-o-christos-5984","kind":"restaurant","name":"Γυραδικο \"Ο Χρήστος\"","lat":37.7173396733135,"lng":24.054314949086613,"url":"https://maps.app.goo.gl/Kg9SVim1DWH8Lytb6?g_st=ipc","address":"Λεωφ. Σουνίου 6, Λαύριο 195 00","categoryIds":["cheap-eats"],"categories":["Gyros & Cheap Eats"]},{"id":"cheapEatsRestaurants_d994fad95b5a","slug":"aroma-elladas-d994","kind":"restaurant","name":"Άρωμα Ελλάδας","lat":37.80578649121729,"lng":23.9833913286695,"url":"https://maps.app.goo.gl/cDRv243YonNg2qnB6?g_st=ipc","address":"Ευεργέτη Κωνσταντίνου Πρίφτη 57, Κερατέα 190 01","categoryIds":["cheap-eats"],"categories":["Gyros & Cheap Eats"]}],"nearby":[{"id":"greekRestaurants_b4a6065341fd","slug":"ston-pyrgo-b4a6","kind":"restaurant","name":"Στον Πύργο","lat":36.791965407259056,"lng":25.80106728547156,"url":"https://maps.app.goo.gl/cG8Rb5Kgv2XaSHPM7?g_st=ipc","address":"ΑΓΙΑ ΤΡΙΑΔΑ, Αρκεσίνη 840 08","categoryIds":["greek-restaurants"],"categories":["Greek Restaurants"],"distanceKm":5.1405948194622},{"id":"greekRestaurants_8fb4e329e193","slug":"maroyso-8fb4","kind":"restaurant","name":"ΜΑΡΟΥΣΩ","lat":36.787036104503706,"lng":25.802427774103137,"url":"https://maps.app.goo.gl/Fe7icpHd2EaQn3DL9?g_st=ipc","address":"ΚΥΚΛΑΔΕΣ, Αρκεσίνη 840 08","categoryIds":["greek-restaurants"],"categories":["Greek Restaurants"],"distanceKm":5.3098879491040325},{"id":"greekRestaurants_4a408ca96f0f","slug":"giorgalinis-4a40","kind":"restaurant","name":"Γιωργαλίνης","lat":36.79866266620689,"lng":25.81985305918722,"url":"https://maps.app.goo.gl/BHKAVy4JM8FKJLZr9?g_st=ipc","address":"Βρούτσης 840 08","categoryIds":["greek-restaurants"],"categories":["Greek Restaurants"],"distanceKm":6.832200291664532},{"id":"fishTavernasRestaurants_32f44df2e3e6","slug":"mouragio-taverna-32f4","kind":"restaurant","name":"Mouragio Taverna","lat":36.82713304585838,"lng":25.86300862920973,"url":"https://maps.app.goo.gl/qeiMhDDAhTy881ZMA?g_st=ipc","address":"Κατάπολα 840 08","categoryIds":["fish-tavernas"],"categories":["Fish Tavernas"],"distanceKm":11.281592330185932},{"id":"coffeeBrunchRestaurants_e2f6b0012785","slug":"arleta-e2f6","kind":"restaurant","name":"Arleta","lat":36.82638304281154,"lng":25.864058083086626,"url":"https://maps.app.goo.gl/W2NJQiPuDrDGXEQw5?g_st=ipc","address":"Κατάπολα 840 08","categoryIds":["coffee-brunch"],"categories":["Coffee & Brunch Spots"],"distanceKm":11.342863643509709},{"id":"fishTavernasRestaurants_5505aae10c35","slug":"capetan-dimos-5505","kind":"restaurant","name":"Capetan Dimos","lat":36.826649786040434,"lng":25.864391545420993,"url":"https://maps.app.goo.gl/J1yUSdS75CdNMzon8?g_st=ipc","address":"Κατάπολα 840 08","categoryIds":["fish-tavernas"],"categories":["Fish Tavernas"],"distanceKm":11.380491801108965},{"id":"greekRestaurants_b17830ed7512","slug":"fata-morgana-amorgos-est-2022-b178","kind":"restaurant","name":"Fata Morgana - Amorgos (est. 2022)","lat":36.831448706178094,"lng":25.864214040888726,"url":"https://maps.app.goo.gl/z4Un87D7stMZaFHp7?g_st=ipc","address":"Ξυλοκερατίδι 840 08","categoryIds":["greek-restaurants"],"categories":["Greek Restaurants"],"distanceKm":11.548450752786458},{"id":"fishTavernasRestaurants_8f48155428a0","slug":"almyriki-8f48","kind":"restaurant","name":"Almyriki","lat":36.83118579310379,"lng":25.86459980269408,"url":"https://maps.app.goo.gl/eknLukeQuWd7G4fW8?g_st=ipc","address":"Katapola, Xilokeratidi 840 08","categoryIds":["fish-tavernas"],"categories":["Fish Tavernas"],"distanceKm":11.56989050021054}],"sameRegion":[]},"__N_SSG":true}