{"pageProps":{"entity":{"id":"municipalities_c02abdf5e086","slug":"kalymnos-c02a","kind":"municipality","name":"Κάλυμνος","lat":36.951,"lng":26.98,"aliases":["Καλυμνος"],"region":"Δωδεκάνησα","name_en":"Kalymnos","region_en":"Dodecanese"},"sameCategory":[],"nearby":[{"id":"coffeeBrunchRestaurants_2788ef940f49","slug":"lovly-bar-2788","kind":"restaurant","name":"Lovly Bar","lat":36.8298552621884,"lng":27.052523615328724,"url":"https://maps.app.goo.gl/tqo3zEFB2jssR8Md9?g_st=ipc","address":"Mastihari","categoryIds":["coffee-brunch"],"categories":["Coffee & Brunch Spots"],"distanceKm":14.935108147451006},{"id":"greekRestaurants_c0692f9461d0","slug":"taverna-fytorio-c069","kind":"restaurant","name":"Taverna Fytorio","lat":36.778292441009086,"lng":27.052101116485588,"url":"https://maps.app.goo.gl/UVQDaysnf7UpsGmGA?g_st=ipc","address":"Επαρ.Οδ. Κώ-Κέφαλου, Ηρακλειδείς 853 01","categoryIds":["greek-restaurants"],"categories":["Greek Restaurants"],"distanceKm":20.247077717421725},{"id":"dessertsRestaurants_bbd3b3b571f4","slug":"special-zipari-bbd3","kind":"restaurant","name":"Special Zipari","lat":36.87693633011065,"lng":27.208733925340766,"url":"https://maps.app.goo.gl/y1ujiW8koq2bhg1NA?g_st=ipc","address":"Zipari 853 00","categoryIds":["desserts"],"categories":["Dessert Shops"],"distanceKm":21.93981868679353},{"id":"greekRestaurants_513745cda618","slug":"mylotopi-5137","kind":"restaurant","name":"Μυλοτόπι","lat":36.747083901794575,"lng":26.96020262174787,"url":"https://maps.app.goo.gl/91afb9UD8nNzZor17?g_st=ipc","address":"Κέφαλος 853 01","categoryIds":["greek-restaurants"],"categories":["Greek Restaurants"],"distanceKm":22.742760758177},{"id":"greekRestaurants_7709915bb0d1","slug":"oromedon-7709","kind":"restaurant","name":"Ωρομέδων","lat":36.84611734603098,"lng":27.20392445508704,"url":"https://maps.app.goo.gl/mZnsac8ZMBoCsgqg6?g_st=ipc","address":"Επαρ.Οδ. Ζιπάριου-Ασφενδιού, Λαγουδι Ζία 853 00","categoryIds":["greek-restaurants"],"categories":["Greek Restaurants"],"distanceKm":23.07588985134442},{"id":"greekRestaurants_b918155cc589","slug":"taverna-zia-b918","kind":"restaurant","name":"Ταβέρνα Ζιά","lat":36.84395435587276,"lng":27.204103754260537,"url":"https://maps.app.goo.gl/s7wipUzwGwhGaAfw7?g_st=ipc","address":"Λαγουδι Ζία 853 00","categoryIds":["greek-restaurants"],"categories":["Greek Restaurants"],"distanceKm":23.21230096448449},{"id":"greekRestaurants_8485c6e3a6b4","slug":"olympia-zia-8485","kind":"restaurant","name":"Olympia Zia","lat":36.846359220438664,"lng":27.20601879367517,"url":"https://maps.app.goo.gl/R49wPJn6AyfTkV788?g_st=ipc","address":"Λαγουδι Ζία 853 00","categoryIds":["greek-restaurants"],"categories":["Greek Restaurants"],"distanceKm":23.223265003571907},{"id":"municipalities_426a1844230a","slug":"leros-426a","kind":"municipality","name":"Λέρος","lat":37.133,"lng":26.85,"aliases":["Λερος"],"region":"Δωδεκάνησα","name_en":"Leros","region_en":"Dodecanese","distanceKm":23.295588849018465}],"sameRegion":[{"id":"municipalities_0334126572d2","slug":"rodos-0334","kind":"municipality","name":"Ρόδος","lat":36.434,"lng":28.217,"aliases":["Rodos","Rhodos","Ρόδη","Ροδος"],"region":"Δωδεκάνησα","name_en":"Rhodes","region_en":"Dodecanese"},{"id":"municipalities_1e15a9b9c22f","slug":"tilos-1e15","kind":"municipality","name":"Τήλος","lat":36.4167,"lng":27.3833,"aliases":["Τηλος"],"region":"Δωδεκάνησα","name_en":"Tilos","region_en":"Dodecanese"},{"id":"municipalities_1ff64765be31","slug":"chalki-1ff6","kind":"municipality","name":"Χάλκη","lat":36.2167,"lng":27.6167,"aliases":["Χαλκη"],"region":"Δωδεκάνησα","name_en":"Halki","region_en":"Dodecanese"},{"id":"municipalities_23af7cf13cb7","slug":"kos-23af","kind":"municipality","name":"Κως","lat":36.892,"lng":27.287,"aliases":["Kos","Κώς","Κω","Κος"],"region":"Δωδεκάνησα","name_en":"Kos","region_en":"Dodecanese"},{"id":"municipalities_426a1844230a","slug":"leros-426a","kind":"municipality","name":"Λέρος","lat":37.133,"lng":26.85,"aliases":["Λερος"],"region":"Δωδεκάνησα","name_en":"Leros","region_en":"Dodecanese"},{"id":"municipalities_6a80701acb8f","slug":"symi-6a80","kind":"municipality","name":"Σύμη","lat":36.6167,"lng":27.8333,"aliases":["Συμη","Συμι"],"region":"Δωδεκάνησα","name_en":"Symi","region_en":"Dodecanese"},{"id":"municipalities_8f7e81543417","slug":"patmos-8f7e","kind":"municipality","name":"Πάτμος","lat":37.308,"lng":26.547,"aliases":["Πατμος"],"region":"Δωδεκάνησα","name_en":"Patmos","region_en":"Dodecanese"},{"id":"municipalities_99d9186f1f31","slug":"agathonisi-99d9","kind":"municipality","name":"Αγαθονήσι","lat":37.456,"lng":26.963,"region":"Δωδεκάνησα","name_en":"Agathonisi","region_en":"Dodecanese"}]},"__N_SSG":true}