{"pageProps":{"entity":{"id":"municipalities_d6c7bd09305e","slug":"karpenisi-d6c7","kind":"municipality","name":"Καρπενήσι","lat":38.912,"lng":21.797,"region":"Ορεινοί Προορισμοί","name_en":"Karpenisi","region_en":"Mountain Destinations"},"sameCategory":[],"nearby":[{"id":"dessertsRestaurants_29d96cbe3da8","slug":"glykoplasteio-29d9","kind":"restaurant","name":"Glykoplasteío","lat":38.91264896054346,"lng":21.80246572954374,"url":"https://maps.app.goo.gl/c3y6StatonhrUYj26?g_st=ipc","address":"1ο χιλιόμετρο Εθνικής Οδού Καρπενησίου Λαμίας, Καρπενήσι, Karpenisi 361 00","categoryIds":["desserts"],"categories":["Dessert Shops"],"distanceKm":0.4783779418356468},{"id":"coffeeBrunchRestaurants_7763ea7d7b5d","slug":"the-paradosiakon-traditional-7763","kind":"restaurant","name":"The Paradosiakón (Traditional)","lat":38.912425769319995,"lng":21.803412059232368,"url":"https://maps.app.goo.gl/ZSCvQWpooUkkCF4K7?g_st=ipc","address":"Eolou 1, Karpenisi 361 00","categoryIds":["coffee-brunch"],"categories":["Coffee & Brunch Spots"],"distanceKm":0.5567993338680133},{"id":"greekRestaurants_5c3142c7d0fe","slug":"i-taverna-tis-kyra-zois-5c31","kind":"restaurant","name":"Η ταβέρνα της κυρά Ζωής","lat":38.9091706754785,"lng":21.810542639127807,"url":"https://maps.app.goo.gl/zkHGuBDnpHGCsSvs7?g_st=ipc","address":"ΑΡΧΙΜΑΝΔΡΙΤΟΥ ΠΑΠΑΝΙΚΟΛΑΟΥ 1, Καρπενήσι 361 00","categoryIds":["greek-restaurants"],"categories":["Greek Restaurants"],"distanceKm":1.2132599837832503},{"id":"municipalities_1d4b51456d77","slug":"karpenisi-1d4b","kind":"municipality","name":"Καρπενήσι","lat":38.9167,"lng":21.7833,"region":"Στερεά Ελλάδα","name_en":"Karpenisi","region_en":"Central Greece","distanceKm":1.295412908506079},{"id":"greekRestaurants_00acd58871fd","slug":"parko-kefalovryso-00ac","kind":"restaurant","name":"Πάρκο Κεφαλόβρυσο","lat":38.89684310507032,"lng":21.782192032592697,"url":"https://maps.app.goo.gl/UMhtP2NgQ48sj1Ey8?g_st=ipc","address":"2ο χλμ. Καρπενησίου-Προυσού, Καρπενήσι 361 00","categoryIds":["greek-restaurants"],"categories":["Greek Restaurants"],"distanceKm":2.1171528290289148},{"id":"coffeeBrunchRestaurants_0e2616bd7fc7","slug":"saloon-park-0e26","kind":"restaurant","name":"Saloon Park","lat":38.90092398449493,"lng":21.77279442117925,"url":"https://maps.app.goo.gl/ou4ZLrrH5JymyBSH7?g_st=ipc","address":"3ο χιλ Καρπενησίου Προυσσου, Karpenisi 361 00","categoryIds":["coffee-brunch"],"categories":["Coffee & Brunch Spots"],"distanceKm":2.4297483476427852},{"id":"familyFriendly_ea50207bb21c","slug":"saloon-park-ea50","kind":"restaurant","name":"Saloon Park","lat":38.90092130813555,"lng":21.772793181199432,"url":"https://maps.app.goo.gl/LrjoDSvaukPFS7Bc7?g_st=ipc","address":"3ο χιλ Καρπενησίου Προυσσου, Karpenisi 361 00","categoryIds":["family-friendly"],"categories":["Kid Friendly Locations"],"distanceKm":2.429991726108508},{"id":"italianRestaurants_cdb970122a35","slug":"kasmir-cdb9","kind":"restaurant","name":"Kasmir","lat":38.900597180204656,"lng":21.771398412012726,"url":"https://maps.app.goo.gl/tGER5rSkLzH68JTw8?g_st=ipc","address":"Mesabelia, Korischades 361 00","categoryIds":["italian"],"categories":["Italian Restaurants"],"distanceKm":2.5524746829645486}],"sameRegion":[]},"__N_SSG":true}