{"pageProps":{"entity":{"id":"municipalities_c1f706b91268","slug":"kilkis-c1f7","kind":"municipality","name":"Κιλκίς","lat":40.99,"lng":22.875,"region":"Κεντρική Μακεδονία","name_en":"Kilkis","region_en":"Central Macedonia"},"sameCategory":[],"nearby":[{"id":"familyFriendly_bde356affb96","slug":"pony-park-bde3","kind":"restaurant","name":"Pony park","lat":40.771648089590926,"lng":22.997360084589175,"url":"https://maps.app.goo.gl/g2acMrTmNxKzTfi17?g_st=ic","address":"14χλμ ΠΕΟ, EO Thessalonikis Serron, Oreokastro 572 00","categoryIds":["family-friendly"],"categories":["Kid Friendly Locations"],"distanceKm":26.36895626357011},{"id":"greekRestaurants_25aab707dbe6","slug":"taverna-charisis-25aa","kind":"restaurant","name":"Ταβέρνα Χαρίσης","lat":40.74300735227225,"lng":22.865911910966187,"url":"https://maps.app.goo.gl/Kjqd8y15rnvwbGch8?g_st=ipc","address":"Έναντι Γυμνασίου Νεοχωρούδας, Νεοχωρούδα 545 00","categoryIds":["greek-restaurants"],"categories":["Greek Restaurants"],"distanceKm":27.474959625776666},{"id":"municipalities_a63748723842","slug":"oraiokastro-a637","kind":"municipality","name":"Ωραιόκαστρο","lat":40.7303,"lng":22.9086,"region":"Περιαστική Ζώνη","name_en":"Oraiokastro","region_en":"Suburban Zone","distanceKm":29.015240611331553},{"id":"fishTavernasRestaurants_403462b419e4","slug":"tsipouro-restaurants-germanos-4034","kind":"restaurant","name":"Tsipouro Restaurants \"Germanos\"","lat":40.731011417439056,"lng":22.920109091479663,"url":"https://maps.app.goo.gl/Q6ReNhghxPSgvRJX6","address":"Leof. Dimokratias 41, Oreokastro 570 13","categoryIds":["fish-tavernas"],"categories":["Fish Tavernas"],"distanceKm":29.047000033247237},{"id":"greekRestaurants_b650f3fa3a9f","slug":"xrysikos-restaurant-b650","kind":"restaurant","name":"Xrysikos Restaurant","lat":40.724131299619074,"lng":22.908510129508898,"url":"https://maps.app.goo.gl/aewn1jT9fs3LU3he8?g_st=ipc","address":"Agias Paraskevis 9, Paleokastro 570 13","categoryIds":["greek-restaurants"],"categories":["Greek Restaurants"],"distanceKm":29.697277761634187},{"id":"dessertsRestaurants_2fe15f278a42","slug":"roxane-2fe1","kind":"restaurant","name":"Rōxánē","lat":40.72277068014523,"lng":22.90986284593618,"url":"https://maps.app.goo.gl/vbfuQxUAYJbahN6L9?g_st=ipc","address":"P. Mela 5, Paleokastro 570 13","categoryIds":["desserts"],"categories":["Dessert Shops"],"distanceKm":29.858851890411785},{"id":"greekRestaurants_a2bd75aa1df9","slug":"faidimos-a2bd","kind":"restaurant","name":"Φαίδιμος","lat":40.72205390492354,"lng":22.92535107333131,"url":"https://maps.app.goo.gl/zYo3CVk2Wm5dkqA19?g_st=ipc","address":"Κονταξοπούλου, & Θεσσαλονίκης 98, Ωραιόκαστρο 570 13","categoryIds":["greek-restaurants"],"categories":["Greek Restaurants"],"distanceKm":30.093678094518832},{"id":"greekRestaurants_1c6ced72e5ed","slug":"elodia-1c6c","kind":"restaurant","name":"ΕΛΩΔΙΑ","lat":41.212021463133844,"lng":23.095465241850924,"url":"https://maps.app.goo.gl/hUMzMe5vpXeYXPXQ6?g_st=ipc","address":"Κερκίνη, Σέρρες 620 55","categoryIds":["greek-restaurants"],"categories":["Greek Restaurants"],"distanceKm":30.833941417083846}],"sameRegion":[{"id":"municipalities_447a33d90dfe","slug":"polygyros-447a","kind":"municipality","name":"Πολύγυρος","lat":40.3167,"lng":23.5167,"region":"Κεντρική Μακεδονία","name_en":"Polygyros","region_en":"Central Macedonia"},{"id":"municipalities_48180ac7ab6a","slug":"kavala-4818","kind":"municipality","name":"Καβάλα","lat":40.937,"lng":24.406,"region":"Κεντρική Μακεδονία","name_en":"Kavala","region_en":"Central Macedonia"},{"id":"municipalities_68933443b9ec","slug":"naoysa-6893","kind":"municipality","name":"Νάουσα","lat":40.624,"lng":22.144,"region":"Κεντρική Μακεδονία","name_en":"Naousa","region_en":"Central Macedonia"},{"id":"municipalities_cfaa6a6444bc","slug":"aridaia-cfaa","kind":"municipality","name":"Αριδαία","lat":40.9333,"lng":22.05,"region":"Κεντρική Μακεδονία","name_en":"Aridaia","region_en":"Central Macedonia"}]},"__N_SSG":true}