{"pageProps":{"entity":{"id":"municipalities_e21de95f608c","slug":"koroni-e21d","kind":"municipality","name":"Κορώνη","lat":36.7983,"lng":21.9561,"aliases":["Κορωνη","Corone"],"region":"Μεσσηνία","name_en":"Koroni","region_en":"Messinia"},"sameCategory":[],"nearby":[{"id":"fishTavernasRestaurants_46da75bbca86","slug":"kitro-beach-bar-46da","kind":"restaurant","name":"KITRO beach bar","lat":36.929308748219135,"lng":22.141911839670122,"url":"https://maps.app.goo.gl/UZ9gptAC7Z6jkYbL6?g_st=ipc","address":"Kitries 240 16","categoryIds":["fish-tavernas"],"categories":["Fish Tavernas"],"distanceKm":22.03328229026734},{"id":"greekRestaurants_b452b307e3d5","slug":"avli-casual-dining-b452","kind":"restaurant","name":"Avli Casual Dining","lat":36.81789567150713,"lng":21.706028012146277,"url":"https://maps.app.goo.gl/k2HPMX5K8YM6G2pE8?g_st=ipc","address":"Μπουμπουλίνας 1, Μεθώνη 240 06","categoryIds":["greek-restaurants"],"categories":["Greek Restaurants"],"distanceKm":22.369738504642438},{"id":"mustSeeAttractions_a60d85bb9886","slug":"methoni-castle-a60d","kind":"restaurant","name":"Methoni Castle","lat":36.81667229767631,"lng":21.705266643313138,"url":"https://maps.app.goo.gl/k9fRFDUZV5HCUUQ88?g_st=ipc","address":"Unnamed Rd, Methoni 240 06","categoryIds":["attractions"],"categories":["Must-See Attractions"],"distanceKm":22.424575998267578},{"id":"municipalities_b59892fe8b38","slug":"methoni-b598","kind":"municipality","name":"Μεθώνη","lat":36.8186,"lng":21.7025,"aliases":["Μεθωνη","Methone"],"region":"Μεσσηνία","name_en":"Methoni","region_en":"Messinia","distanceKm":22.689910640362232},{"id":"coffeeBrunchRestaurants_de7e3474dbb3","slug":"bouka-bouka-mare-de7e","kind":"restaurant","name":"Bouka Bouka Mare","lat":37.013989599006756,"lng":21.99717016667302,"url":"https://maps.app.goo.gl/8DUAGWFE2uqSxjoi6?g_st=ipc","address":"Παραλία, Messini 242 00","categoryIds":["coffee-brunch"],"categories":["Coffee & Brunch Spots"],"distanceKm":24.25999642760815},{"id":"municipalities_4e5522991f15","slug":"pylos-nestoras-4e55","kind":"municipality","name":"Πύλος - Νέστορας","lat":36.9167,"lng":21.7,"region":"Μεσσηνία","name_en":"Pylos - Nestor","region_en":"Messinia","distanceKm":26.315385872051337},{"id":"municipalities_916c7fc5dbd0","slug":"kardamyli-916c","kind":"municipality","name":"Καρδαμύλη","lat":36.887,"lng":22.231,"region":"Μάνη","name_en":"Kardamyli","region_en":"Mani","distanceKm":26.376161540405167},{"id":"municipalities_c096fa7dc3e8","slug":"stoypa-c096","kind":"municipality","name":"Στούπα","lat":36.8437,"lng":22.2511,"region":"Μάνη","name_en":"Stoupa","region_en":"Mani","distanceKm":26.739637681803014}],"sameRegion":[{"id":"municipalities_27bb87995f2c","slug":"kalamata-27bb","kind":"municipality","name":"Καλαμάτα","lat":37.0389,"lng":22.1142,"aliases":["Kalamata","Καλαματα"],"region":"Μεσσηνία","name_en":"Kalamata","region_en":"Messinia"},{"id":"municipalities_4e5522991f15","slug":"pylos-nestoras-4e55","kind":"municipality","name":"Πύλος - Νέστορας","lat":36.9167,"lng":21.7,"region":"Μεσσηνία","name_en":"Pylos - Nestor","region_en":"Messinia"},{"id":"municipalities_b59892fe8b38","slug":"methoni-b598","kind":"municipality","name":"Μεθώνη","lat":36.8186,"lng":21.7025,"aliases":["Μεθωνη","Methone"],"region":"Μεσσηνία","name_en":"Methoni","region_en":"Messinia"},{"id":"municipalities_dc35612c688a","slug":"kyparissia-dc35","kind":"municipality","name":"Κυπαρισσία","lat":37.25,"lng":21.6667,"region":"Μεσσηνία","name_en":"Kyparissia","region_en":"Messinia"}]},"__N_SSG":true}