{"pageProps":{"entity":{"id":"municipalities_444e7b37bb5a","slug":"koyfonisi-444e","kind":"municipality","name":"Κουφονήσι","lat":36.9333,"lng":25.6,"region":"Κυκλάδες","name_en":"Koufonisia","region_en":"Cyclades"},"sameCategory":[],"nearby":[{"id":"coffeeBrunchRestaurants_ffafa520148c","slug":"koufonisia-bakery-ffaf","kind":"restaurant","name":"Koufonisia Bakery","lat":36.933430589719315,"lng":25.601645574976523,"url":"https://maps.app.goo.gl/upgNqgqMcearc7wRA?g_st=ipc","address":"Koufonisia 843 00","categoryIds":["coffee-brunch"],"categories":["Coffee & Brunch Spots"],"distanceKm":0.1469810192095379},{"id":"dessertsRestaurants_3d1262fd2666","slug":"fystiki-gelato-3d12","kind":"restaurant","name":"Fystiki Gelato","lat":36.93198529080786,"lng":25.599118541452043,"url":"https://maps.app.goo.gl/SRnK7VZPNJJSVHfq6?g_st=ipc","address":"Κουφονησίων, Koufonisi 843 00","categoryIds":["desserts"],"categories":["Dessert Shops"],"distanceKm":0.16585957813252492},{"id":"italianRestaurants_b24f49cdda5b","slug":"mikres-cyclades-b24f","kind":"restaurant","name":"Mikres Cyclades","lat":36.931957255563695,"lng":25.59902680119125,"url":"https://maps.app.goo.gl/JbLqAJKLLdfUdDyN8?g_st=ipc","address":"Άνω, 843 00","categoryIds":["italian"],"categories":["Italian Restaurants"],"distanceKm":0.17255364040284463},{"id":"fishTavernasRestaurants_368ca3267414","slug":"capetan-nikolas-368c","kind":"restaurant","name":"CAPETAN NIKOLAS","lat":36.931591561962186,"lng":25.597135247422372,"url":"https://maps.app.goo.gl/5J1tsPBuPnJDQAsV7?g_st=ipc","address":"Koufonisia 843 00","categoryIds":["fish-tavernas"],"categories":["Fish Tavernas"],"distanceKm":0.31768516488483},{"id":"greekRestaurants_aaff692063fa","slug":"bizeli-greek-restaurant-aaff","kind":"restaurant","name":"Bizeli Greek Restaurant","lat":36.86948697879524,"lng":25.51980769097378,"url":"https://maps.app.goo.gl/QUY5UC2bDWXfny3i7?g_st=ipc","address":"Χωρα, Σχοινούσσα 843 00","categoryIds":["greek-restaurants"],"categories":["Greek Restaurants"],"distanceKm":10.059559997742765},{"id":"greekRestaurants_9a173dd91bb8","slug":"kira-pothiti-9a17","kind":"restaurant","name":"Kira Pothiti","lat":36.869449747116555,"lng":25.519666821787904,"url":"https://maps.app.goo.gl/483iYa8hPsWmV2He8?g_st=ipc","address":"Chora, Schinoussa, Χώρα, Σχοινούσα, Chora, Σχοινούσσα 843 00","categoryIds":["greek-restaurants"],"categories":["Greek Restaurants"],"distanceKm":10.071362104666871},{"id":"greekRestaurants_d2b708170d7f","slug":"deli-restaurant-and-cafe-bar-d2b7","kind":"restaurant","name":"Deli Restaurant and cafe bar","lat":36.869590262270314,"lng":25.518770921181957,"url":"https://maps.app.goo.gl/ZNHHURiAn33ARUcg7?g_st=ipc","address":"Σχοινούσσα 843 00","categoryIds":["greek-restaurants"],"categories":["Greek Restaurants"],"distanceKm":10.117067511277344},{"id":"municipalities_27d97a869977","slug":"schoinoysa-27d9","kind":"municipality","name":"Σχοινούσα","lat":36.8667,"lng":25.5167,"region":"Κυκλάδες","name_en":"Schinoussa","region_en":"Cyclades","distanceKm":10.474153465092124}],"sameRegion":[{"id":"municipalities_094e7414e11a","slug":"mykonos-094e","kind":"municipality","name":"Μύκονος","lat":37.4467,"lng":25.3289,"aliases":["Mikonos","Μύκονα","Μυκονος","Mykonos","Myconos"],"region":"Κυκλάδες","name_en":"Mykonos","region_en":"Cyclades"},{"id":"municipalities_10c41fed1584","slug":"syros-10c4","kind":"municipality","name":"Σύρος","lat":37.4442,"lng":24.9428,"aliases":["Syros","Siros","Σύρα","Συρος","Συρο"],"region":"Κυκλάδες","name_en":"Syros","region_en":"Cyclades"},{"id":"municipalities_27d97a869977","slug":"schoinoysa-27d9","kind":"municipality","name":"Σχοινούσα","lat":36.8667,"lng":25.5167,"region":"Κυκλάδες","name_en":"Schinoussa","region_en":"Cyclades"},{"id":"municipalities_3cbd90a19d63","slug":"andros-3cbd","kind":"municipality","name":"Άνδρος","lat":37.8333,"lng":24.9333,"region":"Κυκλάδες","name_en":"Andros","region_en":"Cyclades"},{"id":"municipalities_402e7912632b","slug":"serifos-402e","kind":"municipality","name":"Σέριφος","lat":37.1537,"lng":24.5197,"aliases":["Σεριφος"],"region":"Κυκλάδες","name_en":"Serifos","region_en":"Cyclades"},{"id":"municipalities_56cba484379e","slug":"anafi-56cb","kind":"municipality","name":"Ανάφη","lat":36.35,"lng":25.7667,"region":"Κυκλάδες","name_en":"Anafi","region_en":"Cyclades"},{"id":"municipalities_5b32b43e93f7","slug":"santorini-5b32","kind":"municipality","name":"Σαντορίνη","lat":36.3932,"lng":25.4615,"aliases":["Thira","Thera","Santorin","Σαντορίνα","Σαντορινη","Θήρα","Θηρα"],"region":"Κυκλάδες","name_en":"Santorini","region_en":"Cyclades"},{"id":"municipalities_6d137de68b2c","slug":"kea-6d13","kind":"municipality","name":"Κέα","lat":37.6333,"lng":24.3333,"aliases":["Kea","Keios","Κέιος","Κεα"],"region":"Κυκλάδες","name_en":"Kea","region_en":"Cyclades"}]},"__N_SSG":true}