{"pageProps":{"entity":{"id":"municipalities_409628a3ab17","slug":"kozani-4096","kind":"municipality","name":"Κοζάνη","lat":40.3,"lng":21.7833,"region":"Δυτική Μακεδονία","name_en":"Kozani","region_en":"Western Macedonia"},"sameCategory":[],"nearby":[{"id":"municipalities_cd2916d304ca","slug":"servia-cd29","kind":"municipality","name":"Σέρβια","lat":40.15,"lng":21.8833,"region":"Δυτική Μακεδονία","name_en":"Servia","region_en":"Western Macedonia","distanceKm":18.715638937883607},{"id":"familyFriendly_9fb0caab5b5a","slug":"parko-elafion-agioy-panteleimonos-agios-dimitrios-kozanis-9fb0","kind":"restaurant","name":"Πάρκο Ελαφιών Αγίου Παντελεήμονος,Άγιος Δημήτριος Κοζάνης","lat":40.43077407157342,"lng":21.94672871822924,"url":"https://maps.app.goo.gl/RuwhJYNYLe2JU3NZA?g_st=ipc","address":"Agios Dimitrios 501 50","categoryIds":["family-friendly"],"categories":["Kid Friendly Locations"],"distanceKm":20.079032941666103},{"id":"municipalities_56af70d2af49","slug":"ptolemaida-56af","kind":"municipality","name":"Πτολεμαΐδα","lat":40.5167,"lng":21.6667,"region":"Δυτική Μακεδονία","name_en":"Ptolemaida","region_en":"Western Macedonia","distanceKm":26.039924179293177},{"id":"coffeeBrunchRestaurants_843447e20995","slug":"peinirli-kastanias-8434","kind":"restaurant","name":"Πεϊνιρλί Καστανιάς","lat":40.40779656305863,"lng":22.118956878515576,"url":"https://maps.app.goo.gl/tFoh177Q4oimL9Ny7?g_st=ipc","address":"Kastania 591 32","categoryIds":["coffee-brunch"],"categories":["Coffee & Brunch Spots"],"distanceKm":30.865107006648724},{"id":"greekRestaurants_a1e0b45c2175","slug":"opos-palia-a1e0","kind":"restaurant","name":"Όπως Παλιά","lat":40.516459246402064,"lng":22.091097986857875,"url":"https://maps.app.goo.gl/N33JSjsamCUmz8TN7?g_st=ipc","address":"Κεντρικός δρόμος Κουμαριάς -Σελιου, Κουμαριά 591 32","categoryIds":["greek-restaurants"],"categories":["Greek Restaurants"],"distanceKm":35.47523347605565},{"id":"familyFriendly_d18c51f19172","slug":"the-park-of-mushrooms-d18c","kind":"restaurant","name":"The Park of Mushrooms","lat":40.085707982229366,"lng":21.437328929556166,"url":"https://maps.app.goo.gl/8bk7HjJdaK7izqGE6?g_st=ipc","address":"Taliadouri 77, Grevena 511 00","categoryIds":["family-friendly"],"categories":["Kid Friendly Locations"],"distanceKm":37.833117343152416},{"id":"familyFriendly_5f4d4e2afff8","slug":"bowling-city-club-5f4d","kind":"restaurant","name":"Bowling City Club","lat":40.49775337927069,"lng":22.17239983558456,"url":"https://maps.app.goo.gl/KgPCpfULKMp7KhMJ7?g_st=ipc","address":"Bowling City Club, Veria 591 32","categoryIds":["family-friendly"],"categories":["Kid Friendly Locations"],"distanceKm":39.61273844605587},{"id":"greekRestaurants_0981b7de54f0","slug":"to-palio-podilato-0981","kind":"restaurant","name":"Το Παλιό Ποδήλατο","lat":40.488027534727074,"lng":22.213478399857028,"url":"https://maps.app.goo.gl/ceUirhjtqEWPKLQM6?g_st=ipc","address":"Ράχη 591 32","categoryIds":["greek-restaurants"],"categories":["Greek Restaurants"],"distanceKm":42.0035700790312}],"sameRegion":[{"id":"municipalities_56af70d2af49","slug":"ptolemaida-56af","kind":"municipality","name":"Πτολεμαΐδα","lat":40.5167,"lng":21.6667,"region":"Δυτική Μακεδονία","name_en":"Ptolemaida","region_en":"Western Macedonia"},{"id":"municipalities_6cef2b87b118","slug":"kastoria-6cef","kind":"municipality","name":"Καστοριά","lat":40.5181,"lng":21.26,"region":"Δυτική Μακεδονία","name_en":"Kastoria","region_en":"Western Macedonia"},{"id":"municipalities_7fd935ddd138","slug":"florina-7fd9","kind":"municipality","name":"Φλώρινα","lat":40.8167,"lng":21.4167,"region":"Δυτική Μακεδονία","name_en":"Florina","region_en":"Western Macedonia"},{"id":"municipalities_9f6af8365720","slug":"grevena-9f6a","kind":"municipality","name":"Γρεβενά","lat":39.9833,"lng":21.4333,"region":"Δυτική Μακεδονία","name_en":"Grevena","region_en":"Western Macedonia"},{"id":"municipalities_cd2916d304ca","slug":"servia-cd29","kind":"municipality","name":"Σέρβια","lat":40.15,"lng":21.8833,"region":"Δυτική Μακεδονία","name_en":"Servia","region_en":"Western Macedonia"}]},"__N_SSG":true}