{"pageProps":{"entity":{"id":"wineriesVineyards_84ebef8f5b21","slug":"ktima-mega-spilaio-84eb","kind":"restaurant","name":"Κτήμα Μέγα Σπήλαιο","lat":38.112838077733514,"lng":22.169404735261367,"url":"https://maps.app.goo.gl/qGAsm3q6PmBPN3TK6?g_st=ipc","address":"Επαρ.Οδ. Πούντας - Καλαβρύτων, Egialia 250 01","categoryIds":["wineries-vineyards"],"categories":["Wineries & Vineyards"]},"sameCategory":[{"id":"wineriesVineyards_f80526daec5c","slug":"oinopoieio-tetramythos-f805","kind":"restaurant","name":"Οινοποιείο Τετράμυθος","lat":38.13861434975287,"lng":22.235631269922283,"url":"https://maps.app.goo.gl/n9FxLvDHw2tR949F6?g_st=ipc","address":"8ο ΧΛΜ ΕΠΑΡΧΙΑΚΗΣ ΟΔΟΥ, Επαρ.Οδ. Πούντας - Καλαβρύτων, Άνω Διακοπτό 250 03","categoryIds":["wineries-vineyards"],"categories":["Wineries & Vineyards"]},{"id":"wineriesVineyards_b10486ff2d64","slug":"rouvalis-wines-oinoforos-a-e-b104","kind":"restaurant","name":"ROUVALIS WINES (ΟΙΝΟΦΟΡΟΣ Α.Ε.)","lat":38.22055000984663,"lng":22.089166676944025,"url":"https://maps.app.goo.gl/znCHsxFPu7zWUC1b9?g_st=ipc","address":"Αίγιο 251 00","categoryIds":["wineries-vineyards"],"categories":["Wineries & Vineyards"]},{"id":"wineriesVineyards_8d14b59ec1a3","slug":"ampelones-rira-rira-vineyards-8d14","kind":"restaurant","name":"Αμπελώνες Ρίρα - Rira Vineyards","lat":38.29370777982869,"lng":22.008479102079523,"url":"https://maps.app.goo.gl/wH1yAZZ9D7nhcAqLA?g_st=ipc","address":"ΠΕΟ, Ν.Ε.Ο. Πατρών - Αθηνών, Νέος Ερινεός 250 09","categoryIds":["wineries-vineyards"],"categories":["Wineries & Vineyards"]},{"id":"wineriesVineyards_9e37380a5d2e","slug":"achaia-klaoys-9e37","kind":"restaurant","name":"Αχάια Κλάους","lat":38.1969102747539,"lng":21.769694421982503,"url":"https://maps.app.goo.gl/wH7qQkNGXbSkx9SY7?g_st=ipc","address":"Πετρωτό 262 23","categoryIds":["wineries-vineyards"],"categories":["Wineries & Vineyards"]},{"id":"wineriesVineyards_2f6094ec16d1","slug":"parparoysis-oinopoiia-2f60","kind":"restaurant","name":"ΠΑΡΠΑΡΟΥΣΗΣ ΟΙΝΟΠΟΙΙΑ","lat":38.283502229311324,"lng":21.768505095628893,"url":"https://maps.app.goo.gl/1mV7U2hRvYf1jzfb9?g_st=ipc","address":"Πολυκαστης, Πάτρα 264 42","categoryIds":["wineries-vineyards"],"categories":["Wineries & Vineyards"]},{"id":"wineriesVineyards_542024b64466","slug":"ktima-papargyrioy-5420","kind":"restaurant","name":"Κτήμα Παπαργυρίου","lat":38.018936342010846,"lng":22.689015035366058,"url":"https://maps.app.goo.gl/CGseBU489tpRFbra7?g_st=ipc","address":"Lalioti Corinthias, Κιάτο 202 00","categoryIds":["wineries-vineyards"],"categories":["Wineries & Vineyards"]},{"id":"wineriesVineyards_b00a536153f6","slug":"semeli-estate-ktima-semeli-b00a","kind":"restaurant","name":"Semeli Estate | Κτήμα Σεμέλη","lat":37.87119800007677,"lng":22.67941642720224,"url":"https://maps.app.goo.gl/zETqXnjPfU3pMwmA8?g_st=ipc","address":"Επαρ.Οδ. Κιάτου - Νεμέας, Κούτσι 205 00","categoryIds":["wineries-vineyards"],"categories":["Wineries & Vineyards"]},{"id":"wineriesVineyards_44279fa455a5","slug":"gaia-winery-nemea-4427","kind":"restaurant","name":"Gaia Winery Nemea","lat":37.85612300690931,"lng":22.670580052988402,"url":"https://maps.app.goo.gl/ZgmCy9JQ7Vrkbz1r9?g_st=ipc","address":"Κούτσι 205 00","categoryIds":["wineries-vineyards"],"categories":["Wineries & Vineyards"]}],"nearby":[{"id":"familyFriendly_f5a054e30c6e","slug":"cherryland-ktima-fokaeon-f5a0","kind":"restaurant","name":"CHERRYLAND - ΚΤΗΜΑ ΦΩΚΑΕΩΝ","lat":38.12752130997816,"lng":22.216601874987493,"url":"https://maps.app.goo.gl/Lr7uMbC7sLXRLEP9A?g_st=ipc","address":"Epar.Od. Pountas - Kalavriton, Kernitsa 250 03","categoryIds":["family-friendly"],"categories":["Kid Friendly Locations"],"distanceKm":4.4398607724601025},{"id":"wineriesVineyards_f80526daec5c","slug":"oinopoieio-tetramythos-f805","kind":"restaurant","name":"Οινοποιείο Τετράμυθος","lat":38.13861434975287,"lng":22.235631269922283,"url":"https://maps.app.goo.gl/n9FxLvDHw2tR949F6?g_st=ipc","address":"8ο ΧΛΜ ΕΠΑΡΧΙΑΚΗΣ ΟΔΟΥ, Επαρ.Οδ. Πούντας - Καλαβρύτων, Άνω Διακοπτό 250 03","categoryIds":["wineries-vineyards"],"categories":["Wineries & Vineyards"],"distanceKm":6.463265332619565},{"id":"municipalities_b6d325cfd313","slug":"kalavryta-b6d3","kind":"municipality","name":"Καλάβρυτα","lat":38.0333,"lng":22.1167,"aliases":["Καλαβρυτα"],"region":"Πελοπόννησος","name_en":"Kalavryta","region_en":"Peloponnese","distanceKm":9.975223168073367},{"id":"greekRestaurants_4c45a183d4c2","slug":"kelari-4c45","kind":"restaurant","name":"Κελάρι","lat":38.03175556375287,"lng":22.10930942954511,"url":"https://maps.app.goo.gl/JGLvLQeBc1WEWSz87?g_st=ipc","address":"Lochia Kapota 19, Kalavrita 250 01","categoryIds":["greek-restaurants"],"categories":["Greek Restaurants"],"distanceKm":10.438424382484866},{"id":"wineriesVineyards_b10486ff2d64","slug":"rouvalis-wines-oinoforos-a-e-b104","kind":"restaurant","name":"ROUVALIS WINES (ΟΙΝΟΦΟΡΟΣ Α.Ε.)","lat":38.22055000984663,"lng":22.089166676944025,"url":"https://maps.app.goo.gl/znCHsxFPu7zWUC1b9?g_st=ipc","address":"Αίγιο 251 00","categoryIds":["wineries-vineyards"],"categories":["Wineries & Vineyards"],"distanceKm":13.880007275985223},{"id":"greekRestaurants_3eb1dd9f3c34","slug":"taverna-aggeliki-3eb1","kind":"restaurant","name":"Ταβέρνα Αγγελική","lat":38.06658415392425,"lng":22.338919570518915,"url":"https://maps.app.goo.gl/WLaC7Mj54zxdUu1s6?g_st=ipc","address":"Σινεβρό 250 10","categoryIds":["greek-restaurants"],"categories":["Greek Restaurants"],"distanceKm":15.701428910495624},{"id":"familyFriendly_32cb5d544c31","slug":"area-synest-32cb","kind":"restaurant","name":"Area Synest","lat":38.06576851291907,"lng":22.340295581454182,"url":"https://maps.app.goo.gl/o23ir2rREaRUFiwK9?g_st=ipc","address":"Epar.Od. Agorianis-Koronias, Sinevro 250 10","categoryIds":["family-friendly"],"categories":["Kid Friendly Locations"],"distanceKm":15.84506192153491},{"id":"familyFriendly_9b2bda8df9e3","slug":"nymfes-9b2b","kind":"restaurant","name":"Νύμφες","lat":37.99541884225497,"lng":22.275355626093795,"url":"https://maps.app.goo.gl/V3SkPjW9XHfNjwvSA?g_st=ipc","address":"Ζαρούχλα - Φενεός, Zarouchla 250 06","categoryIds":["family-friendly"],"categories":["Kid Friendly Locations"],"distanceKm":16.016559284861618}],"sameRegion":[]},"__N_SSG":true}