{"pageProps":{"entity":{"id":"coffeeBrunchRestaurants_bdb82f4fba9a","slug":"kukunari-beach-bar-bdb8","kind":"restaurant","name":"Kukunari Beach Bar","lat":40.20543398224347,"lng":23.678472123060402,"url":"https://maps.app.goo.gl/se2S5w6DbhwcLuF89?g_st=ipc","address":"Nikiti 630 88","categoryIds":["coffee-brunch"],"categories":["Coffee & Brunch Spots"]},"sameCategory":[{"id":"coffeeBrunchRestaurants_3cdad4c24984","slug":"ergon-beach-house-nikiti-3cda","kind":"restaurant","name":"ERGON Beach House Nikiti","lat":40.203661627704044,"lng":23.679869228615946,"url":"https://maps.app.goo.gl/8k67FJFCG4gbZRCz7?g_st=ipc","address":"Egialou 1, Nikiti 630 88","categoryIds":["coffee-brunch"],"categories":["Coffee & Brunch Spots"]},{"id":"coffeeBrunchRestaurants_546a0710ab1d","slug":"alexandros-cafe-restaurant-bar-546a","kind":"restaurant","name":"Alexandros Cafe Restaurant Bar","lat":40.21526877453814,"lng":23.66789134136706,"url":"https://maps.app.goo.gl/3iczx4sTEWWz3ZCY9?g_st=ipc","address":"Egialou 30, Nikiti 630 88","categoryIds":["coffee-brunch"],"categories":["Coffee & Brunch Spots"]},{"id":"coffeeBrunchRestaurants_67b37013fc99","slug":"day-by-day-67b3","kind":"restaurant","name":"Day by Day","lat":40.222448904043915,"lng":23.669671135590562,"url":"https://maps.app.goo.gl/HcoxLeAt4x4SJsFy8?g_st=ipc","address":"Λεωφόρος Σιθωνίας, Nikiti 630 88","categoryIds":["coffee-brunch"],"categories":["Coffee & Brunch Spots"]},{"id":"coffeeBrunchRestaurants_854c31e0ceee","slug":"la-luna-854c","kind":"restaurant","name":"La Luna","lat":40.23930190869367,"lng":23.72686046824902,"url":"https://maps.app.goo.gl/ufdEfkab77wbekDB9?g_st=ipc","address":"Παραλία Τρανή Αμμούδα, Ormos Panagias 630 78","categoryIds":["coffee-brunch"],"categories":["Coffee & Brunch Spots"]},{"id":"coffeeBrunchRestaurants_6bd1b4ee2edd","slug":"le-mantri-beach-bar-6bd1","kind":"restaurant","name":"Le Mantri Beach Bar","lat":40.24711352255949,"lng":23.722806749285716,"url":"https://maps.app.goo.gl/JzQ8QxBHm1Z7RWLz6?g_st=ipc","address":"Ακτή Τρανή Αμμούδα, Λιβροχιό good, Ag. Nikolaos 630 78","categoryIds":["coffee-brunch"],"categories":["Coffee & Brunch Spots"]},{"id":"coffeeBrunchRestaurants_3c8b23370f26","slug":"makai-beach-bar-3c8b","kind":"restaurant","name":"Makai Beach Bar","lat":40.28754129654397,"lng":23.69344494313625,"url":"https://maps.app.goo.gl/LM9ZDTfgxjSUVZASA?g_st=ipc","address":"7MQV+29, Eleonas 630 78","categoryIds":["coffee-brunch"],"categories":["Coffee & Brunch Spots"]},{"id":"coffeeBrunchRestaurants_05e087fe1230","slug":"molos-05e0","kind":"restaurant","name":"Molos","lat":40.09415334263866,"lng":23.78475325827316,"url":"https://maps.app.goo.gl/b3KTgBobUtSzbYRQ8?g_st=ipc","address":"25is Martiou 20, Neos Marmaras 630 81","categoryIds":["coffee-brunch"],"categories":["Coffee & Brunch Spots"]},{"id":"coffeeBrunchRestaurants_e74c2a6900af","slug":"kohi-beach-e74c","kind":"restaurant","name":"Kohi beach","lat":40.074443417965654,"lng":23.790085630034497,"url":"https://maps.app.goo.gl/JVA5L8YnHzkTjoQq5?g_st=ipc","address":"PORTO KARRAS, Neos Marmaras 630 81","categoryIds":["coffee-brunch"],"categories":["Coffee & Brunch Spots"]}],"nearby":[{"id":"greekRestaurants_5811e9277d25","slug":"ergon-beach-house-nikiti-5811","kind":"restaurant","name":"ERGON Beach House Nikiti","lat":40.203687236758725,"lng":23.679869629322766,"url":"https://maps.app.goo.gl/oNuxKgnHi57ErVbj7?g_st=ipc","address":"Αιγιαλού 1, Νικήτη 630 88","categoryIds":["greek-restaurants"],"categories":["Greek Restaurants"],"distanceKm":0.22761930246949755},{"id":"coffeeBrunchRestaurants_3cdad4c24984","slug":"ergon-beach-house-nikiti-3cda","kind":"restaurant","name":"ERGON Beach House Nikiti","lat":40.203661627704044,"lng":23.679869228615946,"url":"https://maps.app.goo.gl/8k67FJFCG4gbZRCz7?g_st=ipc","address":"Egialou 1, Nikiti 630 88","categoryIds":["coffee-brunch"],"categories":["Coffee & Brunch Spots"],"distanceKm":0.2300364271309745},{"id":"italianRestaurants_733e26d4376e","slug":"capri-nuovo-733e","kind":"restaurant","name":"Capri Nuovo","lat":40.21248872613691,"lng":23.671364142442222,"url":"https://maps.app.goo.gl/rZCcxBdEfxEpaj619?g_st=ipc","address":"Egialou, Nikiti 630 88","categoryIds":["italian"],"categories":["Italian Restaurants"],"distanceKm":0.9897983459474428},{"id":"luxuryDiningRestaurants_833534a7f3fd","slug":"arsanas-restaurant-8335","kind":"restaurant","name":"Arsanas Restaurant","lat":40.21412369806133,"lng":23.668831407001306,"url":"https://maps.app.goo.gl/ozns5EfUF1bBobta7?g_st=ipc","address":"Epar.Od. Nikitis-Sartis, Sithonia 630 88","categoryIds":["luxury-dining"],"categories":["Luxury Dining"],"distanceKm":1.2664377264256133},{"id":"fishTavernasRestaurants_e355b9bd1307","slug":"arsanas-restaurant-e355","kind":"restaurant","name":"Arsanas Restaurant","lat":40.2141250129841,"lng":23.668831311582355,"url":"https://maps.app.goo.gl/RAaNDUnjFSAhBEiK6?g_st=ipc","address":"Epar.Od. Nikitis-Sartis, Sithonia 630 88","categoryIds":["fish-tavernas"],"categories":["Fish Tavernas"],"distanceKm":1.266554518041422},{"id":"coffeeBrunchRestaurants_546a0710ab1d","slug":"alexandros-cafe-restaurant-bar-546a","kind":"restaurant","name":"Alexandros Cafe Restaurant Bar","lat":40.21526877453814,"lng":23.66789134136706,"url":"https://maps.app.goo.gl/3iczx4sTEWWz3ZCY9?g_st=ipc","address":"Egialou 30, Nikiti 630 88","categoryIds":["coffee-brunch"],"categories":["Coffee & Brunch Spots"],"distanceKm":1.4153449719503077},{"id":"italianRestaurants_ffaa4186c19b","slug":"alexandros-cafe-restaurant-bar-ffaa","kind":"restaurant","name":"Alexandros Cafe Restaurant Bar","lat":40.21526800111842,"lng":23.667889434197388,"url":"https://maps.app.goo.gl/jzS5R55938F8T3nV6?g_st=ipc","address":"Egialou 30, Nikiti 630 88","categoryIds":["italian"],"categories":["Italian Restaurants"],"distanceKm":1.4153813480342134},{"id":"greekRestaurants_f396e19049a3","slug":"alexandros-cafe-restaurant-bar-f396","kind":"restaurant","name":"Alexandros Cafe Restaurant Bar","lat":40.215334673838484,"lng":23.6678969632437,"url":"https://maps.app.goo.gl/Ro9BpyMU87qLU8Uc8?g_st=ipc","address":"Αιγιαλού 30, Νικήτη 630 88","categoryIds":["greek-restaurants"],"categories":["Greek Restaurants"],"distanceKm":1.4207122953672613}],"sameRegion":[]},"__N_SSG":true}