{"pageProps":{"entity":{"id":"burgersRestaurants_07b3e771beba","slug":"layers-07b3","kind":"restaurant","name":"LAYERS","lat":38.089833221029615,"lng":23.818428541225927,"url":"https://maps.app.goo.gl/mDaB4XdfNqu4hp5i8?g_st=ipc","address":"Αναξαγόρα 7, Νέα Ερυθραία 146 71","categoryIds":["burgers"],"categories":["Burger Spots"]},"sameCategory":[{"id":"burgersRestaurants_4176fe5b3851","slug":"guilty-adam-4176","kind":"restaurant","name":"Guilty Adam","lat":38.08882457129293,"lng":23.81690449930271,"url":"https://maps.app.goo.gl/cYunjwXkadMCnitz6?g_st=ipc","address":"Χαριλάου Τρικούπη, Στροφυλίου 146, Νέα Ερυθραία 146 71","categoryIds":["burgers"],"categories":["Burger Spots"]},{"id":"burgersRestaurants_a0d6a061aa9e","slug":"mvp-restaurant-a0d6","kind":"restaurant","name":"MVP RESTAURANT","lat":38.08823770971798,"lng":23.816227663317804,"url":"https://maps.app.goo.gl/JjXo3mQwSBz49WBp9?g_st=ipc","address":"Χαρ. Τρικούπη 127, Νέα Ερυθραία 146 71","categoryIds":["burgers"],"categories":["Burger Spots"]},{"id":"burgersRestaurants_ceb67d2517dd","slug":"godgilla-umami-street-food-ceb6","kind":"restaurant","name":"Godgilla umami street food","lat":38.056565975998105,"lng":23.814008768575892,"url":"https://maps.app.goo.gl/WyovvCKHo17WtrPb8?g_st=ipc","address":"Γεωρ. Κοτζιά 2, Μαρούσι 151 26","categoryIds":["burgers"],"categories":["Burger Spots"]},{"id":"burgersRestaurants_3d23e4017c79","slug":"f-smashing-marousi-delivery-take-away-only-3d23","kind":"restaurant","name":"F* Smashing Marousi (Delivery & Take away Only!)","lat":38.05659414043942,"lng":23.807978426457023,"url":"https://maps.app.goo.gl/YDf78cc6DThEFAdSA?g_st=ipc","address":"Π. Κυριακού 18, Μαρούσι 151 24","categoryIds":["burgers"],"categories":["Burger Spots"]},{"id":"burgersRestaurants_6d610eb79dbd","slug":"taz-smash-burger-6d61","kind":"restaurant","name":"Taz Smash Burger","lat":38.05644521597169,"lng":23.804667787562405,"url":"https://maps.app.goo.gl/tj3ojXGmrnTvMA9c7?g_st=ipc","address":"Περικλέους 2, Μαρούσι 151 22","categoryIds":["burgers"],"categories":["Burger Spots"]},{"id":"burgersRestaurants_264306258d6e","slug":"busty-s-burger-2643","kind":"restaurant","name":"Busty's Burger","lat":38.05283037769694,"lng":23.815776704443905,"url":"https://maps.app.goo.gl/ZPYfcdYHMWXyKwF16?g_st=ipc","address":"Οδός Πεντέλης, Μαρούσι 151 26","categoryIds":["burgers"],"categories":["Burger Spots"]},{"id":"burgersRestaurants_b5cd5e9d8f33","slug":"comet-street-gourmet-athens-b5cd","kind":"restaurant","name":"Comet Street Gourmet Athens","lat":38.05458806834009,"lng":23.84252767987863,"url":"https://maps.app.goo.gl/7yT5TAqAFBttQ8yZ7?g_st=ipc","address":"Σωκράτους 3, Μελίσσια 151 27","categoryIds":["burgers"],"categories":["Burger Spots"]},{"id":"burgersRestaurants_95cc953a5a70","slug":"con-voi-brunch-burgers-cocktails-95cc","kind":"restaurant","name":"Con Voi Brunch - Burgers & Cocktails","lat":38.12062536277459,"lng":23.858921152377892,"url":"https://maps.app.goo.gl/Nzdtzrh2vbG4T4VM8?g_st=ipc","address":"Λεωφ. Δροσιάς Σταματάς 2, Δροσιά 145 72","categoryIds":["burgers"],"categories":["Burger Spots"]}],"nearby":[{"id":"cheapEatsRestaurants_ec13b3ed8963","slug":"panerythraikos-ec13","kind":"restaurant","name":"Πανερυθραικος","lat":38.09029256559895,"lng":23.818809766039287,"url":"https://maps.app.goo.gl/E91HSqNkPsC6UtWw7?g_st=ipc","address":"Αναξαγόρα 11, Νέα Ερυθραία 146 71","categoryIds":["cheap-eats"],"categories":["Gyros & Cheap Eats"],"distanceKm":0.061007560831773354},{"id":"dessertsRestaurants_1c368e954317","slug":"pavlov-patisserie-1c36","kind":"restaurant","name":"Pavlov Patisserie","lat":38.08975934404975,"lng":23.817098827828467,"url":"https://maps.app.goo.gl/ubJrroH9LAtGxodP6?g_st=ipc","address":"Πατριάρχου Γρηγορίου Ε 15, Νέα Ερυθραία 146 71","categoryIds":["desserts"],"categories":["Dessert Shops"],"distanceKm":0.11665998396723662},{"id":"vegetarianRestaurants_ce13a880a3a7","slug":"the-vegan-fairies-ce13","kind":"restaurant","name":"The Vegan Fairies","lat":38.09075591737279,"lng":23.81765935301376,"url":"https://maps.app.goo.gl/Py2rEQ8tcKsxB97Y9?g_st=ipc","address":"Νικ. Πλαστήρα 29, Νέα Ερυθραία 146 71","categoryIds":["vegetarian"],"categories":["Vegetarian Friendly Restaurants"],"distanceKm":0.12271081055357554},{"id":"burgersRestaurants_4176fe5b3851","slug":"guilty-adam-4176","kind":"restaurant","name":"Guilty Adam","lat":38.08882457129293,"lng":23.81690449930271,"url":"https://maps.app.goo.gl/cYunjwXkadMCnitz6?g_st=ipc","address":"Χαριλάου Τρικούπη, Στροφυλίου 146, Νέα Ερυθραία 146 71","categoryIds":["burgers"],"categories":["Burger Spots"],"distanceKm":0.17426652357903366},{"id":"cheapEatsRestaurants_296b6ad90f0e","slug":"o-ntellos-296b","kind":"restaurant","name":"Ο ΝΤΕΛΛΟΣ","lat":38.09071592781455,"lng":23.82013374189109,"url":"https://maps.app.goo.gl/uCpkqt4dsAjh6LfU7?g_st=ipc","address":"Ελ. Βενιζέλου 139, Νέα Ερυθραία 146 71","categoryIds":["cheap-eats"],"categories":["Gyros & Cheap Eats"],"distanceKm":0.1786158199138826},{"id":"italianRestaurants_e295fedca4ff","slug":"margherita-pizza-artigianale-nea-erythraia-e295","kind":"restaurant","name":"Margherita Pizza Artigianale Νέα Ερυθραία","lat":38.08856611677621,"lng":23.816718880082657,"url":"https://maps.app.goo.gl/v1cfqn2UJ11ZTMJq6?g_st=ipc","address":"Χαριλάου τρικούπη 146 &, Strofiliou, Nea Erithrea 146 71","categoryIds":["italian"],"categories":["Italian Restaurants"],"distanceKm":0.20552024730524632},{"id":"cheapEatsRestaurants_1a58d7cde2d2","slug":"streetwok-1a58","kind":"restaurant","name":"Streetwok","lat":38.088268046558134,"lng":23.817029295891828,"url":"https://maps.app.goo.gl/ZqCBHjCxGwZEYy9u8?g_st=ipc","address":"Χαρ. Τρικούπη 144, Νέα Ερυθραία 146 71","categoryIds":["cheap-eats"],"categories":["Gyros & Cheap Eats"],"distanceKm":0.2128036483782281},{"id":"asianRestaurants_594b8ad5ccca","slug":"streetwok-594b","kind":"restaurant","name":"Streetwok","lat":38.08826144126291,"lng":23.817027905393033,"url":"https://maps.app.goo.gl/3GSewqndnBiBnEL89?g_st=ipc","address":"Χαρ. Τρικούπη 144, Νέα Ερυθραία 146 71","categoryIds":["asian"],"categories":["Asian Restaurants"],"distanceKm":0.2134746064641981}],"sameRegion":[]},"__N_SSG":true}