{"pageProps":{"entity":{"id":"vegetarianRestaurants_5038de25697a","slug":"los-v-vegan-vegetarian-restaurant-5038","kind":"restaurant","name":"Los V - Vegan & Vegetarian Restaurant","lat":37.98154957793841,"lng":23.71604712211994,"url":"https://maps.app.goo.gl/ZWkqdkixRwwqeKq8A?g_st=ipc","address":"Πλαταιών 37, Αθήνα 104 35","categoryIds":["vegetarian"],"categories":["Vegetarian Friendly Restaurants"]},"sameCategory":[{"id":"vegetarianRestaurants_92b90dbde5a4","slug":"veganistan-92b9","kind":"restaurant","name":"Veganistan","lat":37.980551028763045,"lng":23.716428370276027,"url":"https://maps.app.goo.gl/hviT1v1LXcBDpknS6?g_st=ipc","address":"Κεραμεικού 101, Αθήνα 104 35","categoryIds":["vegetarian"],"categories":["Vegetarian Friendly Restaurants"]},{"id":"vegetarianRestaurants_0734096aad5b","slug":"the-place-secret-yard-0734","kind":"restaurant","name":"The Place Secret Yard","lat":37.97930916539027,"lng":23.711898779002322,"url":"https://maps.app.goo.gl/mQDAFeMFgwXwRVKg6?g_st=ipc","address":"Τριπτολέμου 26, Αθήνα 118 54","categoryIds":["vegetarian"],"categories":["Vegetarian Friendly Restaurants"]},{"id":"vegetarianRestaurants_c67e718a73e4","slug":"calibra-votanikos-c67e","kind":"restaurant","name":"CALIBRA - Votanikos","lat":37.98303566126477,"lng":23.711367796488275,"url":"https://maps.app.goo.gl/aPvyrqA5tYdbUuhP8?g_st=ipc","address":"CALIBRA - Votanikos","categoryIds":["vegetarian"],"categories":["Vegetarian Friendly Restaurants"]},{"id":"vegetarianRestaurants_e12f835ae279","slug":"fairytale-athens-cafe-suites-e12f","kind":"restaurant","name":"Fairytale Athens Café & Suites","lat":37.97804693538564,"lng":23.721754929553363,"url":"https://maps.app.goo.gl/JXiyguWxrWe1Wgrf9?g_st=ipc","address":"Leokoriou 16, Athina 105 54","categoryIds":["vegetarian"],"categories":["Vegetarian Friendly Restaurants"]},{"id":"vegetarianRestaurants_6e1c781427b5","slug":"ntao-vietnameziki-koyzina-6e1c","kind":"restaurant","name":"Ντάο Βιετναμέζικη Κουζίνα","lat":37.97853266592714,"lng":23.722814547226115,"url":"https://maps.app.goo.gl/MyM1aFjtySe38NKA9?g_st=ipc","address":"Λεπενιώτου 14, Αθήνα 105 54","categoryIds":["vegetarian"],"categories":["Vegetarian Friendly Restaurants"]},{"id":"vegetarianRestaurants_a3ef401ec9a4","slug":"royal-curry-house-a3ef","kind":"restaurant","name":"Royal Curry House","lat":37.983044455575836,"lng":23.724361585760793,"url":"https://maps.app.goo.gl/PaZHwjdG5hcj4fEe9?g_st=ipc","address":"Βούλγαρη 7, Αθήνα 104 37","categoryIds":["vegetarian"],"categories":["Vegetarian Friendly Restaurants"]},{"id":"vegetarianRestaurants_de96d9cdb0ed","slug":"nudie-foodie-psiri-only-gluten-free-de96","kind":"restaurant","name":"Nudie Foodie Psiri only gluten free","lat":37.97969129802119,"lng":23.72517165012706,"url":"https://maps.app.goo.gl/jiBKwgUUBwo3VEnp7?g_st=ipc","address":"Eschilou 42, Athina 105 54","categoryIds":["vegetarian"],"categories":["Vegetarian Friendly Restaurants"]},{"id":"vegetarianRestaurants_d9013916b890","slug":"dosa-house-d901","kind":"restaurant","name":"DOSA HOUSE","lat":37.98064310554285,"lng":23.725600541419325,"url":"https://maps.app.goo.gl/tYKvBnpT4mY8nvB58?g_st=ipc","address":"Θεάτρου 3, Αθήνα 105 52","categoryIds":["vegetarian"],"categories":["Vegetarian Friendly Restaurants"]}],"nearby":[{"id":"burgersRestaurants_96fe4c6a69f2","slug":"stivs-a-e-kerameikos-champoyrgker-pitses-96fe","kind":"restaurant","name":"ΣΤΗΒΣ Α.Ε. Κεραμεικός - ΧΑΜΠΟΥΡΓΚΕΡ & ΠΙΤΣΕΣ","lat":37.981862507718745,"lng":23.71676727771988,"url":"https://maps.app.goo.gl/dfoGjBoXnHtHAokj9?g_st=ipc","address":"Σαλαμίνος 42, Αθήνα 104 35","categoryIds":["burgers"],"categories":["Burger Spots"],"distanceKm":0.07207378718117725},{"id":"italianRestaurants_7e6289eb0d3a","slug":"stivs-a-e-kerameikos-champoyrgker-pitses-7e62","kind":"restaurant","name":"ΣΤΗΒΣ Α.Ε. Κεραμεικός - ΧΑΜΠΟΥΡΓΚΕΡ & ΠΙΤΣΕΣ","lat":37.981862446372006,"lng":23.716769207199707,"url":"https://maps.app.goo.gl/jGrvJpyieexo9ia7A?g_st=ipc","address":"Σαλαμίνος 42, Αθήνα 104 35","categoryIds":["italian"],"categories":["Italian Restaurants"],"distanceKm":0.07221864194782364},{"id":"italianRestaurants_53d40ee99df4","slug":"armando-pizzeria-cafeteria-53d4","kind":"restaurant","name":"Armando Pizzeria Cafeteria","lat":37.98213039665648,"lng":23.716474886735785,"url":"https://maps.app.goo.gl/C6d72ehNu6DCFZzN8?g_st=ipc","address":"Σαλαμίνος 43, Αθήνα 104 35","categoryIds":["italian"],"categories":["Italian Restaurants"],"distanceKm":0.07467728096392326},{"id":"cheapEatsRestaurants_f6e9355765da","slug":"armando-pizzeria-cafeteria-f6e9","kind":"restaurant","name":"Armando Pizzeria Cafeteria","lat":37.98213236236815,"lng":23.71647213293712,"url":"https://maps.app.goo.gl/X5ofrEqzBi24eigT6?g_st=ipc","address":"Σαλαμίνος 43, Αθήνα 104 35","categoryIds":["cheap-eats"],"categories":["Gyros & Cheap Eats"],"distanceKm":0.07474582326539002},{"id":"greekRestaurants_1b0710fd0635","slug":"loyis-kafeneio-1b07","kind":"restaurant","name":"Λούης καφενείο","lat":37.98085946462118,"lng":23.71532632472864,"url":"https://maps.app.goo.gl/HykcqWbVLkwR9HqJ7","address":"Λεωνίδου 87, Αθήνα 104 35","categoryIds":["greek-restaurants"],"categories":["Greek Restaurants"],"distanceKm":0.09939615620466122},{"id":"vegetarianRestaurants_92b90dbde5a4","slug":"veganistan-92b9","kind":"restaurant","name":"Veganistan","lat":37.980551028763045,"lng":23.716428370276027,"url":"https://maps.app.goo.gl/hviT1v1LXcBDpknS6?g_st=ipc","address":"Κεραμεικού 101, Αθήνα 104 35","categoryIds":["vegetarian"],"categories":["Vegetarian Friendly Restaurants"],"distanceKm":0.11595257810416208},{"id":"burgersRestaurants_cc99e8bcfb01","slug":"ortsag-nextgen-street-resto-cc99","kind":"restaurant","name":"ORTSAG - NextGen Street Resto","lat":37.980720186478266,"lng":23.716880146435926,"url":"https://maps.app.goo.gl/Ty754KFyBeh5iYD99?g_st=ipc","address":"Κεραμεικού 93-95, Αθήνα 104 35","categoryIds":["burgers"],"categories":["Burger Spots"],"distanceKm":0.11762589105075989},{"id":"coffeeBrunchRestaurants_62e18f8f4450","slug":"latraac-skate-cafe-62e1","kind":"restaurant","name":"Latraac Skate Cafe","lat":37.98176220702239,"lng":23.717574996831285,"url":"https://maps.app.goo.gl/J7RDc1cHJeB4hUZC7?g_st=ipc","address":"Λεωνίδου 63-65, Αθήνα 104 35","categoryIds":["coffee-brunch"],"categories":["Coffee & Brunch Spots"],"distanceKm":0.1359813574940227}],"sameRegion":[]},"__N_SSG":true}