{"pageProps":{"entity":{"id":"italianRestaurants_13db7f7dfac4","slug":"loulis-taste-project-13db","kind":"restaurant","name":"Loulis Taste Project","lat":38.83362395321285,"lng":20.707875524974906,"url":"https://maps.app.goo.gl/tNzSrPjrJVJbBhbr6?g_st=ipc","address":"Loulis Taste Project","categoryIds":["italian"],"categories":["Italian Restaurants"]},"sameCategory":[{"id":"italianRestaurants_9f740af053b2","slug":"filomila-9f74","kind":"restaurant","name":"Filomila","lat":39.28501094493868,"lng":20.39762732442374,"url":"https://maps.app.goo.gl/q6frpMcS63aQ6eSu5?g_st=ipc","address":"Filomila","categoryIds":["italian"],"categories":["Italian Restaurants"]},{"id":"italianRestaurants_cdb970122a35","slug":"kasmir-cdb9","kind":"restaurant","name":"Kasmir","lat":38.900597180204656,"lng":21.771398412012726,"url":"https://maps.app.goo.gl/tGER5rSkLzH68JTw8?g_st=ipc","address":"Mesabelia, Korischades 361 00","categoryIds":["italian"],"categories":["Italian Restaurants"]},{"id":"italianRestaurants_ca939fad1a78","slug":"la-tavola-calda-ca93","kind":"restaurant","name":"La Tavola Calda","lat":39.623370627858776,"lng":19.923005947570733,"url":"https://maps.app.goo.gl/ENRUpZHsLbcTwuH2A?g_st=ipc","address":"Giotopoulou 10-12, Kerkira 491 00","categoryIds":["italian"],"categories":["Italian Restaurants"]},{"id":"italianRestaurants_f83f25bf777f","slug":"nonna-rossa-f83f","kind":"restaurant","name":"Nonna Rossa","lat":39.64111484868426,"lng":22.41428751769153,"url":"https://maps.app.goo.gl/ETYecXBUFzQCRmS47?g_st=ipc","address":"Skilosofou 9, Larisa 412 21","categoryIds":["italian"],"categories":["Italian Restaurants"]},{"id":"italianRestaurants_c53ee4efcd79","slug":"pasta-la-vista-kala-nera-c53e","kind":"restaurant","name":"Pasta La Vista KALA NERA","lat":39.3056996345145,"lng":23.120100052879696,"url":"https://maps.app.goo.gl/tYaU41CZfgnnQu8V7","address":"Kala Nera 370 10","categoryIds":["italian"],"categories":["Italian Restaurants"]},{"id":"italianRestaurants_62cf2e5c270d","slug":"la-gratella-62cf","kind":"restaurant","name":"La Gratella","lat":37.56708420040735,"lng":22.796775177187325,"url":"https://maps.app.goo.gl/wA9xzqnbmvvq1Bqo8?g_st=ipc","address":"Vasilissis Olgas, Nafplio 211 00","categoryIds":["italian"],"categories":["Italian Restaurants"]},{"id":"italianRestaurants_0d133bb8af27","slug":"itria-cucina-italiana-restaurant-0d13","kind":"restaurant","name":"ITRIA Cucina Italiana Restaurant","lat":37.567386909343334,"lng":22.797290266729004,"url":"https://maps.app.goo.gl/HHmGQxRgnuihmTyY7?g_st=ipc","address":"Boumpoulinas 81, Nafplio 211 00","categoryIds":["italian"],"categories":["Italian Restaurants"]},{"id":"italianRestaurants_74b63c612882","slug":"il-porto-74b6","kind":"restaurant","name":"Il Porto","lat":37.56732416244355,"lng":22.800888651268885,"url":"https://maps.app.goo.gl/vWaWFumGBn6ey64P6?g_st=ipc","address":"Μπουμπουλίνας 43, Ναύπλιο 211 00","categoryIds":["italian"],"categories":["Italian Restaurants"]}],"nearby":[{"id":"dessertsRestaurants_c1858394016b","slug":"fresco-gelato-artigianale-c185","kind":"restaurant","name":"Fresco gelato artigianale","lat":38.833202680203854,"lng":20.707021375147267,"url":"https://maps.app.goo.gl/ewEbAmjuJdZBCseQ7?g_st=ipc","address":"Ioannou Mela 69, Lefkada 311 00","categoryIds":["desserts"],"categories":["Dessert Shops"],"distanceKm":0.08756724030950015},{"id":"luxuryDiningRestaurants_7ec403367977","slug":"restaurant-thymari-7ec4","kind":"restaurant","name":"Restaurant Thymari","lat":38.835357324233975,"lng":20.708797217981044,"url":"https://maps.app.goo.gl/8TWdBgQzLn6EaTaWA?g_st=ipc","address":"Πηνελόπης 19, Lefkada 311 00","categoryIds":["luxury-dining"],"categories":["Luxury Dining"],"distanceKm":0.20862151790830732},{"id":"luxuryDiningRestaurants_8b20ccb20498","slug":"mastelo-restaurant-bar-8b20","kind":"restaurant","name":"Mastelo Restaurant & Bar","lat":38.83239517619771,"lng":20.705692089105533,"url":"https://maps.app.goo.gl/3X5uukpGejXWctER8?g_st=ipc","address":"Mitropoleos 11, Lefkada 311 00","categoryIds":["luxury-dining"],"categories":["Luxury Dining"],"distanceKm":0.23331785140972455},{"id":"rooftopLoungesRestaurants_fbedc289379a","slug":"taratsa-open-fbed","kind":"restaurant","name":"Taratsa Open","lat":38.83493516503128,"lng":20.711610210825643,"url":"https://maps.app.goo.gl/gucKqbib1YPXfXRd8?g_st=ipc","address":"EO Amfilochias Lefkadas, Lefkada 311 00","categoryIds":["rooftop-lounges"],"categories":["Rooftop Lounges"],"distanceKm":0.35482535352099526},{"id":"greekRestaurants_1d1502fabe5a","slug":"margarita-restaurant-1d15","kind":"restaurant","name":"Margarita Restaurant","lat":38.83487688240494,"lng":20.711768051704645,"url":"https://maps.app.goo.gl/4VvcV8grfdUFnb8k8?g_st=ipc","address":"Dimitrioy golemi, Λευκάδα 311 00","categoryIds":["greek-restaurants"],"categories":["Greek Restaurants"],"distanceKm":0.3648087778713339},{"id":"municipalities_1d2e36065111","slug":"leykada-1d2e","kind":"municipality","name":"Λευκάδα","lat":38.83,"lng":20.71,"region":"Ιόνιο","name_en":"Lefkada","region_en":"Ionian Islands","distanceKm":0.4429953231433703},{"id":"coffeeBrunchRestaurants_819a67237a78","slug":"zimis-819a","kind":"restaurant","name":"Zimis","lat":38.83034594976957,"lng":20.704090375704506,"url":"https://maps.app.goo.gl/qftMEppMQDEhweUP7?g_st=ipc","address":"Efstathiou Zakka 12, Lefkada 311 00","categoryIds":["coffee-brunch"],"categories":["Coffee & Brunch Spots"],"distanceKm":0.49026076664907936},{"id":"fishTavernasRestaurants_7810838c2d0c","slug":"psaropoula-7810","kind":"restaurant","name":"Psaropoúla","lat":38.82126467879608,"lng":20.655911390455394,"url":"https://maps.app.goo.gl/64Q772kGwY6K6Mps8?g_st=ipc","address":"Τσουκαλαδες, Tsoukalades Λευκαδα, Lefkada 311 00","categoryIds":["fish-tavernas"],"categories":["Fish Tavernas"],"distanceKm":4.706509246074457}],"sameRegion":[]},"__N_SSG":true}