{"pageProps":{"entity":{"id":"municipalities_768e95ff815f","slug":"loytro-768e","kind":"municipality","name":"Λουτρό","lat":35.1956,"lng":24.0781,"aliases":["Λουτρο"],"region":"Νότια Κρήτη","name_en":"Loutro","region_en":"South Crete"},"sameCategory":[],"nearby":[{"id":"wineriesVineyards_b838da26d565","slug":"dourakis-winery-b838","kind":"restaurant","name":"Dourakis Winery","lat":35.34955760746719,"lng":24.203022751558134,"url":"https://maps.app.goo.gl/RrgeX3PAEePKPZU79?g_st=ipc","address":"Alikampos, Apokoronou, CHANIA 730 07","categoryIds":["wineries-vineyards"],"categories":["Wineries & Vineyards"],"distanceKm":20.53485236905083},{"id":"familyFriendly_647731b73787","slug":"lake-kournas-6477","kind":"restaurant","name":"Lake Kournas","lat":35.33085393719484,"lng":24.275768556511693,"url":"https://maps.app.goo.gl/jBCqSTmypZMRabtf7?g_st=ipc","address":"Georgioupoli 730 07","categoryIds":["family-friendly"],"categories":["Kid Friendly Locations"],"distanceKm":23.415156235434477},{"id":"greekRestaurants_585e0390a5d3","slug":"ntoynias-585e","kind":"restaurant","name":"Ντουνιάς","lat":35.40906562971069,"lng":24.014822409059008,"url":"https://maps.app.goo.gl/fPzWW7jmw3vrMepH9?g_st=ipc","address":"Keramion, Νεροκούρος 731 00","categoryIds":["greek-restaurants"],"categories":["Greek Restaurants"],"distanceKm":24.421007316735974},{"id":"greekRestaurants_5e3d51ca0200","slug":"parasia-chania-vamos-parasia-chania-vamos-5e3d","kind":"restaurant","name":"Παρασιά Χανιά Βάμος- Parasia Chania Vamos","lat":35.4074884812459,"lng":24.18598092998549,"url":"https://maps.app.goo.gl/BmHbkuLGE1ioGoyp8?g_st=ipc","address":"διαλέξτε τον επαρχιακό δρόμο, Από Ρέθυμνο βγείτε δεξιά στην έξοδο στο ελαιουργειο Κανάκη και έπειτα πάρτε τον επαρχιακό δρόμο προς Παρασιά, Από, Βρύσες 730 08","categoryIds":["greek-restaurants"],"categories":["Greek Restaurants"],"distanceKm":25.513954421468597},{"id":"municipalities_cb8d047a94ef","slug":"plakias-cb8d","kind":"municipality","name":"Πλακιάς","lat":35.176,"lng":24.3935,"region":"Κρήτη","name_en":"Plakias","region_en":"Crete","distanceKm":28.745725439490315},{"id":"greekRestaurants_454ccdf9aa06","slug":"vrisi-restaurant-454c","kind":"restaurant","name":"Vrisi Restaurant","lat":35.19843251555281,"lng":24.402218916691474,"url":"https://maps.app.goo.gl/hnANNzynf7sfyaKTA?g_st=ipc","address":"Μύρθιος, 740 60","categoryIds":["greek-restaurants"],"categories":["Greek Restaurants"],"distanceKm":29.45296484890627},{"id":"municipalities_7c02ce6807c9","slug":"apokoronoy-7c02","kind":"municipality","name":"Αποκορώνου","lat":35.437,"lng":24.215,"region":"Δυτική Κρήτη","name_en":"Apokoronas","region_en":"West Crete","distanceKm":29.5770780493405},{"id":"italianRestaurants_d9cd36fbb3ef","slug":"don-rosario-restaurant-d9cd","kind":"restaurant","name":"Don Rosario Restaurant","lat":35.47882388836681,"lng":24.099356912172677,"url":"https://maps.app.goo.gl/bPiGaxVDa8GANuXW8?g_st=ipc","address":"Πλατάνι 732 00","categoryIds":["italian"],"categories":["Italian Restaurants"],"distanceKm":31.5520312216749}],"sameRegion":[{"id":"municipalities_0cae5b3ad249","slug":"viannos-0cae","kind":"municipality","name":"Βιάννος","lat":35.05,"lng":25.45,"region":"Νότια Κρήτη","name_en":"Viannos","region_en":"South Crete"},{"id":"municipalities_7e06ecfbbc32","slug":"gortyna-7e06","kind":"municipality","name":"Γόρτυνα","lat":35.05,"lng":24.95,"aliases":["Gortyna","Gortina"],"region":"Νότια Κρήτη","name_en":"Gortyna","region_en":"South Crete"},{"id":"municipalities_a229663fa0f9","slug":"faistos-a229","kind":"municipality","name":"Φαιστός","lat":35.05,"lng":24.88,"region":"Νότια Κρήτη","name_en":"Phaistos","region_en":"South Crete"},{"id":"municipalities_ee091e4b6525","slug":"gaydos-ee09","kind":"municipality","name":"Γαύδος","lat":34.838,"lng":24.083,"region":"Νότια Κρήτη","name_en":"Gavdos","region_en":"South Crete"}]},"__N_SSG":true}