{"pageProps":{"entity":{"id":"wineriesVineyards_c4b8aaa71f14","slug":"manalis-c4b8","kind":"restaurant","name":"Μάναλης","lat":36.681144681918035,"lng":25.100751857820168,"url":"https://maps.app.goo.gl/3DPBf6dGCNTLKikN6?g_st=ipc","address":"Σίκινος 840 10","categoryIds":["wineries-vineyards"],"categories":["Wineries & Vineyards"]},"sameCategory":[{"id":"wineriesVineyards_3bdee9fa8d03","slug":"mikra-thira-winery-3bde","kind":"restaurant","name":"Mikra Thira Winery","lat":36.43912962546045,"lng":25.33447754994131,"url":"https://maps.app.goo.gl/RYuGtMWu3PcXZLU76?g_st=ipc","address":"Manolas 847 02","categoryIds":["wineries-vineyards"],"categories":["Wineries & Vineyards"]},{"id":"wineriesVineyards_f66d3d921eed","slug":"domaine-sigalas-f66d","kind":"restaurant","name":"Domaine Sigalas","lat":36.47144515332007,"lng":25.394233805271192,"url":"https://maps.app.goo.gl/kxHf2McGP81at7gq9?g_st=ipc","address":"Baxes, Oia, Santorini 847 02","categoryIds":["wineries-vineyards"],"categories":["Wineries & Vineyards"]},{"id":"wineriesVineyards_21a74b37ed66","slug":"vassaltis-vineyards-21a7","kind":"restaurant","name":"Vassaltis Vineyards","lat":36.44254790219748,"lng":25.43767809168264,"url":"https://maps.app.goo.gl/2AtdngotJUgMkr7o8?g_st=ipc","address":"Περιφερειακή οδός, Βουρβούλος 847 00","categoryIds":["wineries-vineyards"],"categories":["Wineries & Vineyards"]},{"id":"wineriesVineyards_0d0a1ba0c3f9","slug":"santo-wines-0d0a","kind":"restaurant","name":"Santo Wines","lat":36.38756634157811,"lng":25.436746775584044,"url":"https://maps.app.goo.gl/BfpzWvX44GGmmqF99?g_st=ipc","address":"Πύργος Καλλίστης 847 00","categoryIds":["wineries-vineyards"],"categories":["Wineries & Vineyards"]},{"id":"wineriesVineyards_a511a6e649e6","slug":"venetsanos-winery-a511","kind":"restaurant","name":"Venetsanos Winery","lat":36.38233875963969,"lng":25.43152035534749,"url":"https://maps.app.goo.gl/ptjxxz2nqAmMqrjo9?g_st=ipc","address":"Caldera Megalochori, Santorini Island 847 00","categoryIds":["wineries-vineyards"],"categories":["Wineries & Vineyards"]},{"id":"wineriesVineyards_95bc9b62cb5b","slug":"gavalas-winery-95bc","kind":"restaurant","name":"Gavalas Winery","lat":36.37555701249798,"lng":25.430540537475494,"url":"https://maps.app.goo.gl/HU6QyLSjJ1YzxuXn8?g_st=ipc","address":"Megalochori 847 00","categoryIds":["wineries-vineyards"],"categories":["Wineries & Vineyards"]},{"id":"wineriesVineyards_ddfea8113f2e","slug":"cave-wine-museum-winery-koutsogiannopoulos-santorini-yposkafo-moyseio-oinoy-oinopoieio-koytsogiannopoylos-georgios-ddfe","kind":"restaurant","name":"Cave Wine Museum - Winery Koutsogiannopoulos Santorini (Υπόσκαφο Μουσείο Οίνου - Οινοποιείο Κουτσογιαννόπουλος Γεώργιος)","lat":36.39672195171486,"lng":25.460144574368652,"url":"https://maps.app.goo.gl/aGUb6MruiHYUGV8m8?g_st=ipc","address":"Βόθωνας, Βοθωνας 847 00","categoryIds":["wineries-vineyards"],"categories":["Wineries & Vineyards"]},{"id":"wineriesVineyards_240cb6f5f493","slug":"boutari-winery-santorini-240c","kind":"restaurant","name":"Boutari Winery Santorini","lat":36.370584852516764,"lng":25.424958035575884,"url":"https://maps.app.goo.gl/5hnUYLAqB6RjWasSA?g_st=ipc","address":"Μεγαλοχώρι, Μεγαλοχώρι, Σαντορίνη 847 00","categoryIds":["wineries-vineyards"],"categories":["Wineries & Vineyards"]}],"nearby":[{"id":"municipalities_7b6436cb2406","slug":"sikinos-7b64","kind":"municipality","name":"Σίκινος","lat":36.6833,"lng":25.1333,"region":"Κυκλάδες","name_en":"Sikinos","region_en":"Cyclades","distanceKm":2.9123257616286846},{"id":"fishTavernasRestaurants_1b4735e87a52","slug":"koubara-seafood-bar-restaurant-1b47","kind":"restaurant","name":"Koubara Seafood Bar Restaurant","lat":36.72514063337273,"lng":25.257265066552723,"url":"https://maps.app.goo.gl/kT2ULB9zvGfgQDHr6?g_st=ipc","address":"Κουμπάρα 840 01","categoryIds":["fish-tavernas"],"categories":["Fish Tavernas"],"distanceKm":14.7858770362911},{"id":"coffeeBrunchRestaurants_71a1ad70f79c","slug":"pounta-71a1","kind":"restaurant","name":"Pounta","lat":36.62857034644093,"lng":24.920634222757425,"url":"https://maps.app.goo.gl/QSbpTWeVNhvVqhFt6?g_st=ipc","address":"Folegandros 840 11","categoryIds":["coffee-brunch"],"categories":["Coffee & Brunch Spots"],"distanceKm":17.097978031686882},{"id":"greekRestaurants_7686c3c0f262","slug":"o-kritikos-grill-house-7686","kind":"restaurant","name":"O kritikos grill House","lat":36.627890366358834,"lng":24.919693098594816,"url":"https://maps.app.goo.gl/iQF1nr3qBtvUYK6aA?g_st=ipc","address":"Χώρας, Φολέγανδρος 840 11","categoryIds":["greek-restaurants"],"categories":["Greek Restaurants"],"distanceKm":17.202843041295402},{"id":"municipalities_fd8232e20785","slug":"ios-fd82","kind":"municipality","name":"Ίος","lat":36.7333,"lng":25.2833,"aliases":["Ios","Ios island","Ιος"],"region":"Κυκλάδες","name_en":"Ios","region_en":"Cyclades","distanceKm":17.275758433678128},{"id":"municipalities_b0831f971d7e","slug":"folegandros-b083","kind":"municipality","name":"Φολέγανδρος","lat":36.6167,"lng":24.9167,"aliases":["Φολεγανδρος"],"region":"Κυκλάδες","name_en":"Folegandros","region_en":"Cyclades","distanceKm":17.915307144304297},{"id":"greekRestaurants_7df46f2d33f8","slug":"taverna-vilaeti-7df4","kind":"restaurant","name":"Ταβέρνα Βιλαέτι","lat":36.74797589012075,"lng":25.29254143751964,"url":"https://maps.app.goo.gl/YzqRc8pVvtFzcna37?g_st=ipc","address":"Επάνω Κάμπος 840 01","categoryIds":["greek-restaurants"],"categories":["Greek Restaurants"],"distanceKm":18.64077085095759},{"id":"greekRestaurants_afec4abcf3cf","slug":"irini-s-tavern-grocery-store-afec","kind":"restaurant","name":"Irini's Tavern & Grocery Store","lat":36.643579045129016,"lng":24.882277410847504,"url":"https://maps.app.goo.gl/3Qs2PLBqT99YH2Hz7?g_st=ipc","address":"Άνω Μεριά 840 11","categoryIds":["greek-restaurants"],"categories":["Greek Restaurants"],"distanceKm":19.929919591391844}],"sameRegion":[]},"__N_SSG":true}