{"pageProps":{"entity":{"id":"greekRestaurants_4272f358b681","slug":"mantri-mountain-resto-4272","kind":"restaurant","name":"Mantri Mountain Resto","lat":37.90889434818902,"lng":23.77519106611033,"url":"https://maps.app.goo.gl/NEovPiofbnzr8Awb8","address":"Βαρδουσίων 29, Γλυφάδα 165 62","categoryIds":["greek-restaurants"],"categories":["Greek Restaurants"]},"sameCategory":[{"id":"greekRestaurants_4c001bebcf5a","slug":"kyria-oyrania-taverna-4c00","kind":"restaurant","name":"Κυρία Ουρανία Ταβέρνα","lat":37.92057877935982,"lng":23.755542263928948,"url":"https://maps.app.goo.gl/ps7BDEvG27yAVuTL8","address":"Ηρ. Πολυτεχνείου 85, Ηλιούπολη 163 42","categoryIds":["greek-restaurants"],"categories":["Greek Restaurants"]},{"id":"greekRestaurants_d3958d32f2a3","slug":"lotza-to-kalamaki-spiti-toy-d395","kind":"restaurant","name":"Λοτζα - Το Καλαμάκι Σπίτι Του","lat":37.92519193178049,"lng":23.751255406437117,"url":"https://maps.app.goo.gl/Dnr9SzVdyH6c3w6d7","address":"Λεωφ. Κυπρίων Ηρώων 57, Ηλιούπολη 163 41","categoryIds":["greek-restaurants"],"categories":["Greek Restaurants"]},{"id":"greekRestaurants_5c488f0d8ce0","slug":"ether-athens-5c48","kind":"restaurant","name":"Ether Athens","lat":37.9300575683433,"lng":23.752395520807372,"url":"https://maps.app.goo.gl/X42jFmXfj3xf7XFx9","address":"Πριάμου 2, Ηλιούπολη 163 41","categoryIds":["greek-restaurants"],"categories":["Greek Restaurants"]},{"id":"greekRestaurants_f28bb3ae0783","slug":"gioyvetsakia-f28b","kind":"restaurant","name":"Γιουβετσάκια","lat":37.88563428778149,"lng":23.75438021161349,"url":"https://maps.app.goo.gl/tvw66LvtdqTpBCKw9","address":"Moreos 45 & Ithomis 20, Γλυφάδα 165 61","categoryIds":["greek-restaurants"],"categories":["Greek Restaurants"]},{"id":"greekRestaurants_b996975f2765","slug":"to-koyzoylo-kritikes-geyseis-b996","kind":"restaurant","name":"Το Κουζουλό-Κρητικές Γεύσεις","lat":37.93790456342302,"lng":23.756307120209538,"url":"https://maps.app.goo.gl/92JS6PzrgTe3Moyv6","address":"Λεωφ. Ειρήνης 10, Ηλιούπολη 163 45","categoryIds":["greek-restaurants"],"categories":["Greek Restaurants"]},{"id":"greekRestaurants_1210e06dbe2b","slug":"meli-ladi-1210","kind":"restaurant","name":"Μέλι & Λάδι","lat":37.87699204463285,"lng":23.76367728627069,"url":"https://maps.app.goo.gl/CPZ65sur6LLxmT9J6","address":"Δημ. Γούναρη 144, Γλυφάδα 165 62","categoryIds":["greek-restaurants"],"categories":["Greek Restaurants"]},{"id":"greekRestaurants_b64cf8867729","slug":"tefariki-b64c","kind":"restaurant","name":"Τεφαρίκι","lat":37.871857113105406,"lng":23.752753345977908,"url":"https://maps.app.goo.gl/mcH8XPhdX39hW6V59","address":"Ξενοφώντος 28, Γλυφάδα 166 75","categoryIds":["greek-restaurants"],"categories":["Greek Restaurants"]},{"id":"greekRestaurants_6c6d00a6a4f4","slug":"remoytsiko-taverna-6c6d","kind":"restaurant","name":"Ρεμουτσικο Ταβέρνα","lat":37.93888185097854,"lng":23.730869105234564,"url":"https://maps.app.goo.gl/zELuRQBZCjzsqwux5","address":"Λεωφ. Αγίου Δημητρίου 120, Αγ. Δημήτριος Αττικής 173 41","categoryIds":["greek-restaurants"],"categories":["Greek Restaurants"]}],"nearby":[{"id":"familyFriendly_605cb6ee53f8","slug":"paidiki-chara-plateias-karaiskaki-605c","kind":"restaurant","name":"Παιδική Χαρά Πλατείας Καραισκάκη","lat":37.90061761752489,"lng":23.771490329070613,"url":"https://maps.app.goo.gl/9R2iG5DSfkWfCzH2A?g_st=ipc","address":"Λευκωσίας 25, Γλυφάδα 165 62","categoryIds":["family-friendly"],"categories":["Kid Friendly Locations"],"distanceKm":0.9759259750121883},{"id":"cheapEatsRestaurants_af98640fcbbd","slug":"amam-estiatorio-glyfada-af98","kind":"restaurant","name":"ΑΜΑΜ - ΕΣΤΙΑΤΟΡΙΟ - ΓΛΥΦΑΔΑ","lat":37.89588121968674,"lng":23.761096554642833,"url":"https://maps.app.goo.gl/2gazVN316J2yH7Wu7?g_st=ipc","address":"Γεωρ. Γεννηματά 11, Γλυφάδα 165 62","categoryIds":["cheap-eats"],"categories":["Gyros & Cheap Eats"],"distanceKm":1.9034379660735372},{"id":"burgersRestaurants_797126963f1f","slug":"amam-estiatorio-glyfada-7971","kind":"restaurant","name":"ΑΜΑΜ - ΕΣΤΙΑΤΟΡΙΟ - ΓΛΥΦΑΔΑ","lat":37.895880681449796,"lng":23.761095559330744,"url":"https://maps.app.goo.gl/fAsTx4mwCTHC78t86?g_st=ipc","address":"Γεωρ. Γεννηματά 11, Γλυφάδα 165 62","categoryIds":["burgers"],"categories":["Burger Spots"],"distanceKm":1.9035402026206762},{"id":"burgersRestaurants_9c2f22b0606b","slug":"hashtag-burger-9c2f","kind":"restaurant","name":"Hashtag#Burger","lat":37.89371001882756,"lng":23.763217485797266,"url":"https://maps.app.goo.gl/BsuHdbYYc8dsSTwn8?g_st=ipc","address":"Γεωρ. Γεννηματά 26, Γλυφάδα 165 62","categoryIds":["burgers"],"categories":["Burger Spots"],"distanceKm":1.9885820906544354},{"id":"cheapEatsRestaurants_30dc64b199b4","slug":"hashtag-burger-30dc","kind":"restaurant","name":"Hashtag#Burger","lat":37.89370791965242,"lng":23.763218653107806,"url":"https://maps.app.goo.gl/qc79j4xVCW7hJv396?g_st=ipc","address":"Γεωρ. Γεννηματά 26, Γλυφάδα 165 62","categoryIds":["cheap-eats"],"categories":["Gyros & Cheap Eats"],"distanceKm":1.9887261858327763},{"id":"cheapEatsRestaurants_55ef34aff14a","slug":"aigyptios-55ef","kind":"restaurant","name":"ΑΙΓΥΠΤΙΟΣ","lat":37.919220373285064,"lng":23.75457772556386,"url":"https://maps.app.goo.gl/kKDBtgyh24ez28CR7?g_st=ipc","address":"Θράκης 58, Ηλιούπολη 163 41","categoryIds":["cheap-eats"],"categories":["Gyros & Cheap Eats"],"distanceKm":2.14204661406634},{"id":"greekRestaurants_4c001bebcf5a","slug":"kyria-oyrania-taverna-4c00","kind":"restaurant","name":"Κυρία Ουρανία Ταβέρνα","lat":37.92057877935982,"lng":23.755542263928948,"url":"https://maps.app.goo.gl/ps7BDEvG27yAVuTL8","address":"Ηρ. Πολυτεχνείου 85, Ηλιούπολη 163 42","categoryIds":["greek-restaurants"],"categories":["Greek Restaurants"],"distanceKm":2.1585021787606165},{"id":"cheapEatsRestaurants_38d81d943048","slug":"oi-pites-toy-nteni-38d8","kind":"restaurant","name":"Οι Πίτες του Ντένη","lat":37.90525389875436,"lng":23.75051113822582,"url":"https://maps.app.goo.gl/LT4SpnfnfY3JNg1K7?g_st=ipc","address":"Μαρίνου Γερουλάνου 81, Αργυρούπολη 164 52","categoryIds":["cheap-eats"],"categories":["Gyros & Cheap Eats"],"distanceKm":2.202775717658538}],"sameRegion":[]},"__N_SSG":true}