{"pageProps":{"entity":{"id":"fishTavernasRestaurants_86c2766cd30e","slug":"maravelis-tavern-86c2","kind":"restaurant","name":"Maravelis Tavern","lat":38.87783676050129,"lng":23.034445964763474,"url":"https://maps.app.goo.gl/hQcCLsq7XdBziH8Y6?g_st=ipc","address":"Paraliaki Agiou Nikolaou, Paralia Agiou Nikolaou 343 00","categoryIds":["fish-tavernas"],"categories":["Fish Tavernas"]},"sameCategory":[{"id":"fishTavernasRestaurants_592c32eec338","slug":"pharos-restaurant-592c","kind":"restaurant","name":"Pharos Restaurant","lat":38.84777841501031,"lng":23.122079543325817,"url":"https://maps.app.goo.gl/J6rBsvJ8fqbki2T77?g_st=ipc","address":"Ilia, Ilia, Edipsos 343 00","categoryIds":["fish-tavernas"],"categories":["Fish Tavernas"]},{"id":"fishTavernasRestaurants_6b40bcc51614","slug":"antonis-greek-traditional-cuisine-6b40","kind":"restaurant","name":"Antonis Greek Traditional Cuisine","lat":38.83737186575876,"lng":22.887933091146778,"url":"https://maps.app.goo.gl/G8KXo81mCU6jbPnZ8?g_st=ipc","address":"Αγ.Γεώργιος 34, Οδός Κάβου 300, Ag. Georgios 343 00","categoryIds":["fish-tavernas"],"categories":["Fish Tavernas"]},{"id":"fishTavernasRestaurants_36305b19ba52","slug":"anemoia-3630","kind":"restaurant","name":"Anemoia","lat":38.80770176326322,"lng":23.228365127072003,"url":"https://maps.app.goo.gl/UE7bKqxToKu8gHZ56?g_st=ipc","address":"Evia Island, Rovies 340 05","categoryIds":["fish-tavernas"],"categories":["Fish Tavernas"]},{"id":"fishTavernasRestaurants_fb10a0ef09f6","slug":"to-karnagio-to-karnagio-agia-kyriaki-notioy-pilioy-fb10","kind":"restaurant","name":"To Karnagio / Το Καρνάγιο - Αγία Κυριακή Νοτίου Πηλίου","lat":39.09262802220784,"lng":23.06864421145359,"url":"https://maps.app.goo.gl/9qZMAALf8EZ6XnGKA?g_st=ipc","address":"Epar.Od. Trikeriou-Agias Kiriakis 212, Ag. Kiriaki 370 09","categoryIds":["fish-tavernas"],"categories":["Fish Tavernas"]},{"id":"fishTavernasRestaurants_8539d0698831","slug":"argo-restaurant-8539","kind":"restaurant","name":"Argo Restaurant","lat":39.17227725570198,"lng":23.22064957150471,"url":"https://maps.app.goo.gl/HKBpdAh3KxQWGaRr8?g_st=ipc","address":"Epar.Od. Milina-Trikeri, Milina 370 13","categoryIds":["fish-tavernas"],"categories":["Fish Tavernas"]},{"id":"fishTavernasRestaurants_c628ee14dc22","slug":"taverna-areti-stamoulis-c628","kind":"restaurant","name":"Taverna Areti - Stamoulis","lat":39.172445737181256,"lng":23.342568733517215,"url":"https://maps.app.goo.gl/tHMerUFf4UU2S8jr8?g_st=ipc","address":"Αγ. Γεώργιος 370 06","categoryIds":["fish-tavernas"],"categories":["Fish Tavernas"]},{"id":"fishTavernasRestaurants_458d48d686b2","slug":"akrogiali-galanos-458d","kind":"restaurant","name":"Ακρογιαλι Γαλανος","lat":39.26649482814042,"lng":23.166733047141467,"url":"https://maps.app.goo.gl/KNjSWtb43DnSGnxU7?g_st=ipc","address":"Epar.Od. Lefokastrou-Afisou, Afissos 370 10","categoryIds":["fish-tavernas"],"categories":["Fish Tavernas"]},{"id":"fishTavernasRestaurants_77d3e9a1bb44","slug":"infinity-blue-restaurant-77d3","kind":"restaurant","name":"Infinity Blue Restaurant","lat":39.142389727462664,"lng":23.44573084758166,"url":"https://maps.app.goo.gl/GYPTidFzoXiRNDdCA?g_st=ipc","address":"Kolios, 370 02","categoryIds":["fish-tavernas"],"categories":["Fish Tavernas"]}],"nearby":[{"id":"fishTavernasRestaurants_592c32eec338","slug":"pharos-restaurant-592c","kind":"restaurant","name":"Pharos Restaurant","lat":38.84777841501031,"lng":23.122079543325817,"url":"https://maps.app.goo.gl/J6rBsvJ8fqbki2T77?g_st=ipc","address":"Ilia, Ilia, Edipsos 343 00","categoryIds":["fish-tavernas"],"categories":["Fish Tavernas"],"distanceKm":8.29103176640406},{"id":"greekRestaurants_d65972b4152c","slug":"i-psistaria-toy-vazoyra-d659","kind":"restaurant","name":"Η ΨΗΣΤΑΡΙΑ ΤΟΥ ΒΑΖΟΥΡΑ","lat":38.954704269481525,"lng":22.968242283211623,"url":"https://maps.app.goo.gl/uLTg4awodZSNtjhP8?g_st=ipc","address":"Unnamed Road, Γλύφα 350 13","categoryIds":["greek-restaurants"],"categories":["Greek Restaurants"],"distanceKm":10.288968402710866},{"id":"municipalities_30068cb262bd","slug":"istiaia-3006","kind":"municipality","name":"Ιστιαία","lat":38.95,"lng":23.15,"aliases":["Ιστιαίων"],"region":"Στερεά Ελλάδα","name_en":"Istiaia","region_en":"Central Greece","distanceKm":12.819578100814182},{"id":"fishTavernasRestaurants_6b40bcc51614","slug":"antonis-greek-traditional-cuisine-6b40","kind":"restaurant","name":"Antonis Greek Traditional Cuisine","lat":38.83737186575876,"lng":22.887933091146778,"url":"https://maps.app.goo.gl/G8KXo81mCU6jbPnZ8?g_st=ipc","address":"Αγ.Γεώργιος 34, Οδός Κάβου 300, Ag. Georgios 343 00","categoryIds":["fish-tavernas"],"categories":["Fish Tavernas"],"distanceKm":13.460598597629478},{"id":"fishTavernasRestaurants_36305b19ba52","slug":"anemoia-3630","kind":"restaurant","name":"Anemoia","lat":38.80770176326322,"lng":23.228365127072003,"url":"https://maps.app.goo.gl/UE7bKqxToKu8gHZ56?g_st=ipc","address":"Evia Island, Rovies 340 05","categoryIds":["fish-tavernas"],"categories":["Fish Tavernas"],"distanceKm":18.516984996857783},{"id":"fishTavernasRestaurants_fb10a0ef09f6","slug":"to-karnagio-to-karnagio-agia-kyriaki-notioy-pilioy-fb10","kind":"restaurant","name":"To Karnagio / Το Καρνάγιο - Αγία Κυριακή Νοτίου Πηλίου","lat":39.09262802220784,"lng":23.06864421145359,"url":"https://maps.app.goo.gl/9qZMAALf8EZ6XnGKA?g_st=ipc","address":"Epar.Od. Trikeriou-Agias Kiriakis 212, Ag. Kiriaki 370 09","categoryIds":["fish-tavernas"],"categories":["Fish Tavernas"],"distanceKm":24.065910797041926},{"id":"municipalities_2a5550d7f6f9","slug":"kamena-voyrla-2a55","kind":"municipality","name":"Καμένα Βούρλα","lat":38.7833,"lng":22.7833,"region":"Στερεά Ελλάδα","name_en":"Kamena Vourla","region_en":"Central Greece","distanceKm":24.161193207581864},{"id":"municipalities_b881ef8f885c","slug":"atalanti-b881","kind":"municipality","name":"Αταλάντη","lat":38.65,"lng":23.0833,"region":"Στερεά Ελλάδα","name_en":"Atalanti","region_en":"Central Greece","distanceKm":25.685947697087666}],"sameRegion":[]},"__N_SSG":true}