{"pageProps":{"entity":{"id":"italianRestaurants_f7f3095a84cf","slug":"marika-f7f3","kind":"restaurant","name":"Μαρίκα","lat":38.01804412743968,"lng":23.809906247881305,"url":"https://maps.app.goo.gl/osUqCcuWwvgZPCpT6?g_st=ipc","address":"Αγίας Παρασκευής 109, Χαλάνδρι 152 34","categoryIds":["italian"],"categories":["Italian Restaurants"]},"sameCategory":[{"id":"italianRestaurants_449a551f4dc8","slug":"come-a-casa-449a","kind":"restaurant","name":"Come A Casa","lat":38.020170312119056,"lng":23.798225694950606,"url":"https://maps.app.goo.gl/Go53VnWKyGjFvBK38?g_st=ipc","address":"Καραολη Δημήτριου 17, Χαλάνδρι 152 32","categoryIds":["italian"],"categories":["Italian Restaurants"]},{"id":"italianRestaurants_0499cd7a1aa6","slug":"totonno-pizzeria-0499","kind":"restaurant","name":"Totonno Pizzeria","lat":38.0207813740758,"lng":23.7979881651798,"url":"https://maps.app.goo.gl/nUn81XsFVAHwxcV18?g_st=ipc","address":"Καλογρέζης 1, Χαλάνδρι 152 32","categoryIds":["italian"],"categories":["Italian Restaurants"]},{"id":"italianRestaurants_08976c540f77","slug":"alpino-cucina-italiana-0897","kind":"restaurant","name":"Alpino Cucina Italiana","lat":38.017273062811554,"lng":23.796958155707255,"url":"https://maps.app.goo.gl/vifqCWxK1J8ZiiCu7?g_st=ipc","address":"Παπανικολή 66, Χαλάνδρι 152 32","categoryIds":["italian"],"categories":["Italian Restaurants"]},{"id":"italianRestaurants_6b466717928c","slug":"lollo-s-atene-6b46","kind":"restaurant","name":"Lollo's Atene","lat":38.01753697922701,"lng":23.795618164928833,"url":"https://maps.app.goo.gl/1D9mpaGYtG23tshYA?g_st=ipc","address":"Εθ. Αντιστάσεως 3α, Χαλάνδρι 152 32","categoryIds":["italian"],"categories":["Italian Restaurants"]},{"id":"italianRestaurants_5125cdfe0b5a","slug":"portofino-pizza-xalandri-5125","kind":"restaurant","name":"Portofino Pizza Xalandri","lat":38.0247038627797,"lng":23.797586721157028,"url":"https://maps.app.goo.gl/D9rRduThcXn2ff1i8?g_st=ipc","address":"Γρ. Γυφτοπούλου 23, Χαλάνδρι 152 33","categoryIds":["italian"],"categories":["Italian Restaurants"]},{"id":"italianRestaurants_99d6d6ea615c","slug":"alio-99d6","kind":"restaurant","name":"ALIO","lat":38.02380840827294,"lng":23.79252131680721,"url":"https://maps.app.goo.gl/pCWntKXiEkk3VBdj8?g_st=ipc","address":"Βασιλέως Γεωργίου 34, Χαλάνδρι 152 33","categoryIds":["italian"],"categories":["Italian Restaurants"]},{"id":"italianRestaurants_cc723f5b71ae","slug":"aperio-cucina-vino-cc72","kind":"restaurant","name":"Aperio cucina & vino","lat":38.00607265187326,"lng":23.797703238142986,"url":"https://maps.app.goo.gl/GkHg15eafgAV4fou5?g_st=ipc","address":"Μεσογείων 258, Χολαργός 155 61","categoryIds":["italian"],"categories":["Italian Restaurants"]},{"id":"italianRestaurants_e3c2b10afd7e","slug":"bellagio-pizza-pasta-bar-e3c2","kind":"restaurant","name":"Bellagio Pizza & Pasta Bar","lat":38.005496461487304,"lng":23.82824148801167,"url":"https://maps.app.goo.gl/fzHTDB9dRXhv8Puh9?g_st=ipc","address":"Αγίου Ιωάννου 82, Αγ. Παρασκευή 153 42","categoryIds":["italian"],"categories":["Italian Restaurants"]}],"nearby":[{"id":"mexicanRestaurants_2fa8f90ada8c","slug":"el-taco-bueno-2fa8","kind":"restaurant","name":"El Taco Bueno","lat":38.01767477225013,"lng":23.8094742149459,"url":"https://maps.app.goo.gl/nxvZPKw9Xm14kD6q7?g_st=ipc","address":"Αγίας Παρασκευής 110, Χαλάνδρι 152 32","categoryIds":["mexican"],"categories":["Mexican Restaurants"],"distanceKm":0.05584938134363038},{"id":"greekRestaurants_d2dfa77acfa8","slug":"doykissa-mezedopoleio-d2df","kind":"restaurant","name":"Δούκισσα Μεζεδοπωλείο","lat":38.0195289224619,"lng":23.810346764437185,"url":"https://maps.app.goo.gl/xuDMuCBBZTFu1suy8?g_st=ipc","address":"Δουκίσσης Πλακεντίας 14, Χαλάνδρι 152 34","categoryIds":["greek-restaurants"],"categories":["Greek Restaurants"],"distanceKm":0.16955148079869975},{"id":"cheapEatsRestaurants_3872707b22c4","slug":"gianniotiko-soyvlaki-3872","kind":"restaurant","name":"ΓΙΑΝΝΙΩΤΙΚΟ ΣΟΥΒΛΑΚΙ","lat":38.018885728218706,"lng":23.80780825876153,"url":"https://maps.app.goo.gl/VSmxeGeUsq75QADx9?g_st=ic","address":"Agias Paraskevis 95, Chalandri 152 34","categoryIds":["cheap-eats"],"categories":["Gyros & Cheap Eats"],"distanceKm":0.20623919994980272},{"id":"greekRestaurants_141b4df624df","slug":"peri-oysias-141b","kind":"restaurant","name":"Περί Ουσίας","lat":38.0199005649911,"lng":23.809145664428573,"url":"https://maps.app.goo.gl/gEFvWf42qxvaJBEX9?g_st=ipc","address":"Θησέως 25, Χαλάνδρι 152 34","categoryIds":["greek-restaurants"],"categories":["Greek Restaurants"],"distanceKm":0.21691255957810696},{"id":"greekRestaurants_332aa0a30f34","slug":"to-koytoyki-332a","kind":"restaurant","name":"Το Κουτούκι","lat":38.01916385299786,"lng":23.80500366441751,"url":"https://maps.app.goo.gl/SuZCLAfs8GjCTcWG6?g_st=ipc","address":"Υψηλάντου 5, Χαλάνδρι 152 32","categoryIds":["greek-restaurants"],"categories":["Greek Restaurants"],"distanceKm":0.4471530874270201},{"id":"greekRestaurants_166b7c278db9","slug":"tzitzikas-kai-mermigkas-166b","kind":"restaurant","name":"Τζίτζικας Και Μέρμηγκας","lat":38.02047878345652,"lng":23.804706604274816,"url":"https://maps.app.goo.gl/8pYJH9GZBYeQD5mk6?g_st=ipc","address":"Αισχύλου 26, Χαλάνδρι 152 34","categoryIds":["greek-restaurants"],"categories":["Greek Restaurants"],"distanceKm":0.5298670174742961},{"id":"familyFriendly_006b710ec86a","slug":"ktima-aristi-006b","kind":"restaurant","name":"ΚΤΗΜΑ ΑΡΙΣΤΗ","lat":38.01987728596246,"lng":23.81566062458868,"url":"https://maps.app.goo.gl/82avq8dPqN3VZq7W7?g_st=ipc","address":"Πλουτάρχου 10, Χαλάνδρι 152 34","categoryIds":["family-friendly"],"categories":["Kid Friendly Locations"],"distanceKm":0.5437377835527931},{"id":"familyFriendly_3a0b8382227c","slug":"kidtopia-3a0b","kind":"restaurant","name":"KIDTOPIA","lat":38.01289484430431,"lng":23.811355038875934,"url":"https://maps.app.goo.gl/hbL95STxeVAMj8X58?g_st=ic","address":"Erifilis 31, Chalandri 152 32","categoryIds":["family-friendly"],"categories":["Kid Friendly Locations"],"distanceKm":0.5864724557186781}],"sameRegion":[]},"__N_SSG":true}