{"pageProps":{"entity":{"id":"greekRestaurants_e47501c318a2","slug":"maro-e475","kind":"restaurant","name":"Μάρω","lat":37.10154028987827,"lng":25.3766315671974,"url":"https://maps.app.goo.gl/zA4x53E8WYhDfBig6?g_st=ipc","address":"Πλ. Πέτρου Ευριπαίου, Νάξος 843 00","categoryIds":["greek-restaurants"],"categories":["Greek Restaurants"]},"sameCategory":[{"id":"greekRestaurants_533382eda428","slug":"to-elliniko-restaurant-5333","kind":"restaurant","name":"To Elliniko Restaurant","lat":37.10045212673621,"lng":25.377603556843287,"url":"https://maps.app.goo.gl/Xqt8tsmindBjCsXV8?g_st=ipc","address":"Ιωάννου Παπαρηγοπούλου, Νάξος 843 00","categoryIds":["greek-restaurants"],"categories":["Greek Restaurants"]},{"id":"greekRestaurants_7781d11d6267","slug":"musique-cafe-restaurant-7781","kind":"restaurant","name":"Musique Cafe - Restaurant","lat":37.103293290914934,"lng":25.374723030497336,"url":"https://maps.app.goo.gl/ShCS95qz2nMgxP8EA?g_st=ipc","address":"Αριάδνης, Νάξος 843 00","categoryIds":["greek-restaurants"],"categories":["Greek Restaurants"]},{"id":"greekRestaurants_1d1d2978a995","slug":"nissaki-restaurant-since-1971-1d1d","kind":"restaurant","name":"Nissaki Restaurant since 1971","lat":37.1004793636916,"lng":25.373689522155757,"url":"https://maps.app.goo.gl/1p3SN2L3QLT24UKX8?g_st=ipc","address":"Αγίου Γεωργίου, Νάξος 843 00","categoryIds":["greek-restaurants"],"categories":["Greek Restaurants"]},{"id":"greekRestaurants_130710e212e4","slug":"mpoylamatsis-1307","kind":"restaurant","name":"Μπουλαμάτσης","lat":37.10647098604559,"lng":25.37521889326687,"url":"https://maps.app.goo.gl/HtLuBm5ry7CugcJL6?g_st=ipc","address":"Νάξος 843 00","categoryIds":["greek-restaurants"],"categories":["Greek Restaurants"]},{"id":"greekRestaurants_3726510620ef","slug":"labyrinth-wine-restaurant-3726","kind":"restaurant","name":"Labyrinth Wine Restaurant","lat":37.10708136992931,"lng":25.375720724103953,"url":"https://maps.app.goo.gl/49MFdr1gPv2w4hQB7?g_st=ipc","address":"Παλιά Πόλη (Κάστρο), Χώρα, Νάξος 843 00","categoryIds":["greek-restaurants"],"categories":["Greek Restaurants"]},{"id":"greekRestaurants_3b45d35e6fd1","slug":"irini-s-restaurant-3b45","kind":"restaurant","name":"Irini's Restaurant","lat":37.1071372692847,"lng":25.374640994171585,"url":"https://maps.app.goo.gl/YgF63yZMU9zTQLo56?g_st=ipc","address":"Protopapadaki, Hora, Naxos, Νάξος 843 00","categoryIds":["greek-restaurants"],"categories":["Greek Restaurants"]},{"id":"greekRestaurants_e757ce4749fe","slug":"metaxy-mas-mezedopoleio-oinomageireio-e757","kind":"restaurant","name":"Μεταξύ μας - Μεζεδοπωλείο & Οινομαγειρείο","lat":37.107370778794554,"lng":25.37585827738081,"url":"https://maps.app.goo.gl/7Bd4cfVR6XtzcvaA8?g_st=ipc","address":"Παλιά αγορά, Νάξος 843 00","categoryIds":["greek-restaurants"],"categories":["Greek Restaurants"]},{"id":"greekRestaurants_923afb8bf5e5","slug":"apostolis-923a","kind":"restaurant","name":"Apostolis","lat":37.107377181216485,"lng":25.375621551960272,"url":"https://maps.app.goo.gl/EyYs7kqSBq4Bh2H49?g_st=ipc","address":"Νάξος 843 00","categoryIds":["greek-restaurants"],"categories":["Greek Restaurants"]}],"nearby":[{"id":"greekRestaurants_533382eda428","slug":"to-elliniko-restaurant-5333","kind":"restaurant","name":"To Elliniko Restaurant","lat":37.10045212673621,"lng":25.377603556843287,"url":"https://maps.app.goo.gl/Xqt8tsmindBjCsXV8?g_st=ipc","address":"Ιωάννου Παπαρηγοπούλου, Νάξος 843 00","categoryIds":["greek-restaurants"],"categories":["Greek Restaurants"],"distanceKm":0.14856430462522166},{"id":"fishTavernasRestaurants_78cb3f4380c2","slug":"cafe-ouzerie-barabbas-78cb","kind":"restaurant","name":"Café Ouzerie Barabbas","lat":37.10204187531306,"lng":25.37502616238965,"url":"https://maps.app.goo.gl/BH3za9tuZUwNeCz87?g_st=ipc","address":"Naxos 843 00","categoryIds":["fish-tavernas"],"categories":["Fish Tavernas"],"distanceKm":0.15291020828894158},{"id":"italianRestaurants_81fb3a3e7792","slug":"etere-ristorante-spritzeria-81fb","kind":"restaurant","name":"ETERE Ristorante•Spritzeria","lat":37.10293986337665,"lng":25.375171669884853,"url":"https://maps.app.goo.gl/hwE3v2eAEfeWwtVD6?g_st=ipc","address":"Σχοινούσας, Kiprou &, Naxos 843 00","categoryIds":["italian"],"categories":["Italian Restaurants"],"distanceKm":0.20243986452444943},{"id":"fishTavernasRestaurants_d7e3e1315391","slug":"sarris-tavern-d7e3","kind":"restaurant","name":"Sarris Tavern","lat":37.10364861622317,"lng":25.37580990635783,"url":"https://maps.app.goo.gl/AXzYwLeXrYvTjRri8?g_st=ipc","address":"Sarris Tavern 8, Naxos 843 00","categoryIds":["fish-tavernas"],"categories":["Fish Tavernas"],"distanceKm":0.24549879807885674},{"id":"coffeeBrunchRestaurants_bcf369879144","slug":"melimilon-naxos-bcf3","kind":"restaurant","name":"Melimilon Naxos","lat":37.1012124273558,"lng":25.373816192509402,"url":"https://maps.app.goo.gl/24h3FMgmoD9y36B69?g_st=ipc","address":"Naxos 843 00","categoryIds":["coffee-brunch"],"categories":["Coffee & Brunch Spots"],"distanceKm":0.252330913786997},{"id":"rooftopLoungesRestaurants_f44c78191d73","slug":"musique-cafe-restaurant-f44c","kind":"restaurant","name":"Musique Cafe - Restaurant","lat":37.10327388720912,"lng":25.374720099192075,"url":"https://maps.app.goo.gl/xGrZAJx1PKMWWCnU7?g_st=ipc","address":"Ariadnis, Naxos 843 00","categoryIds":["rooftop-lounges"],"categories":["Rooftop Lounges"],"distanceKm":0.2567009839893627},{"id":"greekRestaurants_7781d11d6267","slug":"musique-cafe-restaurant-7781","kind":"restaurant","name":"Musique Cafe - Restaurant","lat":37.103293290914934,"lng":25.374723030497336,"url":"https://maps.app.goo.gl/ShCS95qz2nMgxP8EA?g_st=ipc","address":"Αριάδνης, Νάξος 843 00","categoryIds":["greek-restaurants"],"categories":["Greek Restaurants"],"distanceKm":0.258154607455668},{"id":"italianRestaurants_7d6f32d35713","slug":"dal-professore-naxos-7d6f","kind":"restaurant","name":"Dal Professore Naxos","lat":37.10347764120069,"lng":25.374650593867482,"url":"https://maps.app.goo.gl/GLP6dYmT8CK2v8Rk9?g_st=ipc","address":"Sea front - Naxos town Naxos Town, 843 00","categoryIds":["italian"],"categories":["Italian Restaurants"],"distanceKm":0.27797711022026605}],"sameRegion":[]},"__N_SSG":true}