{"pageProps":{"entity":{"id":"luxuryDiningRestaurants_e02771b2a295","slug":"mavri-thalassa-e027","kind":"restaurant","name":"Mavri Thalassa","lat":40.57843617435474,"lng":22.943234064415787,"url":"https://maps.app.goo.gl/CFRMztsRLco8Wy1G9?g_st=ipc","address":"Nik. Plastira 3, Kalamaria 551 32","categoryIds":["luxury-dining"],"categories":["Luxury Dining"]},"sameCategory":[{"id":"luxuryDiningRestaurants_fd5e8e87aa52","slug":"les-zazous-fd5e","kind":"restaurant","name":"Les Zazous","lat":40.58599940349592,"lng":22.939440752876596,"url":"https://maps.app.goo.gl/FvCAxwABwuAsxZP59?g_st=ipc","address":"Themistokli Sofouli 108, Kalamaria 551 31","categoryIds":["luxury-dining"],"categories":["Luxury Dining"]},{"id":"luxuryDiningRestaurants_f789c3144485","slug":"marrone-restaurant-f789","kind":"restaurant","name":"Marrone Restaurant","lat":40.587514625354714,"lng":22.942944126653384,"url":"https://maps.app.goo.gl/rYECyH9YH5sKjowm8?g_st=ipc","address":"Themistokli Sofouli 111, Kalamaria 551 31","categoryIds":["luxury-dining"],"categories":["Luxury Dining"]},{"id":"luxuryDiningRestaurants_36dbdd983cca","slug":"akti-ntovil-sea-taste-36db","kind":"restaurant","name":"Akti Ntovil sea taste","lat":40.59022322149795,"lng":22.945258035177847,"url":"https://maps.app.goo.gl/2G43HnJbauPH1htJ6?g_st=ipc","address":"Themistokli Sofouli 86, Kalamaria 551 31","categoryIds":["luxury-dining"],"categories":["Luxury Dining"]},{"id":"luxuryDiningRestaurants_6c2f9d989a6a","slug":"shark-bar-restaurant-thessaloniki-6c2f","kind":"restaurant","name":"SHARK Bar | Restaurant - Thessaloniki","lat":40.59118558847925,"lng":22.946520720029824,"url":"https://maps.app.goo.gl/gugoZEiFmeixR8B67?g_st=ipc","address":"Argonafton 2, Kalamaria 551 31","categoryIds":["luxury-dining"],"categories":["Luxury Dining"]},{"id":"luxuryDiningRestaurants_20a0f2d7ec25","slug":"maiami-seafood-restaurant-20a0","kind":"restaurant","name":"Maiami Seafood Restaurant","lat":40.56607027401273,"lng":22.958428998890472,"url":"https://maps.app.goo.gl/Py5DhXkzzrWSZ9VV6?g_st=ipc","address":"Thetidos 18, Kalamaria 551 32","categoryIds":["luxury-dining"],"categories":["Luxury Dining"]},{"id":"luxuryDiningRestaurants_aa49ab401c78","slug":"opsopoion-maganeiai-aa49","kind":"restaurant","name":"Opsopoion Maganeiai","lat":40.59504961870734,"lng":22.950911901497957,"url":"https://maps.app.goo.gl/bY2dGZAgk6wxVc1e9?g_st=ipc","address":"Komotinis 6, Thessaloniki 546 55","categoryIds":["luxury-dining"],"categories":["Luxury Dining"]},{"id":"luxuryDiningRestaurants_bbb8974858e3","slug":"duck-bbb8","kind":"restaurant","name":"Duck","lat":40.56052899575869,"lng":22.986792720078764,"url":"https://maps.app.goo.gl/5gpSyYcYprQvjjq88?g_st=ipc","address":"Chalkis 3, Pilea Chortiatis 570 01","categoryIds":["luxury-dining"],"categories":["Luxury Dining"]},{"id":"luxuryDiningRestaurants_be300778d86d","slug":"salonika-restaurant-bar-be30","kind":"restaurant","name":"Salonika Restaurant & Bar","lat":40.618706388830155,"lng":22.951992243395964,"url":"https://maps.app.goo.gl/m2U4xxrF3WyY7WwP7?g_st=ipc","address":"Leof. Meg. Alexandrou 2, Thessaloniki 546 40","categoryIds":["luxury-dining"],"categories":["Luxury Dining"]}],"nearby":[{"id":"fishTavernasRestaurants_f8b7ef1f9834","slug":"mavri-thalassa-f8b7","kind":"restaurant","name":"Mavri Thalassa","lat":40.57843253808032,"lng":22.94322807682347,"url":"https://maps.app.goo.gl/BS4tZgxTYFAhXywDA?g_st=ipc","address":"Nik. Plastira 3, Kalamaria 551 32","categoryIds":["fish-tavernas"],"categories":["Fish Tavernas"],"distanceKm":0.0006474545978566243},{"id":"fishTavernasRestaurants_ff2ad0d31126","slug":"gialos-fish-seafood-tavern-ff2a","kind":"restaurant","name":"Gialos Fish & Seafood Tavern","lat":40.57948809433507,"lng":22.938505206144782,"url":"https://maps.app.goo.gl/Bgo34mDRNnqGBqcn6?g_st=ipc","address":"Ν.Πλαστήρα - Μ. Εμβολο - Ν.Α.Ο.Κ, Thessaloniki 551 31","categoryIds":["fish-tavernas"],"categories":["Fish Tavernas"],"distanceKm":0.4161460590797606},{"id":"cheapEatsRestaurants_d02e33f8bb10","slug":"food-plaza-d02e","kind":"restaurant","name":"Food Plaza","lat":40.57666918251193,"lng":22.94927301198073,"url":"https://maps.app.goo.gl/zwY1QQTAGPf4oH7s8?g_st=ipc","address":"Skra 16, Kalamaria 551 32","categoryIds":["cheap-eats"],"categories":["Gyros & Cheap Eats"],"distanceKm":0.5465593669459085},{"id":"fishTavernasRestaurants_696f7178604d","slug":"petros-ouzo-tavern-696f","kind":"restaurant","name":"\"Petros\" Ouzo Tavern","lat":40.5758568701644,"lng":22.94955610306511,"url":"https://maps.app.goo.gl/zWRjvQW7U7jg2RVz9?g_st=ipc","address":"Evelpidou 12, Kalamaria 551 32","categoryIds":["fish-tavernas"],"categories":["Fish Tavernas"],"distanceKm":0.6060881619600268},{"id":"coffeeBrunchRestaurants_37a99c7a5e9b","slug":"cafe-plateia-37a9","kind":"restaurant","name":"Café Plateia","lat":40.58219813646138,"lng":22.94932374129252,"url":"https://maps.app.goo.gl/9R5MQ6z3jfLnmMwu7?g_st=ipc","address":"Mitropolitou Chrisanthou 0, Kalamaria 551 32","categoryIds":["coffee-brunch"],"categories":["Coffee & Brunch Spots"],"distanceKm":0.6629279446190681},{"id":"fishTavernasRestaurants_36204a46aece","slug":"to-karnagio-3620","kind":"restaurant","name":"Το Καρνάγιο","lat":40.574881874460935,"lng":22.94956377176227,"url":"https://maps.app.goo.gl/pPBVRQW1crZFz6ho8?g_st=ipc","address":"Agiou Nikolaou 4, Thessaloniki 551 32","categoryIds":["fish-tavernas"],"categories":["Fish Tavernas"],"distanceKm":0.664816207230051},{"id":"fishTavernasRestaurants_e98c62e6ec54","slug":"en-plo-e98c","kind":"restaurant","name":"En Plo","lat":40.57398660392286,"lng":22.949456391166105,"url":"https://maps.app.goo.gl/veiyM1VvYLvbo86r8?g_st=ipc","address":"Nik. Plastira 14Β, Kalamaria 551 32","categoryIds":["fish-tavernas"],"categories":["Fish Tavernas"],"distanceKm":0.7217813347734109},{"id":"dessertsRestaurants_971d24d9e3ed","slug":"pagota-themis-971d","kind":"restaurant","name":"Παγωτά 'Θέμης'","lat":40.58103606730307,"lng":22.951200963653005,"url":"https://maps.app.goo.gl/hLPTQRcHhxotqq366?g_st=ipc","address":"I. Passalidi 69, Kalamaria 551 32","categoryIds":["desserts"],"categories":["Dessert Shops"],"distanceKm":0.7323052259715792}],"sameRegion":[]},"__N_SSG":true}