{"pageProps":{"entity":{"id":"luxuryDiningRestaurants_1aa0e3418df4","slug":"nakal-state-of-mind-1aa0","kind":"restaurant","name":"Nakal State of Mind","lat":37.86969888591183,"lng":24.027576175967926,"url":"https://maps.app.goo.gl/9YgR6NNiMCEfXVTc6?g_st=ipc","address":"Αυλακίου 100, Πόρτο Ράφτη 190 03","categoryIds":["luxury-dining"],"categories":["Luxury Dining"]},"sameCategory":[{"id":"luxuryDiningRestaurants_d905caa27f80","slug":"meat-the-stars-d905","kind":"restaurant","name":"Meat the Stars","lat":38.00243883538717,"lng":23.941476693248035,"url":"https://maps.app.goo.gl/wrkHDhigdmHrrokL8?g_st=ipc","address":"Λεωφ. Μαραθώνος 63, Πικέρμι 190 09","categoryIds":["luxury-dining"],"categories":["Luxury Dining"]},{"id":"luxuryDiningRestaurants_42ea23e17e35","slug":"abraovata-42ea","kind":"restaurant","name":"abraOvata","lat":37.806852023213075,"lng":23.785311811319485,"url":"https://maps.app.goo.gl/XBCeyEooo1BQ3GPW6?g_st=ipc","address":"Εστιατόριο Λίμνης, Αθήνα 166 71","categoryIds":["luxury-dining"],"categories":["Luxury Dining"]},{"id":"luxuryDiningRestaurants_08bbcc5a4dd6","slug":"labros-restaurant-08bb","kind":"restaurant","name":"Labros Restaurant","lat":37.8081975831625,"lng":23.78348018457994,"url":"https://maps.app.goo.gl/H6wg8L7hEhDJU9C38?g_st=ipc","address":"Λεωφ. Ποσειδώνος 20, Βουλιαγμένη 166 71","categoryIds":["luxury-dining"],"categories":["Luxury Dining"]},{"id":"luxuryDiningRestaurants_c1ae11688e19","slug":"drakoulis-dry-raw-butcheries-voula-c1ae","kind":"restaurant","name":"Drakoulis Dry & Raw - Butcheries Voula","lat":37.837831960071576,"lng":23.769665916102717,"url":"https://maps.app.goo.gl/uMQc68wzQ6KRLhmv6?g_st=ipc","address":"Λεωφ. Βασιλέως Παύλου 103, Βούλα 166 73","categoryIds":["luxury-dining"],"categories":["Luxury Dining"]},{"id":"luxuryDiningRestaurants_9dba478c9326","slug":"faidon-s-athens-9dba","kind":"restaurant","name":"FAIDON'S Athens","lat":37.841556503840984,"lng":23.766513107501794,"url":"https://maps.app.goo.gl/keaSEXUAsA2Tk34x9?g_st=ipc","address":"Αγίου Ιωάννου 28, Βούλα 166 73","categoryIds":["luxury-dining"],"categories":["Luxury Dining"]},{"id":"luxuryDiningRestaurants_cf5e588a6dce","slug":"estiatorio-ithaki-cf5e","kind":"restaurant","name":"Εστιατόριο Ιθάκη","lat":37.811063360560766,"lng":23.773264732265726,"url":"https://maps.app.goo.gl/bgcHWrkEN1tinWgK8?g_st=ipc","address":"Apollonos, Αθήνας 28, Βουλιαγμένη 166 71","categoryIds":["luxury-dining"],"categories":["Luxury Dining"]},{"id":"luxuryDiningRestaurants_6dc5534d9406","slug":"taverna-37-6dc5","kind":"restaurant","name":"Taverna 37","lat":37.80595380281949,"lng":23.772585533663307,"url":"https://maps.app.goo.gl/xaizfkEuwTxWbciw7?g_st=ipc","address":"Απόλλωνος 40, Βουλιαγμένη 166 71","categoryIds":["luxury-dining"],"categories":["Luxury Dining"]},{"id":"luxuryDiningRestaurants_c10da5caccee","slug":"matsuhisa-athens-c10d","kind":"restaurant","name":"Matsuhisa Athens","lat":37.80698321398831,"lng":23.772172298341644,"url":"https://maps.app.goo.gl/7ZfHDaS8XMMaED3P7?g_st=ipc","address":"40, Απόλλωνος street, Βουλιαγμένη 166 71","categoryIds":["luxury-dining"],"categories":["Luxury Dining"]}],"nearby":[{"id":"greekRestaurants_d0fbec7a3dcb","slug":"melikokon-mezedopoleio-porto-rafti-d0fb","kind":"restaurant","name":"MELIKOKON - MEZEDOPOLEIO - PORTO RAFTI","lat":37.867136583168865,"lng":24.038674142484993,"url":"https://maps.app.goo.gl/52G1EjfGK3qFyDtY6?g_st=ipc","address":"Τέρμα, Leof. Avlakiou, Porto Rafti 190 03","categoryIds":["greek-restaurants"],"categories":["Greek Restaurants"],"distanceKm":1.014986518998348},{"id":"coffeeBrunchRestaurants_9c82093341f1","slug":"kazba-bar-kouzina-9c82","kind":"restaurant","name":"Kazba Bar Kouzina","lat":37.89105125077896,"lng":24.008282807805728,"url":"https://maps.app.goo.gl/RrMxEDqS2TizyDi36?g_st=ipc","address":"Λεωφ. Γ. Γρέγου 27, Πόρτο Ράφτη 190 03","categoryIds":["coffee-brunch"],"categories":["Coffee & Brunch Spots"],"distanceKm":2.916233975371728},{"id":"coffeeBrunchRestaurants_5b4cddd34628","slug":"mparko-5b4c","kind":"restaurant","name":"Μπάρκο","lat":37.89368052857063,"lng":24.013107601829738,"url":"https://maps.app.goo.gl/eVBj1NWi5ai3UMgQ9?g_st=ipc","address":"Λεωφ. Γ. Γρέγου 57, Πόρτο Ράφτη 190 23","categoryIds":["coffee-brunch"],"categories":["Coffee & Brunch Spots"],"distanceKm":2.953539304212692},{"id":"fishTavernasRestaurants_e10a32c39c5a","slug":"tom-psarotaverna-e10a","kind":"restaurant","name":"TOM Psarotaverna","lat":37.83896686862904,"lng":24.048707414360276,"url":"https://maps.app.goo.gl/ofvaTy2Fz5my1RhL9?g_st=ipc","address":"Παραλία Κακής Θαλάσσης 190 01","categoryIds":["fish-tavernas"],"categories":["Fish Tavernas"],"distanceKm":3.888381656136746},{"id":"wineriesVineyards_262c7717edc1","slug":"oinopoieio-papagiannakos-262c","kind":"restaurant","name":"Οινοποιείο Παπαγιαννάκος","lat":37.90457982525897,"lng":23.983420618508436,"url":"https://maps.app.goo.gl/nRd1KxMycS9cXqd6A?g_st=ipc","address":"Πυθαγόρα, Μαρκόπουλο Μεσογαίας 190 03","categoryIds":["wineries-vineyards"],"categories":["Wineries & Vineyards"],"distanceKm":5.48259798303452},{"id":"fishTavernasRestaurants_b12448499c96","slug":"psarotaverna-chamolia-b124","kind":"restaurant","name":"Ψαροταβέρνα Χαμολιά","lat":37.920806600246216,"lng":24.027771872272915,"url":"https://maps.app.goo.gl/f74w2o4iUn9xQDDs8?g_st=ipc","address":"Κλειούς, Βραυρώνα 190 03","categoryIds":["fish-tavernas"],"categories":["Fish Tavernas"],"distanceKm":5.682944490284479},{"id":"familyFriendly_1a210cb8c101","slug":"ippikos-omilos-koyvara-1a21","kind":"restaurant","name":"Ιππικός Όμιλος Κουβαρά","lat":37.827589338108154,"lng":23.987545277707177,"url":"https://maps.app.goo.gl/hsmq3SFgWsx53mPW7?g_st=ipc","address":"Αγίου Φανουρίου, Κουβαράς 190 03","categoryIds":["family-friendly"],"categories":["Kid Friendly Locations"],"distanceKm":5.8548026704082},{"id":"greekRestaurants_cc0b98bd06d3","slug":"gavrilis-taverna-cc0b","kind":"restaurant","name":"Γαβριλης Ταβερνα","lat":37.82834073423115,"lng":23.969307203160838,"url":"https://maps.app.goo.gl/bdVU3oQaAfncuVsN9","address":"Αγίου Δημητρίου, Κουβαράς 190 03","categoryIds":["greek-restaurants"],"categories":["Greek Restaurants"],"distanceKm":6.879276880436957}],"sameRegion":[]},"__N_SSG":true}