{"pageProps":{"entity":{"id":"familyFriendly_90a0540fcd7e","slug":"ninja-park-athens-90a0","kind":"restaurant","name":"Ninja Park Athens","lat":38.08643856775193,"lng":23.788809005523504,"url":"https://maps.app.goo.gl/e5jXXHYZC2NhJgZy7?g_st=ipc","address":"Καλυφτάκη 74, Κηφισιά 145 64","categoryIds":["family-friendly"],"categories":["Kid Friendly Locations"]},"sameCategory":[{"id":"familyFriendly_dcb80555b0c4","slug":"hakuna-matata-family-park-dcb8","kind":"restaurant","name":"Hakuna Matata Family Park","lat":38.07414614693604,"lng":23.79446488393812,"url":"https://maps.app.goo.gl/wTSkxqJ3qSwLG4aJA?g_st=ipc","address":"Αχαρνών 53, Κηφισιά 145 61","categoryIds":["family-friendly"],"categories":["Kid Friendly Locations"]},{"id":"familyFriendly_814843d50658","slug":"k9-arena-8148","kind":"restaurant","name":"K9 Arena","lat":38.07105818937244,"lng":23.783776935008227,"url":"https://maps.app.goo.gl/x9xASynDZReucwX5A?g_st=ipc","address":"Χαλκίδος 15, Λυκόβρυση 141 23","categoryIds":["family-friendly"],"categories":["Kid Friendly Locations"]},{"id":"familyFriendly_f33e0651961a","slug":"gymboree-play-music-n-erythraia-f33e","kind":"restaurant","name":"Gymboree Play & Music Ν.Ερυθραία","lat":38.09316691407804,"lng":23.80936117936556,"url":"https://maps.app.goo.gl/azuqAZc93giJTXmj8?g_st=ipc","address":"Τατοΐου 102, Νέα Ερυθραία 146 71","categoryIds":["family-friendly"],"categories":["Kid Friendly Locations"]},{"id":"familyFriendly_914b28d0bdc8","slug":"playmobil-funpark-914b","kind":"restaurant","name":"PLAYMOBIL FunPark","lat":38.101749739078855,"lng":23.80667805908177,"url":"https://maps.app.goo.gl/iUSz6s7BVEgZACCj9?g_st=ipc","address":"Αμαλιάδος 4, Κηφισιά 145 64","categoryIds":["family-friendly"],"categories":["Kid Friendly Locations"]},{"id":"familyFriendly_84e8f16ae20b","slug":"ethniko-moyseio-fysikis-istorias-goylandri-84e8","kind":"restaurant","name":"Εθνικό Μουσείο Φυσικής Ιστορίας Γουλανδρή","lat":38.07463041368346,"lng":23.814406620087777,"url":"https://maps.app.goo.gl/3kET1gVajc9wtcHj9?g_st=ipc","address":"Όθωνος 100, Κηφισιά 145 62","categoryIds":["family-friendly"],"categories":["Kid Friendly Locations"]},{"id":"familyFriendly_56591c06f8ca","slug":"geor-papandreoy-5659","kind":"restaurant","name":"Γεωρ. Παπανδρέου","lat":38.09209780213087,"lng":23.824819042791706,"url":"https://maps.app.goo.gl/93r82jmmMvCfQwZe8?g_st=ipc","address":"Κηφισιά 146 71","categoryIds":["family-friendly"],"categories":["Kid Friendly Locations"]},{"id":"familyFriendly_53d1fe8092e8","slug":"parko-andrea-papandreoy-53d1","kind":"restaurant","name":"Πάρκο Ανδρέα Παπανδρέου","lat":38.1031196150353,"lng":23.81935226972679,"url":"https://maps.app.goo.gl/DqJ2RQU9EoTQdjWRA?g_st=ipc","address":"146 71, Αισχύλου 18, Νέα Ερυθραία 146 71","categoryIds":["family-friendly"],"categories":["Kid Friendly Locations"]},{"id":"familyFriendly_2b5afed6feac","slug":"aidonakia-playcity-2b5a","kind":"restaurant","name":"Αηδονάκια PlayCity","lat":38.09606577414195,"lng":23.75333886341834,"url":"https://maps.app.goo.gl/66tZd4g5Ha8fLC1g6?g_st=ipc","address":"Ξενοδοχοϋπαλλήλων 22, Αχαρνές 136 72","categoryIds":["family-friendly"],"categories":["Kid Friendly Locations"]}],"nearby":[{"id":"cheapEatsRestaurants_f527d097e08b","slug":"mpampis-soyvlatzidiko-f527","kind":"restaurant","name":"Μπάμπης (Σουβλατζίδικο)","lat":38.07798891290964,"lng":23.794191207475013,"url":"https://maps.app.goo.gl/FPtnwFuAA6xGZThWA?g_st=ipc","address":"Γεωρ. Λύρα 5, Κηφισιά 145 64","categoryIds":["cheap-eats"],"categories":["Gyros & Cheap Eats"],"distanceKm":1.0510384119746634},{"id":"monasteriesChurches_5170cd1cd8e1","slug":"monastiri-agias-eirinis-chrysovalantoy-5170","kind":"restaurant","name":"Μοναστήρι Αγίας Ειρήνης Χρυσοβαλάντου","lat":38.0757087984453,"lng":23.784060169292047,"url":"https://maps.app.goo.gl/Kmbb6BYr6fSV4pFRA?g_st=ipc","address":"Δημητσάνας 1, Λυκόβρυση 141 23","categoryIds":["monasteries-churches"],"categories":["Monasteries & Spiritual Sites"],"distanceKm":1.2634236638875846},{"id":"familyFriendly_dcb80555b0c4","slug":"hakuna-matata-family-park-dcb8","kind":"restaurant","name":"Hakuna Matata Family Park","lat":38.07414614693604,"lng":23.79446488393812,"url":"https://maps.app.goo.gl/wTSkxqJ3qSwLG4aJA?g_st=ipc","address":"Αχαρνών 53, Κηφισιά 145 61","categoryIds":["family-friendly"],"categories":["Kid Friendly Locations"],"distanceKm":1.4537391534210058},{"id":"greekRestaurants_7971743137f0","slug":"tavernier-7971","kind":"restaurant","name":"Tavernier","lat":38.09316882456775,"lng":23.805434203164346,"url":"https://maps.app.goo.gl/irth7CYMSHY5DX7t5","address":"Ελπίδος 24, Κηφισιά 145 64","categoryIds":["greek-restaurants"],"categories":["Greek Restaurants"],"distanceKm":1.63614449317871},{"id":"familyFriendly_814843d50658","slug":"k9-arena-8148","kind":"restaurant","name":"K9 Arena","lat":38.07105818937244,"lng":23.783776935008227,"url":"https://maps.app.goo.gl/x9xASynDZReucwX5A?g_st=ipc","address":"Χαλκίδος 15, Λυκόβρυση 141 23","categoryIds":["family-friendly"],"categories":["Kid Friendly Locations"],"distanceKm":1.7660263276779027},{"id":"greekRestaurants_88c2247c1ee0","slug":"kivotos-88c2","kind":"restaurant","name":"Κιβωτός","lat":38.09806564019595,"lng":23.80316229730133,"url":"https://maps.app.goo.gl/U5NQdUWeNcGPMbcs9","address":"Διός 32, Κηφισιά 145 64","categoryIds":["greek-restaurants"],"categories":["Greek Restaurants"],"distanceKm":1.8025768720368627},{"id":"familyFriendly_f33e0651961a","slug":"gymboree-play-music-n-erythraia-f33e","kind":"restaurant","name":"Gymboree Play & Music Ν.Ερυθραία","lat":38.09316691407804,"lng":23.80936117936556,"url":"https://maps.app.goo.gl/azuqAZc93giJTXmj8?g_st=ipc","address":"Τατοΐου 102, Νέα Ερυθραία 146 71","categoryIds":["family-friendly"],"categories":["Kid Friendly Locations"],"distanceKm":1.9480286886761906},{"id":"greekRestaurants_ea49f706ac3a","slug":"vathis-taverna-kifisia-ea49","kind":"restaurant","name":"Βαθης - Ταβέρνα - Κηφισιά","lat":38.08767324286352,"lng":23.812020752033984,"url":"https://maps.app.goo.gl/8zy6QLVSBAEWjShh9","address":"Κύρου 7, Κηφισιά 145 64","categoryIds":["greek-restaurants"],"categories":["Greek Restaurants"],"distanceKm":2.0360952631018088}],"sameRegion":[]},"__N_SSG":true}