{"pageProps":{"entity":{"id":"cheapEatsRestaurants_58cd33367600","slug":"no-mama-s-boy-58cd","kind":"restaurant","name":"No mama's boy","lat":38.02704131964815,"lng":23.71833984165418,"url":"https://maps.app.goo.gl/JSTFEbHbfetiYWWd6?g_st=ipc","address":"Λεωφ. Δημοκρατίας 60, Άγιοι Ανάργυροι 135 61","categoryIds":["cheap-eats"],"categories":["Gyros & Cheap Eats"]},"sameCategory":[{"id":"cheapEatsRestaurants_9bf1f7743a87","slug":"dekapentalepto-9bf1","kind":"restaurant","name":"Δεκαπενταλεπτο","lat":38.0332432504206,"lng":23.708153853689517,"url":"https://maps.app.goo.gl/pgrPE8JqcHDwR95q6?g_st=ipc","address":"Πάριδος 90, Ίλιον 131 22","categoryIds":["cheap-eats"],"categories":["Gyros & Cheap Eats"]},{"id":"cheapEatsRestaurants_d184e5cf8bc9","slug":"psitopoleio-o-spyros-soyvlakia-d184","kind":"restaurant","name":"Ψητοπωλείο ο Σπύρος Σουβλάκια","lat":38.01699116177091,"lng":23.725453216560837,"url":"https://maps.app.goo.gl/jiHHELBpUtGUfeV87?g_st=ipc","address":"Βικέλα 33, Αθήνα 111 45","categoryIds":["cheap-eats"],"categories":["Gyros & Cheap Eats"]},{"id":"cheapEatsRestaurants_158ee5dd1d4f","slug":"cocorico-158e","kind":"restaurant","name":"Cocorico","lat":38.03523380190847,"lng":23.705868008544936,"url":"https://maps.app.goo.gl/4u4xPrqXGjRF9V9cA?g_st=ipc","address":"Ιφιγένειας 31, Ίλιον 131 22","categoryIds":["cheap-eats"],"categories":["Gyros & Cheap Eats"]},{"id":"cheapEatsRestaurants_204d68c7c535","slug":"to-ariston-204d","kind":"restaurant","name":"ΤΟ ΑΡΙΣΤΟΝ","lat":38.022955608499146,"lng":23.735820169983455,"url":"https://maps.app.goo.gl/TRT4ewxJ6pQL8ffBA?g_st=ipc","address":"Πατησίων 349, Αθήνα 111 44","categoryIds":["cheap-eats"],"categories":["Gyros & Cheap Eats"]},{"id":"cheapEatsRestaurants_1be49628e345","slug":"eylogison-psitopoleia-ilion-1be4","kind":"restaurant","name":"ΕΥΛΟΓΗΣΟΝ-ΨΗΤΟΠΩΛΕΙΑ ΙΛΙΟΝ","lat":38.029256363760155,"lng":23.699607500108378,"url":"https://maps.app.goo.gl/ytds7DdcMdh2G5oA8?g_st=ipc","address":"Thivon 481, Ilion 131 21","categoryIds":["cheap-eats"],"categories":["Gyros & Cheap Eats"]},{"id":"cheapEatsRestaurants_89bd0bf927d5","slug":"soyvlakia-gkoymas-89bd","kind":"restaurant","name":"Σουβλάκια Γκούμας","lat":38.023248902145305,"lng":23.69985643748309,"url":"https://maps.app.goo.gl/cMeAjTZUY1MyiZmPA?g_st=ipc","address":"Μαυρομιχάλη 3, Ίλιον 131 21","categoryIds":["cheap-eats"],"categories":["Gyros & Cheap Eats"]},{"id":"cheapEatsRestaurants_23208072a530","slug":"o-mparmpas-choriatiki-kantina-2320","kind":"restaurant","name":"Ο Μπάρμπας Χωριάτικη Καντίνα","lat":38.03834405515059,"lng":23.705313931462435,"url":"https://maps.app.goo.gl/rw8Py2VR6j9NeDLn6?g_st=ipc","address":"Αγίου Νικολάου 2, Ίλιον 131 23","categoryIds":["cheap-eats"],"categories":["Gyros & Cheap Eats"]},{"id":"cheapEatsRestaurants_8e920e95e567","slug":"slum-it-8e92","kind":"restaurant","name":"Slum it","lat":38.034971479219536,"lng":23.73628101866516,"url":"https://maps.app.goo.gl/m2fyvmtGXXiGevuC6?g_st=ipc","address":"Βρυούλων 15, Νέα Φιλαδέλφεια Αττικής 143 41","categoryIds":["cheap-eats"],"categories":["Gyros & Cheap Eats"]}],"nearby":[{"id":"greekRestaurants_d84b869185a4","slug":"rigalos-psistaria-provato-sta-karvoyna-d84b","kind":"restaurant","name":"Ρηγάλος Ψησταριά - Πρόβατο στα κάρβουνα","lat":38.02876561192483,"lng":23.709228688807336,"url":"https://maps.app.goo.gl/KcrSRWtpYRZVpLT68","address":"Πάριδος 32, Ίλιον 131 22","categoryIds":["greek-restaurants"],"categories":["Greek Restaurants"],"distanceKm":0.820750001022608},{"id":"asianRestaurants_d86051389e82","slug":"kaii-sushi-bar-d860","kind":"restaurant","name":"Kaii sushi bar","lat":38.029067505855075,"lng":23.706941325356716,"url":"https://maps.app.goo.gl/oEMoWWtVbmE4QW2W7?g_st=ipc","address":"Βρισηίδος 47, Δαναών 44, Ίλιον 131 22","categoryIds":["asian"],"categories":["Asian Restaurants"],"distanceKm":1.0234934309217403},{"id":"coffeeBrunchRestaurants_6a4b180ed5c1","slug":"le-pain-du-chef-6a4b","kind":"restaurant","name":"LE PAIN - Du chef","lat":38.03133472316872,"lng":23.707950598464468,"url":"https://maps.app.goo.gl/qm2cf1KQg3gUAF9QA?g_st=ipc","address":"Idomeneos, Nestoros 41, Ilion 131 22","categoryIds":["coffee-brunch"],"categories":["Coffee & Brunch Spots"],"distanceKm":1.027601329074186},{"id":"luxuryDiningRestaurants_fc72bbd8d95c","slug":"thanasis-1948-fc72","kind":"restaurant","name":"Θανάσης 1948","lat":38.01944995786154,"lng":23.725569046206015,"url":"https://maps.app.goo.gl/Dz6PnDZaCe8Db55q7?g_st=ipc","address":"Κων/νου Καβάφη 48, Αθήνα 111 43","categoryIds":["luxury-dining"],"categories":["Luxury Dining"],"distanceKm":1.0552421138414885},{"id":"cheapEatsRestaurants_9bf1f7743a87","slug":"dekapentalepto-9bf1","kind":"restaurant","name":"Δεκαπενταλεπτο","lat":38.0332432504206,"lng":23.708153853689517,"url":"https://maps.app.goo.gl/pgrPE8JqcHDwR95q6?g_st=ipc","address":"Πάριδος 90, Ίλιον 131 22","categoryIds":["cheap-eats"],"categories":["Gyros & Cheap Eats"],"distanceKm":1.1276195010729624},{"id":"dessertsRestaurants_4eb0f195642c","slug":"the-twins-inspiration-4eb0","kind":"restaurant","name":"The Twins Inspiration","lat":38.03397180922058,"lng":23.706833795528777,"url":"https://maps.app.goo.gl/yUZVBieRsMh4Pe6P8?g_st=ipc","address":"Αίαντος 103, Ίλιον 131 22","categoryIds":["desserts"],"categories":["Dessert Shops"],"distanceKm":1.2686543944904223},{"id":"cheapEatsRestaurants_d184e5cf8bc9","slug":"psitopoleio-o-spyros-soyvlakia-d184","kind":"restaurant","name":"Ψητοπωλείο ο Σπύρος Σουβλάκια","lat":38.01699116177091,"lng":23.725453216560837,"url":"https://maps.app.goo.gl/jiHHELBpUtGUfeV87?g_st=ipc","address":"Βικέλα 33, Αθήνα 111 45","categoryIds":["cheap-eats"],"categories":["Gyros & Cheap Eats"],"distanceKm":1.2795028401125648},{"id":"greekRestaurants_ff1c24351a74","slug":"mparmpa-alexis-ff1c","kind":"restaurant","name":"Μπάρμπα Αλέξης","lat":38.03352855482005,"lng":23.731362347180447,"url":"https://maps.app.goo.gl/qgjaSL92MEaYTNnP8","address":"Σαλαμίνος 70, Νέα Χαλκηδόνα 143 43","categoryIds":["greek-restaurants"],"categories":["Greek Restaurants"],"distanceKm":1.3495569279524806}],"sameRegion":[]},"__N_SSG":true}