{"pageProps":{"entity":{"id":"luxuryDiningRestaurants_f925bc8a8505","slug":"noble-gourmet-restaurant-f925","kind":"restaurant","name":"Noble Gourmet Restaurant","lat":36.37247796232997,"lng":28.224879049367335,"url":"https://maps.app.goo.gl/ymJ2kfjKBHsihXtt9?g_st=ipc","address":"Elysium Resort & Spa | 5 star hotel in Rhodes, Leoforos Rodou - Kallitheas, Ammoudes 851 00","categoryIds":["luxury-dining"],"categories":["Luxury Dining"]},"sameCategory":[{"id":"luxuryDiningRestaurants_da6f148eb7d8","slug":"apospero-da6f","kind":"restaurant","name":"Apospero","lat":36.83183844559143,"lng":25.899499966261363,"url":"https://maps.app.goo.gl/j3TAqCiUnajPnQUUA?g_st=ipc","address":"Χώρα 840 08","categoryIds":["luxury-dining"],"categories":["Luxury Dining"]},{"id":"luxuryDiningRestaurants_a54c6ec9f1fa","slug":"selene-restaurant-a54c","kind":"restaurant","name":"Selene Restaurant","lat":36.4214954695669,"lng":25.43077555199888,"url":"https://maps.app.goo.gl/WMAKe6khJLqtbDgo7?g_st=ipc","address":"Old catholic monastery, Thira 847 00","categoryIds":["luxury-dining"],"categories":["Luxury Dining"]},{"id":"luxuryDiningRestaurants_da47fab93767","slug":"afropsaro-santorini-da47","kind":"restaurant","name":"Afropsaro Santorini","lat":36.443734809577506,"lng":25.42604676962597,"url":"https://maps.app.goo.gl/cdvxRddZhQ9h2WQR8?g_st=ipc","address":"Imerovigli 847 00","categoryIds":["luxury-dining"],"categories":["Luxury Dining"]},{"id":"luxuryDiningRestaurants_60ed304175f8","slug":"koukoumavlos-restaurant-60ed","kind":"restaurant","name":"Koukoumavlos Restaurant","lat":36.43146159101605,"lng":25.424418520966256,"url":"https://maps.app.goo.gl/uc1kbLbBqgnUhLot7?g_st=ipc","address":"Imerovigli 847 00","categoryIds":["luxury-dining"],"categories":["Luxury Dining"]},{"id":"luxuryDiningRestaurants_20e2fea855d8","slug":"varoulko-santorini-within-grace-hotel-20e2","kind":"restaurant","name":"Varoulko Santorini (within Grace Hotel)","lat":36.432959672130295,"lng":25.420955482423597,"url":"https://maps.app.goo.gl/8GTiiHfZwjCgosfT6?g_st=ipc","address":"Imerovigli Thira, Santorini 847 00","categoryIds":["luxury-dining"],"categories":["Luxury Dining"]},{"id":"luxuryDiningRestaurants_c4314de9f562","slug":"alali-restaurant-c431","kind":"restaurant","name":"Alali Restaurant","lat":36.36348374683768,"lng":25.385971079626298,"url":"https://maps.app.goo.gl/bj4VGwDTK6k29a2h8?g_st=ipc","address":"epar. od. akrotiriou, Akrotiri 847 00","categoryIds":["luxury-dining"],"categories":["Luxury Dining"]},{"id":"luxuryDiningRestaurants_473c799c8410","slug":"botrini-s-santorini-473c","kind":"restaurant","name":"Botrini's Santorini","lat":36.46201811215205,"lng":25.382543844805166,"url":"https://maps.app.goo.gl/e9tmihEjv2QRq6DKA?g_st=ipc","address":"Main Street, Nik. Nomikou, Oía 847 02","categoryIds":["luxury-dining"],"categories":["Luxury Dining"]},{"id":"luxuryDiningRestaurants_ab3674135abd","slug":"lycabettus-restaurant-ab36","kind":"restaurant","name":"Lycabettus Restaurant","lat":36.4620987049079,"lng":25.379910060169035,"url":"https://maps.app.goo.gl/2mrH4kakyMDha6iV9?g_st=ipc","address":"Nik. Nomikou, Oía 847 02","categoryIds":["luxury-dining"],"categories":["Luxury Dining"]}],"nearby":[{"id":"familyFriendly_569351c660b6","slug":"waterpark-5693","kind":"restaurant","name":"WaterPark","lat":36.36437213652793,"lng":28.212294371159473,"url":"https://maps.app.goo.gl/6wgTeh9tgUC2bD1a8?g_st=ipc","address":"Athanaton, Rodos 851 05","categoryIds":["family-friendly"],"categories":["Kid Friendly Locations"],"distanceKm":1.442927539090755},{"id":"municipalities_00d2375b94d4","slug":"kallithea-rodoy-00d2","kind":"municipality","name":"Καλλιθέα Ρόδου","lat":36.3856,"lng":28.2236,"aliases":["Καλλιθεα Ροδου","Kallithea Springs","Kalithea Springs"],"region":"Ρόδος","name_en":"Kalithea Rhodes","region_en":"Rhodes","distanceKm":1.4635901531107218},{"id":"municipalities_a670e0839011","slug":"faliraki-a670","kind":"municipality","name":"Φαληράκι","lat":36.339,"lng":28.199,"region":"Ρόδος","name_en":"Faliraki","region_en":"Rhodes","distanceKm":4.385018419083364},{"id":"coffeeBrunchRestaurants_e533a6bcb85f","slug":"naval-cafe-bar-restaurant-e533","kind":"restaurant","name":"NAVAL Cafe Bar Restaurant","lat":36.43323816273261,"lng":28.237832164715215,"url":"https://maps.app.goo.gl/LEtJZTyLhqkrZEGE7?g_st=ipc","address":"Rhodes","categoryIds":["coffee-brunch"],"categories":["Coffee & Brunch Spots"],"distanceKm":6.854960211088986},{"id":"municipalities_0334126572d2","slug":"rodos-0334","kind":"municipality","name":"Ρόδος","lat":36.434,"lng":28.217,"aliases":["Rodos","Rhodos","Ρόδη","Ροδος"],"region":"Δωδεκάνησα","name_en":"Rhodes","region_en":"Dodecanese","distanceKm":6.877184770407248},{"id":"municipalities_949baf66ab53","slug":"ixia-949b","kind":"municipality","name":"Ίξια","lat":36.4328,"lng":28.2056,"aliases":["Ιξια"],"region":"Ρόδος","name_en":"Ixia","region_en":"Rhodes","distanceKm":6.925870717625951},{"id":"dessertsRestaurants_ebbd52b2670e","slug":"hatzifotiou-ebbd","kind":"restaurant","name":"Hatzifotiou","lat":36.436204834104664,"lng":28.23364904254758,"url":"https://maps.app.goo.gl/KUPjw8WfQrcXZbYA6?g_st=ipc","address":"Kanada 69, Rodos 851 32","categoryIds":["desserts"],"categories":["Dessert Shops"],"distanceKm":7.129439301883842},{"id":"municipalities_f04269be7e15","slug":"ialysos-f042","kind":"municipality","name":"Ιαλυσός","lat":36.4149,"lng":28.1588,"region":"Ρόδος","name_en":"Ialysos","region_en":"Rhodes","distanceKm":7.5652639036936895}],"sameRegion":[]},"__N_SSG":true}