{"pageProps":{"entity":{"id":"greekRestaurants_792b73e9842d","slug":"o-milas-estiatorio-792b","kind":"restaurant","name":"Ο ΜΗΛΑΣ ΕΣΤΙΑΤΟΡΙΟ","lat":37.31063309409623,"lng":24.373887108876595,"url":"https://maps.app.goo.gl/ZFv4HFHAU9qj4ohD7?g_st=ipc","address":"ΑΓΙΟΣ ΔΗΜΗΤΡΙΟΣ, Αγ. Δημήτριος 840 06","categoryIds":["greek-restaurants"],"categories":["Greek Restaurants"]},"sameCategory":[{"id":"greekRestaurants_ec533605b182","slug":"to-akrogiali-ec53","kind":"restaurant","name":"Το Ακρογιάλι","lat":37.311210551504175,"lng":24.374424292363123,"url":"https://maps.app.goo.gl/iE2gh5mtyHCHtnZs7","address":"Αγ. Δημήτριος 840 06","categoryIds":["greek-restaurants"],"categories":["Greek Restaurants"]},{"id":"greekRestaurants_463de52b148c","slug":"restaurant-cafe-manjavinos-463d","kind":"restaurant","name":"Restaurant-cafe 'MANJAVINOS'","lat":37.34603270151496,"lng":24.430502124554476,"url":"https://maps.app.goo.gl/nHY3UgamjzyyjZF98?g_st=ipc","address":"Unnamed Road, Κανάλα 840 06","categoryIds":["greek-restaurants"],"categories":["Greek Restaurants"]},{"id":"greekRestaurants_a37bbb119452","slug":"archipelagos-restaurant-rooms-a37b","kind":"restaurant","name":"Archipelagos Restaurant & Rooms","lat":37.34777052448201,"lng":24.434798293695515,"url":"https://maps.app.goo.gl/KodGYY1d4Cqjk63n9?g_st=ipc","address":"Κανάλα 840 06","categoryIds":["greek-restaurants"],"categories":["Greek Restaurants"]},{"id":"greekRestaurants_cf9861d9b1ba","slug":"fourles-cf98","kind":"restaurant","name":"Fourles","lat":37.38863369970779,"lng":24.397655998320165,"url":"https://maps.app.goo.gl/m4rPqMjHikQUW4So9?g_st=ipc","address":"Λιμάνι Μέριχα ΚΥΘΝΟΣ, Μεριχας 840 06","categoryIds":["greek-restaurants"],"categories":["Greek Restaurants"]},{"id":"greekRestaurants_432f5403f78b","slug":"chartino-karavi-432f","kind":"restaurant","name":"ΧΑΡΤΙΝΟ ΚΑΡΑΒΙ","lat":37.382790599679765,"lng":24.431004817048752,"url":"https://maps.app.goo.gl/6a5xfQQ1xwApv9Eb7?g_st=ipc","address":"Δρυοπίδα 840 06","categoryIds":["greek-restaurants"],"categories":["Greek Restaurants"]},{"id":"greekRestaurants_4500da731c6a","slug":"to-steki-toy-ntetzi-4500","kind":"restaurant","name":"Το Στέκι του Ντέτζη","lat":37.412472796893596,"lng":24.43096202247223,"url":"https://maps.app.goo.gl/s21k1zGHkiQiQg4s7?g_st=ipc","address":"Κύθνος 840 06","categoryIds":["greek-restaurants"],"categories":["Greek Restaurants"]},{"id":"greekRestaurants_3ecbeb295bc4","slug":"giagia-koykoy-kythnos-3ecb","kind":"restaurant","name":"ΓΙΑΓΙΑ ΚΟΥΚΟΥ Kythnos","lat":37.41258086001589,"lng":24.43247179288349,"url":"https://maps.app.goo.gl/9L488c2BBbXHP1Yz9?g_st=ipc","address":"Ανεμομυλος, Κύθνος 840 06","categoryIds":["greek-restaurants"],"categories":["Greek Restaurants"]},{"id":"greekRestaurants_df3695f3e140","slug":"koytsikos-estiatorio-df36","kind":"restaurant","name":"Κούτσικος - Εστιατόριο","lat":37.436774168152716,"lng":24.424568422123198,"url":"https://maps.app.goo.gl/PTJMDf8CPhT12on69?g_st=ipc","address":"37°26'11.4\"N 24°25'28., 1, Σιντική 623 00","categoryIds":["greek-restaurants"],"categories":["Greek Restaurants"]}],"nearby":[{"id":"greekRestaurants_ec533605b182","slug":"to-akrogiali-ec53","kind":"restaurant","name":"Το Ακρογιάλι","lat":37.311210551504175,"lng":24.374424292363123,"url":"https://maps.app.goo.gl/iE2gh5mtyHCHtnZs7","address":"Αγ. Δημήτριος 840 06","categoryIds":["greek-restaurants"],"categories":["Greek Restaurants"],"distanceKm":0.07987498677165801},{"id":"greekRestaurants_463de52b148c","slug":"restaurant-cafe-manjavinos-463d","kind":"restaurant","name":"Restaurant-cafe 'MANJAVINOS'","lat":37.34603270151496,"lng":24.430502124554476,"url":"https://maps.app.goo.gl/nHY3UgamjzyyjZF98?g_st=ipc","address":"Unnamed Road, Κανάλα 840 06","categoryIds":["greek-restaurants"],"categories":["Greek Restaurants"],"distanceKm":6.368103316446095},{"id":"greekRestaurants_a37bbb119452","slug":"archipelagos-restaurant-rooms-a37b","kind":"restaurant","name":"Archipelagos Restaurant & Rooms","lat":37.34777052448201,"lng":24.434798293695515,"url":"https://maps.app.goo.gl/KodGYY1d4Cqjk63n9?g_st=ipc","address":"Κανάλα 840 06","categoryIds":["greek-restaurants"],"categories":["Greek Restaurants"],"distanceKm":6.786608907058798},{"id":"municipalities_ddb6cfae0477","slug":"kythnos-ddb6","kind":"municipality","name":"Κύθνος","lat":37.3833,"lng":24.4167,"region":"Κυκλάδες","name_en":"Kythnos","region_en":"Cyclades","distanceKm":8.922571096754876},{"id":"greekRestaurants_cf9861d9b1ba","slug":"fourles-cf98","kind":"restaurant","name":"Fourles","lat":37.38863369970779,"lng":24.397655998320165,"url":"https://maps.app.goo.gl/m4rPqMjHikQUW4So9?g_st=ipc","address":"Λιμάνι Μέριχα ΚΥΘΝΟΣ, Μεριχας 840 06","categoryIds":["greek-restaurants"],"categories":["Greek Restaurants"],"distanceKm":8.924123210723083},{"id":"coffeeBrunchRestaurants_b5b417f95cd1","slug":"maistrali-b5b4","kind":"restaurant","name":"Maistrali","lat":37.38947704282166,"lng":24.39834020618754,"url":"https://maps.app.goo.gl/P46Mc4PY3VqCeaVF8?g_st=ipc","address":"Merihas 840 06","categoryIds":["coffee-brunch"],"categories":["Coffee & Brunch Spots"],"distanceKm":9.0295733772805},{"id":"mustSeeAttractions_e7d3f595ce74","slug":"spilaio-katafyki-e7d3","kind":"restaurant","name":"Σπήλαιο Καταφύκι","lat":37.381809266398925,"lng":24.430137129464182,"url":"https://maps.app.goo.gl/ihjdRvavpYz6Jjd5A?g_st=ipc","address":"Δρυοπίδα 840 06","categoryIds":["attractions"],"categories":["Must-See Attractions"],"distanceKm":9.346815721593035},{"id":"coffeeBrunchRestaurants_c2c74292ab30","slug":"hamsa-beach-bar-restaurant-c2c7","kind":"restaurant","name":"Hamsa Beach Bar - Restaurant","lat":37.39312552655256,"lng":24.3982581144625,"url":"https://maps.app.goo.gl/atz6NCMG1oEDawJu9?g_st=ipc","address":"Μαρτινακια Κυθνος, 840 06","categoryIds":["coffee-brunch"],"categories":["Coffee & Brunch Spots"],"distanceKm":9.422297853171074}],"sameRegion":[]},"__N_SSG":true}