{"pageProps":{"entity":{"id":"greekRestaurants_f9f686e79eab","slug":"o-mpakalogatos-f9f6","kind":"restaurant","name":"Ο Μπακαλόγατος","lat":38.00187471148547,"lng":23.740181411434346,"url":"https://maps.app.goo.gl/981vRQxbrAtrVwL46","address":"Φωκίωνος Νέγρη 72, Αθήνα 113 61","categoryIds":["greek-restaurants"],"categories":["Greek Restaurants"]},"sameCategory":[{"id":"greekRestaurants_3fdb385cf32e","slug":"dylan-3fdb","kind":"restaurant","name":"Dylan","lat":38.004029735437285,"lng":23.737919535339657,"url":"https://maps.app.goo.gl/BnADd9od1HHo98uB7?g_st=ipc","address":"Agias Zonis 38, Athina 113 64","categoryIds":["greek-restaurants"],"categories":["Greek Restaurants"]},{"id":"greekRestaurants_47b0ee0c8d13","slug":"mi-la-re-47b0","kind":"restaurant","name":"Μι λα ρε","lat":37.99704423560871,"lng":23.74315138793718,"url":"https://maps.app.goo.gl/mURYyiemhV3PvXjDA","address":"Ευελπίδων 87, Αθήνα 113 62","categoryIds":["greek-restaurants"],"categories":["Greek Restaurants"]},{"id":"greekRestaurants_bfb413275b7f","slug":"kyveli-bfb4","kind":"restaurant","name":"Κυβέλη","lat":37.99805749284101,"lng":23.73519064835316,"url":"https://maps.app.goo.gl/GZkR3yG4uYF9Asep6","address":"Επτανήσου 15, Αθήνα 112 57","categoryIds":["greek-restaurants"],"categories":["Greek Restaurants"]},{"id":"greekRestaurants_7620f2ece9a6","slug":"mpompyras-7620","kind":"restaurant","name":"Μπόμπυρας","lat":38.00484148971816,"lng":23.732856919000913,"url":"https://maps.app.goo.gl/9Ay3zpP2cfdFbPpw8","address":"Ευπαλίνου 21, Αθήνα 112 53","categoryIds":["greek-restaurants"],"categories":["Greek Restaurants"]},{"id":"greekRestaurants_f3b2aad713df","slug":"to-ampari-toy-pentara-f3b2","kind":"restaurant","name":"Το Αμπάρι του Πεντάρα","lat":38.007341170588916,"lng":23.749681397448036,"url":"https://maps.app.goo.gl/ocPNHJergJqkbxW6A","address":"Καυκάσου 157, Αθήνα 113 64","categoryIds":["greek-restaurants"],"categories":["Greek Restaurants"]},{"id":"greekRestaurants_e2f8a1a4ded7","slug":"katsarola-e2f8","kind":"restaurant","name":"Κατσαρόλα","lat":37.98993156504118,"lng":23.741864128657266,"url":"https://maps.app.goo.gl/R5o9th6YAJUun6xp6","address":"Λεωφ. Αλεξάνδρας 74, Αθήνα 114 73","categoryIds":["greek-restaurants"],"categories":["Greek Restaurants"]},{"id":"greekRestaurants_013c7ee68bf7","slug":"to-rini-013c","kind":"restaurant","name":"Το Ρίνι","lat":37.99027878775376,"lng":23.732870988899485,"url":"https://maps.app.goo.gl/RRByVB3HqZfDcnkK7","address":"Ρεθύμνου 8, Αθήνα 106 82","categoryIds":["greek-restaurants"],"categories":["Greek Restaurants"]},{"id":"greekRestaurants_442477ae20ac","slug":"axotis-4424","kind":"restaurant","name":"Αξώτης","lat":37.995836587823845,"lng":23.754896105548557,"url":"https://maps.app.goo.gl/ins2h5odAAUqFqf2A","address":"Παπαρσένη 15, Αθήνα 114 76","categoryIds":["greek-restaurants"],"categories":["Greek Restaurants"]}],"nearby":[{"id":"fishTavernasRestaurants_4ef32e781ddb","slug":"psaradiko-psarofageio-vlasis-4ef3","kind":"restaurant","name":"Ψαράδικο-Ψαροφαγείο Βλάσης","lat":38.00159683768883,"lng":23.739141642286196,"url":"https://maps.app.goo.gl/fHgyjqw3Rn6yqq6N6?g_st=ipc","address":"Φωκίωνος Νέγρη 47, Αθήνα 113 61","categoryIds":["fish-tavernas"],"categories":["Fish Tavernas"],"distanceKm":0.09620226819917088},{"id":"dessertsRestaurants_1567b57f0462","slug":"santo-belto-1567","kind":"restaurant","name":"Santo Belto","lat":38.00296833258449,"lng":23.737420985475723,"url":"https://maps.app.goo.gl/ww6MiD3roMGdunrc7?g_st=ipc","address":"Αγίας Ζώνης 21, Αθήνα 113 61","categoryIds":["desserts"],"categories":["Dessert Shops"],"distanceKm":0.2707176747621151},{"id":"coffeeBrunchRestaurants_8eea389a06d0","slug":"santo-belto-8eea","kind":"restaurant","name":"Santo Belto","lat":38.00295539657206,"lng":23.737407823969118,"url":"https://maps.app.goo.gl/ZWa6fMfeNKbHNQGB7?g_st=ipc","address":"Αγίας Ζώνης 21, Αθήνα 113 61","categoryIds":["coffee-brunch"],"categories":["Coffee & Brunch Spots"],"distanceKm":0.27110787584314117},{"id":"italianRestaurants_fee68a36e757","slug":"lisa-athens-fee6","kind":"restaurant","name":"Lisa Athens","lat":38.00121668798056,"lng":23.737030313370706,"url":"https://maps.app.goo.gl/eiXsobGt1KWweP7UA?g_st=ipc","address":"Φωκίωνος Νέγρη 25, Αθήνα 113 61","categoryIds":["italian"],"categories":["Italian Restaurants"],"distanceKm":0.2856328312090853},{"id":"greekRestaurants_3fdb385cf32e","slug":"dylan-3fdb","kind":"restaurant","name":"Dylan","lat":38.004029735437285,"lng":23.737919535339657,"url":"https://maps.app.goo.gl/BnADd9od1HHo98uB7?g_st=ipc","address":"Agias Zonis 38, Athina 113 64","categoryIds":["greek-restaurants"],"categories":["Greek Restaurants"],"distanceKm":0.31096353560511014},{"id":"coffeeBrunchRestaurants_ce89cd6aa5d7","slug":"kick-ce89","kind":"restaurant","name":"KICK","lat":37.99916132656893,"lng":23.737461252467714,"url":"https://maps.app.goo.gl/72fZq7DBsWg8jnSR8?g_st=ipc","address":"Σποράδων 26, Αθήνα 113 61","categoryIds":["coffee-brunch"],"categories":["Coffee & Brunch Spots"],"distanceKm":0.3845005327512295},{"id":"coffeeBrunchRestaurants_5e77841cb06d","slug":"flake-5e77","kind":"restaurant","name":"Flake","lat":37.99900849338742,"lng":23.737419912416144,"url":"https://maps.app.goo.gl/Xk1A8oDNqWipGzYL6?g_st=ipc","address":"Σποράδων 24, Αθήνα 113 61","categoryIds":["coffee-brunch"],"categories":["Coffee & Brunch Spots"],"distanceKm":0.4001553156936658},{"id":"cheapEatsRestaurants_4b2392e8f1da","slug":"peirasmos-4b23","kind":"restaurant","name":"ΠΕΙΡΑΣΜΟΣ","lat":38.00274661999109,"lng":23.744683791776005,"url":"https://maps.app.goo.gl/wXj4gGBY4uF6K2yW8?g_st=ipc","address":"Βελβενδού 20, Αθήνα 113 63","categoryIds":["cheap-eats"],"categories":["Gyros & Cheap Eats"],"distanceKm":0.40623749419352073}],"sameRegion":[]},"__N_SSG":true}