{"pageProps":{"entity":{"id":"coffeeBrunchRestaurants_766ea98ae001","slug":"oi-pites-tis-sofias-766e","kind":"restaurant","name":"Οι πίτες της Σοφίας","lat":37.92792315472672,"lng":23.693652242106012,"url":"https://maps.app.goo.gl/yk8JxAF2vSDEd4wt8?g_st=ipc","address":"Αγίου Αλεξάνδρου 30, Παλαιό Φάληρο 175 61","categoryIds":["coffee-brunch"],"categories":["Coffee & Brunch Spots"]},"sameCategory":[{"id":"coffeeBrunchRestaurants_c3b8d7875a67","slug":"upon-c3b8","kind":"restaurant","name":"UPON","lat":37.93165635013146,"lng":23.70322472978882,"url":"https://maps.app.goo.gl/yP6xS2xksJBA1Z4u7?g_st=ipc","address":"Dimokratias 33, Paleo Faliro 175 64","categoryIds":["coffee-brunch"],"categories":["Coffee & Brunch Spots"]},{"id":"coffeeBrunchRestaurants_34ea25393225","slug":"hidden-alimos-34ea","kind":"restaurant","name":"Hidden Άλιμος","lat":37.9207925281224,"lng":23.706355320081276,"url":"https://maps.app.goo.gl/tNnv5bivZJzwGSak7?g_st=ipc","address":"Λεωφ. Ελευθερίας 45, Άλιμος 174 55","categoryIds":["coffee-brunch"],"categories":["Coffee & Brunch Spots"]},{"id":"coffeeBrunchRestaurants_ae83561038ee","slug":"earth-athens-cafe-ae83","kind":"restaurant","name":"Earth Athens Cafe","lat":37.941294659441795,"lng":23.687632862231634,"url":"https://maps.app.goo.gl/ZTYgTAJLEes56zpH6?g_st=ipc","address":"Λεωφ. Ποσειδώνος 16, Αθήνα 176 74","categoryIds":["coffee-brunch"],"categories":["Coffee & Brunch Spots"]},{"id":"coffeeBrunchRestaurants_4b099057dd52","slug":"jardin-all-day-stories-all-day-bar-restaurant-4b09","kind":"restaurant","name":"Jardin All Day Stories ALL DAY BAR RESTAURANT","lat":37.9431877608235,"lng":23.691220347054728,"url":"https://maps.app.goo.gl/6WktKFcLfn3upUnQ6?g_st=ipc","address":"Ναυάρχου Βότση 1, Καλλιθέα 176 74","categoryIds":["coffee-brunch"],"categories":["Coffee & Brunch Spots"]},{"id":"coffeeBrunchRestaurants_0aaa1d7425c8","slug":"o-nikos-0aaa","kind":"restaurant","name":"\"ο Νίκος\"","lat":37.94446727754758,"lng":23.71036042368455,"url":"https://maps.app.goo.gl/Hjscsj6jJP8Ehtjz8?g_st=ipc","address":"Κων/νου Παλαιολόγου 36, Νέα Σμύρνη 171 22","categoryIds":["coffee-brunch"],"categories":["Coffee & Brunch Spots"]},{"id":"coffeeBrunchRestaurants_2673b2efe834","slug":"fred-2673","kind":"restaurant","name":"Fred","lat":37.94562369764514,"lng":23.71066649818301,"url":"https://maps.app.goo.gl/HMmCPXK9BhvDtR538?g_st=ipc","address":"Κων/νου Παλαιολόγου 24, Νέα Σμύρνη 171 21","categoryIds":["coffee-brunch"],"categories":["Coffee & Brunch Spots"]},{"id":"coffeeBrunchRestaurants_11333324ec7e","slug":"cheiropoiito-peinirli-alimos-1133","kind":"restaurant","name":"Χειροποίητο Πεϊνιρλί - Άλιμος","lat":37.915620511365894,"lng":23.717157875434445,"url":"https://maps.app.goo.gl/t1zARdBkZ8TDso696?g_st=ipc","address":"Λεωφ. Καλαμακίου 65, Άλιμος 174 55","categoryIds":["coffee-brunch"],"categories":["Coffee & Brunch Spots"]},{"id":"coffeeBrunchRestaurants_01d039eed44f","slug":"flaked-croissanterie-nea-smyrni-01d0","kind":"restaurant","name":"Flaked Croissanterie Nea Smyrni","lat":37.94664941791958,"lng":23.71226377005945,"url":"https://maps.app.goo.gl/XhDMxWuwRuMVcghH9?g_st=ipc","address":"2ας Μαΐου 10, Νέα Σμύρνη 171 21","categoryIds":["coffee-brunch"],"categories":["Coffee & Brunch Spots"]}],"nearby":[{"id":"monasteriesChurches_350fade94be9","slug":"ieros-naos-agioy-alexandroy-350f","kind":"restaurant","name":"Ιερός Ναός Αγίου Αλεξάνδρου","lat":37.92675404012077,"lng":23.69297935050041,"url":"https://maps.app.goo.gl/oTPMMN55BBN9bVMA8?g_st=ipc","address":"Αγίου Αλεξάνδρου 14, Παλαιό Φάληρο 175 61","categoryIds":["monasteries-churches"],"categories":["Monasteries & Spiritual Sites"],"distanceKm":0.14276954740356007},{"id":"dessertsRestaurants_fc989a6fabce","slug":"zuccherino-fc98","kind":"restaurant","name":"Zuccherino","lat":37.929164062996655,"lng":23.69423089313357,"url":"https://maps.app.goo.gl/sw7fDPkoLwrWyuYH8?g_st=ipc","address":"Αγ. Αλεξάνδρου & Ναϊάδων, Παλαιό Φάληρο 175 61","categoryIds":["desserts"],"categories":["Dessert Shops"],"distanceKm":0.14702051341292052},{"id":"italianRestaurants_4319df2d5e15","slug":"da-bruno-4319","kind":"restaurant","name":"da Bruno","lat":37.92917795499007,"lng":23.694489698206436,"url":"https://maps.app.goo.gl/1dA2z4yKDCdZQUGbA","address":"Agiou Alexandrou 46, Paleo Faliro 175 61","categoryIds":["italian"],"categories":["Italian Restaurants"],"distanceKm":0.15768021928009168},{"id":"italianRestaurants_c97c0ccdbf8c","slug":"o-italos-c97c","kind":"restaurant","name":"Ο Ιταλός","lat":37.926673536986776,"lng":23.69220389211545,"url":"https://maps.app.goo.gl/up3EpvmXnu7L2VC67?g_st=ipc","address":"Αλκυόνης 16, Παλαιό Φάληρο 175 61","categoryIds":["italian"],"categories":["Italian Restaurants"],"distanceKm":0.188268712000054},{"id":"cheapEatsRestaurants_270552aa07e7","slug":"o-sofras-tis-smyrnis-2705","kind":"restaurant","name":"Ο Σοφράς Της Σμύρνης","lat":37.93008545622269,"lng":23.69511056440978,"url":"https://maps.app.goo.gl/3hxTvGyB8jtFJcXXA?g_st=ipc","address":"Αγίου Αλεξάνδρου 60, Παλαιό Φάληρο 175 61","categoryIds":["cheap-eats"],"categories":["Gyros & Cheap Eats"],"distanceKm":0.2723414146661817},{"id":"asianRestaurants_df4a095e5eb1","slug":"kikko-sushi-fish-df4a","kind":"restaurant","name":"Kikko Sushi & Fish","lat":37.92527823438876,"lng":23.692729848366973,"url":"https://maps.app.goo.gl/kbxKKh8YDA8LNgPa6?g_st=ipc","address":"Αμφιτρίτης 8, Παλαιό Φάληρο 175 61","categoryIds":["asian"],"categories":["Asian Restaurants"],"distanceKm":0.3050265683385622},{"id":"dessertsRestaurants_84508f8235f2","slug":"zuccherino-8450","kind":"restaurant","name":"Zuccherino","lat":37.93016519402215,"lng":23.696227697191645,"url":"https://maps.app.goo.gl/tbe5oMETgxZAQkFK9?g_st=ipc","address":"Πρωτέως & Σειρήνων 48, Παλαιό Φάληρο 175 61","categoryIds":["desserts"],"categories":["Dessert Shops"],"distanceKm":0.33641790734107274},{"id":"familyFriendly_eb2517ef6cdc","slug":"flisvos-playground-eb25","kind":"restaurant","name":"Flisvos Playground","lat":37.9267608286871,"lng":23.6891198217997,"url":"https://maps.app.goo.gl/jLUBCzf12Wt3RSRK7?g_st=ipc","address":"Palaio Faliro 175 61","categoryIds":["family-friendly"],"categories":["Kid Friendly Locations"],"distanceKm":0.4180185168494172}],"sameRegion":[]},"__N_SSG":true}