{"pageProps":{"entity":{"id":"greekRestaurants_e12720049bff","slug":"p-i-a-t-o-creative-greek-cuisine-e127","kind":"restaurant","name":"P I A T O Creative Greek Cuisine","lat":35.191014456442474,"lng":25.720317471781893,"url":"https://maps.app.goo.gl/EPLHpPqWCPBvDpjd9?g_st=ipc","address":"Ακτή Ιωσήφ, Κούνδουρου 8, Αγ. Νικόλαος 721 00","categoryIds":["greek-restaurants"],"categories":["Greek Restaurants"]},"sameCategory":[{"id":"greekRestaurants_88aa93e2ed98","slug":"gioma-meze-88aa","kind":"restaurant","name":"Gioma Meze","lat":35.19092879373842,"lng":25.71639633645474,"url":"https://maps.app.goo.gl/Rv7Nyy9Pu5iTxP4R6?g_st=ipc","address":"Διονυσίου Σολωμού 12, Αγ. Νικόλαος 721 00","categoryIds":["greek-restaurants"],"categories":["Greek Restaurants"]},{"id":"greekRestaurants_d8e66ee61d19","slug":"taverna-agias-paraskeyis-d8e6","kind":"restaurant","name":"Ταβέρνα Αγίας Παρασκευής","lat":35.08283189053066,"lng":25.576266926635412,"url":"https://maps.app.goo.gl/SEFLyBqoAyReomC66?g_st=ipc","address":"Χριστός 720 56","categoryIds":["greek-restaurants"],"categories":["Greek Restaurants"]},{"id":"greekRestaurants_85761cad61c2","slug":"madame-meze-8576","kind":"restaurant","name":"Madame Meze","lat":35.01115019973434,"lng":25.74036253218556,"url":"https://maps.app.goo.gl/6cPcQrvXzwudXHiH8?g_st=ipc","address":"Ὁπλαρχηγοῦ Λακέρδα, Ιεράπετρα 722 00","categoryIds":["greek-restaurants"],"categories":["Greek Restaurants"]},{"id":"greekRestaurants_e7edc905ec04","slug":"taverna-afroditi-e7ed","kind":"restaurant","name":"Ταβέρνα Αφροδίτη","lat":35.04824214563024,"lng":25.489380915090635,"url":"https://maps.app.goo.gl/Hd6w5ARoLxjc8sSE7?g_st=ipc","address":"Κατω Σύμη Βιάννου, 1, Κάτω Σύμη 700 04","categoryIds":["greek-restaurants"],"categories":["Greek Restaurants"]},{"id":"greekRestaurants_d2117786f7ef","slug":"kalliotzina-d211","kind":"restaurant","name":"Καλλιοτζίνα","lat":35.033382728113054,"lng":25.943654893279238,"url":"https://maps.app.goo.gl/vGqVwBvZXj3Cs15N9?g_st=ipc","address":"Κουτσουρᾶς, Σταυροχώρι 720 55","categoryIds":["greek-restaurants"],"categories":["Greek Restaurants"]},{"id":"greekRestaurants_1567bdcebc34","slug":"dragon-s-cave-tavern-1567","kind":"restaurant","name":"Dragon's Cave Tavern","lat":35.02451844531051,"lng":26.015929343410054,"url":"https://maps.app.goo.gl/BHeTEMJwhoKFTLPG7?g_st=ipc","address":"Λαγκάδα, Λιθίνες 720 59","categoryIds":["greek-restaurants"],"categories":["Greek Restaurants"]},{"id":"greekRestaurants_ab6c973413e5","slug":"taverna-oasis-ab6c","kind":"restaurant","name":"Ταβέρνα Όασις","lat":35.0192294033516,"lng":26.031168966197797,"url":"https://maps.app.goo.gl/VPbi6FqvcCuiHpnd7?g_st=ipc","address":"Καλό Νερό, Περιβολάκια 720 59","categoryIds":["greek-restaurants"],"categories":["Greek Restaurants"]},{"id":"greekRestaurants_31846964133f","slug":"inodion-3184","kind":"restaurant","name":"Inodion","lat":35.20856301491662,"lng":26.10648423346929,"url":"https://maps.app.goo.gl/pzhkDBi9GpvKTFMMA?g_st=ipc","address":"Ελ. Βενιζέλου 157, Σητεία 732 00","categoryIds":["greek-restaurants"],"categories":["Greek Restaurants"]}],"nearby":[{"id":"greekRestaurants_88aa93e2ed98","slug":"gioma-meze-88aa","kind":"restaurant","name":"Gioma Meze","lat":35.19092879373842,"lng":25.71639633645474,"url":"https://maps.app.goo.gl/Rv7Nyy9Pu5iTxP4R6?g_st=ipc","address":"Διονυσίου Σολωμού 12, Αγ. Νικόλαος 721 00","categoryIds":["greek-restaurants"],"categories":["Greek Restaurants"],"distanceKm":0.3564505283826797},{"id":"municipalities_ccbf4358d2e3","slug":"agios-nikolaos-ccbf","kind":"municipality","name":"Άγιος Νικόλαος","lat":35.191,"lng":25.715,"aliases":["Αγιος Νικολαος"],"region":"Ανατολική Κρήτη","name_en":"Agios Nikolaos","region_en":"East Crete","distanceKm":0.48321423500805116},{"id":"luxuryDiningRestaurants_de6ed2283d49","slug":"dionysos-restaurant-elounda-de6e","kind":"restaurant","name":"Dionysos restaurant elounda","lat":35.24868944871254,"lng":25.730385349919736,"url":"https://maps.app.goo.gl/XzHLEvGxzDciEKDY8?g_st=ipc","address":"Unnamed Road, Ag. Nikolaos 720 53","categoryIds":["luxury-dining"],"categories":["Luxury Dining"],"distanceKm":6.478050533043239},{"id":"municipalities_b05858be497e","slug":"eloynta-b058","kind":"municipality","name":"Ελούντα","lat":35.2581,"lng":25.7286,"aliases":["Ελουντα","Elounda Bay"],"region":"Ανατολική Κρήτη","name_en":"Elounda","region_en":"East Crete","distanceKm":7.497415216689665},{"id":"luxuryDiningRestaurants_e1d805e6a099","slug":"makris-elounda-fine-dining-restaurant-by-domes-e1d8","kind":"restaurant","name":"Makris Elounda Fine Dining Restaurant by Domes","lat":35.289457611664844,"lng":25.729231449277293,"url":"https://maps.app.goo.gl/5ZKMq3CQuLYPt9qu7?g_st=ipc","address":"Domes of Elounda, Tsifliki, Schisma Elountas 720 53","categoryIds":["luxury-dining"],"categories":["Luxury Dining"],"distanceKm":10.976273640106292},{"id":"greekRestaurants_d8e66ee61d19","slug":"taverna-agias-paraskeyis-d8e6","kind":"restaurant","name":"Ταβέρνα Αγίας Παρασκευής","lat":35.08283189053066,"lng":25.576266926635412,"url":"https://maps.app.goo.gl/SEFLyBqoAyReomC66?g_st=ipc","address":"Χριστός 720 56","categoryIds":["greek-restaurants"],"categories":["Greek Restaurants"],"distanceKm":17.78446342126553},{"id":"municipalities_43ae67a78abe","slug":"agios-georgios-lasithioy-43ae","kind":"municipality","name":"Άγιος Γεώργιος Λασιθίου","lat":35.207,"lng":25.511,"region":"Κρήτη","name_en":"Agios Georgios Lasithiou","region_en":"Crete","distanceKm":19.102190705518115},{"id":"municipalities_b8d5fd091f43","slug":"ierapetra-b8d5","kind":"municipality","name":"Ιεράπετρα","lat":35.0119,"lng":25.7424,"region":"Ανατολική Κρήτη","name_en":"Ierapetra","region_en":"East Crete","distanceKm":20.017676837812527}],"sameRegion":[]},"__N_SSG":true}