{"pageProps":{"entity":{"id":"familyFriendly_aade95e892c7","slug":"parko-mikis-theodorakis-typet-aade","kind":"restaurant","name":"Πάρκο Μίκης Θεοδωράκης - ΤΥΠΕΤ","lat":38.0376288072202,"lng":23.83650236719041,"url":"https://maps.app.goo.gl/pvC5VhagjzGcsF3b7?g_st=ipc","address":"Υμηττού 57, Βριλήσσια 152 35","categoryIds":["family-friendly"],"categories":["Kid Friendly Locations"]},"sameCategory":[{"id":"familyFriendly_a06976665fe3","slug":"dentrospito-a069","kind":"restaurant","name":"Δεντρόσπιτο","lat":38.04193059212469,"lng":23.83336989792643,"url":"https://maps.app.goo.gl/xX4rv5hpzm2R55iv8?g_st=ipc","address":"Λεωφ. Πεντέλης 102, Βριλήσσια 152 35","categoryIds":["family-friendly"],"categories":["Kid Friendly Locations"]},{"id":"familyFriendly_86f9e83bcddf","slug":"parko-proin-naytikis-vasis-86f9","kind":"restaurant","name":"Πάρκο Πρώην Ναυτικής Βάσης","lat":38.045491355804536,"lng":23.838523859146985,"url":"https://maps.app.goo.gl/bVGsyiVv6EgBKgQg7?g_st=ipc","address":"Λεωφ. Πεντέλης 41, Βριλήσσια 152 35","categoryIds":["family-friendly"],"categories":["Kid Friendly Locations"]},{"id":"familyFriendly_d45bb5296460","slug":"maroussi-tennis-club-d45b","kind":"restaurant","name":"Maroussi Tennis Club","lat":38.04651986209008,"lng":23.825630520397997,"url":"https://maps.app.goo.gl/pF3h6gGnqMiku8Wg9?g_st=ic","address":"Sismanogliou 74, Marousi 151 26","categoryIds":["family-friendly"],"categories":["Kid Friendly Locations"]},{"id":"familyFriendly_a9b8fd64bf88","slug":"funmily-eat-drink-play-a9b8","kind":"restaurant","name":"FUNMILY eat-drink-play","lat":38.051902735451634,"lng":23.82889440448781,"url":"https://maps.app.goo.gl/5ypCQjX1CzhhmDWMA?g_st=ipc","address":"Οδός Πεντέλης 114, Μαρούσι 151 26","categoryIds":["family-friendly"],"categories":["Kid Friendly Locations"]},{"id":"familyFriendly_b5b6b464edb9","slug":"planet-cosmos-b5b6","kind":"restaurant","name":"Planet Cosmos","lat":38.036967894838305,"lng":23.858200213835428,"url":"https://maps.app.goo.gl/p7oh1sqhz5MkfN978?g_st=ipc","address":"Κλεισθένους 399, Γέρακας 153 44","categoryIds":["family-friendly"],"categories":["Kid Friendly Locations"]},{"id":"familyFriendly_8c5536516bb1","slug":"theatraki-8c55","kind":"restaurant","name":"Theatraki","lat":38.02225032968998,"lng":23.814351171164784,"url":"https://maps.app.goo.gl/jauuVyHDGdr1MR746?g_st=ic","address":"Iraklidon 31, Chalandri 152 34","categoryIds":["family-friendly"],"categories":["Kid Friendly Locations"]},{"id":"familyFriendly_006b710ec86a","slug":"ktima-aristi-006b","kind":"restaurant","name":"ΚΤΗΜΑ ΑΡΙΣΤΗ","lat":38.01987728596246,"lng":23.81566062458868,"url":"https://maps.app.goo.gl/82avq8dPqN3VZq7W7?g_st=ipc","address":"Πλουτάρχου 10, Χαλάνδρι 152 34","categoryIds":["family-friendly"],"categories":["Kid Friendly Locations"]},{"id":"familyFriendly_3a0b8382227c","slug":"kidtopia-3a0b","kind":"restaurant","name":"KIDTOPIA","lat":38.01289484430431,"lng":23.811355038875934,"url":"https://maps.app.goo.gl/hbL95STxeVAMj8X58?g_st=ic","address":"Erifilis 31, Chalandri 152 32","categoryIds":["family-friendly"],"categories":["Kid Friendly Locations"]}],"nearby":[{"id":"coffeeBrunchRestaurants_a0c4a7f4af97","slug":"oi-pites-tis-giagias-eyridikis-a0c4","kind":"restaurant","name":"Οι πίτες της γιαγιάς Ευριδίκης","lat":38.03426712689994,"lng":23.833618598910473,"url":"https://maps.app.goo.gl/SZ38YLhtn9HgUGAZ9?g_st=ipc","address":"Κύπρου 25, Βριλήσσια 152 35","categoryIds":["coffee-brunch"],"categories":["Coffee & Brunch Spots"],"distanceKm":0.4511255956064084},{"id":"familyFriendly_a06976665fe3","slug":"dentrospito-a069","kind":"restaurant","name":"Δεντρόσπιτο","lat":38.04193059212469,"lng":23.83336989792643,"url":"https://maps.app.goo.gl/xX4rv5hpzm2R55iv8?g_st=ipc","address":"Λεωφ. Πεντέλης 102, Βριλήσσια 152 35","categoryIds":["family-friendly"],"categories":["Kid Friendly Locations"],"distanceKm":0.5514173861722979},{"id":"cheapEatsRestaurants_26f9a7f050c1","slug":"the-handmade-souvlaki-ascension-26f9","kind":"restaurant","name":"The Handmade souvlaki Ascension","lat":38.035547141118364,"lng":23.82691676685056,"url":"https://maps.app.goo.gl/bx6SursnbZv26g7m7?g_st=ic","address":"Eth. Antistaseos 26, Vrilissia 152 35","categoryIds":["cheap-eats"],"categories":["Gyros & Cheap Eats"],"distanceKm":0.8708245631009056},{"id":"burgersRestaurants_cdde40de0c45","slug":"the-burger-dudes-cdde","kind":"restaurant","name":"The Burger Dudes","lat":38.037808685524865,"lng":23.82651013380888,"url":"https://maps.app.goo.gl/nCm18QqReRW4TNmb6?g_st=ipc","address":"Θέτιδος 1, Βριλήσσια 152 35","categoryIds":["burgers"],"categories":["Burger Spots"],"distanceKm":0.8753254852636648},{"id":"burgersRestaurants_fe3476589c94","slug":"barbara-que-fe34","kind":"restaurant","name":"BarBara Que","lat":38.035803199648754,"lng":23.82668456854574,"url":"https://maps.app.goo.gl/qDrH9onsxTkW9iau8?g_st=ipc","address":"Εθ. Αντιστάσεως 27, Βριλήσσια 152 35","categoryIds":["burgers"],"categories":["Burger Spots"],"distanceKm":0.8834701854387382},{"id":"italianRestaurants_206a9064f7f4","slug":"forget-about-it-206a","kind":"restaurant","name":"Forget About It","lat":38.03770860286521,"lng":23.82639404104221,"url":"https://maps.app.goo.gl/T4kAMQjZQmhxQyFN7?g_st=ipc","address":"Θέτιδος 1, Βριλήσσια 152 38","categoryIds":["italian"],"categories":["Italian Restaurants"],"distanceKm":0.8853091417738725},{"id":"coffeeBrunchRestaurants_4c5186ad6b82","slug":"the-roosters-vrilissia-4c51","kind":"restaurant","name":"The Roosters Vrilissia","lat":38.037656279094364,"lng":23.82632315275067,"url":"https://maps.app.goo.gl/Ujy91XzzUb5AuEK38?g_st=ipc","address":"Θέτιδος 1 &, Ομήρου 2, Βριλήσσια 152 38","categoryIds":["coffee-brunch"],"categories":["Coffee & Brunch Spots"],"distanceKm":0.8914784679093152},{"id":"familyFriendly_86f9e83bcddf","slug":"parko-proin-naytikis-vasis-86f9","kind":"restaurant","name":"Πάρκο Πρώην Ναυτικής Βάσης","lat":38.045491355804536,"lng":23.838523859146985,"url":"https://maps.app.goo.gl/bVGsyiVv6EgBKgQg7?g_st=ipc","address":"Λεωφ. Πεντέλης 41, Βριλήσσια 152 35","categoryIds":["family-friendly"],"categories":["Kid Friendly Locations"],"distanceKm":0.8920183353063885}],"sameRegion":[]},"__N_SSG":true}