{"pageProps":{"entity":{"id":"mustSeeAttractions_55879b7962ff","slug":"perama-cave-5587","kind":"restaurant","name":"Perama Cave","lat":39.694982816550095,"lng":20.846498129141942,"url":"https://maps.app.goo.gl/tihw1UrAiri8GoD29?g_st=ipc","address":"19, Spilaiou, Σπηλαίου 19, Πέραμα, Perama 455 00","categoryIds":["attractions"],"categories":["Must-See Attractions"]},"sameCategory":[{"id":"mustSeeAttractions_49ba95768f7d","slug":"archaeological-site-of-dodoni-49ba","kind":"restaurant","name":"Archaeological Site of Dodoni","lat":39.54577918295188,"lng":20.784950664414183,"url":"https://maps.app.goo.gl/5eDCvX8HkvWgXBL19?g_st=ipc","address":"Dodoni 455 00","categoryIds":["attractions"],"categories":["Must-See Attractions"]},{"id":"mustSeeAttractions_c9dd48bbc2ef","slug":"pindos-national-park-c9dd","kind":"restaurant","name":"Pindos National Park","lat":39.94128033875326,"lng":20.950852335589502,"url":"https://maps.app.goo.gl/MwFRaHm4xMSpQ3w87?g_st=ipc","address":"WXR2+G8 Tymphaea","categoryIds":["attractions"],"categories":["Must-See Attractions"]},{"id":"mustSeeAttractions_8df91757921b","slug":"zagori-8df9","kind":"restaurant","name":"Zagori","lat":39.96846543207807,"lng":20.729047055658157,"url":"https://maps.app.goo.gl/rVafr1wHovCRyoj77?g_st=ipc","address":"Papingo 440 04","categoryIds":["attractions"],"categories":["Must-See Attractions"]},{"id":"mustSeeAttractions_974fae2e3103","slug":"kalabaka-974f","kind":"restaurant","name":"Kalabaka","lat":39.70661305298489,"lng":21.628881662192715,"url":"https://maps.app.goo.gl/zpazCjEdJ5HpowTp6?g_st=ipc","address":"Kalabaka 422 00","categoryIds":["attractions"],"categories":["Must-See Attractions"]},{"id":"mustSeeAttractions_cfae99e77bd9","slug":"meteora-cfae","kind":"restaurant","name":"Meteora","lat":39.72170879350903,"lng":21.63058881507582,"url":"https://maps.app.goo.gl/onMRfAUqEwFjaiVWA?g_st=ipc","address":"Kalabaka 422 00","categoryIds":["attractions"],"categories":["Must-See Attractions"]},{"id":"mustSeeAttractions_6493befc2e7b","slug":"nicopolis-6493","kind":"restaurant","name":"Nicopolis","lat":39.02636525396993,"lng":20.733626410935955,"url":"https://maps.app.goo.gl/satDDwkecYRf2TSBA?g_st=ipc","address":"Nicopolis 481 00","categoryIds":["attractions"],"categories":["Must-See Attractions"]},{"id":"mustSeeAttractions_cf30313c597a","slug":"byzantine-walls-of-nikopolis-cf30","kind":"restaurant","name":"Byzantine Walls of Nikopolis","lat":39.0118446526379,"lng":20.732022944510806,"url":"https://maps.app.goo.gl/VMrzqGqwGc2EoieJ7?g_st=ipc","address":"Unnamed Road, 481 00","categoryIds":["attractions"],"categories":["Must-See Attractions"]},{"id":"mustSeeAttractions_95bea16be675","slug":"old-town-of-corfu-95be","kind":"restaurant","name":"Old Town of Corfu","lat":39.62343987783881,"lng":19.92891594231962,"url":"https://maps.app.goo.gl/iFY1Kcc4UwLiyRGc7?g_st=ipc","address":"Corfu 491 00","categoryIds":["attractions"],"categories":["Must-See Attractions"]}],"nearby":[{"id":"greekRestaurants_9563a3f3deb0","slug":"presveia-restaurant-9563","kind":"restaurant","name":"ΠΡΕΣΒΕΙΑ Restaurant","lat":39.67117709848311,"lng":20.857314565299106,"url":"https://maps.app.goo.gl/kkBJ4gJX3sVvx1L98?g_st=ipc","address":"Λεωφ. Καραμανλή 17, Ιωάννινα 452 21","categoryIds":["greek-restaurants"],"categories":["Greek Restaurants"],"distanceKm":2.804239346854355},{"id":"cheapEatsRestaurants_ff94ef2f8897","slug":"i-vromiara-the-gourmet-street-food-ff94","kind":"restaurant","name":"Η Βρωμιάρα - The Gourmet Street Food","lat":39.6691471152778,"lng":20.85696993484649,"url":"https://maps.app.goo.gl/qCiHQcXfuVPpbvs5A?g_st=ipc","address":"Averof 60, Ioannina 452 21","categoryIds":["cheap-eats"],"categories":["Gyros & Cheap Eats"],"distanceKm":3.009322776510183},{"id":"municipalities_01ab94a963a7","slug":"ioannina-01ab","kind":"municipality","name":"Ιωάννινα","lat":39.6675,"lng":20.85,"aliases":["Ioannina","Janina","Ιωάννινα","Γιάννινα","Ιωαννινα","Γιαννενα","Γιάννενα"],"region":"Ήπειρος","name_en":"Ioannina","region_en":"Epirus","distanceKm":3.070608403764603},{"id":"familyFriendly_fca4b1834b63","slug":"play-hall-fca4","kind":"restaurant","name":"PLAY HALL","lat":39.65033321631473,"lng":20.865657018209728,"url":"https://maps.app.goo.gl/SFFV3HjpyPgVaZLc9?g_st=ipc","address":"Leof. Geor. Gennimata, Ioannina 452 21","categoryIds":["family-friendly"],"categories":["Kid Friendly Locations"],"distanceKm":5.22858753770374},{"id":"municipalities_78251352f402","slug":"dodoni-7825","kind":"municipality","name":"Δωδώνη","lat":39.6167,"lng":20.7833,"region":"Ήπειρος","name_en":"Dodoni","region_en":"Epirus","distanceKm":10.248997708961681},{"id":"mustSeeAttractions_49ba95768f7d","slug":"archaeological-site-of-dodoni-49ba","kind":"restaurant","name":"Archaeological Site of Dodoni","lat":39.54577918295188,"lng":20.784950664414183,"url":"https://maps.app.goo.gl/5eDCvX8HkvWgXBL19?g_st=ipc","address":"Dodoni 455 00","categoryIds":["attractions"],"categories":["Must-See Attractions"],"distanceKm":17.40808000142367},{"id":"greekRestaurants_df023e747e5f","slug":"kanela-kai-garyfallo-mushroom-restaurant-df02","kind":"restaurant","name":"ΚΑΝΕΛΑ ΚΑΙ ΓΑΡΥΦΑΛΛΟ, Mushroom Restaurant","lat":39.873717064633475,"lng":20.75043313227449,"url":"https://maps.app.goo.gl/RMbRCUycwB1E3Sf99?g_st=ipc","address":"Κεντρική Οδός Βίτσας, Βίτσα Ζαγορίου 440 07","categoryIds":["greek-restaurants"],"categories":["Greek Restaurants"],"distanceKm":21.50280961679696},{"id":"municipalities_5b04c25765e9","slug":"zagori-5b04","kind":"municipality","name":"Ζαγόρι","lat":39.9,"lng":20.8,"region":"Ήπειρος","name_en":"Zagori","region_en":"Epirus","distanceKm":23.140388367509804}],"sameRegion":[]},"__N_SSG":true}