{"pageProps":{"entity":{"id":"italianRestaurants_d84ce5fee7c0","slug":"piazza-d-amore-d84c","kind":"restaurant","name":"Piazza D'Amore","lat":38.046873886500826,"lng":23.765946699532154,"url":"https://maps.app.goo.gl/m24wKNSPTHZaNPpA9?g_st=ipc","address":"28ης Οκτωβρίου 8, Ηράκλειο 141 21","categoryIds":["italian"],"categories":["Italian Restaurants"]},"sameCategory":[{"id":"italianRestaurants_ae6165c67299","slug":"pastabar-ae61","kind":"restaurant","name":"pastabar","lat":38.03729506274719,"lng":23.739505873670616,"url":"https://maps.app.goo.gl/bRqX3YLuyGMaGs896?g_st=ipc","address":"Λεωφ. Δεκελείας 136, Νέα Φιλαδέλφεια Αττικής 143 41","categoryIds":["italian"],"categories":["Italian Restaurants"]},{"id":"italianRestaurants_9807c76fa027","slug":"kamikaze-9807","kind":"restaurant","name":"KAMIKAZE","lat":38.0243124367211,"lng":23.753568534514113,"url":"https://maps.app.goo.gl/nGW44VsbXXjFk6eF7?g_st=ipc","address":"Ναρκίσσου 34-36, Γαλάτσι 111 46","categoryIds":["italian"],"categories":["Italian Restaurants"]},{"id":"italianRestaurants_c7fad2a2b587","slug":"parco-pizza-c7fa","kind":"restaurant","name":"PARCO PIZZA","lat":38.04774854674856,"lng":23.728958951505486,"url":"https://maps.app.goo.gl/UiJhpTwk6oBuPXFx9?g_st=ipc","address":"Λεωφ. Δημοκρατίας 9, Καματερό 134 51","categoryIds":["italian"],"categories":["Italian Restaurants"]},{"id":"italianRestaurants_99d6d6ea615c","slug":"alio-99d6","kind":"restaurant","name":"ALIO","lat":38.02380840827294,"lng":23.79252131680721,"url":"https://maps.app.goo.gl/pCWntKXiEkk3VBdj8?g_st=ipc","address":"Βασιλέως Γεωργίου 34, Χαλάνδρι 152 33","categoryIds":["italian"],"categories":["Italian Restaurants"]},{"id":"italianRestaurants_602b491bd8e4","slug":"puff-daddy-pizzeria-602b","kind":"restaurant","name":"Puff Daddy Pizzeria","lat":38.06473867888921,"lng":23.799010812565253,"url":"https://maps.app.goo.gl/kgXB1etikXQDGo7k6?g_st=ipc","address":"Σκρα 16, Πεύκη 151 21","categoryIds":["italian"],"categories":["Italian Restaurants"]},{"id":"italianRestaurants_5125cdfe0b5a","slug":"portofino-pizza-xalandri-5125","kind":"restaurant","name":"Portofino Pizza Xalandri","lat":38.0247038627797,"lng":23.797586721157028,"url":"https://maps.app.goo.gl/D9rRduThcXn2ff1i8?g_st=ipc","address":"Γρ. Γυφτοπούλου 23, Χαλάνδρι 152 33","categoryIds":["italian"],"categories":["Italian Restaurants"]},{"id":"italianRestaurants_c5639b50090e","slug":"the-italians-c563","kind":"restaurant","name":"The italians","lat":38.05489203613415,"lng":23.80737502626759,"url":"https://maps.app.goo.gl/JMrxX5Rq7Q7HgR487?g_st=ipc","address":"Βασ. Σοφίας 47, Μαρούσι 151 24","categoryIds":["italian"],"categories":["Italian Restaurants"]},{"id":"italianRestaurants_9ab88b8b6007","slug":"innamorata-9ab8","kind":"restaurant","name":"Innamorata","lat":38.01461502802222,"lng":23.785308731358,"url":"https://maps.app.goo.gl/6pHzTzWoidEixrLw8?g_st=ipc","address":"Likourgou 5Α, Chalandri 152 31","categoryIds":["italian"],"categories":["Italian Restaurants"]}],"nearby":[{"id":"burgersRestaurants_b7d172dd6af6","slug":"serial-grillers-b7d1","kind":"restaurant","name":"Serial Grillers","lat":38.04771274952107,"lng":23.76539665009085,"url":"https://maps.app.goo.gl/DKedv8F3cHKd27me9?g_st=ipc","address":"Νεότητος 4, Ηράκλειο 141 22","categoryIds":["burgers"],"categories":["Burger Spots"],"distanceKm":0.10497903890463751},{"id":"dessertsRestaurants_ee67f4c4f773","slug":"galaktopoleio-stamoy-ee67","kind":"restaurant","name":"Γαλακτοπωλείο ΣΤΑΜΟΥ","lat":38.050308447326216,"lng":23.764543130470138,"url":"https://maps.app.goo.gl/ct5eAdJBTvtvp5Kb6?g_st=ipc","address":"Λεωφ. Ηρακλείου 388, Ηράκλειο 141 22","categoryIds":["desserts"],"categories":["Dessert Shops"],"distanceKm":0.4011946776326806},{"id":"dessertsRestaurants_f7f9c93c456d","slug":"zacharoplasteio-ta-gioylia-f7f9","kind":"restaurant","name":"Ζαχαροπλαστείο Τα Γιούλια","lat":38.04173959626081,"lng":23.76335652551234,"url":"https://maps.app.goo.gl/7AogHoPypPVPFN8p7?g_st=ipc","address":"Αλέκου Παναγούλη 74, Νέα Ιωνία 141 21","categoryIds":["desserts"],"categories":["Dessert Shops"],"distanceKm":0.6143147785585286},{"id":"luxuryDiningRestaurants_8a047703e0fb","slug":"afropsaro-8a04","kind":"restaurant","name":"Αφρόψαρο","lat":38.04349613246651,"lng":23.771888846159882,"url":"https://maps.app.goo.gl/g7jbxhgYDYFvpnKX6?g_st=ipc","address":"Μαρίνου Αντύπα 62-66, Ηράκλειο 141 21","categoryIds":["luxury-dining"],"categories":["Luxury Dining"],"distanceKm":0.6417380372503658},{"id":"luxuryDiningRestaurants_bbebf7e68168","slug":"moo-casa-steak-lobster-bbeb","kind":"restaurant","name":"MOO CASA steak & lobster","lat":38.04344953562119,"lng":23.772025529553066,"url":"https://maps.app.goo.gl/HwBgLRsMdgFuqNJTA?g_st=ipc","address":"Marinou Antipa 66, Iraklio 141 21","categoryIds":["luxury-dining"],"categories":["Luxury Dining"],"distanceKm":0.6544817515165581},{"id":"greekRestaurants_50237de1ecfb","slug":"ypoyrgeio-geyseon-soyvlaki-psita-5023","kind":"restaurant","name":"Υπουργειο Γευσεων-Σουβλάκι,Ψητά","lat":38.04316278537493,"lng":23.771802491018153,"url":"https://maps.app.goo.gl/gabhXTSdqFXWdAw17","address":"Φιλοθέης 67, Ηράκλειο 141 21","categoryIds":["greek-restaurants"],"categories":["Greek Restaurants"],"distanceKm":0.6582050066710632},{"id":"cheapEatsRestaurants_5f9d5dd343a6","slug":"ypoyrgeio-geyseon-soyvlaki-psita-5f9d","kind":"restaurant","name":"ΥΠΟΥΡΓΕΙΟ ΓΕΥΣΕΩΝ-Σουβλάκι,Ψητά","lat":38.04303394507047,"lng":23.771779772357615,"url":"https://maps.app.goo.gl/LCrvDRPpRco2nVuF9?g_st=ipc","address":"Φιλοθέης 67, Ηράκλειο 141 21","categoryIds":["cheap-eats"],"categories":["Gyros & Cheap Eats"],"distanceKm":0.6657528816210787},{"id":"cheapEatsRestaurants_f3077615404b","slug":"kantina-o-alekos-f307","kind":"restaurant","name":"Καντίνα \"ο Αλεκος\"","lat":38.04208740467577,"lng":23.77486464859004,"url":"https://maps.app.goo.gl/4oCtgVQEesHACQsu8?g_st=ipc","address":"Μαρίνου Αντύπα 47, Ηράκλειο 141 21","categoryIds":["cheap-eats"],"categories":["Gyros & Cheap Eats"],"distanceKm":0.9450613645871516}],"sameRegion":[]},"__N_SSG":true}