{"pageProps":{"entity":{"id":"coffeeBrunchRestaurants_77abfb08a4c5","slug":"pink-banana-opa-greek-cuisine-77ab","kind":"restaurant","name":"Pink Banana & OPA Greek cuisine","lat":39.928119861265856,"lng":23.5848530921533,"url":"https://maps.app.goo.gl/4qjSp1aZXXsPHmu16?g_st=ipc","address":"Λουτρά, Ag. Paraskevi 630 85","categoryIds":["coffee-brunch"],"categories":["Coffee & Brunch Spots"]},"sameCategory":[{"id":"coffeeBrunchRestaurants_c7392dd258a0","slug":"lemonis-bakery-c739","kind":"restaurant","name":"Lemonis Bakery","lat":39.94203436230197,"lng":23.66329350381582,"url":"https://maps.app.goo.gl/Q7a2SEfBJaFYitVS7?g_st=ipc","address":"Epar.Od. Paliouriou-Afitou, Paliouri 630 85","categoryIds":["coffee-brunch"],"categories":["Coffee & Brunch Spots"]},{"id":"coffeeBrunchRestaurants_c3bee7217dfe","slug":"elephant-beach-bar-c3be","kind":"restaurant","name":"Elephant Beach Bar","lat":39.985586279749114,"lng":23.627614034601162,"url":"https://maps.app.goo.gl/Zgv1m6A2CegCXBdv5?g_st=ipc","address":"Peufkohori","categoryIds":["coffee-brunch"],"categories":["Coffee & Brunch Spots"]},{"id":"coffeeBrunchRestaurants_b9814a0d3d11","slug":"fiki-beach-bar-restaurant-b981","kind":"restaurant","name":"Fiki Beach Bar & Restaurant","lat":39.99215878950949,"lng":23.607017748480928,"url":"https://maps.app.goo.gl/nQhhBcx28bHKgifj6?g_st=ipc","address":"Pefkochori 630 85","categoryIds":["coffee-brunch"],"categories":["Coffee & Brunch Spots"]},{"id":"coffeeBrunchRestaurants_0fe0a5c9639e","slug":"canela-restaurant-by-blue-carpet-0fe0","kind":"restaurant","name":"Canela Restaurant by Blue Carpet","lat":39.99355871861254,"lng":23.60104135467034,"url":"https://maps.app.goo.gl/aPnsSZ9vtDLsCtCKA?g_st=ipc","address":"Παραλία, Pefkochori 630 85","categoryIds":["coffee-brunch"],"categories":["Coffee & Brunch Spots"]},{"id":"coffeeBrunchRestaurants_03429eb3012a","slug":"mamalouka-beach-bar-0342","kind":"restaurant","name":"Mamalouka Beach Bar","lat":39.99397355305258,"lng":23.600497598852627,"url":"https://maps.app.goo.gl/PoTnpjRujbpdssuq7?g_st=ipc","address":"Unnamed Road, Kassandra 630 85","categoryIds":["coffee-brunch"],"categories":["Coffee & Brunch Spots"]},{"id":"coffeeBrunchRestaurants_d3218a9e0fff","slug":"glarokavos-beachbar-d321","kind":"restaurant","name":"Glarokavos BeachBar","lat":39.982564469579565,"lng":23.643613894999742,"url":"https://maps.app.goo.gl/5ksxtuxSYejYXXSq9?g_st=ipc","address":"Παραλία Γλαρόκαβος, Pefkochori 630 85","categoryIds":["coffee-brunch"],"categories":["Coffee & Brunch Spots"]},{"id":"coffeeBrunchRestaurants_1ac37112f669","slug":"achinos-tuti-beach-halkidiki-1ac3","kind":"restaurant","name":"Achinos Tuti Beach Halkidiki","lat":39.999483989821414,"lng":23.582157727223603,"url":"https://maps.app.goo.gl/diBbGVkfHMvFE7VE7?g_st=ipc","address":"Nisos Beach, Chaniotis 630 85","categoryIds":["coffee-brunch"],"categories":["Coffee & Brunch Spots"]},{"id":"coffeeBrunchRestaurants_65ba92d0cd82","slug":"golden-beach-near-paliouri-65ba","kind":"restaurant","name":"Golden Beach Near Paliouri","lat":40.00000157623716,"lng":23.566669631082956,"url":"https://maps.app.goo.gl/BuoQtJYMzAyirA8L6?g_st=ipc","address":"Pallini 630 85","categoryIds":["coffee-brunch"],"categories":["Coffee & Brunch Spots"]}],"nearby":[{"id":"fishTavernasRestaurants_8b035bb05924","slug":"villa-stasa-sea-restaurant-8b03","kind":"restaurant","name":"Villa Stasa Sea Restaurant","lat":39.925439038727305,"lng":23.588406494329757,"url":"https://maps.app.goo.gl/DN12c6YKymvAuHE9A?g_st=ipc","address":"Loutra, Agia Paraskeui, Kassandra Chalkidiki 630 85","categoryIds":["fish-tavernas"],"categories":["Fish Tavernas"],"distanceKm":0.42505457697788585},{"id":"greekRestaurants_2beb8ff39579","slug":"archontiko-agia-paraskeyi-2beb","kind":"restaurant","name":"Αρχοντικό Αγία Παρασκευή","lat":39.95369257965996,"lng":23.606491610468332,"url":"https://maps.app.goo.gl/Sg6pdLqPaLdxMQsT7?g_st=ipc","address":"Unnamed Road, Αγ. Παρασκευή 630 85","categoryIds":["greek-restaurants"],"categories":["Greek Restaurants"],"distanceKm":3.3895405486039247},{"id":"municipalities_1623a62b9782","slug":"peykochori-1623","kind":"municipality","name":"Πευκοχώρι","lat":39.9854,"lng":23.611,"region":"Χαλκιδική","name_en":"Pefkochori","region_en":"Halkidiki","distanceKm":6.747902255713807},{"id":"greekRestaurants_3369a941ef57","slug":"taverna-giannikos-3369","kind":"restaurant","name":"Ταβέρνα Γιαννίκος","lat":39.94177003077369,"lng":23.66270542049451,"url":"https://maps.app.goo.gl/o6uWLuYRQYRTiAPA9?g_st=ipc","address":"Παλιούρι 630 85","categoryIds":["greek-restaurants"],"categories":["Greek Restaurants"],"distanceKm":6.809120770984226},{"id":"coffeeBrunchRestaurants_c7392dd258a0","slug":"lemonis-bakery-c739","kind":"restaurant","name":"Lemonis Bakery","lat":39.94203436230197,"lng":23.66329350381582,"url":"https://maps.app.goo.gl/Q7a2SEfBJaFYitVS7?g_st=ipc","address":"Epar.Od. Paliouriou-Afitou, Paliouri 630 85","categoryIds":["coffee-brunch"],"categories":["Coffee & Brunch Spots"],"distanceKm":6.864561481753574},{"id":"fishTavernasRestaurants_d7ed2778e57d","slug":"fish-tavern-tsaparis-d7ed","kind":"restaurant","name":"Fish Tavern Tsaparis","lat":39.98759758204977,"lng":23.614455119611083,"url":"https://maps.app.goo.gl/Mv522SonrUt6TBiLA?g_st=ipc","address":"Unnamed Rd, Greece, Pefkochori 630 85","categoryIds":["fish-tavernas"],"categories":["Fish Tavernas"],"distanceKm":7.078547096130682},{"id":"coffeeBrunchRestaurants_c3bee7217dfe","slug":"elephant-beach-bar-c3be","kind":"restaurant","name":"Elephant Beach Bar","lat":39.985586279749114,"lng":23.627614034601162,"url":"https://maps.app.goo.gl/Zgv1m6A2CegCXBdv5?g_st=ipc","address":"Peufkohori","categoryIds":["coffee-brunch"],"categories":["Coffee & Brunch Spots"],"distanceKm":7.356325245682149},{"id":"coffeeBrunchRestaurants_b9814a0d3d11","slug":"fiki-beach-bar-restaurant-b981","kind":"restaurant","name":"Fiki Beach Bar & Restaurant","lat":39.99215878950949,"lng":23.607017748480928,"url":"https://maps.app.goo.gl/nQhhBcx28bHKgifj6?g_st=ipc","address":"Pefkochori 630 85","categoryIds":["coffee-brunch"],"categories":["Coffee & Brunch Spots"],"distanceKm":7.36712419588253}],"sameRegion":[]},"__N_SSG":true}