{"pageProps":{"entity":{"id":"cheapEatsRestaurants_8ba4f0065f8a","slug":"pita-tom-8ba4","kind":"restaurant","name":"Pita Tom","lat":37.74366491916778,"lng":23.535568140347873,"url":"https://maps.app.goo.gl/YMXgj9Wj4KVHBdms9?g_st=ipc","address":"Αγ. Μαρίνα 180 10","categoryIds":["cheap-eats"],"categories":["Gyros & Cheap Eats"]},"sameCategory":[{"id":"cheapEatsRestaurants_5b9438409713","slug":"o-gyros-tis-aiginas-5b94","kind":"restaurant","name":"Ο Γύρος της Αίγινας","lat":37.74389384596183,"lng":23.430224050202156,"url":"https://maps.app.goo.gl/xrxu9zu1wwgoXRKH8?g_st=ipc","address":"Π. Αιγινήτου 31, Αίγινα 180 10","categoryIds":["cheap-eats"],"categories":["Gyros & Cheap Eats"]},{"id":"cheapEatsRestaurants_4792fbe09c71","slug":"zahoulis-glyfada-4792","kind":"restaurant","name":"ZAHOULIS GLYFADA","lat":37.86453214322605,"lng":23.747876477019613,"url":"https://maps.app.goo.gl/mDh3F8ASwiDrm4yK9?g_st=ipc","address":"Γεωρ. Κονδύλη 7, Γλυφάδα 166 75","categoryIds":["cheap-eats"],"categories":["Gyros & Cheap Eats"]},{"id":"cheapEatsRestaurants_cf5c14c0c783","slug":"zachos-gkril-cf5c","kind":"restaurant","name":"Ζάχος Γκριλ","lat":37.81320496162539,"lng":23.782770964184124,"url":"https://maps.app.goo.gl/bEtWEwaW2PfwcEhW9?g_st=ipc","address":"Ερμού 1, Βουλιαγμένη 166 71","categoryIds":["cheap-eats"],"categories":["Gyros & Cheap Eats"]},{"id":"cheapEatsRestaurants_b7111ba66cb7","slug":"mpar-mpee-kioy-freattyda-b711","kind":"restaurant","name":"Μπαρ Μπεε Κιου - Φρεαττύδα","lat":37.93450545499558,"lng":23.64268595079312,"url":"https://maps.app.goo.gl/Ajs6FhmvDN7iM7dV7?g_st=ipc","address":"Λεωφ. Φρεάττυδος 13, Πειραιάς 185 37","categoryIds":["cheap-eats"],"categories":["Gyros & Cheap Eats"]},{"id":"cheapEatsRestaurants_ff4578059709","slug":"story-streat-ff45","kind":"restaurant","name":"Story Streat","lat":37.93927555121359,"lng":23.639905760009334,"url":"https://maps.app.goo.gl/EXsQn9E1PkJeJjZU9?g_st=ipc","address":"301 Ακτή Μιαούλη, Enanti Agiou Nikolaou, Πειραιάς 185 35","categoryIds":["cheap-eats"],"categories":["Gyros & Cheap Eats"]},{"id":"cheapEatsRestaurants_338abca2bc3e","slug":"jackaroo-338a","kind":"restaurant","name":"Jackaroo","lat":37.940156634414215,"lng":23.643183475106575,"url":"https://maps.app.goo.gl/QjFk2WWeE9jasgmR8?g_st=ipc","address":"Κολοκοτρώνη 126, Πειραιάς 185 35","categoryIds":["cheap-eats"],"categories":["Gyros & Cheap Eats"]},{"id":"cheapEatsRestaurants_8cc8f7ce2a5d","slug":"kali-pita-8cc8","kind":"restaurant","name":"Καλή Πίτα","lat":37.93904235716474,"lng":23.647494180172405,"url":"https://maps.app.goo.gl/5Uc5sfiitWqftH1u6?g_st=ipc","address":"Ακτή Μουτσοπούλου 10, Πειραιάς 185 35","categoryIds":["cheap-eats"],"categories":["Gyros & Cheap Eats"]},{"id":"cheapEatsRestaurants_9085d6dbdfe8","slug":"street-food-park-9085","kind":"restaurant","name":"Street Food Park","lat":37.85905594962557,"lng":23.764660793565383,"url":"https://maps.app.goo.gl/8bfdGPL68FsznR1SA?g_st=ipc","address":"Παρ. Λεωφ. Βουλιαγμένης 153, Γλυφάδα 166 74","categoryIds":["cheap-eats"],"categories":["Gyros & Cheap Eats"]}],"nearby":[{"id":"greekRestaurants_7b2f8cec89e8","slug":"estiatorio-thymari-7b2f","kind":"restaurant","name":"Εστιατόριο Θυμάρι","lat":37.74409980963869,"lng":23.53632010673103,"url":"https://maps.app.goo.gl/rzpZZmk1oVw5HpXk9?g_st=ipc","address":"Λεωφ. Αφαίας, Αγ. Μαρίνα 180 10","categoryIds":["greek-restaurants"],"categories":["Greek Restaurants"],"distanceKm":0.08191557574591536},{"id":"mustSeeAttractions_dff5abd15b84","slug":"naos-tis-afaias-dff5","kind":"restaurant","name":"Ναός της Αφαίας","lat":37.75437516471331,"lng":23.533121298393443,"url":"https://maps.app.goo.gl/TEdzv6vPybFxQzP18?g_st=ipc","address":"Αίγινα 180 10","categoryIds":["attractions"],"categories":["Must-See Attractions"],"distanceKm":1.2101997987438837},{"id":"monasteriesChurches_c167cd824b01","slug":"ieros-naos-agioy-nektarioy-aiginis-c167","kind":"restaurant","name":"Ιερός Ναός Αγίου Νεκταρίου Αιγίνης","lat":37.746945069118,"lng":23.484687951163814,"url":"https://maps.app.goo.gl/KjppqYPoe3hM1kHb9?g_st=ipc","address":"Κοντός 180 10","categoryIds":["monasteries-churches"],"categories":["Monasteries & Spiritual Sites"],"distanceKm":4.488547667035249},{"id":"monasteriesChurches_d020daa580d2","slug":"ieron-isychastirion-agias-triados-agioy-nektarioy-aiginis-d020","kind":"restaurant","name":"Ιερόν Ησυχαστήριον Αγίας Τριάδος - Αγίου Νεκταρίου Αιγίνης","lat":37.747756129707696,"lng":23.48419119090333,"url":"https://maps.app.goo.gl/FKwvJEY7DdQLDdKC7?g_st=ipc","address":"37°44'54.9\"N 23°29, 03 6\"E, Κοντός 180 10","categoryIds":["monasteries-churches"],"categories":["Monasteries & Spiritual Sites"],"distanceKm":4.540206281859495},{"id":"monasteriesChurches_e06cb099676f","slug":"iera-moni-panagias-chrysoleontissas-e06c","kind":"restaurant","name":"Ιερά Μονή Παναγίας Χρυσολεόντισσας","lat":37.72683515229462,"lng":23.487000558860796,"url":"https://maps.app.goo.gl/4wfUy4FPX2uzBPHt8?g_st=ipc","address":"Κοντός 180 10","categoryIds":["monasteries-churches"],"categories":["Monasteries & Spiritual Sites"],"distanceKm":4.662944712959794},{"id":"greekRestaurants_4c0797e5b05b","slug":"to-steki-toy-kynigoy-4c07","kind":"restaurant","name":"Το Στέκι του Κυνηγού","lat":37.70692578125452,"lng":23.504550200008005,"url":"https://maps.app.goo.gl/eRHkBsaWKHX368U76?g_st=ipc","address":"Ανίτσαιο 180 10","categoryIds":["greek-restaurants"],"categories":["Greek Restaurants"],"distanceKm":4.912335846076987},{"id":"fishTavernasRestaurants_ef34e6a5f34e","slug":"ammos-restaurant-ef34","kind":"restaurant","name":"AMMOS Restaurant","lat":37.719362798936,"lng":23.459117899142395,"url":"https://maps.app.goo.gl/zm3QJEgpXF2deJBSA?g_st=ipc","address":"Μαραθώνας, ΑΙΓΙΝΑ, Αίγινα 180 10","categoryIds":["fish-tavernas"],"categories":["Fish Tavernas"],"distanceKm":7.245975667998501},{"id":"fishTavernasRestaurants_036f2df06d0a","slug":"psarotaverna-aiginitissa-036f","kind":"restaurant","name":"Ψαροταβέρνα Αιγινήτισσα","lat":37.700098544992514,"lng":23.468697694131777,"url":"https://maps.app.goo.gl/Wvbm3uFeQe4HDRTB9?g_st=ipc","address":"Αιγινίτισσας, Αίγινα 180 10","categoryIds":["fish-tavernas"],"categories":["Fish Tavernas"],"distanceKm":7.619723337565218}],"sameRegion":[]},"__N_SSG":true}