{"pageProps":{"entity":{"id":"italianRestaurants_7cee9388f440","slug":"pizza-hood-7cee","kind":"restaurant","name":"Pizza Hood","lat":40.63650781158609,"lng":22.937112758246737,"url":"https://maps.app.goo.gl/PSUf6oyYdwKAkgEFA","address":"Ernestou Emprar 2, Thessaloniki 546 25","categoryIds":["italian"],"categories":["Italian Restaurants"]},"sameCategory":[{"id":"italianRestaurants_5cd46803a13d","slug":"pizza-poselli-5cd4","kind":"restaurant","name":"Pízza Poselli","lat":40.63738570521256,"lng":22.93899269726352,"url":"https://maps.app.goo.gl/i1hQW24s88nE2YPJ6?g_st=ipc","address":"Vilara 2, Thessaloniki 546 25","categoryIds":["italian"],"categories":["Italian Restaurants"]},{"id":"italianRestaurants_e8e93eefa319","slug":"cena-e8e9","kind":"restaurant","name":"Cena","lat":40.63453379937182,"lng":22.938924721124444,"url":"https://maps.app.goo.gl/M6cnfrHcMrMNBhMNA?g_st=ipc","address":"Rogkoti 4, Thessaloniki 546 24","categoryIds":["italian"],"categories":["Italian Restaurants"]},{"id":"italianRestaurants_60ef8fd1f6df","slug":"high-school-pizza-bar-60ef","kind":"restaurant","name":"High School Pizza Bar","lat":40.63257762535487,"lng":22.939550561883348,"url":"https://maps.app.goo.gl/CkxsQoyZaG8gTuWG9?g_st=ipc","address":"Leof. Nikis 9Α, Thessaloniki 546 24","categoryIds":["italian"],"categories":["Italian Restaurants"]},{"id":"italianRestaurants_23020013c254","slug":"the-last-slice-2302","kind":"restaurant","name":"The Last Slice","lat":40.6318911481541,"lng":22.9419087824566,"url":"https://maps.app.goo.gl/psKGv2fkZa2YBSRv6?g_st=ipc","address":"Proxenou Koromila 1, Thessaloniki 546 23","categoryIds":["italian"],"categories":["Italian Restaurants"]},{"id":"italianRestaurants_39b739bc42fb","slug":"salento-wood-fired-street-food-39b7","kind":"restaurant","name":"Salento Wood Fired Street Food","lat":40.639269195238484,"lng":22.94398924661335,"url":"https://maps.app.goo.gl/KJDU4WMhcL2vXfup6?g_st=ipc","address":"El. Venizelou 76, Thessaloniki 546 31","categoryIds":["italian"],"categories":["Italian Restaurants"]},{"id":"italianRestaurants_7c05bdca6535","slug":"apallou-7c05","kind":"restaurant","name":"Apallou","lat":40.6319800622151,"lng":22.942842887749638,"url":"https://maps.app.goo.gl/gJ5jrWEXwAbU6ynW8?g_st=ipc","address":"Μητροπόλεως &, Karolou Ntil 10, Thessaloniki 546 23","categoryIds":["italian"],"categories":["Italian Restaurants"]},{"id":"italianRestaurants_cb35e3b45188","slug":"margherita-cb35","kind":"restaurant","name":"MARGHERITA","lat":40.631390383048206,"lng":22.94264327325537,"url":"https://maps.app.goo.gl/TiNtp5tDGN6Eji5d9?g_st=ipc","address":"Proxenou Koromila 11, Thessaloniki 546 23","categoryIds":["italian"],"categories":["Italian Restaurants"]},{"id":"italianRestaurants_cb2ae306e209","slug":"signora-trattoria-cb2a","kind":"restaurant","name":"Signora Trattoria","lat":40.63157039493222,"lng":22.94755320492566,"url":"https://maps.app.goo.gl/QzosxSTGJyN4yoBfA?g_st=ipc","address":"P. Mela 38, Paleon Patron Germanou 19, Thessaloniki 546 22","categoryIds":["italian"],"categories":["Italian Restaurants"]}],"nearby":[{"id":"burgersRestaurants_b5205e897d93","slug":"tarantino-sandwiches-fries-b520","kind":"restaurant","name":"Tarantino Sandwiches & Fries","lat":40.63667870510283,"lng":22.93716261995098,"url":"https://maps.app.goo.gl/NKZaYUsTivGGc1mU7?g_st=ipc","address":"Ernestou Emprar 5, Thessaloniki 546 25","categoryIds":["burgers"],"categories":["Burger Spots"],"distanceKm":0.019462700380452436},{"id":"coffeeBrunchRestaurants_c5fcdd8f5d50","slug":"slow-kaffe-and-wine-c5fc","kind":"restaurant","name":"Slow Kaffe and Wine","lat":40.63667930749031,"lng":22.937326259309707,"url":"https://maps.app.goo.gl/sudFiDSGGdZvwXaq8?g_st=ipc","address":"Ernestou Emprar 10, Thessaloniki 546 25","categoryIds":["coffee-brunch"],"categories":["Coffee & Brunch Spots"],"distanceKm":0.02623356237497757},{"id":"burgersRestaurants_7709ed422386","slug":"raw-street-burger-thessaloniki-7709","kind":"restaurant","name":"Raw Street Burger - Thessaloniki","lat":40.6360216575253,"lng":22.93735358036402,"url":"https://maps.app.goo.gl/8jf35cPRudvWnsoP7?g_st=ipc","address":"Politechniou 53, Thessaloniki 546 25","categoryIds":["burgers"],"categories":["Burger Spots"],"distanceKm":0.05775111317786235},{"id":"cheapEatsRestaurants_a3eaaa94c58d","slug":"raw-street-burger-thessaloniki-a3ea","kind":"restaurant","name":"Raw Street Burger - Thessaloniki","lat":40.63602099868007,"lng":22.937352405537926,"url":"https://maps.app.goo.gl/gUdJfgvKc5M5F6TR7?g_st=ipc","address":"Politechniou 53, Thessaloniki 546 25","categoryIds":["cheap-eats"],"categories":["Gyros & Cheap Eats"],"distanceKm":0.05778492798633914},{"id":"asianRestaurants_8419e93bcb2d","slug":"ikigai-the-dumpling-experience-8419","kind":"restaurant","name":"Ikigai - The Dumpling Experience","lat":40.637093410026516,"lng":22.93763984161015,"url":"https://maps.app.goo.gl/zEYfCsMm5fXf8Dd78?g_st=ipc","address":"Veroias 5, Thessaloniki 546 25","categoryIds":["asian"],"categories":["Asian Restaurants"],"distanceKm":0.07885505145697934},{"id":"cheapEatsRestaurants_47ac0ee57ead","slug":"pratina-burger-project-47ac","kind":"restaurant","name":"PRATINA Burger Project","lat":40.63713687744245,"lng":22.93759768195784,"url":"https://maps.app.goo.gl/K3sutrhR1ozDJoT67?g_st=ipc","address":"Veroias 5, Thessaloniki 546 25","categoryIds":["cheap-eats"],"categories":["Gyros & Cheap Eats"],"distanceKm":0.08103794255446196},{"id":"burgersRestaurants_90d16bd5f050","slug":"pratina-burger-project-90d1","kind":"restaurant","name":"PRATINA Burger Project","lat":40.63713764523389,"lng":22.937597600102066,"url":"https://maps.app.goo.gl/rE8kgxhDvdzbh9hw7","address":"Veroias 5, Thessaloniki 546 25","categoryIds":["burgers"],"categories":["Burger Spots"],"distanceKm":0.08110816183450283},{"id":"burgersRestaurants_939dba9e46a3","slug":"pratina-burger-project-939d","kind":"restaurant","name":"PRATINA Burger Project","lat":40.63713830910427,"lng":22.937597071503742,"url":"https://maps.app.goo.gl/diihnNazYDBSNQP77?g_st=ic","address":"Veroias 5, Thessaloniki 546 25","categoryIds":["burgers"],"categories":["Burger Spots"],"distanceKm":0.08114943931598102}],"sameRegion":[]},"__N_SSG":true}