{"pageProps":{"entity":{"id":"italianRestaurants_db8c50049699","slug":"pizzaiolo-db8c","kind":"restaurant","name":"pizzaiolo","lat":38.00035069734868,"lng":23.79281060180485,"url":"https://maps.app.goo.gl/KW1onnVwQCy1jQXk7?g_st=ipc","address":"Ασπασίας 63, Χολαργός 155 61","categoryIds":["italian"],"categories":["Italian Restaurants"]},"sameCategory":[{"id":"italianRestaurants_9e93d0527186","slug":"casareccio-trattoria-pizzeria-9e93","kind":"restaurant","name":"Casareccio trattoria pizzeria","lat":37.995258640416544,"lng":23.796024502616564,"url":"https://maps.app.goo.gl/f357srheHFN2PfBk6?g_st=ipc","address":"Ξανθίππου 84, Χολαργός 155 61","categoryIds":["italian"],"categories":["Italian Restaurants"]},{"id":"italianRestaurants_cc723f5b71ae","slug":"aperio-cucina-vino-cc72","kind":"restaurant","name":"Aperio cucina & vino","lat":38.00607265187326,"lng":23.797703238142986,"url":"https://maps.app.goo.gl/GkHg15eafgAV4fou5?g_st=ipc","address":"Μεσογείων 258, Χολαργός 155 61","categoryIds":["italian"],"categories":["Italian Restaurants"]},{"id":"italianRestaurants_ec803e4a09b8","slug":"etien-pizza-bar-ec80","kind":"restaurant","name":"Etien Pizza Bar","lat":38.00546047638011,"lng":23.78575711022555,"url":"https://maps.app.goo.gl/fXUuPjTevur2Va5m8?g_st=ipc","address":"25ης Μαρτίου 28, Νέο Ψυχικό 154 51","categoryIds":["italian"],"categories":["Italian Restaurants"]},{"id":"italianRestaurants_11b5c7ddc2cb","slug":"lolita-s-athens-11b5","kind":"restaurant","name":"Lolita's Athens","lat":38.00900399306317,"lng":23.779848762939032,"url":"https://maps.app.goo.gl/yBBC5XtbjE87q2fEA?g_st=ipc","address":"Λεωφ. Κηφισίας 340, Νέο Ψυχικό 154 51","categoryIds":["italian"],"categories":["Italian Restaurants"]},{"id":"italianRestaurants_6c7a694e9681","slug":"kentrina-6c7a","kind":"restaurant","name":"Kentrina","lat":38.013966629254554,"lng":23.786077267676728,"url":"https://maps.app.goo.gl/3jtSyfSCsogG92777?g_st=ipc","address":"Likourgou, Chalandri 152 31","categoryIds":["italian"],"categories":["Italian Restaurants"]},{"id":"italianRestaurants_9ab88b8b6007","slug":"innamorata-9ab8","kind":"restaurant","name":"Innamorata","lat":38.01461502802222,"lng":23.785308731358,"url":"https://maps.app.goo.gl/6pHzTzWoidEixrLw8?g_st=ipc","address":"Likourgou 5Α, Chalandri 152 31","categoryIds":["italian"],"categories":["Italian Restaurants"]},{"id":"italianRestaurants_fbd799de8573","slug":"parlo-restaurant-fbd7","kind":"restaurant","name":"Parlo Restaurant","lat":37.99920315769846,"lng":23.772042235397578,"url":"https://maps.app.goo.gl/x9LunWYHnZkLF3B68?g_st=ipc","address":"Αδριανείου 25Α, Αθήνα 115 25","categoryIds":["italian"],"categories":["Italian Restaurants"]},{"id":"italianRestaurants_239ca6b05a02","slug":"tale-koyale-239c","kind":"restaurant","name":"ΤΑΛΕ ΚΟΥΑΛΕ","lat":37.998832186045824,"lng":23.771946797243086,"url":"https://maps.app.goo.gl/yxs9qh1QSGqVTa1R6?g_st=ipc","address":"Αδριανείου 20, Αθήνα 115 25","categoryIds":["italian"],"categories":["Italian Restaurants"]}],"nearby":[{"id":"cheapEatsRestaurants_03694aa725a0","slug":"geysidromio-0369","kind":"restaurant","name":"Γευσηδρόμιο","lat":38.00041852140095,"lng":23.792910266059533,"url":"https://maps.app.goo.gl/NVZiDeS8yd6auwo78?g_st=ipc","address":"Ασπασίας 63, Χολαργός 155 61","categoryIds":["cheap-eats"],"categories":["Gyros & Cheap Eats"],"distanceKm":0.01153859413271722},{"id":"cheapEatsRestaurants_4884ead367e7","slug":"platanos-kempap-soyvlaki-4884","kind":"restaurant","name":"Πλάτανος Κεμπάπ-Σουβλάκι","lat":38.00070110906074,"lng":23.792623402226006,"url":"https://maps.app.goo.gl/mqGbLZnM6T5sQ3YF9?g_st=ipc","address":"Βουτσινά 66, Χολαργός 155 61","categoryIds":["cheap-eats"],"categories":["Gyros & Cheap Eats"],"distanceKm":0.042275839367775556},{"id":"coffeeBrunchRestaurants_848168a5d6a3","slug":"cornell-8481","kind":"restaurant","name":"Cornell","lat":38.00169766553315,"lng":23.79390617469456,"url":"https://maps.app.goo.gl/GzFQB9fD18CsSH7k9?g_st=ipc","address":"Αετιδέων 18 &, Βουτσινά, Χολαργός 155 61","categoryIds":["coffee-brunch"],"categories":["Coffee & Brunch Spots"],"distanceKm":0.17789900618212648},{"id":"burgersRestaurants_97ab28e57798","slug":"f-smashing-cholargos-97ab","kind":"restaurant","name":"F* Smashing Cholargos","lat":38.00204211707431,"lng":23.791067777673266,"url":"https://maps.app.goo.gl/VHtz6unCWyzdNiiZ8?g_st=ipc","address":"Λεωφ. Μεσογείων 206, Χολαργός 155 61","categoryIds":["burgers"],"categories":["Burger Spots"],"distanceKm":0.24226637237891588},{"id":"asianRestaurants_0a06ecfadcd2","slug":"shisan-sushi-bar-0a06","kind":"restaurant","name":"Shisan Sushi Bar","lat":38.001841672610425,"lng":23.790637059082073,"url":"https://maps.app.goo.gl/EPmJ2jqs6hWddn566?g_st=ipc","address":"Μεσογείων 204, Χολαργός 155 61","categoryIds":["asian"],"categories":["Asian Restaurants"],"distanceKm":0.2525010776493253},{"id":"greekRestaurants_01e264743001","slug":"fysarmonika-mezedopoteion-01e2","kind":"restaurant","name":"Φυσαρμόνικα Μεζεδοποτείον","lat":38.00112458767409,"lng":23.7879961644195,"url":"https://maps.app.goo.gl/v3uZu1tCQdfHr7kAA?g_st=ipc","address":"Λεωφ. Μεσογείων 180, Χολαργός 155 61","categoryIds":["greek-restaurants"],"categories":["Greek Restaurants"],"distanceKm":0.4305376646743508},{"id":"burgersRestaurants_2779a1763d04","slug":"juicy-grill-athens-2779","kind":"restaurant","name":"Juicy Grill Athens","lat":37.999820550809126,"lng":23.797970198704302,"url":"https://maps.app.goo.gl/KoWkVLRYW6WDrfte9?g_st=ipc","address":"Λεωφ. Περικλέους 37, Χολαργός 155 61","categoryIds":["burgers"],"categories":["Burger Spots"],"distanceKm":0.4559248474407562},{"id":"coffeeBrunchRestaurants_e4c2bdc534b9","slug":"bookali-e4c2","kind":"restaurant","name":"bookAli","lat":38.00429979988101,"lng":23.794394502333493,"url":"https://maps.app.goo.gl/36ShHJ9gS1j7CesG9?g_st=ipc","address":"Λεωφ. Μεσογείων 236, Χολαργός 155 61","categoryIds":["coffee-brunch"],"categories":["Coffee & Brunch Spots"],"distanceKm":0.4605288223484536}],"sameRegion":[]},"__N_SSG":true}