{"pageProps":{"entity":{"id":"municipalities_96e3494c5454","slug":"polichni-96e3","kind":"municipality","name":"Πολίχνη","lat":40.6694,"lng":22.9481,"region":"Δυτική Θεσσαλονίκη","name_en":"Polichni","region_en":"West Thessaloniki"},"sameCategory":[],"nearby":[{"id":"italianRestaurants_753fa8defec2","slug":"raffaele-pizza-pasta-753f","kind":"restaurant","name":"Raffaele Pizza & Pasta","lat":40.66556499607672,"lng":22.94711551769067,"url":"https://maps.app.goo.gl/EpFwtHWFaS5GMZ8C9?g_st=ipc","address":"40.6655613219397, 22.94711932792721","categoryIds":["italian"],"categories":["Italian Restaurants"],"distanceKm":0.434441678599347},{"id":"fishTavernasRestaurants_bc4a7296f096","slug":"ouzo-jordan-bc4a","kind":"restaurant","name":"Ouzo Jordan","lat":40.66214244715697,"lng":22.949433655289134,"url":"https://maps.app.goo.gl/sSPrTBB7crBhtfLs6?g_st=ipc","address":"Stadiou 6, Thessaloniki 565 33","categoryIds":["fish-tavernas"],"categories":["Fish Tavernas"],"distanceKm":0.8148048789952029},{"id":"fishTavernasRestaurants_bd9876636f9e","slug":"to-steki-tou-psara-bd98","kind":"restaurant","name":"To steki tou psara","lat":40.66006472959922,"lng":22.944806880091097,"url":"https://maps.app.goo.gl/7KH5KmXVrcaeNEh36","address":"Agnostou Stratiotou 33, Polichni 565 33","categoryIds":["fish-tavernas"],"categories":["Fish Tavernas"],"distanceKm":1.0745539700524653},{"id":"familyFriendly_91fdc1b07999","slug":"parko-tzeni-karezi-91fd","kind":"restaurant","name":"Πάρκο Τζένη Καρέζη","lat":40.65858356268694,"lng":22.948886429553223,"url":"https://maps.app.goo.gl/GLfxf6LcGPn5DhUJA?g_st=ipc","address":"Polichni 565 32","categoryIds":["family-friendly"],"categories":["Kid Friendly Locations"],"distanceKm":1.204560725824739},{"id":"cheapEatsRestaurants_07b527cd1a8e","slug":"dia-xoiros-polixni-07b5","kind":"restaurant","name":"Dia Xoiros Polixni","lat":40.658685525095265,"lng":22.942609620515523,"url":"https://maps.app.goo.gl/4YvZLZyRTdLs8Tpz7?g_st=ipc","address":"Agnostou Stratiotou 13, Polichni 565 33","categoryIds":["cheap-eats"],"categories":["Gyros & Cheap Eats"],"distanceKm":1.2782321159580274},{"id":"municipalities_9d384c0445ca","slug":"stayroypoli-9d38","kind":"municipality","name":"Σταυρούπολη","lat":40.6667,"lng":22.9333,"region":"Δυτική Θεσσαλονίκη","name_en":"Stavroupoli","region_en":"West Thessaloniki","distanceKm":1.2838458114769637},{"id":"cheapEatsRestaurants_30688d61885b","slug":"steakhouse-stelios-3068","kind":"restaurant","name":"Steakhouse \"Stelios\"","lat":40.65823566269056,"lng":22.942075529553357,"url":"https://maps.app.goo.gl/9ryfqmhFoEZjSBu89?g_st=ipc","address":"Agnostou Stratiotou 40, Polichni 565 33","categoryIds":["cheap-eats"],"categories":["Gyros & Cheap Eats"],"distanceKm":1.3413899190353935},{"id":"coffeeBrunchRestaurants_964653005e5d","slug":"maharaja-skg-heaven-of-shisha-9646","kind":"restaurant","name":"MAHARAJA SKG - Heaven of Shisha","lat":40.658033849704225,"lng":22.941967646222036,"url":"https://maps.app.goo.gl/Ct3Z2v1aCBYrtE5k9?g_st=ipc","address":"Agnostou Stratiotou 36, Polichni 565 33","categoryIds":["coffee-brunch"],"categories":["Coffee & Brunch Spots"],"distanceKm":1.3656054119444112}],"sameRegion":[{"id":"municipalities_2ba5701b87ab","slug":"ampelokipoi-menemeni-2ba5","kind":"municipality","name":"Αμπελόκηποι - Μενεμένη","lat":40.6589,"lng":22.9083,"region":"Δυτική Θεσσαλονίκη","name_en":"Ampelokipoi - Menemeni","region_en":"West Thessaloniki"},{"id":"municipalities_52e9dfbeced3","slug":"neapoli-sykies-52e9","kind":"municipality","name":"Νεάπολη - Συκιές","lat":40.653,"lng":22.958,"region":"Δυτική Θεσσαλονίκη","name_en":"Neapoli - Sykies","region_en":"West Thessaloniki"},{"id":"municipalities_5a61c4b30038","slug":"kordelio-eyosmos-5a61","kind":"municipality","name":"Κορδελιό - Ευόσμος","lat":40.6708,"lng":22.8819,"region":"Δυτική Θεσσαλονίκη","name_en":"Kordelio - Evosmos","region_en":"West Thessaloniki"},{"id":"municipalities_9d384c0445ca","slug":"stayroypoli-9d38","kind":"municipality","name":"Σταυρούπολη","lat":40.6667,"lng":22.9333,"region":"Δυτική Θεσσαλονίκη","name_en":"Stavroupoli","region_en":"West Thessaloniki"},{"id":"municipalities_fd387f77da75","slug":"eleytherio-kordelio-fd38","kind":"municipality","name":"Ελευθέριο - Κορδελιό","lat":40.6717,"lng":22.8936,"region":"Δυτική Θεσσαλονίκη","name_en":"Eleftherio - Kordelio","region_en":"West Thessaloniki"}]},"__N_SSG":true}