{"pageProps":{"entity":{"id":"fishTavernasRestaurants_85d0b9f93ad9","slug":"psipsina-athinaiki-psarotaverna-85d0","kind":"restaurant","name":"Ψιψίνα - Αθηναϊκή Ψαροταβέρνα","lat":37.932530674886344,"lng":23.698986064990937,"url":"https://maps.app.goo.gl/Acz6F4ajfzUYXq7y7?g_st=ipc","address":"Colonel Zisimopoulos, 96, Athina 175 61","categoryIds":["fish-tavernas"],"categories":["Fish Tavernas"]},"sameCategory":[{"id":"fishTavernasRestaurants_a7fb3513622e","slug":"liogerma-tis-athinas-a7fb","kind":"restaurant","name":"Λιόγερμα της Αθήνας","lat":37.938563581924875,"lng":23.703200039765804,"url":"https://maps.app.goo.gl/uLKm2p4zN326i9gP8?g_st=ipc","address":"Νέστορος 21, Παλαιό Φάληρο 175 61","categoryIds":["fish-tavernas"],"categories":["Fish Tavernas"]},{"id":"fishTavernasRestaurants_d3ccb775792b","slug":"pezoylas-apo-to-1951-d3cc","kind":"restaurant","name":"ΠΕΖΟΥΛΑΣ (από το 1951)","lat":37.941197029624846,"lng":23.689708276473834,"url":"https://maps.app.goo.gl/wNokkeuemmPoYfgR7?g_st=ipc","address":"Πεισίστρατου 11, Καλλιθέα 176 74","categoryIds":["fish-tavernas"],"categories":["Fish Tavernas"]},{"id":"fishTavernasRestaurants_074f55a0dc1f","slug":"argoyra-074f","kind":"restaurant","name":"Άργουρα","lat":37.94571544668026,"lng":23.686046120341317,"url":"https://maps.app.goo.gl/1kvNDFxr5cv6uWZC9?g_st=ipc","address":"Αγησιλάου 49, Καλλιθέα 176 75","categoryIds":["fish-tavernas"],"categories":["Fish Tavernas"]},{"id":"fishTavernasRestaurants_5ca9e8498c91","slug":"porto-spyros-psarotaverna-5ca9","kind":"restaurant","name":"Porto Spyros Ψαροταβέρνα","lat":37.912061800224556,"lng":23.708912866162887,"url":"https://maps.app.goo.gl/DbA3c4zjWgt9uetk7?g_st=ipc","address":"Μαρίνα, Άλιμος 174 55","categoryIds":["fish-tavernas"],"categories":["Fish Tavernas"]},{"id":"fishTavernasRestaurants_948960a20968","slug":"piscis-mikrolimano-9489","kind":"restaurant","name":"PISCIS (Mikrolimano)","lat":37.938490522505944,"lng":23.659032074228165,"url":"https://maps.app.goo.gl/MsZEdpRYJ8p1nqmj9?g_st=ipc","address":"Ακτή Κουμουνδούρου 30, Πειραιάς 185 33","categoryIds":["fish-tavernas"],"categories":["Fish Tavernas"]},{"id":"fishTavernasRestaurants_159bf25520a5","slug":"varoulko-seaside-restaurant-159b","kind":"restaurant","name":"Varoulko Seaside Restaurant","lat":37.93728962950612,"lng":23.658502308499486,"url":"https://maps.app.goo.gl/hXejEzhnCFuwNgQb8?g_st=ipc","address":"Ακτή Κουμουνδούρου 54, Πειραιάς 185 33","categoryIds":["fish-tavernas"],"categories":["Fish Tavernas"]},{"id":"fishTavernasRestaurants_2686f1888d4d","slug":"jimmy-s-fish-2686","kind":"restaurant","name":"Jimmy's Fish","lat":37.937411300998484,"lng":23.658441347658343,"url":"https://maps.app.goo.gl/14E3gTprwmDfYzgz9?g_st=ipc","address":"Ακτή Κουμουνδούρου 52, Πειραιάς 185 33","categoryIds":["fish-tavernas"],"categories":["Fish Tavernas"]},{"id":"fishTavernasRestaurants_edc276d1ee37","slug":"papalina-edc2","kind":"restaurant","name":"Παπαλίνα","lat":37.96476188274757,"lng":23.713898599739846,"url":"https://maps.app.goo.gl/JpVSQDpzvzWZWivJ9?g_st=ipc","address":"Πραμάντων 20, Αθήνα 117 41","categoryIds":["fish-tavernas"],"categories":["Fish Tavernas"]}],"nearby":[{"id":"greekRestaurants_30ac8464e0c3","slug":"kyr-aristos-30ac","kind":"restaurant","name":"Κυρ Αρίστος","lat":37.932597935183146,"lng":23.699203294233197,"url":"https://maps.app.goo.gl/EQaiuBpPZq633dxa7?g_st=ipc","address":"Zisimopoulou 96, Paleo Faliro 175 64","categoryIds":["greek-restaurants"],"categories":["Greek Restaurants"],"distanceKm":0.020467136526231233},{"id":"italianRestaurants_fb4db3d6df69","slug":"akakios-makaronadiko-fb4d","kind":"restaurant","name":"Ακάκιος μακαρονάδικο","lat":37.932532942991465,"lng":23.699425438393305,"url":"https://maps.app.goo.gl/Mjwxjxeqf2KWt2Hq5?g_st=ipc","address":"Αγίας Τριάδος 1, Παλαιό Φάληρο 175 64","categoryIds":["italian"],"categories":["Italian Restaurants"],"distanceKm":0.038535344526564264},{"id":"dessertsRestaurants_39196d9bee61","slug":"fatto-a-mano-3919","kind":"restaurant","name":"Fatto a Mano","lat":37.93356989313718,"lng":23.69912680674615,"url":"https://maps.app.goo.gl/6dQNxoEQLFVCyt9ZA?g_st=ipc","address":"Ζησιμοπούλου 86, Παλαιό Φάληρο 175 64","categoryIds":["desserts"],"categories":["Dessert Shops"],"distanceKm":0.11621317773900065},{"id":"dessertsRestaurants_4a419c4649f4","slug":"zacharoplasteia-kosmikon-p-faliro-4a41","kind":"restaurant","name":"ΖΑΧΑΡΟΠΛΑΣΤΕΙΑ ΚΟΣΜΙΚΟΝ Π.ΦΑΛΗΡΟ","lat":37.93261968622875,"lng":23.696837541827062,"url":"https://maps.app.goo.gl/JkkxEzmScmoGgm2v7?g_st=ipc","address":"Αγίου Αλεξάνδρου, Ζησιμοπούλου &, Παλαιό Φάληρο 175 61","categoryIds":["desserts"],"categories":["Dessert Shops"],"distanceKm":0.188692329440375},{"id":"greekRestaurants_842cd50fd946","slug":"mpampis-taverna-842c","kind":"restaurant","name":"Μπάμπης Ταβέρνα","lat":37.93493015100239,"lng":23.70154955498321,"url":"https://maps.app.goo.gl/SyFUZSdaS3SB5Mm48","address":"Λεωφ. Αμφιθέας 73, Παλαιό Φάληρο 175 64","categoryIds":["greek-restaurants"],"categories":["Greek Restaurants"],"distanceKm":0.3489021719455432},{"id":"dessertsRestaurants_84508f8235f2","slug":"zuccherino-8450","kind":"restaurant","name":"Zuccherino","lat":37.93016519402215,"lng":23.696227697191645,"url":"https://maps.app.goo.gl/tbe5oMETgxZAQkFK9?g_st=ipc","address":"Πρωτέως & Σειρήνων 48, Παλαιό Φάληρο 175 61","categoryIds":["desserts"],"categories":["Dessert Shops"],"distanceKm":0.3573664126384765},{"id":"coffeeBrunchRestaurants_c3b8d7875a67","slug":"upon-c3b8","kind":"restaurant","name":"UPON","lat":37.93165635013146,"lng":23.70322472978882,"url":"https://maps.app.goo.gl/yP6xS2xksJBA1Z4u7?g_st=ipc","address":"Dimokratias 33, Paleo Faliro 175 64","categoryIds":["coffee-brunch"],"categories":["Coffee & Brunch Spots"],"distanceKm":0.3842497750363846},{"id":"burgersRestaurants_e2eccf34c175","slug":"hanky-panky-palaio-faliro-e2ec","kind":"restaurant","name":"Hanky Panky Palaio Faliro","lat":37.93089466239992,"lng":23.703396088291395,"url":"https://maps.app.goo.gl/psmqWjAqwrakd1ww7?g_st=ipc","address":"Πλ. Νταβάρη 2, Παλαιό Φάληρο 175 64","categoryIds":["burgers"],"categories":["Burger Spots"],"distanceKm":0.4274235074823825}],"sameRegion":[]},"__N_SSG":true}