{"pageProps":{"entity":{"id":"mustSeeAttractions_b999049b5fec","slug":"roman-basilica-b999","kind":"restaurant","name":"Roman Basilica","lat":37.97583750461877,"lng":23.723867490000497,"url":"https://maps.app.goo.gl/ij6x92mGVau3FvST9?g_st=ipc","address":"Αδριανού 27, Αθήνα 105 55","categoryIds":["attractions"],"categories":["Must-See Attractions"]},"sameCategory":[{"id":"mustSeeAttractions_fa2e6a808026","slug":"archaia-agora-athinon-fa2e","kind":"restaurant","name":"Αρχαία Αγορά Αθηνών","lat":37.97489898202124,"lng":23.722093444133804,"url":"https://maps.app.goo.gl/ofAbPpuVbSmGyHGy7?g_st=ipc","address":"Αθήνα 105 55","categoryIds":["attractions"],"categories":["Must-See Attractions"]},{"id":"mustSeeAttractions_241beda98c80","slug":"plateia-monastirakioy-241b","kind":"restaurant","name":"Πλατεία Μοναστηρακίου","lat":37.97640816584317,"lng":23.725886410870196,"url":"https://maps.app.goo.gl/BWatUxUvLvu5LHMP9?g_st=ipc","address":"Απόλλωνος 21, Αθήνα 105 57","categoryIds":["attractions"],"categories":["Must-See Attractions"]},{"id":"mustSeeAttractions_4878dd7452cc","slug":"vivliothiki-toy-adrianoy-4878","kind":"restaurant","name":"Βιβλιοθήκη του Αδριανού","lat":37.975502314737916,"lng":23.726030220996723,"url":"https://maps.app.goo.gl/Mr5MTi9dXGy4Y8Gt5?g_st=ipc","address":"Κ, Άρεως 3, Τ, Αθήνα 105 55","categoryIds":["attractions"],"categories":["Must-See Attractions"]},{"id":"mustSeeAttractions_4e551e61d3d7","slug":"gate-of-athena-archegetis-4e55","kind":"restaurant","name":"Gate of Athena Archegetis","lat":37.974568649716346,"lng":23.725518029561396,"url":"https://maps.app.goo.gl/DQtGJPqpneygKtHk7?g_st=ipc","address":"Διοσκούρων, Epaminonda &, Athina 105 55","categoryIds":["attractions"],"categories":["Must-See Attractions"]},{"id":"mustSeeAttractions_f836a18a6282","slug":"naos-toy-ifaistoy-f836","kind":"restaurant","name":"Ναός του Ηφαίστου","lat":37.9755941105574,"lng":23.721451459878914,"url":"https://maps.app.goo.gl/auHh3GwXgN8RTikx6?g_st=ipc","address":"Αθήνα 105 55","categoryIds":["attractions"],"categories":["Must-See Attractions"]},{"id":"mustSeeAttractions_1d05d319a6bb","slug":"psyrri-1d05","kind":"restaurant","name":"Ψυρρή","lat":37.9780643555903,"lng":23.723930742700833,"url":"https://maps.app.goo.gl/JcpJbaRT1V7eBHEa9?g_st=ipc","address":"Αθήνα 105 54","categoryIds":["attractions"],"categories":["Must-See Attractions"]},{"id":"mustSeeAttractions_c2101de8cfd4","slug":"romaiki-agora-athinon-c210","kind":"restaurant","name":"Ρωμαϊκή Αγορά Αθηνών","lat":37.974304073145795,"lng":23.72610046442621,"url":"https://maps.app.goo.gl/ix2gNhhwsMZiBHES8?g_st=ipc","address":"Πολυγνώτου 3, Αθήνα 105 55","categoryIds":["attractions"],"categories":["Must-See Attractions"]},{"id":"mustSeeAttractions_2a618ba12cb4","slug":"aerides-2a61","kind":"restaurant","name":"Αέρηδες","lat":37.97449623338425,"lng":23.727043202053398,"url":"https://maps.app.goo.gl/djGFTxoDCCB83eyN6?g_st=ipc","address":"Αθήνα 105 55","categoryIds":["attractions"],"categories":["Must-See Attractions"]}],"nearby":[{"id":"vegetarianRestaurants_f6b4938b2d93","slug":"happy-blender-f6b4","kind":"restaurant","name":"HAPPY BLENDER","lat":37.97632639671211,"lng":23.72337814744719,"url":"https://maps.app.goo.gl/CNcvWTpCEhrBWFrb6?g_st=ipc","address":"Ηφαίστου 39, Αθήνα 105 55","categoryIds":["vegetarian"],"categories":["Vegetarian Friendly Restaurants"],"distanceKm":0.069245551906399},{"id":"municipalities_2bcfcb8b899f","slug":"psyrri-2bcf","kind":"municipality","name":"Ψυρρή","lat":37.9761,"lng":23.7246,"aliases":["Psirri","Psyrri"],"region":"Κέντρο Αθήνας","name_en":"Psyrri","region_en":"Athens Center","distanceKm":0.07052877277643664},{"id":"rooftopLoungesRestaurants_a6f3f7763fdc","slug":"cafe-avissinia-a6f3","kind":"restaurant","name":"Cafe Avissinia","lat":37.976617858661804,"lng":23.723660269964185,"url":"https://maps.app.goo.gl/XrFr3v9aufbhaUdc7?g_st=ipc","address":"Κυνέτου 7, Αθήνα 105 55","categoryIds":["rooftop-lounges"],"categories":["Rooftop Lounges"],"distanceKm":0.08865198982479855},{"id":"dessertsRestaurants_2d2fecfa00e3","slug":"mona-lisa-l-atelier-del-gelato-athens-2d2f","kind":"restaurant","name":"Mona Lisa L' Atelier Del Gelato | Athens","lat":37.9757494300935,"lng":23.72490107398961,"url":"https://maps.app.goo.gl/rBV4LZwssuXLxfZU8?g_st=ipc","address":"Αδριανού 48, Αθήνα 105 55","categoryIds":["desserts"],"categories":["Dessert Shops"],"distanceKm":0.0911232089978397},{"id":"greekRestaurants_ccfa82da91ec","slug":"cafe-avissinia-ccfa","kind":"restaurant","name":"Cafe Avissinia","lat":37.97665935435758,"lng":23.723658874040776,"url":"https://maps.app.goo.gl/vKinr3WBQjy8EYru8","address":"Κυνέτου 7, Αθήνα 105 55","categoryIds":["greek-restaurants"],"categories":["Greek Restaurants"],"distanceKm":0.09319694511460407},{"id":"greekRestaurants_e684531e1c90","slug":"to-kyklamino-e684","kind":"restaurant","name":"Το Κυκλάμινο","lat":37.976681511235476,"lng":23.724107441529995,"url":"https://maps.app.goo.gl/9UGJoEFr8WGupZtP9","address":"Πλ. Αβησσυνίας 3, Αθήνα 105 55","categoryIds":["greek-restaurants"],"categories":["Greek Restaurants"],"distanceKm":0.09617706944996104},{"id":"dessertsRestaurants_225c3d4d20c4","slug":"lartecono-davinci-gelato-monastiraki-225c","kind":"restaurant","name":"Lartecono Davinci Gelato (Monastiraki)","lat":37.97572321950476,"lng":23.72502143325919,"url":"https://maps.app.goo.gl/oGqQ5yg8faLuCoD76?g_st=ipc","address":"Αδριανού 50, Αθήνα 105 55","categoryIds":["desserts"],"categories":["Dessert Shops"],"distanceKm":0.10194031029672436},{"id":"rooftopLoungesRestaurants_fd2aeb4fbf06","slug":"couleur-locale-fd2a","kind":"restaurant","name":"Couleur Locale","lat":37.97665657873508,"lng":23.724495249053955,"url":"https://maps.app.goo.gl/xcPngBCfpyfPpqpi9?g_st=ipc","address":"Νορμανού 3, Αθήνα 105 55","categoryIds":["rooftop-lounges"],"categories":["Rooftop Lounges"],"distanceKm":0.10640779839820419}],"sameRegion":[]},"__N_SSG":true}