{"pageProps":{"entity":{"id":"fishTavernasRestaurants_f4426065c5a4","slug":"sardelaki-me-thea-f442","kind":"restaurant","name":"Σαρδελάκι με θέα","lat":37.80897457022261,"lng":23.782330412997638,"url":"https://maps.app.goo.gl/6zBxpoBupuA67wwt8?g_st=ipc","address":"Λεωφ. Ποσειδώνος 18, Βουλιαγμένη 166 71","categoryIds":["fish-tavernas"],"categories":["Fish Tavernas"]},"sameCategory":[{"id":"fishTavernasRestaurants_a752a7fe8192","slug":"matsuhisa-athens-a752","kind":"restaurant","name":"Matsuhisa Athens","lat":37.806991167366505,"lng":23.7721702530857,"url":"https://maps.app.goo.gl/kX1Hohg5k4FcqjgeA?g_st=ipc","address":"40, Απόλλωνος street, Βουλιαγμένη 166 71","categoryIds":["fish-tavernas"],"categories":["Fish Tavernas"]},{"id":"fishTavernasRestaurants_eb690c18b7db","slug":"sea-satin-athens-riviera-eb69","kind":"restaurant","name":"Sea Satin Athens Riviera","lat":37.840376863615674,"lng":23.760387360489776,"url":"https://maps.app.goo.gl/1QEDPDZdZC7GT8ne9?g_st=ipc","address":"Λεωφ. Κωνσταντίνου Καραμανλή 14, Βούλα 166 73","categoryIds":["fish-tavernas"],"categories":["Fish Tavernas"]},{"id":"fishTavernasRestaurants_a989c7b64d77","slug":"mparmpoynaki-glyfada-a989","kind":"restaurant","name":"Μπαρμπουνάκι Γλυφάδα","lat":37.85833613514832,"lng":23.75466359649667,"url":"https://maps.app.goo.gl/KZucjQ49PpF8K1GL7?g_st=ipc","address":"Λεωφ. Δημάρχου Αγγέλου Μεταξά 48, Γλυφάδα 166 74","categoryIds":["fish-tavernas"],"categories":["Fish Tavernas"]},{"id":"fishTavernasRestaurants_09bf347d2df8","slug":"astakos-09bf","kind":"restaurant","name":"Astakos","lat":37.861679317741114,"lng":23.746806965342177,"url":"https://maps.app.goo.gl/ZCrtkSHsj9hx9EuQA?g_st=ipc","address":"Διαδόχου Παύλου 46, Γλυφάδα 166 75","categoryIds":["fish-tavernas"],"categories":["Fish Tavernas"]},{"id":"fishTavernasRestaurants_fd7ed352bb9f","slug":"kapetan-giorgis-o-mytilinios-fd7e","kind":"restaurant","name":"Καπετάν Γιώργης «Ο Μυτιληνιός»","lat":37.86441144968363,"lng":23.748467238824272,"url":"https://maps.app.goo.gl/SNmz2TBABsNaydEj9?g_st=ipc","address":"Κωνσταντινουπόλεως 9, Γλυφάδα 166 75","categoryIds":["fish-tavernas"],"categories":["Fish Tavernas"]},{"id":"fishTavernasRestaurants_3cf7850d662e","slug":"to-agkistri-3cf7","kind":"restaurant","name":"Το Αγκίστρι","lat":37.88417743586951,"lng":23.75467629204283,"url":"https://maps.app.goo.gl/tT9ydwBCoa2EgT5d7?g_st=ipc","address":"Παλμύρας 2, Γλυφάδα 165 61","categoryIds":["fish-tavernas"],"categories":["Fish Tavernas"]},{"id":"fishTavernasRestaurants_531d3190b4cc","slug":"ta-kalamia-531d","kind":"restaurant","name":"Τα Καλάμια","lat":37.79114152759292,"lng":23.879331978178946,"url":"https://maps.app.goo.gl/UabcyR39Vi7C4sYK7?g_st=ipc","address":"Αθηνων, Καλύβια Θορικού 190 10","categoryIds":["fish-tavernas"],"categories":["Fish Tavernas"]},{"id":"fishTavernasRestaurants_01155b02f60d","slug":"kyra-popi-taverna-0115","kind":"restaurant","name":"Κυρά Πόπη Ταβέρνα","lat":37.78165801312647,"lng":23.89057104630703,"url":"https://maps.app.goo.gl/inr16Vqi6f4XARj86?g_st=ipc","address":"40.5, Λεωφ. Αθηνών Σουνίου, Καλύβια Θορικού 190 10","categoryIds":["fish-tavernas"],"categories":["Fish Tavernas"]}],"nearby":[{"id":"municipalities_e38c35bbed55","slug":"voyliagmeni-e38c","kind":"municipality","name":"Βουλιαγμένη","lat":37.8095,"lng":23.7821,"region":"Νότια Προάστια","name_en":"Vouliagmeni","region_en":"Southern Suburbs","distanceKm":0.061832251020288886},{"id":"luxuryDiningRestaurants_08bbcc5a4dd6","slug":"labros-restaurant-08bb","kind":"restaurant","name":"Labros Restaurant","lat":37.8081975831625,"lng":23.78348018457994,"url":"https://maps.app.goo.gl/H6wg8L7hEhDJU9C38?g_st=ipc","address":"Λεωφ. Ποσειδώνος 20, Βουλιαγμένη 166 71","categoryIds":["luxury-dining"],"categories":["Luxury Dining"],"distanceKm":0.1329179529845124},{"id":"luxuryDiningRestaurants_42ea23e17e35","slug":"abraovata-42ea","kind":"restaurant","name":"abraOvata","lat":37.806852023213075,"lng":23.785311811319485,"url":"https://maps.app.goo.gl/XBCeyEooo1BQ3GPW6?g_st=ipc","address":"Εστιατόριο Λίμνης, Αθήνα 166 71","categoryIds":["luxury-dining"],"categories":["Luxury Dining"],"distanceKm":0.35257128676697674},{"id":"coffeeBrunchRestaurants_80a974b8dc70","slug":"estiatorio-limnis-80a9","kind":"restaurant","name":"Εστιατόριο Λίμνης","lat":37.80691600865377,"lng":23.785479129703763,"url":"https://maps.app.goo.gl/mDVVDSh15YWjZRdF9?g_st=ipc","address":"Λίμνη, Βουλιαγμένη 166 71","categoryIds":["coffee-brunch"],"categories":["Coffee & Brunch Spots"],"distanceKm":0.3590470249544877},{"id":"mustSeeAttractions_96c6dc77490d","slug":"limni-voyliagmenis-96c6","kind":"restaurant","name":"Λίμνη Βουλιαγμένης","lat":37.80708594211009,"lng":23.78595413697381,"url":"https://maps.app.goo.gl/HJESfC3rnS8i8UYa9?g_st=ipc","address":"Βουλιαγμένη 166 71","categoryIds":["attractions"],"categories":["Must-See Attractions"],"distanceKm":0.3813781961384592},{"id":"coffeeBrunchRestaurants_0b20fa30dfc5","slug":"sofi-s-eatery-0b20","kind":"restaurant","name":"Sofi’s Eatery","lat":37.81302845785067,"lng":23.782463728500748,"url":"https://maps.app.goo.gl/Pa3TPAmcLCv6SJsw5?g_st=ipc","address":"Αγίου Παντελεήμονος 7, Βουλιαγμένη 166 71","categoryIds":["coffee-brunch"],"categories":["Coffee & Brunch Spots"],"distanceKm":0.45092385049256223},{"id":"cheapEatsRestaurants_cf5c14c0c783","slug":"zachos-gkril-cf5c","kind":"restaurant","name":"Ζάχος Γκριλ","lat":37.81320496162539,"lng":23.782770964184124,"url":"https://maps.app.goo.gl/bEtWEwaW2PfwcEhW9?g_st=ipc","address":"Ερμού 1, Βουλιαγμένη 166 71","categoryIds":["cheap-eats"],"categories":["Gyros & Cheap Eats"],"distanceKm":0.4719874436160404},{"id":"greekRestaurants_cce1cd728bae","slug":"loyizidis-estiatorio-voyliagmeni-cce1","kind":"restaurant","name":"Λουιζίδης Εστιατόριο Βουλιαγμένη","lat":37.813204547074946,"lng":23.78315032705324,"url":"https://maps.app.goo.gl/DrVjHpSB5fMFZXij9","address":"Ερμού 2, Βουλιαγμένη 166 71","categoryIds":["greek-restaurants"],"categories":["Greek Restaurants"],"distanceKm":0.47583503592159426}],"sameRegion":[]},"__N_SSG":true}