{"pageProps":{"entity":{"id":"asianRestaurants_f4e606aad25d","slug":"shisan-sushi-bar-f4e6","kind":"restaurant","name":"Shisan Sushi Bar","lat":38.01364374248811,"lng":23.753228892987114,"url":"https://maps.app.goo.gl/3ZyGn2FKaLUXuMuJ9?g_st=ipc","address":"Λεωφ. Βεΐκου 7, Γαλάτσι 111 46","categoryIds":["asian"],"categories":["Asian Restaurants"]},"sameCategory":[{"id":"asianRestaurants_01f6cf956e90","slug":"hachiko-sushi-tales-cocktails-psychiko-01f6","kind":"restaurant","name":"Hachikō Sushi Tales & Cocktails Psychiko","lat":38.0061489322681,"lng":23.777100959451648,"url":"https://maps.app.goo.gl/zRs2QPwRWoXnA8cn9","address":"Olimpionikon 280, Neo Psichiko 154 51","categoryIds":["asian"],"categories":["Asian Restaurants"]},{"id":"asianRestaurants_7aa0cb0c0f53","slug":"sister-7aa0","kind":"restaurant","name":"Sister","lat":38.003216085112086,"lng":23.7757633660399,"url":"https://maps.app.goo.gl/kRDH6Sdii2eyeoRw9?g_st=ipc","address":"Περικλέους 11, Νέο Ψυχικό 154 51","categoryIds":["asian"],"categories":["Asian Restaurants"]},{"id":"asianRestaurants_4bddf7fbcbe7","slug":"street-wok-4bdd","kind":"restaurant","name":"Street Wok","lat":37.99333429542986,"lng":23.76565696133404,"url":"https://maps.app.goo.gl/xgYqVodevf1ae8hY7?g_st=ipc","address":"Ampelokipi Menemeni, Πανόρμου 115Ζ, Αθήνα 115 24","categoryIds":["asian"],"categories":["Asian Restaurants"]},{"id":"asianRestaurants_315dc41692bd","slug":"sakura-sushi-and-steak-house-315d","kind":"restaurant","name":"Sakura Sushi and Steak House","lat":37.992808848594535,"lng":23.76520165923385,"url":"https://maps.app.goo.gl/qjninjaDQmMf2fNU7","address":"Doukissis Plakentias 73, Athina 115 23","categoryIds":["asian"],"categories":["Asian Restaurants"]},{"id":"asianRestaurants_49017a334068","slug":"the-sushi-bar-4901","kind":"restaurant","name":"The Sushi Bar","lat":37.99837454773829,"lng":23.77552075939677,"url":"https://maps.app.goo.gl/US8MP4C24AbbzMtL9","address":"Geor. Vlachou 38, Athina 115 25","categoryIds":["asian"],"categories":["Asian Restaurants"]},{"id":"asianRestaurants_6980a2c0f36c","slug":"rawbata-6980","kind":"restaurant","name":"RawBata","lat":37.991621984562435,"lng":23.76287776299424,"url":"https://maps.app.goo.gl/j57HrF6nf6youYLV8","address":"Lakonias 33, Athina 115 23","categoryIds":["asian"],"categories":["Asian Restaurants"]},{"id":"asianRestaurants_b60f010973e9","slug":"street-wok-b60f","kind":"restaurant","name":"Street wok","lat":38.03415849667832,"lng":23.737420165783373,"url":"https://maps.app.goo.gl/Cza8DpNsdEHX73EB8?g_st=ipc","address":"Βρυούλων 4, Νέα Φιλαδέλφεια Αττικής 143 41","categoryIds":["asian"],"categories":["Asian Restaurants"]},{"id":"asianRestaurants_a37aef170d67","slug":"koyasan-in-philadelphia-a37a","kind":"restaurant","name":"KoYaSan in Philadelphia","lat":38.03582601502679,"lng":23.738913649887014,"url":"https://maps.app.goo.gl/pE1beFfDZ9181rp76?g_st=ipc","address":"Λεωφ. Δεκελείας 122, Νέα Φιλαδέλφεια Αττικής 143 41","categoryIds":["asian"],"categories":["Asian Restaurants"]}],"nearby":[{"id":"dessertsRestaurants_3c1566b87f0f","slug":"galaktopoleio-stamoy-galatsi-attikis-3c15","kind":"restaurant","name":"Γαλακτοπωλείο ΣΤΑΜΟΥ, Γαλάτσι Αττικής","lat":38.01421938915903,"lng":23.75342305374386,"url":"https://maps.app.goo.gl/n8JWXhCzyJJxjNQv5?g_st=ipc","address":"Λεωφ. Βεΐκου 9, Γαλάτσι 111 46","categoryIds":["desserts"],"categories":["Dessert Shops"],"distanceKm":0.0662305050928582},{"id":"greekRestaurants_24b930305a8e","slug":"leykes-24b9","kind":"restaurant","name":"Λεύκες","lat":38.01369593012145,"lng":23.750720348183243,"url":"https://maps.app.goo.gl/f11Mf8a6b4eezgj29","address":"Λεωφ. Γαλατσίου 100, Γαλάτσι 111 46","categoryIds":["greek-restaurants"],"categories":["Greek Restaurants"],"distanceKm":0.21984133823625887},{"id":"greekRestaurants_fa7cc6bab7be","slug":"lefkes-on-the-side-fa7c","kind":"restaurant","name":"Lefkes on the Side","lat":38.013850196604025,"lng":23.75041166079297,"url":"https://maps.app.goo.gl/bBjijsL8Z595BXhZ7","address":"Λεωφ. Γαλατσίου 98, Γαλάτσι 111 46","categoryIds":["greek-restaurants"],"categories":["Greek Restaurants"],"distanceKm":0.24787283674235822},{"id":"dessertsRestaurants_6128b9a38565","slug":"zante-6128","kind":"restaurant","name":"Zante","lat":38.01329808317404,"lng":23.75625779357789,"url":"https://maps.app.goo.gl/vdA9XUPFa7M3vbdi7?g_st=ipc","address":"Ελ. Βενιζέλου 21, Γαλάτσι 111 47","categoryIds":["desserts"],"categories":["Dessert Shops"],"distanceKm":0.2681211830366598},{"id":"italianRestaurants_c18420cfda0e","slug":"pizzamore-c184","kind":"restaurant","name":"Pizzamore","lat":38.01171283477954,"lng":23.755383909223237,"url":"https://maps.app.goo.gl/kYHyarXW2TAM2VEr9?g_st=ipc","address":"Πρωτοπαπαδάκη 20, Γαλάτσι 111 47","categoryIds":["italian"],"categories":["Italian Restaurants"],"distanceKm":0.2859074137921927},{"id":"dessertsRestaurants_9a1aa3339c46","slug":"eva-9a1a","kind":"restaurant","name":"Eva","lat":38.015131929032286,"lng":23.750456340002337,"url":"https://maps.app.goo.gl/GBYXZRmRKUPq81F8A?g_st=ic","address":"Karaiskaki 16, Galatsi 111 46","categoryIds":["desserts"],"categories":["Dessert Shops"],"distanceKm":0.2939036512209986},{"id":"municipalities_5c4c490c8c5a","slug":"galatsi-5c4c","kind":"municipality","name":"Γαλάτσι","lat":38.0167,"lng":23.75,"aliases":["Galatsi","Galatsia","Γαλατσι","Galatsion"],"region":"Βόρεια Προάστια","name_en":"Galatsi","region_en":"Northern Suburbs","distanceKm":0.44215910895419336},{"id":"coffeeBrunchRestaurants_a919b680f3b5","slug":"48-a919","kind":"restaurant","name":"48","lat":38.018274408105384,"lng":23.755916271922057,"url":"https://maps.app.goo.gl/PcD6G1TEsbi1swU57?g_st=ipc","address":"Λεωφ. Βεΐκου 48, Γαλάτσι 111 47","categoryIds":["coffee-brunch"],"categories":["Coffee & Brunch Spots"],"distanceKm":0.5661743372088215}],"sameRegion":[]},"__N_SSG":true}