{"pageProps":{"entity":{"id":"burgersRestaurants_54aa085a6ef8","slug":"sinners-smash-burgers-54aa","kind":"restaurant","name":"Sinners Smash Burgers","lat":40.57608642412674,"lng":22.98935981589618,"url":"https://maps.app.goo.gl/Y2NDJtMWMoJrutpZ6?g_st=ipc","address":"Στέλιου Καζαντζίδη 31, Pilea 555 35","categoryIds":["burgers"],"categories":["Burger Spots"]},"sameCategory":[{"id":"burgersRestaurants_b86427ec820e","slug":"sinners-smash-burgers-b864","kind":"restaurant","name":"Sinners Smash Burgers","lat":40.57608880508892,"lng":22.98935953763216,"url":"https://maps.app.goo.gl/Heh5zCdrerDYVGwPA?g_st=ic","address":"Στέλιου Καζαντζίδη 31, Pilea 555 35","categoryIds":["burgers"],"categories":["Burger Spots"]},{"id":"burgersRestaurants_d89b00739d36","slug":"sinners-smash-burgers-d89b","kind":"restaurant","name":"Sinners Smash Burgers","lat":40.576089708999454,"lng":22.989358987182698,"url":"https://maps.app.goo.gl/Y2NDJtMWMoJrutpZ6?g_st=ipc","address":"Στέλιου Καζαντζίδη 31, Pilea 555 35","categoryIds":["burgers"],"categories":["Burger Spots"]},{"id":"burgersRestaurants_0e849e927ac2","slug":"jacaranda-0e84","kind":"restaurant","name":"Jacaranda","lat":40.583003675526406,"lng":22.982558353324826,"url":"https://maps.app.goo.gl/ya9CqK4xiDjFjhjH9?g_st=ic","address":"Στέλιου Καζαντζίδη 24, Pilea 555 35","categoryIds":["burgers"],"categories":["Burger Spots"]},{"id":"burgersRestaurants_c2797cbf1cc8","slug":"jacaranda-c279","kind":"restaurant","name":"Jacaranda","lat":40.583007556132294,"lng":22.982557958626895,"url":"https://maps.app.goo.gl/1GxBYUFXBeTUU8iq6?g_st=ipc","address":"Στέλιου Καζαντζίδη 24, Pilea 555 35","categoryIds":["burgers"],"categories":["Burger Spots"]},{"id":"burgersRestaurants_8f11f76e2e42","slug":"maverick-handmade-street-food-8f11","kind":"restaurant","name":"MAVERICK Handmade Street Food","lat":40.5733294711661,"lng":22.971759802516267,"url":"https://maps.app.goo.gl/Bc8D8iLK2oBQoFcm8?g_st=ipc","address":"Eth. Antistaseos 179, Kalamaria 551 34","categoryIds":["burgers"],"categories":["Burger Spots"]},{"id":"burgersRestaurants_7eb0efeaa764","slug":"maverick-handmade-street-food-7eb0","kind":"restaurant","name":"MAVERICK Handmade Street Food","lat":40.573329136680016,"lng":22.971759535522626,"url":"https://maps.app.goo.gl/ZfCPDksedBbdBdS3A?g_st=ic","address":"Eth. Antistaseos 179, Kalamaria 551 34","categoryIds":["burgers"],"categories":["Burger Spots"]},{"id":"burgersRestaurants_fce90a3ad073","slug":"pax-burgers-fce9","kind":"restaurant","name":"Pax Burgers","lat":40.554974978986735,"lng":22.992839835594616,"url":"https://maps.app.goo.gl/TuduB4i2geBy2cb58?g_st=ipc","address":"ΘΕΣΣΑΛΟΝΙΚΗΣ-ΜΟΥΔΑΝΙΩΝ, Thermi 570 01","categoryIds":["burgers"],"categories":["Burger Spots"]},{"id":"burgersRestaurants_bb792caf2487","slug":"pax-burgers-bb79","kind":"restaurant","name":"Pax Burgers","lat":40.55495597120905,"lng":22.992844598481618,"url":"https://maps.app.goo.gl/TuduB4i2geBy2cb58?g_st=ipc","address":"ΘΕΣΣΑΛΟΝΙΚΗΣ-ΜΟΥΔΑΝΙΩΝ, Thermi 570 01","categoryIds":["burgers"],"categories":["Burger Spots"]}],"nearby":[{"id":"cheapEatsRestaurants_e79fa54e3576","slug":"sinners-smash-burgers-e79f","kind":"restaurant","name":"Sinners Smash Burgers","lat":40.576087681457956,"lng":22.989359058851456,"url":"https://maps.app.goo.gl/cae1kAh8s933Ed8E6?g_st=ipc","address":"Στέλιου Καζαντζίδη 31, Pilea 555 35","categoryIds":["cheap-eats"],"categories":["Gyros & Cheap Eats"],"distanceKm":0.00015373541582488028},{"id":"burgersRestaurants_b86427ec820e","slug":"sinners-smash-burgers-b864","kind":"restaurant","name":"Sinners Smash Burgers","lat":40.57608880508892,"lng":22.98935953763216,"url":"https://maps.app.goo.gl/Heh5zCdrerDYVGwPA?g_st=ic","address":"Στέλιου Καζαντζίδη 31, Pilea 555 35","categoryIds":["burgers"],"categories":["Burger Spots"],"distanceKm":0.0002657919565592779},{"id":"burgersRestaurants_d89b00739d36","slug":"sinners-smash-burgers-d89b","kind":"restaurant","name":"Sinners Smash Burgers","lat":40.576089708999454,"lng":22.989358987182698,"url":"https://maps.app.goo.gl/Y2NDJtMWMoJrutpZ6?g_st=ipc","address":"Στέλιου Καζαντζίδη 31, Pilea 555 35","categoryIds":["burgers"],"categories":["Burger Spots"],"distanceKm":0.00037190651708241554},{"id":"familyFriendly_49ab59220094","slug":"love-sports-club-49ab","kind":"restaurant","name":"Love Sports Club","lat":40.576783631024576,"lng":22.994808120184832,"url":"https://maps.app.goo.gl/BJcVtK4p1mr7qG5B7?g_st=ipc","address":"Unnamed Road, Pilea Chortiatis 555 35","categoryIds":["family-friendly"],"categories":["Kid Friendly Locations"],"distanceKm":0.46663184727618773},{"id":"familyFriendly_5fc832b90305","slug":"partyland-pylaia-playground-restaurant-events-5fc8","kind":"restaurant","name":"PARTYLAND ΠΥΛΑΙΑ | PLAYGROUND | RESTAURANT | EVENTS","lat":40.57242727995374,"lng":22.992912588988382,"url":"https://maps.app.goo.gl/hq2iSCHB7jfquAbeA?g_st=ic","address":"St.Kazantzidi 49, Pilea 555 36","categoryIds":["family-friendly"],"categories":["Kid Friendly Locations"],"distanceKm":0.5055585541837452},{"id":"burgersRestaurants_0e849e927ac2","slug":"jacaranda-0e84","kind":"restaurant","name":"Jacaranda","lat":40.583003675526406,"lng":22.982558353324826,"url":"https://maps.app.goo.gl/ya9CqK4xiDjFjhjH9?g_st=ic","address":"Στέλιου Καζαντζίδη 24, Pilea 555 35","categoryIds":["burgers"],"categories":["Burger Spots"],"distanceKm":0.9599747710754138},{"id":"cheapEatsRestaurants_05faf629d467","slug":"jacaranda-05fa","kind":"restaurant","name":"Jacaranda","lat":40.583004580048126,"lng":22.98255759646119,"url":"https://maps.app.goo.gl/feYupefB1V32NxiX7?g_st=ipc","address":"Στέλιου Καζαντζίδη 24, Pilea 555 35","categoryIds":["cheap-eats"],"categories":["Gyros & Cheap Eats"],"distanceKm":0.9600936016931522},{"id":"cheapEatsRestaurants_0cc92ae6cc0a","slug":"jacaranda-0cc9","kind":"restaurant","name":"Jacaranda","lat":40.58300466355052,"lng":22.982557429553488,"url":"https://maps.app.goo.gl/DHgsKVMBHknJk7xq9?g_st=ipc","address":"Στέλιου Καζαντζίδη 24, Pilea 555 35","categoryIds":["cheap-eats"],"categories":["Gyros & Cheap Eats"],"distanceKm":0.9601094752115288}],"sameRegion":[]},"__N_SSG":true}