{"pageProps":{"entity":{"id":"mustSeeAttractions_e5512cd254da","slug":"skydive-athens-e551","kind":"restaurant","name":"Skydive Athens","lat":38.45479327540192,"lng":23.137313881202427,"url":"https://maps.app.goo.gl/uSXp93uUxm32U2Ms6?g_st=ipc","address":"Kopaida Airfield, Kastro Viotias 323 00","categoryIds":["attractions"],"categories":["Must-See Attractions"]},"sameCategory":[{"id":"mustSeeAttractions_73a680ef4731","slug":"railbiking-in-greece-73a6","kind":"restaurant","name":"Railbiking in Greece","lat":37.98899577004485,"lng":23.337743851168998,"url":"https://maps.app.goo.gl/YdUw2GvNU3PMRgCM6?g_st=ipc","address":"28ης Οκτωβρίου 197, Μέγαρα 191 00","categoryIds":["attractions"],"categories":["Must-See Attractions"]},{"id":"mustSeeAttractions_b6d15c09de42","slug":"tholos-tis-athinas-pronaias-b6d1","kind":"restaurant","name":"Θόλος της Αθηνάς Προναίας","lat":38.480181188125016,"lng":22.507891151559672,"url":"https://maps.app.goo.gl/sWU36E9QQXcW8jCP7?g_st=ipc","address":"Δελφοί 330 54","categoryIds":["attractions"],"categories":["Must-See Attractions"]},{"id":"mustSeeAttractions_52aa3e292f9c","slug":"archaiologikos-choros-delfon-52aa","kind":"restaurant","name":"Αρχαιολογικός Χώρος Δελφών","lat":38.48256715110526,"lng":22.501447020510593,"url":"https://maps.app.goo.gl/ZFhK1WzED1X3rqNX7?g_st=ipc","address":"Δελφοί 330 54","categoryIds":["attractions"],"categories":["Must-See Attractions"]},{"id":"mustSeeAttractions_e4dddc25789f","slug":"temple-of-apollo-e4dd","kind":"restaurant","name":"Temple of Apollo","lat":38.48229738005722,"lng":22.501176584203076,"url":"https://maps.app.goo.gl/AA1yv1yq8fC6CPEt8?g_st=ipc","address":"Delphi 330 54","categoryIds":["attractions"],"categories":["Must-See Attractions"]},{"id":"mustSeeAttractions_ff9d3d24c86f","slug":"ancient-stadium-of-delphi-ff9d","kind":"restaurant","name":"Ancient Stadium of Delphi","lat":38.48261130916093,"lng":22.497897087851854,"url":"https://maps.app.goo.gl/gV2Li4kSvE78UFFC9?g_st=ipc","address":"Delphi 330 54","categoryIds":["attractions"],"categories":["Must-See Attractions"]},{"id":"mustSeeAttractions_9b8993cb09f3","slug":"archaiologikos-choros-eleysinas-9b89","kind":"restaurant","name":"Αρχαιολογικός Χώρος Ελευσίνας","lat":38.04235410298215,"lng":23.539415339881792,"url":"https://maps.app.goo.gl/CQEgQ38KdmafS3mN7?g_st=ipc","address":"Σωτηρίου Γκιόκα 1, Ελευσίνα 192 00","categoryIds":["attractions"],"categories":["Must-See Attractions"]},{"id":"mustSeeAttractions_548e87d4f0b8","slug":"dioryga-tis-korinthoy-548e","kind":"restaurant","name":"Διώρυγα της Κορίνθου","lat":37.934260646159885,"lng":22.98428860726812,"url":"https://maps.app.goo.gl/cmoYHbzQvg5Nv9KN7?g_st=ipc","address":"Λουτράκι 203 00","categoryIds":["attractions"],"categories":["Must-See Attractions"]},{"id":"mustSeeAttractions_f8a8945256eb","slug":"ethnikos-drymos-parnithas-f8a8","kind":"restaurant","name":"Εθνικός Δρυμός Πάρνηθας","lat":38.15998271976968,"lng":23.71947970128565,"url":"https://maps.app.goo.gl/vhNTNbS2nJx1YD8n8?g_st=ipc","address":"Πάρνηθα 136 72","categoryIds":["attractions"],"categories":["Must-See Attractions"]}],"nearby":[{"id":"municipalities_a7ebe9625d32","slug":"aliartos-a7eb","kind":"municipality","name":"Αλίαρτος","lat":38.3833,"lng":23.1,"region":"Στερεά Ελλάδα","name_en":"Aliartos","region_en":"Central Greece","distanceKm":8.588661658947156},{"id":"monasteriesChurches_907048b5d580","slug":"iera-moni-genethlioy-tis-theotokoy-pelagias-9070","kind":"restaurant","name":"Ιερά Μονή Γενεθλίου της Θεοτόκου (Πελαγίας)","lat":38.459809569498496,"lng":23.266627094278455,"url":"https://maps.app.goo.gl/Xi5o5EhFW72ridKs8?g_st=ipc","address":"Ιερά Μονή Γενεθλίου της Θεοτόκου - Πελαγίας, Κόκκινο 320 01","categoryIds":["monasteries-churches"],"categories":["Monasteries & Spiritual Sites"],"distanceKm":11.273575685510817},{"id":"wineriesVineyards_91ab76f741da","slug":"ktima-moyson-muses-estate-91ab","kind":"restaurant","name":"Κτήμα Μουσών / Muses Estate","lat":38.310939635727244,"lng":23.111723523497265,"url":"https://maps.app.goo.gl/s6vXZTgfmnzvhcm38?g_st=ipc","address":"Άσκρη 320 02","categoryIds":["wineries-vineyards"],"categories":["Wineries & Vineyards"],"distanceKm":16.15056550001818},{"id":"dessertsRestaurants_ee7a9d284945","slug":"in-out-patisserie-ee7a","kind":"restaurant","name":"In Out Patisserie","lat":38.62013328510681,"lng":23.231732554049056,"url":"https://maps.app.goo.gl/pezBgDeH43iQLTiq9?g_st=ipc","address":"Νέα Μαστού 1, Μαλεσίνα 350 01","categoryIds":["desserts"],"categories":["Dessert Shops"],"distanceKm":20.135732972747157},{"id":"municipalities_f523a4be73e1","slug":"thiva-f523","kind":"municipality","name":"Θήβα","lat":38.325,"lng":23.318,"region":"Στερεά Ελλάδα","name_en":"Thebes","region_en":"Central Greece","distanceKm":21.360757862669246},{"id":"municipalities_b881ef8f885c","slug":"atalanti-b881","kind":"municipality","name":"Αταλάντη","lat":38.65,"lng":23.0833,"region":"Στερεά Ελλάδα","name_en":"Atalanti","region_en":"Central Greece","distanceKm":22.208373708428184},{"id":"greekRestaurants_10ece8dd8944","slug":"kalligeyston-10ec","kind":"restaurant","name":"Καλλίγευστον","lat":38.43485008360987,"lng":22.87533637489723,"url":"https://maps.app.goo.gl/zYi1gLNTWPkzLzVD6?g_st=ipc","address":"Ελ. Βενιζέλου 19, Λιβαδειά 321 00","categoryIds":["greek-restaurants"],"categories":["Greek Restaurants"],"distanceKm":22.9227849241761},{"id":"municipalities_a3f2108a0447","slug":"livadeia-a3f2","kind":"municipality","name":"Λιβαδειά","lat":38.435,"lng":22.875,"aliases":["Livadia"],"region":"Στερεά Ελλάδα","name_en":"Livadeia","region_en":"Central Greece","distanceKm":22.950313871802333}],"sameRegion":[]},"__N_SSG":true}