{"pageProps":{"entity":{"id":"cheapEatsRestaurants_19bf55f57647","slug":"soyvlakochorio-19bf","kind":"restaurant","name":"Σουβλακοχωριό","lat":38.019021009797974,"lng":23.79620669265203,"url":"https://maps.app.goo.gl/Qngg6pY64nb2i3sX9?g_st=ipc","address":"25ης Μαρτίου 33, Χαλάνδρι 152 32","categoryIds":["cheap-eats"],"categories":["Gyros & Cheap Eats"]},"sameCategory":[{"id":"cheapEatsRestaurants_ec9b2c37ec79","slug":"o-ellinaras-ec9b","kind":"restaurant","name":"Ο ΕΛΛΗΝΑΡΑΣ","lat":38.017568546798636,"lng":23.799181700850475,"url":"https://maps.app.goo.gl/3g2yxFrBJ6V2KPZm7?g_st=ipc","address":"Παλαιολόγου 63, Χαλάνδρι 152 32","categoryIds":["cheap-eats"],"categories":["Gyros & Cheap Eats"]},{"id":"cheapEatsRestaurants_70af29f6373f","slug":"holy-pasta-chalandri-70af","kind":"restaurant","name":"Holy Pasta Chalandri","lat":38.02090646389776,"lng":23.799055964157045,"url":"https://maps.app.goo.gl/dD7x8SrXxBd8mmDX7?g_st=ipc","address":"Ηρακλείου 3, Χαλάνδρι 152 32","categoryIds":["cheap-eats"],"categories":["Gyros & Cheap Eats"]},{"id":"cheapEatsRestaurants_4176abbd859b","slug":"to-soyvlaki-toy-chalandrioy-express-4176","kind":"restaurant","name":"Το Σουβλάκι του Χαλανδρίου «Express»","lat":38.02210047029897,"lng":23.79733270387276,"url":"https://maps.app.goo.gl/jvDmvkwHFZFAd18e6?g_st=ipc","address":"Κολοκοτρώνη 26, Χαλάνδρι 152 33","categoryIds":["cheap-eats"],"categories":["Gyros & Cheap Eats"]},{"id":"cheapEatsRestaurants_d9e484914294","slug":"mparmpalias-d9e4","kind":"restaurant","name":"Μπαρμπαλιάς","lat":38.022224299572,"lng":23.79656538042495,"url":"https://maps.app.goo.gl/LeEZCDs2GRC6YKuT7?g_st=ipc","address":"Λεωφ. Βασιλέως Γεωργίου B 6, Χαλάνδρι 152 33","categoryIds":["cheap-eats"],"categories":["Gyros & Cheap Eats"]},{"id":"cheapEatsRestaurants_6071194d9f9f","slug":"curry-express-indian-chef-6071","kind":"restaurant","name":"Curry Express & Indian Chef","lat":38.02245552538877,"lng":23.798012966612305,"url":"https://maps.app.goo.gl/z58YmxhSwvtKJai57?g_st=ipc","address":"Γρ. Γυφτοπούλου 7, Χαλάνδρι 152 33","categoryIds":["cheap-eats"],"categories":["Gyros & Cheap Eats"]},{"id":"cheapEatsRestaurants_8385a72feb82","slug":"taco-bell-8385","kind":"restaurant","name":"Taco Bell","lat":38.0228052820458,"lng":23.79853818143159,"url":"https://maps.app.goo.gl/f47SevFfDgNbNtWk7?g_st=ipc","address":"Κολοκοτρώνη 13, Χαλάνδρι 152 33","categoryIds":["cheap-eats"],"categories":["Gyros & Cheap Eats"]},{"id":"cheapEatsRestaurants_778124c76b47","slug":"kayteros-7781","kind":"restaurant","name":"Καυτερός","lat":38.01875295817606,"lng":23.790041802148505,"url":"https://maps.app.goo.gl/pxJjypQCU2pCdj2c9?g_st=ipc","address":"Αγρινίου 5, Χαλάνδρι 152 32","categoryIds":["cheap-eats"],"categories":["Gyros & Cheap Eats"]},{"id":"cheapEatsRestaurants_3872707b22c4","slug":"gianniotiko-soyvlaki-3872","kind":"restaurant","name":"ΓΙΑΝΝΙΩΤΙΚΟ ΣΟΥΒΛΑΚΙ","lat":38.018885728218706,"lng":23.80780825876153,"url":"https://maps.app.goo.gl/VSmxeGeUsq75QADx9?g_st=ic","address":"Agias Paraskevis 95, Chalandri 152 34","categoryIds":["cheap-eats"],"categories":["Gyros & Cheap Eats"]}],"nearby":[{"id":"dessertsRestaurants_8bed364f6d2d","slug":"solo-gelato-chalandri-8bed","kind":"restaurant","name":"Solo Gelato Chalandri","lat":38.01968693370907,"lng":23.79741986314135,"url":"https://maps.app.goo.gl/VbYTpPhNsegGr8sa6?g_st=ipc","address":"Ανδρέα Παπανδρέου 44, Χαλάνδρι 152 32","categoryIds":["desserts"],"categories":["Dessert Shops"],"distanceKm":0.12952618572408056},{"id":"fishTavernasRestaurants_28abc536c707","slug":"kapetanissa-28ab","kind":"restaurant","name":"Καπετάνισσα","lat":38.01937904398287,"lng":23.79769429563829,"url":"https://maps.app.goo.gl/eEbHLBANhp5td8HH9?g_st=ipc","address":"Ομήρου 24, Χαλάνδρι 152 32","categoryIds":["fish-tavernas"],"categories":["Fish Tavernas"],"distanceKm":0.13625949241398846},{"id":"dessertsRestaurants_9de68b3616c9","slug":"nana-gioti-glyka-apo-spiti-9de6","kind":"restaurant","name":"ΝΑΝΑ ΓΙΩΤΗ - ΓΛΥΚΑ ΑΠΟ ΣΠΙΤΙ","lat":38.01918939040668,"lng":23.794563800847534,"url":"https://maps.app.goo.gl/Pj3P4kdv7qvwkpQG6?g_st=ic","address":"Papanikoli 46, Chalandri 152 32","categoryIds":["desserts"],"categories":["Dessert Shops"],"distanceKm":0.14513005443909313},{"id":"coffeeBrunchRestaurants_e07c2fe046a1","slug":"koulouri-lab-e07c","kind":"restaurant","name":"Koulouri Lab","lat":38.02001411382259,"lng":23.797606580273964,"url":"https://maps.app.goo.gl/PenVFxTnARKzLw62A?g_st=ipc","address":"Ανδρέα Παπανδρέου 36, Αθήνα 152 32","categoryIds":["coffee-brunch"],"categories":["Coffee & Brunch Spots"],"distanceKm":0.16502225844258206},{"id":"italianRestaurants_6b466717928c","slug":"lollo-s-atene-6b46","kind":"restaurant","name":"Lollo's Atene","lat":38.01753697922701,"lng":23.795618164928833,"url":"https://maps.app.goo.gl/1D9mpaGYtG23tshYA?g_st=ipc","address":"Εθ. Αντιστάσεως 3α, Χαλάνδρι 152 32","categoryIds":["italian"],"categories":["Italian Restaurants"],"distanceKm":0.1728828515275649},{"id":"italianRestaurants_08976c540f77","slug":"alpino-cucina-italiana-0897","kind":"restaurant","name":"Alpino Cucina Italiana","lat":38.017273062811554,"lng":23.796958155707255,"url":"https://maps.app.goo.gl/vifqCWxK1J8ZiiCu7?g_st=ipc","address":"Παπανικολή 66, Χαλάνδρι 152 32","categoryIds":["italian"],"categories":["Italian Restaurants"],"distanceKm":0.20520811247736223},{"id":"italianRestaurants_449a551f4dc8","slug":"come-a-casa-449a","kind":"restaurant","name":"Come A Casa","lat":38.020170312119056,"lng":23.798225694950606,"url":"https://maps.app.goo.gl/Go53VnWKyGjFvBK38?g_st=ipc","address":"Καραολη Δημήτριου 17, Χαλάνδρι 152 32","categoryIds":["italian"],"categories":["Italian Restaurants"],"distanceKm":0.21820314327266827},{"id":"greekRestaurants_f52198928cda","slug":"mystikos-kipos-f521","kind":"restaurant","name":"Μυστικός Κήπος","lat":38.02018220795105,"lng":23.798366893276665,"url":"https://maps.app.goo.gl/RvfsJX8RaCUstXSa6?g_st=ipc","address":"Καραολη Δημήτριου 21, Χαλάνδρι 152 32","categoryIds":["greek-restaurants"],"categories":["Greek Restaurants"],"distanceKm":0.22908652837494614}],"sameRegion":[]},"__N_SSG":true}