{"pageProps":{"entity":{"id":"familyFriendly_72e5a0b3386d","slug":"sports-park-72e5","kind":"restaurant","name":"SPORTS PARK","lat":37.97421350979179,"lng":23.929458278036556,"url":"https://maps.app.goo.gl/Jbrq2A31UzDnM1Ro7?g_st=ipc","address":"1 χλμ Σπατών, Πικερμίου, Σπάτα 190 04","categoryIds":["family-friendly"],"categories":["Kid Friendly Locations"]},"sameCategory":[{"id":"familyFriendly_db6ace0662f1","slug":"aquapolis-athens-db6a","kind":"restaurant","name":"Aquapolis Athens","lat":37.97858312845216,"lng":23.91151007116057,"url":"https://maps.app.goo.gl/5Ru3eXW4yXz7efi98?g_st=ic","address":"Θέση Γιαλού, Spata 190 04","categoryIds":["family-friendly"],"categories":["Kid Friendly Locations"]},{"id":"familyFriendly_8ed15a9c84d5","slug":"attica-zoological-park-8ed1","kind":"restaurant","name":"Attica Zoological Park","lat":37.98044022083859,"lng":23.910805906852257,"url":"https://maps.app.goo.gl/f6rw3vWAJG1aAtPU6?g_st=ipc","address":"Spata 190 04","categoryIds":["family-friendly"],"categories":["Kid Friendly Locations"]},{"id":"familyFriendly_0ccded432145","slug":"smart-park-0ccd","kind":"restaurant","name":"Smart Park","lat":37.98478188179295,"lng":23.913104747091037,"url":"https://maps.app.goo.gl/JecbscmoWg1c4Snw5?g_st=ipc","address":"Εμπορικό Πάρκο Smart Park, Ε. Πουλακη, OT 71, & 72, Σπάτα 190 04","categoryIds":["family-friendly"],"categories":["Kid Friendly Locations"]},{"id":"familyFriendly_9cc1c30ecd05","slug":"designer-outlet-athens-9cc1","kind":"restaurant","name":"Designer Outlet Athens","lat":37.98621935732948,"lng":23.91050612444449,"url":"https://maps.app.goo.gl/FiJWknWTB14td3ra9?g_st=ipc","address":"D-Oikodomiko Tetragono, Γυαλού E71, Σπάτα 190 04","categoryIds":["family-friendly"],"categories":["Kid Friendly Locations"]},{"id":"familyFriendly_0326a78aaa56","slug":"leontario-entertainment-center-0326","kind":"restaurant","name":"Leontario Entertainment Center","lat":37.996183572327645,"lng":23.899494670938427,"url":"https://maps.app.goo.gl/Qjmb6xRCJvU3Lj87A?g_st=ipc","address":"Αμαζονoσ 15, Παλληνη 15344","categoryIds":["family-friendly"],"categories":["Kid Friendly Locations"]},{"id":"familyFriendly_5510b3f1c00f","slug":"the-wall-5510","kind":"restaurant","name":"THE WALL","lat":38.00928367382339,"lng":23.8721127138081,"url":"https://maps.app.goo.gl/ikBxVbssGYshQenA7?g_st=ipc","address":"Αγίου Αθανασίου 12, Παλλήνη 153 51","categoryIds":["family-friendly"],"categories":["Kid Friendly Locations"]},{"id":"familyFriendly_569cf558f6b0","slug":"oasis-activity-farm-park-569c","kind":"restaurant","name":"OASIS Activity Farm Park","lat":37.928303788781086,"lng":23.851038750815583,"url":"https://maps.app.goo.gl/VYjCmEzxbNTXc6xX9?g_st=ipc","address":"Πλαπούτα, Άνω Καρέλλας 194 00","categoryIds":["family-friendly"],"categories":["Kid Friendly Locations"]},{"id":"familyFriendly_b5b6b464edb9","slug":"planet-cosmos-b5b6","kind":"restaurant","name":"Planet Cosmos","lat":38.036967894838305,"lng":23.858200213835428,"url":"https://maps.app.goo.gl/p7oh1sqhz5MkfN978?g_st=ipc","address":"Κλεισθένους 399, Γέρακας 153 44","categoryIds":["family-friendly"],"categories":["Kid Friendly Locations"]}],"nearby":[{"id":"familyFriendly_db6ace0662f1","slug":"aquapolis-athens-db6a","kind":"restaurant","name":"Aquapolis Athens","lat":37.97858312845216,"lng":23.91151007116057,"url":"https://maps.app.goo.gl/5Ru3eXW4yXz7efi98?g_st=ic","address":"Θέση Γιαλού, Spata 190 04","categoryIds":["family-friendly"],"categories":["Kid Friendly Locations"],"distanceKm":1.646501796702771},{"id":"familyFriendly_8ed15a9c84d5","slug":"attica-zoological-park-8ed1","kind":"restaurant","name":"Attica Zoological Park","lat":37.98044022083859,"lng":23.910805906852257,"url":"https://maps.app.goo.gl/f6rw3vWAJG1aAtPU6?g_st=ipc","address":"Spata 190 04","categoryIds":["family-friendly"],"categories":["Kid Friendly Locations"],"distanceKm":1.7754477459070985},{"id":"familyFriendly_0ccded432145","slug":"smart-park-0ccd","kind":"restaurant","name":"Smart Park","lat":37.98478188179295,"lng":23.913104747091037,"url":"https://maps.app.goo.gl/JecbscmoWg1c4Snw5?g_st=ipc","address":"Εμπορικό Πάρκο Smart Park, Ε. Πουλακη, OT 71, & 72, Σπάτα 190 04","categoryIds":["family-friendly"],"categories":["Kid Friendly Locations"],"distanceKm":1.8534959218733673},{"id":"familyFriendly_9cc1c30ecd05","slug":"designer-outlet-athens-9cc1","kind":"restaurant","name":"Designer Outlet Athens","lat":37.98621935732948,"lng":23.91050612444449,"url":"https://maps.app.goo.gl/FiJWknWTB14td3ra9?g_st=ipc","address":"D-Oikodomiko Tetragono, Γυαλού E71, Σπάτα 190 04","categoryIds":["family-friendly"],"categories":["Kid Friendly Locations"],"distanceKm":2.131058862718833},{"id":"dessertsRestaurants_a5a68f44450d","slug":"pagota-glyka-alma-a5a6","kind":"restaurant","name":"Παγωτά - Γλυκά ALMA","lat":37.99764401288888,"lng":23.928554302603118,"url":"https://maps.app.goo.gl/5u8wGdMD9tri8wLBA?g_st=ipc","address":"19o ΧΛΜ, Λεωφ. Μαραθώνος, Ήμερος Πεύκος 190 09","categoryIds":["desserts"],"categories":["Dessert Shops"],"distanceKm":2.606557324500891},{"id":"greekRestaurants_9269793e1504","slug":"taverna-monaxia-9269","kind":"restaurant","name":"Ταβέρνα Μοναξιά","lat":37.99741941255288,"lng":23.922943419662634,"url":"https://maps.app.goo.gl/VBA846ekAAGscrWa6","address":"Leoforos Marathonos 19th klm, Παλλήνη Αττικής 153 51","categoryIds":["greek-restaurants"],"categories":["Greek Restaurants"],"distanceKm":2.642792063912288},{"id":"luxuryDiningRestaurants_d905caa27f80","slug":"meat-the-stars-d905","kind":"restaurant","name":"Meat the Stars","lat":38.00243883538717,"lng":23.941476693248035,"url":"https://maps.app.goo.gl/wrkHDhigdmHrrokL8?g_st=ipc","address":"Λεωφ. Μαραθώνος 63, Πικέρμι 190 09","categoryIds":["luxury-dining"],"categories":["Luxury Dining"],"distanceKm":3.3105300899718366},{"id":"familyFriendly_0326a78aaa56","slug":"leontario-entertainment-center-0326","kind":"restaurant","name":"Leontario Entertainment Center","lat":37.996183572327645,"lng":23.899494670938427,"url":"https://maps.app.goo.gl/Qjmb6xRCJvU3Lj87A?g_st=ipc","address":"Αμαζονoσ 15, Παλληνη 15344","categoryIds":["family-friendly"],"categories":["Kid Friendly Locations"],"distanceKm":3.586649917258854}],"sameRegion":[]},"__N_SSG":true}