{"pageProps":{"entity":{"id":"greekRestaurants_452f5e570a01","slug":"stefanos-452f","kind":"restaurant","name":"Στέφανος","lat":38.910052705921146,"lng":24.57050982234405,"url":"https://maps.app.goo.gl/trnHe5qoFAQHzYM28?g_st=ipc","address":"Greece, Μαγαζιά 340 07","categoryIds":["greek-restaurants"],"categories":["Greek Restaurants"]},"sameCategory":[{"id":"greekRestaurants_0c0ca9fd779c","slug":"barba-giannis-maritsa-0c0c","kind":"restaurant","name":"Barba Giannis & Maritsa","lat":38.90527399333744,"lng":24.565211310371236,"url":"https://maps.app.goo.gl/yZjyN3yoH4KKaMPJ6?g_st=ipc","address":"Unnamed Road, Σκύρος 340 07","categoryIds":["greek-restaurants"],"categories":["Greek Restaurants"]},{"id":"greekRestaurants_da11c217aa96","slug":"amerissa-seaside-restaurant-da11","kind":"restaurant","name":"AMÉRISSA Seaside Restaurant","lat":38.92037558044187,"lng":24.578665945412215,"url":"https://maps.app.goo.gl/bw6JVTJRnsfZQVDW8?g_st=ipc","address":"Βίνα 340 07","categoryIds":["greek-restaurants"],"categories":["Greek Restaurants"]},{"id":"greekRestaurants_786be201a25e","slug":"paradosiako-estiatorio-moyries-mouries-traditional-restaurant-786b","kind":"restaurant","name":"Παραδοσιακό Εστιατόριο Μουριές / Mouries Traditional Restaurant","lat":38.85870033736816,"lng":24.56952173549943,"url":"https://maps.app.goo.gl/A5rtwUPhiE6yc9Qh6?g_st=ipc","address":"Σκύρος 340 07","categoryIds":["greek-restaurants"],"categories":["Greek Restaurants"]},{"id":"greekRestaurants_03e6ec370650","slug":"estiatorio-tis-stamatias-03e6","kind":"restaurant","name":"ΕΣΤΙΑΤΟΡΙΟ ΤΗΣ ΣΤΑΜΑΤΙΑΣ","lat":38.85449596450303,"lng":24.510698683934216,"url":"https://maps.app.goo.gl/1EVUc3WCeEyZ78mc9?g_st=ipc","address":"Πεύκος, Σκύρος 340 07","categoryIds":["greek-restaurants"],"categories":["Greek Restaurants"]},{"id":"greekRestaurants_4b02f57a4232","slug":"taverna-agios-petros-4b02","kind":"restaurant","name":"Ταβέρνα Άγιος Πέτρος","lat":38.95799774255317,"lng":24.473695264428137,"url":"https://maps.app.goo.gl/Dj7E19Pg9iCwrUts9?g_st=ipc","address":"mavramer@gmail.com, Σκύρος 340 07","categoryIds":["greek-restaurants"],"categories":["Greek Restaurants"]},{"id":"greekRestaurants_5142a7e84c70","slug":"taverna-o-mamoykas-5142","kind":"restaurant","name":"ΤΑΒΕΡΝΑ Ο ΜΑΜΟΥΚΑΣ","lat":38.61656208602637,"lng":24.058771422139735,"url":"https://maps.app.goo.gl/GmmhLKs8vbEANXpd8?g_st=ipc","address":"Ανδρωνιάνοι 340 03","categoryIds":["greek-restaurants"],"categories":["Greek Restaurants"]},{"id":"greekRestaurants_8264dbbcf215","slug":"taverna-ampoli-8264","kind":"restaurant","name":"Ταβέρνα Αμπολή","lat":38.406699872649206,"lng":24.167892229616715,"url":"https://maps.app.goo.gl/2yA2jW82NvhwYb5dA?g_st=ipc","address":"Πετριές 340 17","categoryIds":["greek-restaurants"],"categories":["Greek Restaurants"]},{"id":"greekRestaurants_6d77d03fd815","slug":"kali-kardia-6d77","kind":"restaurant","name":"Καλή Καρδιά","lat":38.56948818591032,"lng":23.85240444441089,"url":"https://maps.app.goo.gl/PRdRKPuUB7qffyj18?g_st=ipc","address":"Καμπιά 340 14","categoryIds":["greek-restaurants"],"categories":["Greek Restaurants"]}],"nearby":[{"id":"coffeeBrunchRestaurants_336240e739f2","slug":"o-mitsos-bakery-and-bougatsa-pies-3362","kind":"restaurant","name":"“O Mitsos” Bakery and Bougatsa pies","lat":38.906123668565485,"lng":24.565786457853836,"url":"https://maps.app.goo.gl/nrqc18TzCiFo5osh7?g_st=ipc","address":"Αγορά Σκυρου, Skiros 340 07","categoryIds":["coffee-brunch"],"categories":["Coffee & Brunch Spots"],"distanceKm":0.5982523541964324},{"id":"greekRestaurants_0c0ca9fd779c","slug":"barba-giannis-maritsa-0c0c","kind":"restaurant","name":"Barba Giannis & Maritsa","lat":38.90527399333744,"lng":24.565211310371236,"url":"https://maps.app.goo.gl/yZjyN3yoH4KKaMPJ6?g_st=ipc","address":"Unnamed Road, Σκύρος 340 07","categoryIds":["greek-restaurants"],"categories":["Greek Restaurants"],"distanceKm":0.7018146754611589},{"id":"dessertsRestaurants_ea4d98f03d4b","slug":"ta-glyka-tis-faltainas-ea4d","kind":"restaurant","name":"Τα γλυκά της Φαλταΐνας","lat":38.90510474017236,"lng":24.565216999906415,"url":"https://maps.app.goo.gl/8eAkqLfsCDHE3bXYA?g_st=ipc","address":"Agora, Σκύρος 340 07","categoryIds":["desserts"],"categories":["Dessert Shops"],"distanceKm":0.7158548622976753},{"id":"cheapEatsRestaurants_54502c287d87","slug":"mouza-grill-house-5450","kind":"restaurant","name":"Mouza grill house","lat":38.90439949082661,"lng":24.564789359234034,"url":"https://maps.app.goo.gl/wecLJ1nJGGgQYeLg9?g_st=ipc","address":"Chora Skyrou, Skiros 340 07","categoryIds":["cheap-eats"],"categories":["Gyros & Cheap Eats"],"distanceKm":0.8000961416720155},{"id":"coffeeBrunchRestaurants_14f7d11e7920","slug":"agora-14f7","kind":"restaurant","name":"AGORA","lat":38.90450343769536,"lng":24.564405519725188,"url":"https://maps.app.goo.gl/Ak5n1GwVGESyRydk7?g_st=ipc","address":"Χώρα - κεντρική πλατεία, Skiros 340 07","categoryIds":["coffee-brunch"],"categories":["Coffee & Brunch Spots"],"distanceKm":0.8122426168065775},{"id":"greekRestaurants_da11c217aa96","slug":"amerissa-seaside-restaurant-da11","kind":"restaurant","name":"AMÉRISSA Seaside Restaurant","lat":38.92037558044187,"lng":24.578665945412215,"url":"https://maps.app.goo.gl/bw6JVTJRnsfZQVDW8?g_st=ipc","address":"Βίνα 340 07","categoryIds":["greek-restaurants"],"categories":["Greek Restaurants"],"distanceKm":1.3474079540933295},{"id":"dessertsRestaurants_7505140b468a","slug":"ergastirio-zacharoplastikis-chiotis-7505","kind":"restaurant","name":"ΕΡΓΑΣΤΗΡΙΟ ΖΑΧΑΡΟΠΛΑΣΤΙΚΗΣ ΧΙΩΤΗΣ","lat":38.89717410888779,"lng":24.569088923809744,"url":"https://maps.app.goo.gl/DRmKG5mhw1Wi6Jrq6?g_st=ipc","address":"VHW9+WM, Σκύρος 340 07","categoryIds":["desserts"],"categories":["Dessert Shops"],"distanceKm":1.4373033197111555},{"id":"fishTavernasRestaurants_803a17a3dd7b","slug":"stelios-803a","kind":"restaurant","name":"STELIOS","lat":38.92732372527763,"lng":24.574549606903982,"url":"https://maps.app.goo.gl/D5L2xNDUmBf9SdfQ9?g_st=ipc","address":"Γυρίσματα, Skiros 340 07","categoryIds":["fish-tavernas"],"categories":["Fish Tavernas"],"distanceKm":1.9519927527975414}],"sameRegion":[]},"__N_SSG":true}