{"pageProps":{"entity":{"id":"cheapEatsRestaurants_1a58d7cde2d2","slug":"streetwok-1a58","kind":"restaurant","name":"Streetwok","lat":38.088268046558134,"lng":23.817029295891828,"url":"https://maps.app.goo.gl/ZqCBHjCxGwZEYy9u8?g_st=ipc","address":"Χαρ. Τρικούπη 144, Νέα Ερυθραία 146 71","categoryIds":["cheap-eats"],"categories":["Gyros & Cheap Eats"]},"sameCategory":[{"id":"cheapEatsRestaurants_ec13b3ed8963","slug":"panerythraikos-ec13","kind":"restaurant","name":"Πανερυθραικος","lat":38.09029256559895,"lng":23.818809766039287,"url":"https://maps.app.goo.gl/E91HSqNkPsC6UtWw7?g_st=ipc","address":"Αναξαγόρα 11, Νέα Ερυθραία 146 71","categoryIds":["cheap-eats"],"categories":["Gyros & Cheap Eats"]},{"id":"cheapEatsRestaurants_296b6ad90f0e","slug":"o-ntellos-296b","kind":"restaurant","name":"Ο ΝΤΕΛΛΟΣ","lat":38.09071592781455,"lng":23.82013374189109,"url":"https://maps.app.goo.gl/uCpkqt4dsAjh6LfU7?g_st=ipc","address":"Ελ. Βενιζέλου 139, Νέα Ερυθραία 146 71","categoryIds":["cheap-eats"],"categories":["Gyros & Cheap Eats"]},{"id":"cheapEatsRestaurants_f527d097e08b","slug":"mpampis-soyvlatzidiko-f527","kind":"restaurant","name":"Μπάμπης (Σουβλατζίδικο)","lat":38.07798891290964,"lng":23.794191207475013,"url":"https://maps.app.goo.gl/FPtnwFuAA6xGZThWA?g_st=ipc","address":"Γεωρ. Λύρα 5, Κηφισιά 145 64","categoryIds":["cheap-eats"],"categories":["Gyros & Cheap Eats"]},{"id":"cheapEatsRestaurants_784daab038a5","slug":"godgilla-umami-street-food-784d","kind":"restaurant","name":"Godgilla umami street food","lat":38.05657303145754,"lng":23.81400951461543,"url":"https://maps.app.goo.gl/DZ65AFNyxzrNRbqm9?g_st=ipc","address":"Γεωρ. Κοτζιά 2, Μαρούσι 151 26","categoryIds":["cheap-eats"],"categories":["Gyros & Cheap Eats"]},{"id":"cheapEatsRestaurants_8e2845b1b79c","slug":"to-elliniko-soyvlaki-8e28","kind":"restaurant","name":"Το Ελληνικό Σουβλάκι","lat":38.055611201936195,"lng":23.805858315965597,"url":"https://maps.app.goo.gl/GjgUbFCMPcughxPW6?g_st=ipc","address":"Διονύσου 19, Μαρούσι 151 24","categoryIds":["cheap-eats"],"categories":["Gyros & Cheap Eats"]},{"id":"cheapEatsRestaurants_484ec346fe11","slug":"souzi-tros-street-food-484e","kind":"restaurant","name":"SOUZI TROS street food","lat":38.0550996125921,"lng":23.804743752516742,"url":"https://maps.app.goo.gl/Q2YtxKh8LosNGyHJ6?g_st=ipc","address":"Σπύρου Λέκκα 9, Μαρούσι 151 24","categoryIds":["cheap-eats"],"categories":["Gyros & Cheap Eats"]},{"id":"cheapEatsRestaurants_dac5582833c7","slug":"taliban-street-food-dac5","kind":"restaurant","name":"Taliban Street Food","lat":38.06195061055415,"lng":23.783033784917546,"url":"https://maps.app.goo.gl/4yeaKT2EdHHJPxdj7?g_st=ipc","address":"Λεωφ. Αμαρουσίου 29, Λυκόβρυση 141 23","categoryIds":["cheap-eats"],"categories":["Gyros & Cheap Eats"]},{"id":"cheapEatsRestaurants_b596150cf3db","slug":"trigono-melission-b596","kind":"restaurant","name":"ΤΡΙΓΩΝΟ ΜΕΛΙΣΣΙΩΝ","lat":38.05317998498453,"lng":23.84087862675326,"url":"https://maps.app.goo.gl/FjiCt1o7yoa331UN8?g_st=ipc","address":"Π. Τσαλδάρη 21, Μελίσσια 151 27","categoryIds":["cheap-eats"],"categories":["Gyros & Cheap Eats"]}],"nearby":[{"id":"asianRestaurants_594b8ad5ccca","slug":"streetwok-594b","kind":"restaurant","name":"Streetwok","lat":38.08826144126291,"lng":23.817027905393033,"url":"https://maps.app.goo.gl/3GSewqndnBiBnEL89?g_st=ipc","address":"Χαρ. Τρικούπη 144, Νέα Ερυθραία 146 71","categoryIds":["asian"],"categories":["Asian Restaurants"],"distanceKm":0.0007444884711143867},{"id":"italianRestaurants_e295fedca4ff","slug":"margherita-pizza-artigianale-nea-erythraia-e295","kind":"restaurant","name":"Margherita Pizza Artigianale Νέα Ερυθραία","lat":38.08856611677621,"lng":23.816718880082657,"url":"https://maps.app.goo.gl/v1cfqn2UJ11ZTMJq6?g_st=ipc","address":"Χαριλάου τρικούπη 146 &, Strofiliou, Nea Erithrea 146 71","categoryIds":["italian"],"categories":["Italian Restaurants"],"distanceKm":0.042854942950070404},{"id":"burgersRestaurants_4176fe5b3851","slug":"guilty-adam-4176","kind":"restaurant","name":"Guilty Adam","lat":38.08882457129293,"lng":23.81690449930271,"url":"https://maps.app.goo.gl/cYunjwXkadMCnitz6?g_st=ipc","address":"Χαριλάου Τρικούπη, Στροφυλίου 146, Νέα Ερυθραία 146 71","categoryIds":["burgers"],"categories":["Burger Spots"],"distanceKm":0.06283914261582307},{"id":"mexicanRestaurants_4dab442d4d6c","slug":"mvp-restaurant-4dab","kind":"restaurant","name":"MVP RESTAURANT","lat":38.08824038111985,"lng":23.816227594005245,"url":"https://maps.app.goo.gl/3hQ5hMSwfLYpvisu6?g_st=ipc","address":"Χαρ. Τρικούπη 127, Νέα Ερυθραία 146 71","categoryIds":["mexican"],"categories":["Mexican Restaurants"],"distanceKm":0.07023014719508913},{"id":"burgersRestaurants_a0d6a061aa9e","slug":"mvp-restaurant-a0d6","kind":"restaurant","name":"MVP RESTAURANT","lat":38.08823770971798,"lng":23.816227663317804,"url":"https://maps.app.goo.gl/JjXo3mQwSBz49WBp9?g_st=ipc","address":"Χαρ. Τρικούπη 127, Νέα Ερυθραία 146 71","categoryIds":["burgers"],"categories":["Burger Spots"],"distanceKm":0.07023772767545346},{"id":"dessertsRestaurants_1c368e954317","slug":"pavlov-patisserie-1c36","kind":"restaurant","name":"Pavlov Patisserie","lat":38.08975934404975,"lng":23.817098827828467,"url":"https://maps.app.goo.gl/ubJrroH9LAtGxodP6?g_st=ipc","address":"Πατριάρχου Γρηγορίου Ε 15, Νέα Ερυθραία 146 71","categoryIds":["desserts"],"categories":["Dessert Shops"],"distanceKm":0.16593632991738083},{"id":"fishTavernasRestaurants_ecc815b7c2ba","slug":"chromata-vythoy-ecc8","kind":"restaurant","name":"Χρώματα Βυθού","lat":38.087925786455884,"lng":23.814850327043008,"url":"https://maps.app.goo.gl/8rz5Adk17ejAsxHP6?g_st=ipc","address":"Εκάλης 40, Νέα Ερυθραία 146 71","categoryIds":["fish-tavernas"],"categories":["Fish Tavernas"],"distanceKm":0.19445826420351006},{"id":"luxuryDiningRestaurants_9dbbac8cbd3d","slug":"chromata-vythoy-9dbb","kind":"restaurant","name":"Χρώματα Βυθού","lat":38.0879239564187,"lng":23.814850193997692,"url":"https://maps.app.goo.gl/V3ngNHyJA9qDkeyJ9?g_st=ipc","address":"Εκάλης 40, Νέα Ερυθραία 146 71","categoryIds":["luxury-dining"],"categories":["Luxury Dining"],"distanceKm":0.19450961056059046}],"sameRegion":[]},"__N_SSG":true}