{"pageProps":{"entity":{"id":"asianRestaurants_b60f010973e9","slug":"street-wok-b60f","kind":"restaurant","name":"Street wok","lat":38.03415849667832,"lng":23.737420165783373,"url":"https://maps.app.goo.gl/Cza8DpNsdEHX73EB8?g_st=ipc","address":"Βρυούλων 4, Νέα Φιλαδέλφεια Αττικής 143 41","categoryIds":["asian"],"categories":["Asian Restaurants"]},"sameCategory":[{"id":"asianRestaurants_a37aef170d67","slug":"koyasan-in-philadelphia-a37a","kind":"restaurant","name":"KoYaSan in Philadelphia","lat":38.03582601502679,"lng":23.738913649887014,"url":"https://maps.app.goo.gl/pE1beFfDZ9181rp76?g_st=ipc","address":"Λεωφ. Δεκελείας 122, Νέα Φιλαδέλφεια Αττικής 143 41","categoryIds":["asian"],"categories":["Asian Restaurants"]},{"id":"asianRestaurants_f4e606aad25d","slug":"shisan-sushi-bar-f4e6","kind":"restaurant","name":"Shisan Sushi Bar","lat":38.01364374248811,"lng":23.753228892987114,"url":"https://maps.app.goo.gl/3ZyGn2FKaLUXuMuJ9?g_st=ipc","address":"Λεωφ. Βεΐκου 7, Γαλάτσι 111 46","categoryIds":["asian"],"categories":["Asian Restaurants"]},{"id":"asianRestaurants_d86051389e82","slug":"kaii-sushi-bar-d860","kind":"restaurant","name":"Kaii sushi bar","lat":38.029067505855075,"lng":23.706941325356716,"url":"https://maps.app.goo.gl/oEMoWWtVbmE4QW2W7?g_st=ipc","address":"Βρισηίδος 47, Δαναών 44, Ίλιον 131 22","categoryIds":["asian"],"categories":["Asian Restaurants"]},{"id":"asianRestaurants_0fe2688bf847","slug":"shisan-sushi-bar-0fe2","kind":"restaurant","name":"Shisan Sushi Bar","lat":38.01157900293343,"lng":23.695417186581494,"url":"https://maps.app.goo.gl/W1ubxVBTLcx41Yqd8?g_st=ipc","address":"Αιμιλίου Βεάκη 36, Περιστέρι 121 34","categoryIds":["asian"],"categories":["Asian Restaurants"]},{"id":"asianRestaurants_01f6cf956e90","slug":"hachiko-sushi-tales-cocktails-psychiko-01f6","kind":"restaurant","name":"Hachikō Sushi Tales & Cocktails Psychiko","lat":38.0061489322681,"lng":23.777100959451648,"url":"https://maps.app.goo.gl/zRs2QPwRWoXnA8cn9","address":"Olimpionikon 280, Neo Psichiko 154 51","categoryIds":["asian"],"categories":["Asian Restaurants"]},{"id":"asianRestaurants_03f354f3f469","slug":"gaku-sushi-izakaya-chalandri-03f3","kind":"restaurant","name":"GAKU Sushi Izakaya @ Chalandri","lat":38.01448829662791,"lng":23.785099711916384,"url":"https://maps.app.goo.gl/yx3uezXR3ayTjVvq7?g_st=ipc","address":"Likourgou 4, Chalandri 152 31","categoryIds":["asian"],"categories":["Asian Restaurants"]},{"id":"asianRestaurants_302bc43e3be3","slug":"wagamama-golden-hall-302b","kind":"restaurant","name":"Wagamama Golden Hall","lat":38.03406369279884,"lng":23.792244943430262,"url":"https://maps.app.goo.gl/A7uShDTP3yFcChSd7?g_st=ipc","address":"Λεωφ. Κηφισίας, Μαρούσι 151 23","categoryIds":["asian"],"categories":["Asian Restaurants"]},{"id":"asianRestaurants_7aa0cb0c0f53","slug":"sister-7aa0","kind":"restaurant","name":"Sister","lat":38.003216085112086,"lng":23.7757633660399,"url":"https://maps.app.goo.gl/kRDH6Sdii2eyeoRw9?g_st=ipc","address":"Περικλέους 11, Νέο Ψυχικό 154 51","categoryIds":["asian"],"categories":["Asian Restaurants"]}],"nearby":[{"id":"cheapEatsRestaurants_ae066a0c8be0","slug":"street-wok-ae06","kind":"restaurant","name":"Street wok","lat":38.03415581458627,"lng":23.737421868861436,"url":"https://maps.app.goo.gl/2Mpgb24E2Bp7GYMDA?g_st=ipc","address":"Βρυούλων 4, Νέα Φιλαδέλφεια Αττικής 143 41","categoryIds":["cheap-eats"],"categories":["Gyros & Cheap Eats"],"distanceKm":0.00033345542393005114},{"id":"dessertsRestaurants_72c80ba8b348","slug":"galaktopoleio-stamoy-72c8","kind":"restaurant","name":"Γαλακτοπωλείο ΣΤΑΜΟΥ","lat":38.03443491475164,"lng":23.737764183814345,"url":"https://maps.app.goo.gl/37pG5QPiULEUHnjT8?g_st=ipc","address":"Λεωφ. Δεκελείας 87, Δήμος Νέας Φιλαδέλφειας - Νέας Χαλκηδόνας 143 41","categoryIds":["desserts"],"categories":["Dessert Shops"],"distanceKm":0.04304090343606334},{"id":"coffeeBrunchRestaurants_f590b11239fb","slug":"old-dog-f590","kind":"restaurant","name":"Old Dog","lat":38.03404960556602,"lng":23.736865639669244,"url":"https://maps.app.goo.gl/dYXbhhbFaLPj39Nu9?g_st=ipc","address":"Σάρδεων 6, Νέα Φιλαδέλφεια Αττικής 143 41","categoryIds":["coffee-brunch"],"categories":["Coffee & Brunch Spots"],"distanceKm":0.050053115660658766},{"id":"cheapEatsRestaurants_93852e0ca98a","slug":"i-vromiara-the-gourmet-street-food-nea-filadelfeia-9385","kind":"restaurant","name":"Η Βρωμιάρα - The Gourmet Street Food - Νεα Φιλαδέλφεια","lat":38.03438911435279,"lng":23.73692338806855,"url":"https://maps.app.goo.gl/Q23dgN65gryr9fpi7?g_st=ipc","address":"Βρυούλων 5, Νέα Φιλαδέλφεια Αττικής 143 41","categoryIds":["cheap-eats"],"categories":["Gyros & Cheap Eats"],"distanceKm":0.050503435750406646},{"id":"cheapEatsRestaurants_708ba2b3a806","slug":"eyripidis-1955-708b","kind":"restaurant","name":"Ευριπίδης 1955","lat":38.03354736852586,"lng":23.737489018536408,"url":"https://maps.app.goo.gl/oALQiKiSKqqQt7VE8?g_st=ipc","address":"Λεωφ. Δεκελείας 83, Νέα Φιλαδέλφεια Αττικής 143 41","categoryIds":["cheap-eats"],"categories":["Gyros & Cheap Eats"],"distanceKm":0.06822138983106273},{"id":"dessertsRestaurants_f5dcbd5d6956","slug":"tillas-f5dc","kind":"restaurant","name":"ΤΙΛΛΑΣ","lat":38.03389726212368,"lng":23.738299411081684,"url":"https://maps.app.goo.gl/KvFWhV1Ew2To6kLKA?g_st=ipc","address":"Αγίας Τριάδος 2, Νέα Φιλαδέλφεια Αττικής 143 41","categoryIds":["desserts"],"categories":["Dessert Shops"],"distanceKm":0.08230269922293282},{"id":"cheapEatsRestaurants_8e920e95e567","slug":"slum-it-8e92","kind":"restaurant","name":"Slum it","lat":38.034971479219536,"lng":23.73628101866516,"url":"https://maps.app.goo.gl/m2fyvmtGXXiGevuC6?g_st=ipc","address":"Βρυούλων 15, Νέα Φιλαδέλφεια Αττικής 143 41","categoryIds":["cheap-eats"],"categories":["Gyros & Cheap Eats"],"distanceKm":0.13463197337496877},{"id":"coffeeBrunchRestaurants_1dc06dcd5307","slug":"libertine-drinkery-1dc0","kind":"restaurant","name":"Libertine drinkery","lat":38.035181855146,"lng":23.738539611236607,"url":"https://maps.app.goo.gl/8mxrF5SroX8mcG5e8?g_st=ipc","address":"Λεωφ. Δεκελείας 114, Νέα Φιλαδέλφεια Αττικής 143 41","categoryIds":["coffee-brunch"],"categories":["Coffee & Brunch Spots"],"distanceKm":0.15020327112297338}],"sameRegion":[]},"__N_SSG":true}