{"pageProps":{"entity":{"id":"fishTavernasRestaurants_aba93243463b","slug":"sunrise-fish-restaurant-aba9","kind":"restaurant","name":"Sunrise fish restaurant","lat":38.069862361650536,"lng":20.798458806990475,"url":"https://maps.app.goo.gl/zpgr1Pu7huw8UAn16?g_st=ipc","address":"Sunrise, Skala 280 86","categoryIds":["fish-tavernas"],"categories":["Fish Tavernas"]},"sameCategory":[{"id":"fishTavernasRestaurants_7b6b6c02756b","slug":"blue-sea-restaurant-7b6b","kind":"restaurant","name":"Blue Sea Restaurant","lat":38.06482061618168,"lng":20.749944356791246,"url":"https://maps.app.goo.gl/w2imtD4bnSK6jDox6?g_st=ipc","address":"Κάτω Κατελειός 280 86","categoryIds":["fish-tavernas"],"categories":["Fish Tavernas"]},{"id":"fishTavernasRestaurants_2ef1060ceab9","slug":"kalyva-tou-psara-2ef1","kind":"restaurant","name":"Kalyva tou Psara","lat":38.30990002692816,"lng":20.4759773849458,"url":"https://maps.app.goo.gl/usLMqjcjtFy6fTWd6?g_st=ipc","address":"Unnamed Rd, Zola 281 00","categoryIds":["fish-tavernas"],"categories":["Fish Tavernas"]},{"id":"fishTavernasRestaurants_1a19623dc76c","slug":"keri-lighthouse-restaurant-1a19","kind":"restaurant","name":"Keri Lighthouse Restaurant","lat":37.6544155286365,"lng":20.810506312482314,"url":"https://maps.app.goo.gl/5DwsHksg1ZHKzA62A?g_st=ipc","address":"Φάρος κεριού, Keri 290 92","categoryIds":["fish-tavernas"],"categories":["Fish Tavernas"]},{"id":"fishTavernasRestaurants_deef9d161177","slug":"tavern-zolithros-deef","kind":"restaurant","name":"Tavern Zolithros","lat":38.63883302731558,"lng":20.699578514278645,"url":"https://maps.app.goo.gl/tsdwoX24ZG7uLKB6A?g_st=ipc","address":"Epar.Od. Porou, Lefkada 311 00","categoryIds":["fish-tavernas"],"categories":["Fish Tavernas"]},{"id":"fishTavernasRestaurants_da16f2b84772","slug":"errikos-fish-tavern-da16","kind":"restaurant","name":"Errikos Fish Tavern","lat":38.66357210962554,"lng":20.783477705259653,"url":"https://maps.app.goo.gl/Exf4TBgcUy5RfeRQA?g_st=ipc","address":"Meganisi 310 83","categoryIds":["fish-tavernas"],"categories":["Fish Tavernas"]},{"id":"fishTavernasRestaurants_8c846286bb7f","slug":"hippocampus-restaurant-8c84","kind":"restaurant","name":"Hippocampus Restaurant","lat":38.68645020644706,"lng":20.712029545342183,"url":"https://maps.app.goo.gl/dycgkVizrbH5BJsH7?g_st=ipc","address":"Γενί 311 00","categoryIds":["fish-tavernas"],"categories":["Fish Tavernas"]},{"id":"fishTavernasRestaurants_b598193b21ce","slug":"gia-psaraki-b598","kind":"restaurant","name":"για ψαράκι","lat":38.16996316334188,"lng":21.67408353856444,"url":"https://maps.app.goo.gl/Mp22UWxr4LuQZaQa6?g_st=ipc","address":"Stavropoulou 101, Monodendri 250 02","categoryIds":["fish-tavernas"],"categories":["Fish Tavernas"]},{"id":"fishTavernasRestaurants_701e88cdc0f1","slug":"moyrtas-psarotaverna-701e","kind":"restaurant","name":"Μουρτάς Ψαροταβέρνα","lat":38.19791064176577,"lng":21.696505177930376,"url":"https://maps.app.goo.gl/SyckXnzEqa1w9FPR9?g_st=ipc","address":"Palea EO Patras Pyrgou 35-45, Paralia 265 00","categoryIds":["fish-tavernas"],"categories":["Fish Tavernas"]}],"nearby":[{"id":"greekRestaurants_c713b6900534","slug":"mikelatos-restaurant-c713","kind":"restaurant","name":"Mikelatos Restaurant","lat":38.07400478265195,"lng":20.79838946434788,"url":"https://maps.app.goo.gl/ds2jewM3NunSWLKo6?g_st=ipc","address":"Central pedestrian road of Skala, Σκάλα 280 86","categoryIds":["greek-restaurants"],"categories":["Greek Restaurants"],"distanceKm":0.460656193292553},{"id":"coffeeBrunchRestaurants_f69353dde3df","slug":"ammos-beach-bar-restaurant-kefalonia-f693","kind":"restaurant","name":"Ammos Beach Bar & Restaurant | Kefalonia","lat":38.08122535953636,"lng":20.800056619766497,"url":"https://maps.app.goo.gl/SxeeHeaBpXq8VgZe8?g_st=ipc","address":"Κεφαλληνίας, Skala 281 00","categoryIds":["coffee-brunch"],"categories":["Coffee & Brunch Spots"],"distanceKm":1.2712248832869404},{"id":"fishTavernasRestaurants_7b6b6c02756b","slug":"blue-sea-restaurant-7b6b","kind":"restaurant","name":"Blue Sea Restaurant","lat":38.06482061618168,"lng":20.749944356791246,"url":"https://maps.app.goo.gl/w2imtD4bnSK6jDox6?g_st=ipc","address":"Κάτω Κατελειός 280 86","categoryIds":["fish-tavernas"],"categories":["Fish Tavernas"],"distanceKm":4.283906501867364},{"id":"greekRestaurants_ff8ef7b622ff","slug":"sunset-restaurant-ff8e","kind":"restaurant","name":"Sunset Restaurant","lat":38.147065849821686,"lng":20.783912907033883,"url":"https://maps.app.goo.gl/8Z2amJ2HCnAWKU728?g_st=ipc","address":"Πόρος 280 86","categoryIds":["greek-restaurants"],"categories":["Greek Restaurants"],"distanceKm":8.678459222194727},{"id":"coffeeBrunchRestaurants_b203c212827d","slug":"remetzo-kafe-b203","kind":"restaurant","name":"Ρεμετζο καφέ","lat":38.14775445639953,"lng":20.7788036615171,"url":"https://maps.app.goo.gl/DJjkbdzn9Sg4yrHY7?g_st=ipc","address":"Metaxa, Kefalonia 280 82","categoryIds":["coffee-brunch"],"categories":["Coffee & Brunch Spots"],"distanceKm":8.830276593685541},{"id":"mustSeeAttractions_20af350a9d06","slug":"blue-caves-zakynthos-20af","kind":"restaurant","name":"Blue Caves Zakynthos","lat":37.93034342843555,"lng":20.705251154680667,"url":"https://maps.app.goo.gl/aFhekQczUnCUCkXt7?g_st=ipc","address":"Porthmos Zakinthou","categoryIds":["attractions"],"categories":["Must-See Attractions"],"distanceKm":17.53223888327389},{"id":"wineriesVineyards_76d903b57c64","slug":"orealios-gaea-vine-growers-of-robola-76d9","kind":"restaurant","name":"Orealios Gaea - Vine Growers of Robola","lat":38.16303564266763,"lng":20.590291534978753,"url":"https://maps.app.goo.gl/nZzm6EuiZsKmkSxr7?g_st=ipc","address":"Valsamata 281 00","categoryIds":["wineries-vineyards"],"categories":["Wineries & Vineyards"],"distanceKm":20.95197312667398},{"id":"greekRestaurants_fef489007c02","slug":"anna-s-tavern-xasteria-fef4","kind":"restaurant","name":"Anna's Tavern (Xasteria)","lat":38.11938430612937,"lng":20.562853128007966,"url":"https://maps.app.goo.gl/k6iUiCZV7gkf1jreA?g_st=ipc","address":"Κεραμειές 281 00","categoryIds":["greek-restaurants"],"categories":["Greek Restaurants"],"distanceKm":21.34044024421535}],"sameRegion":[]},"__N_SSG":true}