{"pageProps":{"entity":{"id":"coffeeBrunchRestaurants_21dac0392c36","slug":"surf-beach-snack-bar-kouremenos-21da","kind":"restaurant","name":"Surf Beach - Snack Bar Kouremenos","lat":35.20624912822425,"lng":26.26983256244183,"url":"https://maps.app.goo.gl/gJZYAD9gs6uvp4U49?g_st=ipc","address":"Ιτανίων, Kouremenos 723 00","categoryIds":["coffee-brunch"],"categories":["Coffee & Brunch Spots"]},"sameCategory":[{"id":"coffeeBrunchRestaurants_32952e6ac25c","slug":"cafe-kafe-konstantinos-mich-katsamboxakis-3295","kind":"restaurant","name":"Café Kafé (Konstantinos Mich. Katsamboxakis)","lat":35.20722771587482,"lng":26.10675728610521,"url":"https://maps.app.goo.gl/xoXNN9GSVDDfAxxk9?g_st=ipc","address":"Kon/nou Karamanli 6, Sitia 723 00","categoryIds":["coffee-brunch"],"categories":["Coffee & Brunch Spots"]},{"id":"coffeeBrunchRestaurants_1c66ab81c701","slug":"cavo-bianco-1c66","kind":"restaurant","name":"Cavo Bianco","lat":35.02143360163328,"lng":26.015024448599853,"url":"https://maps.app.goo.gl/ybTzaZNb6KvEBPUb8?g_st=ipc","address":"Dragon's Way, Ierapetra 720 59","categoryIds":["coffee-brunch"],"categories":["Coffee & Brunch Spots"]},{"id":"coffeeBrunchRestaurants_783d400ee7da","slug":"lyra-and-friends-783d","kind":"restaurant","name":"Lyra and friends","lat":35.58763583749891,"lng":27.06911664685815,"url":"https://maps.app.goo.gl/PKB7mWwJ4UmNHnbT8?g_st=ipc","address":"Beach, Lefkos 857 00","categoryIds":["coffee-brunch"],"categories":["Coffee & Brunch Spots"]},{"id":"coffeeBrunchRestaurants_c810e7744123","slug":"hermanos-c810","kind":"restaurant","name":"Hermanos","lat":35.50685735423936,"lng":27.21125864185446,"url":"https://maps.app.goo.gl/VM4D4LHe7KtZRNhD7?g_st=ipc","address":"Karlathos, Karpathos 857 00","categoryIds":["coffee-brunch"],"categories":["Coffee & Brunch Spots"]},{"id":"coffeeBrunchRestaurants_2662cc712b45","slug":"lambrinos-2662","kind":"restaurant","name":"Lambrinos","lat":35.50838000876403,"lng":27.215982914873237,"url":"https://maps.app.goo.gl/dt7qJTSnp7FR8RJV9?g_st=ipc","address":"Unnamed Road, Karpathos 857 00","categoryIds":["coffee-brunch"],"categories":["Coffee & Brunch Spots"]},{"id":"coffeeBrunchRestaurants_64018e74309c","slug":"meltemi-6401","kind":"restaurant","name":"Meltemi","lat":36.545359250189506,"lng":26.352356416685993,"url":"https://maps.app.goo.gl/nFrvN47758pZXWzT8?g_st=ipc","address":"Astypalaia 859 00","categoryIds":["coffee-brunch"],"categories":["Coffee & Brunch Spots"]},{"id":"coffeeBrunchRestaurants_a3547d8efbea","slug":"kolokytha-a354","kind":"restaurant","name":"Kolokytha","lat":36.54726990012019,"lng":26.353646413648903,"url":"https://maps.app.goo.gl/6FaxgMCjdWj9EPA48?g_st=ipc","address":"Unnamed Rd, Astipalea 859 00","categoryIds":["coffee-brunch"],"categories":["Coffee & Brunch Spots"]},{"id":"coffeeBrunchRestaurants_81babb19d554","slug":"anax-brunch-all-day-bar-81ba","kind":"restaurant","name":"Anax - Brunch & All day bar","lat":36.54881053562097,"lng":26.352767048461835,"url":"https://maps.app.goo.gl/Fog59qRdXL1VwbPKA?g_st=ipc","address":"Island, Astipalea 859 00","categoryIds":["coffee-brunch"],"categories":["Coffee & Brunch Spots"]}],"nearby":[{"id":"dessertsRestaurants_3d8333fd87a3","slug":"mitsakakis-3d83","kind":"restaurant","name":"Mitsakakis","lat":35.2071841117343,"lng":26.1068075256644,"url":"https://maps.app.goo.gl/HzPozyu829t1F6kV8?g_st=ipc","address":"Kon/nou Karamanli 6, Sitia 723 00","categoryIds":["desserts"],"categories":["Dessert Shops"],"distanceKm":14.811978892606247},{"id":"coffeeBrunchRestaurants_32952e6ac25c","slug":"cafe-kafe-konstantinos-mich-katsamboxakis-3295","kind":"restaurant","name":"Café Kafé (Konstantinos Mich. Katsamboxakis)","lat":35.20722771587482,"lng":26.10675728610521,"url":"https://maps.app.goo.gl/xoXNN9GSVDDfAxxk9?g_st=ipc","address":"Kon/nou Karamanli 6, Sitia 723 00","categoryIds":["coffee-brunch"],"categories":["Coffee & Brunch Spots"],"distanceKm":14.816574123317698},{"id":"greekRestaurants_31846964133f","slug":"inodion-3184","kind":"restaurant","name":"Inodion","lat":35.20856301491662,"lng":26.10648423346929,"url":"https://maps.app.goo.gl/pzhkDBi9GpvKTFMMA?g_st=ipc","address":"Ελ. Βενιζέλου 157, Σητεία 732 00","categoryIds":["greek-restaurants"],"categories":["Greek Restaurants"],"distanceKm":14.843090805087284},{"id":"municipalities_0fab25c875e2","slug":"siteia-0fab","kind":"municipality","name":"Σητεία","lat":35.2078,"lng":26.106,"aliases":["Σητεια"],"region":"Ανατολική Κρήτη","name_en":"Sitia","region_en":"East Crete","distanceKm":14.885924091088388},{"id":"greekRestaurants_ab6c973413e5","slug":"taverna-oasis-ab6c","kind":"restaurant","name":"Ταβέρνα Όασις","lat":35.0192294033516,"lng":26.031168966197797,"url":"https://maps.app.goo.gl/VPbi6FqvcCuiHpnd7?g_st=ipc","address":"Καλό Νερό, Περιβολάκια 720 59","categoryIds":["greek-restaurants"],"categories":["Greek Restaurants"],"distanceKm":30.06210382101557},{"id":"greekRestaurants_1567bdcebc34","slug":"dragon-s-cave-tavern-1567","kind":"restaurant","name":"Dragon's Cave Tavern","lat":35.02451844531051,"lng":26.015929343410054,"url":"https://maps.app.goo.gl/BHeTEMJwhoKFTLPG7?g_st=ipc","address":"Λαγκάδα, Λιθίνες 720 59","categoryIds":["greek-restaurants"],"categories":["Greek Restaurants"],"distanceKm":30.68692813740029},{"id":"coffeeBrunchRestaurants_1c66ab81c701","slug":"cavo-bianco-1c66","kind":"restaurant","name":"Cavo Bianco","lat":35.02143360163328,"lng":26.015024448599853,"url":"https://maps.app.goo.gl/ybTzaZNb6KvEBPUb8?g_st=ipc","address":"Dragon's Way, Ierapetra 720 59","categoryIds":["coffee-brunch"],"categories":["Coffee & Brunch Spots"],"distanceKm":30.97574900592355},{"id":"greekRestaurants_d2117786f7ef","slug":"kalliotzina-d211","kind":"restaurant","name":"Καλλιοτζίνα","lat":35.033382728113054,"lng":25.943654893279238,"url":"https://maps.app.goo.gl/vGqVwBvZXj3Cs15N9?g_st=ipc","address":"Κουτσουρᾶς, Σταυροχώρι 720 55","categoryIds":["greek-restaurants"],"categories":["Greek Restaurants"],"distanceKm":35.349387691165006}],"sameRegion":[]},"__N_SSG":true}