{"pageProps":{"entity":{"id":"municipalities_6a80701acb8f","slug":"symi-6a80","kind":"municipality","name":"Σύμη","lat":36.6167,"lng":27.8333,"aliases":["Συμη","Συμι"],"region":"Δωδεκάνησα","name_en":"Symi","region_en":"Dodecanese"},"sameCategory":[],"nearby":[{"id":"greekRestaurants_e1d962fd92af","slug":"the-secret-garden-e1d9","kind":"restaurant","name":"The Secret Garden","lat":36.6134620115941,"lng":27.843177878598354,"url":"https://maps.app.goo.gl/iCJQmYZ3TwTJuSur5?g_st=ipc","address":"ΑΛHΘIΝΗ,, Σύμη 856 00","categoryIds":["greek-restaurants"],"categories":["Greek Restaurants"],"distanceKm":0.9523051805979257},{"id":"mustSeeAttractions_f86e07718582","slug":"holy-monastery-of-the-taxiarch-michael-panormitis-f86e","kind":"restaurant","name":"Holy Monastery of the Taxiarch Michael Panormitis","lat":36.548390185765086,"lng":27.846271064424094,"url":"https://maps.app.goo.gl/CBJzDDUuaoXFiWW6A?g_st=ipc","address":"Panormitis 856 00","categoryIds":["attractions"],"categories":["Must-See Attractions"],"distanceKm":7.6834958841443095},{"id":"municipalities_f04269be7e15","slug":"ialysos-f042","kind":"municipality","name":"Ιαλυσός","lat":36.4149,"lng":28.1588,"region":"Ρόδος","name_en":"Ialysos","region_en":"Rhodes","distanceKm":36.73786774556605},{"id":"familyFriendly_79cc8da6366f","slug":"butterflies-valley-79cc","kind":"restaurant","name":"Butterflies Valley","lat":36.33937370008562,"lng":28.059689128523214,"url":"https://maps.app.goo.gl/VV66xLTvU3w6LKzy9?g_st=ipc","address":"Επάνω Καλαμωνας 851 06","categoryIds":["family-friendly"],"categories":["Kid Friendly Locations"],"distanceKm":36.88703239893739},{"id":"municipalities_949baf66ab53","slug":"ixia-949b","kind":"municipality","name":"Ίξια","lat":36.4328,"lng":28.2056,"aliases":["Ιξια"],"region":"Ρόδος","name_en":"Ixia","region_en":"Rhodes","distanceKm":39.0494829709771},{"id":"cheapEatsRestaurants_a7d0ccb07796","slug":"mr-g-s-psitopoleio-greek-street-food-a7d0","kind":"restaurant","name":"Mr.G's - Ψητοπωλείο - Greek Street Food","lat":36.45328895287043,"lng":28.221248936648102,"url":"https://maps.app.goo.gl/HQkLX39r1Ru88dxq8?g_st=ipc","address":"Geor. Papanikolaou 8, Rodos 851 00","categoryIds":["cheap-eats"],"categories":["Gyros & Cheap Eats"],"distanceKm":39.13504466900757},{"id":"burgersRestaurants_8219677fe965","slug":"nom-street-food-smashed-burgers-8219","kind":"restaurant","name":"Nom street food & smashed burgers","lat":36.44818806230804,"lng":28.221540618444198,"url":"https://maps.app.goo.gl/jzcVrFqav7KsRnsy7?g_st=ipc","address":"Sofokli Venizelou 30, Rodos 851 00","categoryIds":["burgers"],"categories":["Burger Spots"],"distanceKm":39.425527430889005},{"id":"mustSeeAttractions_9e44fa658aa5","slug":"colossus-of-rhodes-9e44","kind":"restaurant","name":"Colossus of Rhodes","lat":36.451202414947005,"lng":28.227839764419826,"url":"https://maps.app.goo.gl/11HZKgu3Z71ViGrP9?g_st=ipc","address":"Pl. Neoriou, Rodos 851 00","categoryIds":["attractions"],"categories":["Must-See Attractions"],"distanceKm":39.764779760093205}],"sameRegion":[{"id":"municipalities_0334126572d2","slug":"rodos-0334","kind":"municipality","name":"Ρόδος","lat":36.434,"lng":28.217,"aliases":["Rodos","Rhodos","Ρόδη","Ροδος"],"region":"Δωδεκάνησα","name_en":"Rhodes","region_en":"Dodecanese"},{"id":"municipalities_1e15a9b9c22f","slug":"tilos-1e15","kind":"municipality","name":"Τήλος","lat":36.4167,"lng":27.3833,"aliases":["Τηλος"],"region":"Δωδεκάνησα","name_en":"Tilos","region_en":"Dodecanese"},{"id":"municipalities_1ff64765be31","slug":"chalki-1ff6","kind":"municipality","name":"Χάλκη","lat":36.2167,"lng":27.6167,"aliases":["Χαλκη"],"region":"Δωδεκάνησα","name_en":"Halki","region_en":"Dodecanese"},{"id":"municipalities_23af7cf13cb7","slug":"kos-23af","kind":"municipality","name":"Κως","lat":36.892,"lng":27.287,"aliases":["Kos","Κώς","Κω","Κος"],"region":"Δωδεκάνησα","name_en":"Kos","region_en":"Dodecanese"},{"id":"municipalities_426a1844230a","slug":"leros-426a","kind":"municipality","name":"Λέρος","lat":37.133,"lng":26.85,"aliases":["Λερος"],"region":"Δωδεκάνησα","name_en":"Leros","region_en":"Dodecanese"},{"id":"municipalities_8f7e81543417","slug":"patmos-8f7e","kind":"municipality","name":"Πάτμος","lat":37.308,"lng":26.547,"aliases":["Πατμος"],"region":"Δωδεκάνησα","name_en":"Patmos","region_en":"Dodecanese"},{"id":"municipalities_99d9186f1f31","slug":"agathonisi-99d9","kind":"municipality","name":"Αγαθονήσι","lat":37.456,"lng":26.963,"region":"Δωδεκάνησα","name_en":"Agathonisi","region_en":"Dodecanese"},{"id":"municipalities_a1a685a55092","slug":"arkoi-a1a6","kind":"municipality","name":"Αρκοί","lat":37.372,"lng":26.736,"region":"Δωδεκάνησα","name_en":"Arki","region_en":"Dodecanese"}]},"__N_SSG":true}