{"pageProps":{"entity":{"id":"greekRestaurants_eba980ff28b5","slug":"taverna-psistaria-freideriki-eba9","kind":"restaurant","name":"Ταβέρνα Ψησταριά Φρειδερίκη","lat":38.87285394230774,"lng":21.75976720346808,"url":"https://maps.app.goo.gl/DUv6ASUURdJKUqvX9?g_st=ipc","address":"Κλαυσί 361 00","categoryIds":["greek-restaurants"],"categories":["Greek Restaurants"]},"sameCategory":[{"id":"greekRestaurants_00acd58871fd","slug":"parko-kefalovryso-00ac","kind":"restaurant","name":"Πάρκο Κεφαλόβρυσο","lat":38.89684310507032,"lng":21.782192032592697,"url":"https://maps.app.goo.gl/UMhtP2NgQ48sj1Ey8?g_st=ipc","address":"2ο χλμ. Καρπενησίου-Προυσού, Καρπενήσι 361 00","categoryIds":["greek-restaurants"],"categories":["Greek Restaurants"]},{"id":"greekRestaurants_a07698beb6f6","slug":"to-choriatiko-nasiopoylos-a076","kind":"restaurant","name":"Το Χωριάτικο Νασιόπουλος","lat":38.842767533520004,"lng":21.735734322174586,"url":"https://maps.app.goo.gl/r9NwSZEqGNG3NMHz8?g_st=ipc","address":"Νέο Μικρό Χωριό 361 00","categoryIds":["greek-restaurants"],"categories":["Greek Restaurants"]},{"id":"greekRestaurants_5c3142c7d0fe","slug":"i-taverna-tis-kyra-zois-5c31","kind":"restaurant","name":"Η ταβέρνα της κυρά Ζωής","lat":38.9091706754785,"lng":21.810542639127807,"url":"https://maps.app.goo.gl/zkHGuBDnpHGCsSvs7?g_st=ipc","address":"ΑΡΧΙΜΑΝΔΡΙΤΟΥ ΠΑΠΑΝΙΚΟΛΑΟΥ 1, Καρπενήσι 361 00","categoryIds":["greek-restaurants"],"categories":["Greek Restaurants"]},{"id":"greekRestaurants_2db78cb8d961","slug":"chani-panetsoy-tavern-est-1884-2db7","kind":"restaurant","name":"Χάνι Πανέτσου - Tavern est. 1884","lat":38.924405703995355,"lng":21.929530373358407,"url":"https://maps.app.goo.gl/965nvpi16xp3euYk6?g_st=ipc","address":"52 χλμ, ΕΟ Λαμίας Καρπενησίου, Μεσαία Καψή 350 17","categoryIds":["greek-restaurants"],"categories":["Greek Restaurants"]},{"id":"greekRestaurants_44313e05387d","slug":"taverna-kolotoympas-4431","kind":"restaurant","name":"ΤΑΒΕΡΝΑ ΚΟΛΟΤΟΥΜΠΑΣ","lat":38.948136760370524,"lng":22.12087723534036,"url":"https://maps.app.goo.gl/eFnVpp6dgkxtbvyg8?g_st=ipc","address":"ΤΣΟΥΚΑΛΑ8, Makrakomi 350 11","categoryIds":["greek-restaurants"],"categories":["Greek Restaurants"]},{"id":"greekRestaurants_b94b2692a8d1","slug":"to-tsardaki-b94b","kind":"restaurant","name":"Το Τσαρδάκι","lat":39.30937703175282,"lng":21.77717104145515,"url":"https://maps.app.goo.gl/Ck9v9r2bKUh2Hna58?g_st=ipc","address":"Επαρ.Οδ. Καρδίτσας - Καστανιάς, Τσαρδάκι 431 00","categoryIds":["greek-restaurants"],"categories":["Greek Restaurants"]},{"id":"greekRestaurants_3652982e1103","slug":"ey-oinos-3652","kind":"restaurant","name":"Εύ-Οίνος","lat":38.39347292034383,"lng":21.82986697264944,"url":"https://maps.app.goo.gl/ijrmcn4wUaPLkcYZ8?g_st=ipc","address":"Σισμάνη 3, Ναύπακτος 303 00","categoryIds":["greek-restaurants"],"categories":["Greek Restaurants"]},{"id":"greekRestaurants_29fafe6777ec","slug":"apiko-mezedotechneio-29fa","kind":"restaurant","name":"Απίκο μεζεδοτεχνείο","lat":38.393299094022936,"lng":21.82979800924532,"url":"https://maps.app.goo.gl/AcecnJwEzMnsr3Tq7?g_st=ipc","address":"Σισμάνη 14, Ναύπακτος 303 00","categoryIds":["greek-restaurants"],"categories":["Greek Restaurants"]}],"nearby":[{"id":"coffeeBrunchRestaurants_4e2dd1d22431","slug":"to-kafe-tis-charas-4e2d","kind":"restaurant","name":"Το καφέ της Χαράς","lat":38.86839469803581,"lng":21.760838169390635,"url":"https://maps.app.goo.gl/rmkYbTkw4mzL6Ws7A?g_st=ipc","address":"Κλαυσί 361 00","categoryIds":["coffee-brunch"],"categories":["Coffee & Brunch Spots"],"distanceKm":0.5044391835337442},{"id":"coffeeBrunchRestaurants_5fe3af39ab2b","slug":"825-eat-and-coffee-karpenissi-5fe3","kind":"restaurant","name":"825 eat and coffee Karpenissi","lat":38.879552565898926,"lng":21.74418375846026,"url":"https://maps.app.goo.gl/RS2SUMtbtY8WCrnF9?g_st=ipc","address":"Voutyro 361 00","categoryIds":["coffee-brunch"],"categories":["Coffee & Brunch Spots"],"distanceKm":1.5409685810645706},{"id":"italianRestaurants_cdb970122a35","slug":"kasmir-cdb9","kind":"restaurant","name":"Kasmir","lat":38.900597180204656,"lng":21.771398412012726,"url":"https://maps.app.goo.gl/tGER5rSkLzH68JTw8?g_st=ipc","address":"Mesabelia, Korischades 361 00","categoryIds":["italian"],"categories":["Italian Restaurants"],"distanceKm":3.245015706804838},{"id":"greekRestaurants_00acd58871fd","slug":"parko-kefalovryso-00ac","kind":"restaurant","name":"Πάρκο Κεφαλόβρυσο","lat":38.89684310507032,"lng":21.782192032592697,"url":"https://maps.app.goo.gl/UMhtP2NgQ48sj1Ey8?g_st=ipc","address":"2ο χλμ. Καρπενησίου-Προυσού, Καρπενήσι 361 00","categoryIds":["greek-restaurants"],"categories":["Greek Restaurants"],"distanceKm":3.29891404106691},{"id":"familyFriendly_ea50207bb21c","slug":"saloon-park-ea50","kind":"restaurant","name":"Saloon Park","lat":38.90092130813555,"lng":21.772793181199432,"url":"https://maps.app.goo.gl/LrjoDSvaukPFS7Bc7?g_st=ipc","address":"3ο χιλ Καρπενησίου Προυσσου, Karpenisi 361 00","categoryIds":["family-friendly"],"categories":["Kid Friendly Locations"],"distanceKm":3.3183468857692455},{"id":"coffeeBrunchRestaurants_0e2616bd7fc7","slug":"saloon-park-0e26","kind":"restaurant","name":"Saloon Park","lat":38.90092398449493,"lng":21.77279442117925,"url":"https://maps.app.goo.gl/ou4ZLrrH5JymyBSH7?g_st=ipc","address":"3ο χιλ Καρπενησίου Προυσσου, Karpenisi 361 00","categoryIds":["coffee-brunch"],"categories":["Coffee & Brunch Spots"],"distanceKm":3.318663236953651},{"id":"coffeeBrunchRestaurants_1257c9be30ac","slug":"villaggio-cafe-meze-1257","kind":"restaurant","name":"Villaggio café - mezé","lat":38.903233129898815,"lng":21.759044154104334,"url":"https://maps.app.goo.gl/TYafQiUuDWknuAyTA?g_st=ipc","address":"ΚΟΡΥΣΧΑΔΕΣ 1, Karpenisi 361 00","categoryIds":["coffee-brunch"],"categories":["Coffee & Brunch Spots"],"distanceKm":3.37859117026236},{"id":"greekRestaurants_a07698beb6f6","slug":"to-choriatiko-nasiopoylos-a076","kind":"restaurant","name":"Το Χωριάτικο Νασιόπουλος","lat":38.842767533520004,"lng":21.735734322174586,"url":"https://maps.app.goo.gl/r9NwSZEqGNG3NMHz8?g_st=ipc","address":"Νέο Μικρό Χωριό 361 00","categoryIds":["greek-restaurants"],"categories":["Greek Restaurants"],"distanceKm":3.9398572017794025}],"sameRegion":[]},"__N_SSG":true}