{"pageProps":{"entity":{"id":"greekRestaurants_5142a7e84c70","slug":"taverna-o-mamoykas-5142","kind":"restaurant","name":"ΤΑΒΕΡΝΑ Ο ΜΑΜΟΥΚΑΣ","lat":38.61656208602637,"lng":24.058771422139735,"url":"https://maps.app.goo.gl/GmmhLKs8vbEANXpd8?g_st=ipc","address":"Ανδρωνιάνοι 340 03","categoryIds":["greek-restaurants"],"categories":["Greek Restaurants"]},"sameCategory":[{"id":"greekRestaurants_6d77d03fd815","slug":"kali-kardia-6d77","kind":"restaurant","name":"Καλή Καρδιά","lat":38.56948818591032,"lng":23.85240444441089,"url":"https://maps.app.goo.gl/PRdRKPuUB7qffyj18?g_st=ipc","address":"Καμπιά 340 14","categoryIds":["greek-restaurants"],"categories":["Greek Restaurants"]},{"id":"greekRestaurants_5dac34f7b50b","slug":"taverna-kissos-steni-eyvoias-5dac","kind":"restaurant","name":"Ταβέρνα Κισσός - Στενή Ευβοίας","lat":38.582812038208004,"lng":23.839569738880474,"url":"https://maps.app.goo.gl/36qZq5pA8trHo2vUA?g_st=ipc","address":"Δάσος Στενής, Στενή Δίρφυος 340 14","categoryIds":["greek-restaurants"],"categories":["Greek Restaurants"]},{"id":"greekRestaurants_8264dbbcf215","slug":"taverna-ampoli-8264","kind":"restaurant","name":"Ταβέρνα Αμπολή","lat":38.406699872649206,"lng":24.167892229616715,"url":"https://maps.app.goo.gl/2yA2jW82NvhwYb5dA?g_st=ipc","address":"Πετριές 340 17","categoryIds":["greek-restaurants"],"categories":["Greek Restaurants"]},{"id":"greekRestaurants_1d92f9bdf6c9","slug":"taverna-kalliontzi-1d92","kind":"restaurant","name":"Ταβερνα Καλλιοντζη","lat":38.30212031451821,"lng":24.192393057705917,"url":"https://maps.app.goo.gl/q5yJNzCzH42Ubojt5?g_st=ipc","address":"Ζάρακες 340 17","categoryIds":["greek-restaurants"],"categories":["Greek Restaurants"]},{"id":"greekRestaurants_ec2a8b2c83d9","slug":"koytoyki-pame-stoy-nikola-ec2a","kind":"restaurant","name":"Κουτουκι Παμε στου Νικολα","lat":38.43629094885433,"lng":23.630485450987354,"url":"https://maps.app.goo.gl/MKQYaTiNZDJ9y8cf9?g_st=ipc","address":"Αγίου Αλεξάνδρου, Χαλκίδα 341 00","categoryIds":["greek-restaurants"],"categories":["Greek Restaurants"]},{"id":"greekRestaurants_fb8150b1b5bf","slug":"taverna-o-litsas-fb81","kind":"restaurant","name":"Ταβέρνα Ο Λίτσας","lat":38.2808566827325,"lng":23.792798463384955,"url":"https://maps.app.goo.gl/DPJMb7ZiPi9MTzov7","address":"Λεωφ. Αθηνών Ωρωπού, Μήλεσι Αττικής 190 11","categoryIds":["greek-restaurants"],"categories":["Greek Restaurants"]},{"id":"greekRestaurants_3e4d92e59717","slug":"taverna-ramnoys-3e4d","kind":"restaurant","name":"Ταβέρνα Ραμνούς","lat":38.21411980707791,"lng":24.03058229285915,"url":"https://maps.app.goo.gl/M3qEfsy6NhrFMcCH9","address":"Αρχαιολογικος Χωρος Ραμνους, Λεωφόρος Ραμνουντος Τερμα, Μαραθωνας 190 07","categoryIds":["greek-restaurants"],"categories":["Greek Restaurants"]},{"id":"greekRestaurants_c595c62efc6b","slug":"mparmpa-vasilis-c595","kind":"restaurant","name":"Μπάρμπα Βασίλης","lat":38.23380794795737,"lng":23.89319631949878,"url":"https://maps.app.goo.gl/C74xDes5etzk12FL7","address":"Σπύρου Πολύχρονη, Μικροχώρι 190 14","categoryIds":["greek-restaurants"],"categories":["Greek Restaurants"]}],"nearby":[{"id":"greekRestaurants_6d77d03fd815","slug":"kali-kardia-6d77","kind":"restaurant","name":"Καλή Καρδιά","lat":38.56948818591032,"lng":23.85240444441089,"url":"https://maps.app.goo.gl/PRdRKPuUB7qffyj18?g_st=ipc","address":"Καμπιά 340 14","categoryIds":["greek-restaurants"],"categories":["Greek Restaurants"],"distanceKm":18.683473214974203},{"id":"greekRestaurants_5dac34f7b50b","slug":"taverna-kissos-steni-eyvoias-5dac","kind":"restaurant","name":"Ταβέρνα Κισσός - Στενή Ευβοίας","lat":38.582812038208004,"lng":23.839569738880474,"url":"https://maps.app.goo.gl/36qZq5pA8trHo2vUA?g_st=ipc","address":"Δάσος Στενής, Στενή Δίρφυος 340 14","categoryIds":["greek-restaurants"],"categories":["Greek Restaurants"],"distanceKm":19.415101624763654},{"id":"dessertsRestaurants_9b6412fb3073","slug":"kafeglykopoleio-1743-9b64","kind":"restaurant","name":"Καφεγλυκοπωλείο 1743","lat":38.58175023664722,"lng":23.838148482202772,"url":"https://maps.app.goo.gl/xqUssHq6UkJo44nU9?g_st=ipc","address":"Στενή Ευβοίας, Stení 340 14","categoryIds":["desserts"],"categories":["Dessert Shops"],"distanceKm":19.559458438265885},{"id":"greekRestaurants_8264dbbcf215","slug":"taverna-ampoli-8264","kind":"restaurant","name":"Ταβέρνα Αμπολή","lat":38.406699872649206,"lng":24.167892229616715,"url":"https://maps.app.goo.gl/2yA2jW82NvhwYb5dA?g_st=ipc","address":"Πετριές 340 17","categoryIds":["greek-restaurants"],"categories":["Greek Restaurants"],"distanceKm":25.193131407506986},{"id":"fishTavernasRestaurants_2b10ad241f53","slug":"koytsi-karavida-2b10","kind":"restaurant","name":"ΚΟΥΤΣΗ ΚΑΡΑΒΙΔΑ","lat":38.41081459324057,"lng":24.196977288543714,"url":"https://maps.app.goo.gl/imZ9FsHT92dDgX1n6?g_st=ipc","address":"ΑΓΙΟΙ ΑΠΟΣΤΟΛΟΙ, ΕΥΒΟΙΑ 340 17","categoryIds":["fish-tavernas"],"categories":["Fish Tavernas"],"distanceKm":25.84567087982949},{"id":"fishTavernasRestaurants_5f172a2da902","slug":"psarotaverna-to-petradi-5f17","kind":"restaurant","name":"Ψαροταβέρνα \"Το Πετράδι\"","lat":38.41006072552465,"lng":24.197994037205248,"url":"https://maps.app.goo.gl/cVt18H2LKwwAMxpC7?g_st=ipc","address":"Άγιοι Απόστολοι 340 17","categoryIds":["fish-tavernas"],"categories":["Fish Tavernas"],"distanceKm":25.961088574239202},{"id":"fishTavernasRestaurants_21394a13a305","slug":"gorgona-di-stefano-amarythos-oyzeri-psarotaverna-2139","kind":"restaurant","name":"Gorgona Di Stefano Amarythos Oυζερι Psarotaverna","lat":38.391896520308414,"lng":23.883711972578777,"url":"https://maps.app.goo.gl/Q3hYqnNSaAEfk5UH8?g_st=ipc","address":"Κων/νου Καραμανλή 2, Αμάρυνθος 340 06","categoryIds":["fish-tavernas"],"categories":["Fish Tavernas"],"distanceKm":29.25972449012808},{"id":"fishTavernasRestaurants_89f946397ea9","slug":"to-limanaki-tis-amarynthoy-89f9","kind":"restaurant","name":"Το Λιμανάκι Της Αμαρύνθου","lat":38.391630088057546,"lng":23.87976016192821,"url":"https://maps.app.goo.gl/123Yma2QRjswTuuD9?g_st=ipc","address":"Μιαούλη, Αμάρυνθος 340 06","categoryIds":["fish-tavernas"],"categories":["Fish Tavernas"],"distanceKm":29.465373573651895}],"sameRegion":[]},"__N_SSG":true}