{"pageProps":{"entity":{"id":"greekRestaurants_f4ebc9969b78","slug":"taverna-archontiko-palaios-panteleimonas-mesogeiaki-koyzina-elliniki-koyzina-vegan-piata-poikilia-kreatikon-salates-f4eb","kind":"restaurant","name":"Ταβέρνα Αρχοντικό - Παλαιός Παντελεήμονας - μεσογειακή κουζίνα, ελληνική κουζίνα, vegan πιάτα, ποικιλία κρεατικών, σαλάτες","lat":39.99233919631375,"lng":22.57037767816054,"url":"https://maps.app.goo.gl/UbSkC2BXuxRo4ggb7?g_st=ipc","address":"Παραδοσιακος οικοισμος, Παντελεήμων 600 65","categoryIds":["greek-restaurants"],"categories":["Greek Restaurants"]},"sameCategory":[{"id":"greekRestaurants_f35cc23ab92b","slug":"taverna-olympos-f35c","kind":"restaurant","name":"Ταβέρνα Όλυμπος","lat":39.992317999663214,"lng":22.570332663357174,"url":"https://maps.app.goo.gl/EmvZVtmzZzpCJW9T7?g_st=ipc","address":"Παλαιος Παντελημονας, Παλαιός Παντελεήμονας Πιερίας 600 65","categoryIds":["greek-restaurants"],"categories":["Greek Restaurants"]},{"id":"greekRestaurants_0981b7de54f0","slug":"to-palio-podilato-0981","kind":"restaurant","name":"Το Παλιό Ποδήλατο","lat":40.488027534727074,"lng":22.213478399857028,"url":"https://maps.app.goo.gl/ceUirhjtqEWPKLQM6?g_st=ipc","address":"Ράχη 591 32","categoryIds":["greek-restaurants"],"categories":["Greek Restaurants"]},{"id":"greekRestaurants_730ebf3d54bc","slug":"to-steki-steak-house-730e","kind":"restaurant","name":"ΤΟ ΣΤΕΚΙ Steak House","lat":40.468079577548984,"lng":22.97361442896107,"url":"https://maps.app.goo.gl/bcVGXZXajJU5Ehw39?g_st=ipc","address":"Π. Μελά 9, Τρίλοφος 575 00","categoryIds":["greek-restaurants"],"categories":["Greek Restaurants"]},{"id":"greekRestaurants_0c835368c56b","slug":"anestis-chasapotaverna-0c83","kind":"restaurant","name":"Ανέστης Χασαποταβέρνα","lat":40.502483515629656,"lng":22.91579650811081,"url":"https://maps.app.goo.gl/t2wP5pPZ82MXqh6X7?g_st=ipc","address":"Λεωφ. Θεσσαλονίκης - Μηχανιώνας 78, Περαία 570 19","categoryIds":["greek-restaurants"],"categories":["Greek Restaurants"]},{"id":"greekRestaurants_e4db76cd737a","slug":"taverna-giannis-e4db","kind":"restaurant","name":"Ταβέρνα Γιάννης","lat":40.30643313313829,"lng":23.20731900101629,"url":"https://maps.app.goo.gl/uEtZqrvbUfiysQHn8?g_st=ipc","address":"Αγίας Παρασκευής 401, Νέα Τρίγλια 630 79","categoryIds":["greek-restaurants"],"categories":["Greek Restaurants"]},{"id":"greekRestaurants_820bfd5186cb","slug":"ta-mpinelikia-820b","kind":"restaurant","name":"Τα Μπινελίκια","lat":40.50703896441234,"lng":22.920737720394328,"url":"https://maps.app.goo.gl/oKvjS1FyjeCvcJy66?g_st=ipc","address":"Δημοκρατίας 104, Περαία 570 19","categoryIds":["greek-restaurants"],"categories":["Greek Restaurants"]},{"id":"greekRestaurants_be297b509b05","slug":"vergiotiko-be29","kind":"restaurant","name":"Βεργιώτικο","lat":40.51968475945456,"lng":22.2039284722324,"url":"https://maps.app.goo.gl/wi8AuWq5DENoFUXG9?g_st=ipc","address":"thomaidoy 2, Βέροια 591 32","categoryIds":["greek-restaurants"],"categories":["Greek Restaurants"]},{"id":"greekRestaurants_5d95f90e24a6","slug":"ta-kastra-5d95","kind":"restaurant","name":"Τα Κάστρα","lat":40.19644489776472,"lng":23.325795895395796,"url":"https://maps.app.goo.gl/1jdDdXYAsWUehvoW8?g_st=ipc","address":"Κανάλι Νέας Ποτίδαιας, Νέα Ποτίδαια 632 00","categoryIds":["greek-restaurants"],"categories":["Greek Restaurants"]}],"nearby":[{"id":"greekRestaurants_f35cc23ab92b","slug":"taverna-olympos-f35c","kind":"restaurant","name":"Ταβέρνα Όλυμπος","lat":39.992317999663214,"lng":22.570332663357174,"url":"https://maps.app.goo.gl/EmvZVtmzZzpCJW9T7?g_st=ipc","address":"Παλαιος Παντελημονας, Παλαιός Παντελεήμονας Πιερίας 600 65","categoryIds":["greek-restaurants"],"categories":["Greek Restaurants"],"distanceKm":0.004501219401599384},{"id":"coffeeBrunchRestaurants_e280eb914580","slug":"gallaria-e280","kind":"restaurant","name":"Gallaria","lat":40.00824042648882,"lng":22.59872088063863,"url":"https://maps.app.goo.gl/mg7jdoneLKkUwxSz7?g_st=ipc","address":"Panteleimonas 600 65","categoryIds":["coffee-brunch"],"categories":["Coffee & Brunch Spots"],"distanceKm":2.992492201961857},{"id":"familyFriendly_61814ffe8685","slug":"olympus-forest-park-6181","kind":"restaurant","name":"Olympus Forest Park","lat":39.936757899181885,"lng":22.59765175900559,"url":"https://maps.app.goo.gl/fhjCwYn9Hozz3TG16?g_st=ipc","address":"Pyrgetos 414 47","categoryIds":["family-friendly"],"categories":["Kid Friendly Locations"],"distanceKm":6.603010687946725},{"id":"fishTavernasRestaurants_6a50d87632fd","slug":"psarotaverna-estiatorio-glaros-6a50","kind":"restaurant","name":"Ψαροταβέρνα Εστιατόριο Γλάρος","lat":40.102076689108266,"lng":22.563489373632812,"url":"https://maps.app.goo.gl/3BT8ProALQ6GPVvR6?g_st=ipc","address":"Plakas, Litochoro 602 00","categoryIds":["fish-tavernas"],"categories":["Fish Tavernas"],"distanceKm":12.216331748025558},{"id":"fishTavernasRestaurants_18fccf614725","slug":"ostria-18fc","kind":"restaurant","name":"Ostria","lat":40.156304802159944,"lng":22.54629048810169,"url":"https://maps.app.goo.gl/HjkJrMsUJs1jtgvL6?g_st=ipc","address":"Παλιός Σιδηροδρομικός Σταθμός Λιτοχώρου, Litochoro 600 63","categoryIds":["fish-tavernas"],"categories":["Fish Tavernas"],"distanceKm":18.34697720042517},{"id":"fishTavernasRestaurants_ea0f62d8c83d","slug":"psarokokkalo-ea0f","kind":"restaurant","name":"Psarokokkalo","lat":40.15708814326953,"lng":22.54870187929804,"url":"https://maps.app.goo.gl/CXU1CqZyZ9zhpU6p6?g_st=ipc","address":"Limenas Litochorou 602 00","categoryIds":["fish-tavernas"],"categories":["Fish Tavernas"],"distanceKm":18.411853592114742},{"id":"mustSeeAttractions_3ca5dbf40892","slug":"dion-3ca5","kind":"restaurant","name":"Dion","lat":40.17394047089396,"lng":22.491437674242245,"url":"https://maps.app.goo.gl/cEWrQYsLFdjV6Q239?g_st=ipc","address":"Epar.Od. Katerinis - Limena Litochoriou 910, Dion 601 00","categoryIds":["attractions"],"categories":["Must-See Attractions"],"distanceKm":21.280662281250635},{"id":"fishTavernasRestaurants_512dcb2e30fa","slug":"molos-512d","kind":"restaurant","name":"Mṓlos","lat":40.26080750924372,"lng":22.59489795073653,"url":"https://maps.app.goo.gl/eUpNF4puzYCqSTBL7?g_st=ipc","address":"Τέρμα, Ολύμπου, Paralia 601 00","categoryIds":["fish-tavernas"],"categories":["Fish Tavernas"],"distanceKm":29.925021278786346}],"sameRegion":[]},"__N_SSG":true}