{"pageProps":{"entity":{"id":"cheapEatsRestaurants_204d68c7c535","slug":"to-ariston-204d","kind":"restaurant","name":"ΤΟ ΑΡΙΣΤΟΝ","lat":38.022955608499146,"lng":23.735820169983455,"url":"https://maps.app.goo.gl/TRT4ewxJ6pQL8ffBA?g_st=ipc","address":"Πατησίων 349, Αθήνα 111 44","categoryIds":["cheap-eats"],"categories":["Gyros & Cheap Eats"]},"sameCategory":[{"id":"cheapEatsRestaurants_a39f2b17c80c","slug":"i-vasiliki-psitopoleio-soyvlakopoleio-a39f","kind":"restaurant","name":"Η Βασιλική - Ψητοπωλείο Σουβλακοπωλείο","lat":38.01712717421362,"lng":23.740908436131292,"url":"https://maps.app.goo.gl/5zkEPJhoVXLaVYeF7?g_st=ipc","address":"Μαρκορά 25, Αθήνα 111 41","categoryIds":["cheap-eats"],"categories":["Gyros & Cheap Eats"]},{"id":"cheapEatsRestaurants_cbf0a0d9c1b3","slug":"lamprinaki-cbf0","kind":"restaurant","name":"Λαμπρινάκι","lat":38.0224148920344,"lng":23.747555518536878,"url":"https://maps.app.goo.gl/M5T9Z6KajRqpaNBA7?g_st=ipc","address":"Τράλλεων 67, Αθήνα 111 42","categoryIds":["cheap-eats"],"categories":["Gyros & Cheap Eats"]},{"id":"cheapEatsRestaurants_d184e5cf8bc9","slug":"psitopoleio-o-spyros-soyvlakia-d184","kind":"restaurant","name":"Ψητοπωλείο ο Σπύρος Σουβλάκια","lat":38.01699116177091,"lng":23.725453216560837,"url":"https://maps.app.goo.gl/jiHHELBpUtGUfeV87?g_st=ipc","address":"Βικέλα 33, Αθήνα 111 45","categoryIds":["cheap-eats"],"categories":["Gyros & Cheap Eats"]},{"id":"cheapEatsRestaurants_708ba2b3a806","slug":"eyripidis-1955-708b","kind":"restaurant","name":"Ευριπίδης 1955","lat":38.03354736852586,"lng":23.737489018536408,"url":"https://maps.app.goo.gl/oALQiKiSKqqQt7VE8?g_st=ipc","address":"Λεωφ. Δεκελείας 83, Νέα Φιλαδέλφεια Αττικής 143 41","categoryIds":["cheap-eats"],"categories":["Gyros & Cheap Eats"]},{"id":"cheapEatsRestaurants_ae066a0c8be0","slug":"street-wok-ae06","kind":"restaurant","name":"Street wok","lat":38.03415581458627,"lng":23.737421868861436,"url":"https://maps.app.goo.gl/2Mpgb24E2Bp7GYMDA?g_st=ipc","address":"Βρυούλων 4, Νέα Φιλαδέλφεια Αττικής 143 41","categoryIds":["cheap-eats"],"categories":["Gyros & Cheap Eats"]},{"id":"cheapEatsRestaurants_93852e0ca98a","slug":"i-vromiara-the-gourmet-street-food-nea-filadelfeia-9385","kind":"restaurant","name":"Η Βρωμιάρα - The Gourmet Street Food - Νεα Φιλαδέλφεια","lat":38.03438911435279,"lng":23.73692338806855,"url":"https://maps.app.goo.gl/Q23dgN65gryr9fpi7?g_st=ipc","address":"Βρυούλων 5, Νέα Φιλαδέλφεια Αττικής 143 41","categoryIds":["cheap-eats"],"categories":["Gyros & Cheap Eats"]},{"id":"cheapEatsRestaurants_8e920e95e567","slug":"slum-it-8e92","kind":"restaurant","name":"Slum it","lat":38.034971479219536,"lng":23.73628101866516,"url":"https://maps.app.goo.gl/m2fyvmtGXXiGevuC6?g_st=ipc","address":"Βρυούλων 15, Νέα Φιλαδέλφεια Αττικής 143 41","categoryIds":["cheap-eats"],"categories":["Gyros & Cheap Eats"]},{"id":"cheapEatsRestaurants_25538f73c661","slug":"koutsi-katsika-street-food-nea-filadelfeia-2553","kind":"restaurant","name":"Koutsi Katsika Street Food Νέα Φιλαδέλφεια","lat":38.036295969328165,"lng":23.73867352816236,"url":"https://maps.app.goo.gl/SfprcJNzr7drSK6A6?g_st=ipc","address":"Λεωφ. Δεκελείας 109, Νέα Φιλαδέλφεια Αττικής 143 41","categoryIds":["cheap-eats"],"categories":["Gyros & Cheap Eats"]}],"nearby":[{"id":"dessertsRestaurants_f22485b9778b","slug":"chara-f224","kind":"restaurant","name":"Χαρά","lat":38.02112078219093,"lng":23.735510538796248,"url":"https://maps.app.goo.gl/xbCzjtuywVhjf9c59?g_st=ipc","address":"Πατησίων 339, Αθήνα 111 44","categoryIds":["desserts"],"categories":["Dessert Shops"],"distanceKm":0.20581830205930465},{"id":"greekRestaurants_7e2e5838aa91","slug":"arolithos-7e2e","kind":"restaurant","name":"Αρόλιθος","lat":38.022714668636375,"lng":23.738679463378304,"url":"https://maps.app.goo.gl/kNua9KhyTtnEhKVV9","address":"Αγίας Λαύρας 70, Αθήνα 111 41","categoryIds":["greek-restaurants"],"categories":["Greek Restaurants"],"distanceKm":0.25189008171312693},{"id":"dessertsRestaurants_b21d96062bcb","slug":"pap-liber-patisia-b21d","kind":"restaurant","name":"Pap-Liber (Πατήσια)","lat":38.01877416845803,"lng":23.734552478722144,"url":"https://maps.app.goo.gl/fgNMoYsGZV8mdkn37?g_st=ipc","address":"Ιακωβίδου 10 &, Τσίλλερ, Αθήνα 111 44","categoryIds":["desserts"],"categories":["Dessert Shops"],"distanceKm":0.47803192617073426},{"id":"greekRestaurants_2f6996caca4e","slug":"spyros-antonis-2f69","kind":"restaurant","name":"Σπύρος-Αντώνης","lat":38.01866922800358,"lng":23.738404062129728,"url":"https://maps.app.goo.gl/9kB2f5FdE7NhgyEF7","address":"Γαβριηλίδου 24, Αθήνα 111 41","categoryIds":["greek-restaurants"],"categories":["Greek Restaurants"],"distanceKm":0.5276377867122609},{"id":"greekRestaurants_c66e14e23e12","slug":"stoy-lagoydaki-c66e","kind":"restaurant","name":"Στου Λαγουδάκη","lat":38.02939885957541,"lng":23.734627277985574,"url":"https://maps.app.goo.gl/4j67R3hXxbhm8zc98","address":"Λεωφ. Δεκελείας 36, Νέα Χαλκηδόνα 143 43","categoryIds":["greek-restaurants"],"categories":["Greek Restaurants"],"distanceKm":0.7240358886600904},{"id":"municipalities_23828bbce235","slug":"patisia-2382","kind":"municipality","name":"Πατήσια","lat":38.0167,"lng":23.7333,"aliases":["Πατησια","Patissia"],"region":"Κέντρο Αθήνας","name_en":"Patisia","region_en":"Athens Center","distanceKm":0.7297843181847126},{"id":"cheapEatsRestaurants_a39f2b17c80c","slug":"i-vasiliki-psitopoleio-soyvlakopoleio-a39f","kind":"restaurant","name":"Η Βασιλική - Ψητοπωλείο Σουβλακοπωλείο","lat":38.01712717421362,"lng":23.740908436131292,"url":"https://maps.app.goo.gl/5zkEPJhoVXLaVYeF7?g_st=ipc","address":"Μαρκορά 25, Αθήνα 111 41","categoryIds":["cheap-eats"],"categories":["Gyros & Cheap Eats"],"distanceKm":0.7865720212682425},{"id":"dessertsRestaurants_903707df6326","slug":"papliber-9037","kind":"restaurant","name":"PapLiber","lat":38.021403205203185,"lng":23.74592719548837,"url":"https://maps.app.goo.gl/3KG3eWHdUB7oyaGD7?g_st=ipc","address":"Γεωργούλια Αγησιλάου 10, Αθήνα 111 42","categoryIds":["desserts"],"categories":["Dessert Shops"],"distanceKm":0.9020092708548725}],"sameRegion":[]},"__N_SSG":true}