{"pageProps":{"entity":{"id":"greekRestaurants_ca3f37d54af0","slug":"to-kastro-mezedopoleio-ca3f","kind":"restaurant","name":"Το Κάστρο - Μεζεδοπωλείο","lat":38.029707505192306,"lng":23.701561203164797,"url":"https://maps.app.goo.gl/ntunDXdn4W56VrG16","address":"Πολυτέκνων 80, Ίλιον 131 21","categoryIds":["greek-restaurants"],"categories":["Greek Restaurants"]},"sameCategory":[{"id":"greekRestaurants_d84b869185a4","slug":"rigalos-psistaria-provato-sta-karvoyna-d84b","kind":"restaurant","name":"Ρηγάλος Ψησταριά - Πρόβατο στα κάρβουνα","lat":38.02876561192483,"lng":23.709228688807336,"url":"https://maps.app.goo.gl/KcrSRWtpYRZVpLT68","address":"Πάριδος 32, Ίλιον 131 22","categoryIds":["greek-restaurants"],"categories":["Greek Restaurants"]},{"id":"greekRestaurants_66d5a57225f6","slug":"taverna-o-karagkiozis-66d5","kind":"restaurant","name":"Ταβέρνα Ο Καραγκιόζης","lat":38.01836729151931,"lng":23.702104419170855,"url":"https://maps.app.goo.gl/zhCvjvwCT9rbixAE6","address":"Τρώων 9, Bournazi 121 33","categoryIds":["greek-restaurants"],"categories":["Greek Restaurants"]},{"id":"greekRestaurants_9c5c07b28afc","slug":"schinos-mpistro-9c5c","kind":"restaurant","name":"Σχίνος Μπιστρό","lat":38.01228323858559,"lng":23.703471319893453,"url":"https://maps.app.goo.gl/VEoaxecqRaF6Y2in8","address":"Μεγ. Αλεξάνδρου 88, Περιστέρι 121 32","categoryIds":["greek-restaurants"],"categories":["Greek Restaurants"]},{"id":"greekRestaurants_c4daeb8f4d66","slug":"malanos-c4da","kind":"restaurant","name":"Μαλανος","lat":38.0129537569984,"lng":23.7103246194612,"url":"https://maps.app.goo.gl/RHBwmAA2mvG3Eie58","address":"Ιωλκού 2, Περιστέρι 121 33","categoryIds":["greek-restaurants"],"categories":["Greek Restaurants"]},{"id":"greekRestaurants_e84451b3cebc","slug":"taverna-psistaria-o-thomas-apo-to-1980-e844","kind":"restaurant","name":"Ταβέρνα - Ψησταριά ο Θωμάς απο το 1980","lat":38.015942140522725,"lng":23.686390666199237,"url":"https://maps.app.goo.gl/ZYNUbquE3yHM5E837","address":"Χαλκοκονδύλη 39, Περιστέρι 121 35","categoryIds":["greek-restaurants"],"categories":["Greek Restaurants"]},{"id":"greekRestaurants_8f61506d1171","slug":"basegrill-athens-8f61","kind":"restaurant","name":"Basegrill Athens","lat":38.01200938597209,"lng":23.7082215195935,"url":"https://maps.app.goo.gl/4HcYYs1yQVdq1giy8","address":"Λεωφ. Κωνσταντινουπόλεως 64, Περιστέρι 121 33","categoryIds":["greek-restaurants"],"categories":["Greek Restaurants"]},{"id":"greekRestaurants_894000c6e69f","slug":"arch-beer-house-8940","kind":"restaurant","name":"Arch Beer House","lat":38.01418942631727,"lng":23.68836608869776,"url":"https://maps.app.goo.gl/LiRMqJ6hgSpNtgJ99","address":"Εθ. Αντιστάσεως 91, Περιστέρι 121 34","categoryIds":["greek-restaurants"],"categories":["Greek Restaurants"]},{"id":"greekRestaurants_3bf98dd0eb38","slug":"anemologio-enallaktiko-kafe-3bf9","kind":"restaurant","name":"Ανεμολόγιο εναλλακτικό καφέ","lat":38.016523540675394,"lng":23.68057325145113,"url":"https://maps.app.goo.gl/jpKMuFsoZ998HnQE8","address":"Πελοπίδα 106, Περιστέρι 121 35","categoryIds":["greek-restaurants"],"categories":["Greek Restaurants"]}],"nearby":[{"id":"cheapEatsRestaurants_1be49628e345","slug":"eylogison-psitopoleia-ilion-1be4","kind":"restaurant","name":"ΕΥΛΟΓΗΣΟΝ-ΨΗΤΟΠΩΛΕΙΑ ΙΛΙΟΝ","lat":38.029256363760155,"lng":23.699607500108378,"url":"https://maps.app.goo.gl/ytds7DdcMdh2G5oA8?g_st=ipc","address":"Thivon 481, Ilion 131 21","categoryIds":["cheap-eats"],"categories":["Gyros & Cheap Eats"],"distanceKm":0.17832154772152625},{"id":"italianRestaurants_f98d171cbc3e","slug":"la-greca-ilion-f98d","kind":"restaurant","name":"La Greca Ίλιον","lat":38.033370068810264,"lng":23.70123370557317,"url":"https://maps.app.goo.gl/Btmva8rtUGkuoUtX6?g_st=ipc","address":"Έκτορος 140, Ίλιον 131 23","categoryIds":["italian"],"categories":["Italian Restaurants"],"distanceKm":0.40826737153464704},{"id":"asianRestaurants_d86051389e82","slug":"kaii-sushi-bar-d860","kind":"restaurant","name":"Kaii sushi bar","lat":38.029067505855075,"lng":23.706941325356716,"url":"https://maps.app.goo.gl/oEMoWWtVbmE4QW2W7?g_st=ipc","address":"Βρισηίδος 47, Δαναών 44, Ίλιον 131 22","categoryIds":["asian"],"categories":["Asian Restaurants"],"distanceKm":0.4765756739765472},{"id":"coffeeBrunchRestaurants_6a4b180ed5c1","slug":"le-pain-du-chef-6a4b","kind":"restaurant","name":"LE PAIN - Du chef","lat":38.03133472316872,"lng":23.707950598464468,"url":"https://maps.app.goo.gl/qm2cf1KQg3gUAF9QA?g_st=ipc","address":"Idomeneos, Nestoros 41, Ilion 131 22","categoryIds":["coffee-brunch"],"categories":["Coffee & Brunch Spots"],"distanceKm":0.5881473306492464},{"id":"dessertsRestaurants_4eb0f195642c","slug":"the-twins-inspiration-4eb0","kind":"restaurant","name":"The Twins Inspiration","lat":38.03397180922058,"lng":23.706833795528777,"url":"https://maps.app.goo.gl/yUZVBieRsMh4Pe6P8?g_st=ipc","address":"Αίαντος 103, Ίλιον 131 22","categoryIds":["desserts"],"categories":["Dessert Shops"],"distanceKm":0.6618868474770089},{"id":"greekRestaurants_d84b869185a4","slug":"rigalos-psistaria-provato-sta-karvoyna-d84b","kind":"restaurant","name":"Ρηγάλος Ψησταριά - Πρόβατο στα κάρβουνα","lat":38.02876561192483,"lng":23.709228688807336,"url":"https://maps.app.goo.gl/KcrSRWtpYRZVpLT68","address":"Πάριδος 32, Ίλιον 131 22","categoryIds":["greek-restaurants"],"categories":["Greek Restaurants"],"distanceKm":0.6796962496307046},{"id":"cheapEatsRestaurants_9bf1f7743a87","slug":"dekapentalepto-9bf1","kind":"restaurant","name":"Δεκαπενταλεπτο","lat":38.0332432504206,"lng":23.708153853689517,"url":"https://maps.app.goo.gl/pgrPE8JqcHDwR95q6?g_st=ipc","address":"Πάριδος 90, Ίλιον 131 22","categoryIds":["cheap-eats"],"categories":["Gyros & Cheap Eats"],"distanceKm":0.698558841390683},{"id":"italianRestaurants_9ad90cbc1718","slug":"goloso-cucina-e-pizza-italiana-9ad9","kind":"restaurant","name":"Goloso Cucina e Pizza Italiana","lat":38.034154813582916,"lng":23.69590782983928,"url":"https://maps.app.goo.gl/pg641ieu7sSBX3fa7","address":"Petroupoleos 68-70, Petroupoli 131 23","categoryIds":["italian"],"categories":["Italian Restaurants"],"distanceKm":0.6998002142923327}],"sameRegion":[]},"__N_SSG":true}