{"pageProps":{"entity":{"id":"greekRestaurants_e684531e1c90","slug":"to-kyklamino-e684","kind":"restaurant","name":"Το Κυκλάμινο","lat":37.976681511235476,"lng":23.724107441529995,"url":"https://maps.app.goo.gl/9UGJoEFr8WGupZtP9","address":"Πλ. Αβησσυνίας 3, Αθήνα 105 55","categoryIds":["greek-restaurants"],"categories":["Greek Restaurants"]},"sameCategory":[{"id":"greekRestaurants_ccfa82da91ec","slug":"cafe-avissinia-ccfa","kind":"restaurant","name":"Cafe Avissinia","lat":37.97665935435758,"lng":23.723658874040776,"url":"https://maps.app.goo.gl/vKinr3WBQjy8EYru8","address":"Κυνέτου 7, Αθήνα 105 55","categoryIds":["greek-restaurants"],"categories":["Greek Restaurants"]},{"id":"greekRestaurants_72a09df578ee","slug":"a-little-taste-of-home-restaurant-72a0","kind":"restaurant","name":"A Little Taste of Home Restaurant","lat":37.976779798219894,"lng":23.722967824354946,"url":"https://maps.app.goo.gl/GmHsbFa1YEmR2kef9","address":"Άστιγγος 8, Αθήνα 105 55","categoryIds":["greek-restaurants"],"categories":["Greek Restaurants"]},{"id":"greekRestaurants_0c30703c94b5","slug":"krasopoylio-toy-kokkora-0c30","kind":"restaurant","name":"Κρασοπουλιο του Κοκκορα","lat":37.97774968772063,"lng":23.724156040305374,"url":"https://maps.app.goo.gl/FdPM4DDLKYaXnaei6","address":"Αισώπου 4, Αθήνα 105 54","categoryIds":["greek-restaurants"],"categories":["Greek Restaurants"]},{"id":"greekRestaurants_77b3530742da","slug":"maiandros-restaurant-77b3","kind":"restaurant","name":"Maiandros Restaurant","lat":37.97572091133567,"lng":23.725354400404825,"url":"https://maps.app.goo.gl/6vSRNbnm7hVmc1NH6","address":"Αδριανού 47, Αθήνα 105 55","categoryIds":["greek-restaurants"],"categories":["Greek Restaurants"]},{"id":"greekRestaurants_60fc17fb1af0","slug":"eycharis-mezedopoleio-60fc","kind":"restaurant","name":"Ευχαρις Μεζεδοπωλείο","lat":37.97570405558301,"lng":23.72549560715114,"url":"https://maps.app.goo.gl/RANm4cQqR929BJSE7","address":"Αδριανού 49Α, Αθήνα 105 55","categoryIds":["greek-restaurants"],"categories":["Greek Restaurants"]},{"id":"greekRestaurants_01412cd104e7","slug":"bandiera-0141","kind":"restaurant","name":"Bandiera","lat":37.978324295237165,"lng":23.723850317882693,"url":"https://maps.app.goo.gl/Qi3TiLypHkh8kAfv8","address":"Τάκη 19, Αθήνα 105 54","categoryIds":["greek-restaurants"],"categories":["Greek Restaurants"]},{"id":"greekRestaurants_63d3f13668e8","slug":"flint-athens-63d3","kind":"restaurant","name":"Flint Athens","lat":37.97865798885805,"lng":23.724488894508067,"url":"https://maps.app.goo.gl/Fj4mZsQhG6Dryz9HA","address":"Αγ. Αναργύρων 6, Αθήνα 105 54","categoryIds":["greek-restaurants"],"categories":["Greek Restaurants"]},{"id":"greekRestaurants_47e0fbf99993","slug":"nikitas-psyrri-47e0","kind":"restaurant","name":"Νικήτας Ψυρρή","lat":37.97869467804771,"lng":23.723980497190343,"url":"https://maps.app.goo.gl/cnKsmpXwbUi4ehMj9","address":"Αγ. Αναργύρων 19, Αθήνα 105 54","categoryIds":["greek-restaurants"],"categories":["Greek Restaurants"]}],"nearby":[{"id":"rooftopLoungesRestaurants_fd2aeb4fbf06","slug":"couleur-locale-fd2a","kind":"restaurant","name":"Couleur Locale","lat":37.97665657873508,"lng":23.724495249053955,"url":"https://maps.app.goo.gl/xcPngBCfpyfPpqpi9?g_st=ipc","address":"Νορμανού 3, Αθήνα 105 55","categoryIds":["rooftop-lounges"],"categories":["Rooftop Lounges"],"distanceKm":0.03410445848557867},{"id":"greekRestaurants_ccfa82da91ec","slug":"cafe-avissinia-ccfa","kind":"restaurant","name":"Cafe Avissinia","lat":37.97665935435758,"lng":23.723658874040776,"url":"https://maps.app.goo.gl/vKinr3WBQjy8EYru8","address":"Κυνέτου 7, Αθήνα 105 55","categoryIds":["greek-restaurants"],"categories":["Greek Restaurants"],"distanceKm":0.03939435560694628},{"id":"rooftopLoungesRestaurants_a6f3f7763fdc","slug":"cafe-avissinia-a6f3","kind":"restaurant","name":"Cafe Avissinia","lat":37.976617858661804,"lng":23.723660269964185,"url":"https://maps.app.goo.gl/XrFr3v9aufbhaUdc7?g_st=ipc","address":"Κυνέτου 7, Αθήνα 105 55","categoryIds":["rooftop-lounges"],"categories":["Rooftop Lounges"],"distanceKm":0.03982883086105815},{"id":"burgersRestaurants_de31086328e0","slug":"balboa-athens-de31","kind":"restaurant","name":"Balboa Athens","lat":37.977044741999016,"lng":23.724391193177723,"url":"https://maps.app.goo.gl/xqbjAq65izWtnBT18?g_st=ipc","address":"Αρτέμιδος 1-3, Αθήνα 105 54","categoryIds":["burgers"],"categories":["Burger Spots"],"distanceKm":0.04743278949964495},{"id":"cheapEatsRestaurants_087b1f7ae690","slug":"potato-king-087b","kind":"restaurant","name":"Potato King","lat":37.97675298586362,"lng":23.723457601026865,"url":"https://maps.app.goo.gl/7oETcHQJwsjd3Q6S9?g_st=ipc","address":"Αγίου Φιλίππου 7, Αθήνα 105 55","categoryIds":["cheap-eats"],"categories":["Gyros & Cheap Eats"],"distanceKm":0.05751071842951356},{"id":"rooftopLoungesRestaurants_8a3b6090d0ba","slug":"buena-vista-social-bar-8a3b","kind":"restaurant","name":"Buena Vista Social Bar","lat":37.97675314568566,"lng":23.72345728050679,"url":"https://maps.app.goo.gl/q9TPDZzxPX6Gn6hv8?g_st=ipc","address":"Αγίου Φιλίππου 7, Αθήνα 105 55","categoryIds":["rooftop-lounges"],"categories":["Rooftop Lounges"],"distanceKm":0.0575410001246992},{"id":"rooftopLoungesRestaurants_484f7844d0e6","slug":"liystor-484f","kind":"restaurant","name":"LIYSTOR","lat":37.97699862058507,"lng":23.724754043275098,"url":"https://maps.app.goo.gl/VJigoWChXTdvaWWm8?g_st=ipc","address":"Ερμού 92-94, Αθήνα 105 54","categoryIds":["rooftop-lounges"],"categories":["Rooftop Lounges"],"distanceKm":0.06674866091421605},{"id":"coffeeBrunchRestaurants_988f2cbbbd9c","slug":"liystor-988f","kind":"restaurant","name":"LIYSTOR","lat":37.97700032542266,"lng":23.724753676313323,"url":"https://maps.app.goo.gl/7douBXS6i4VTSVMM9?g_st=ipc","address":"Ερμού 92-94, Αθήνα 105 54","categoryIds":["coffee-brunch"],"categories":["Coffee & Brunch Spots"],"distanceKm":0.06682172992141903}],"sameRegion":[]},"__N_SSG":true}