{"pageProps":{"entity":{"id":"fishTavernasRestaurants_89f946397ea9","slug":"to-limanaki-tis-amarynthoy-89f9","kind":"restaurant","name":"Το Λιμανάκι Της Αμαρύνθου","lat":38.391630088057546,"lng":23.87976016192821,"url":"https://maps.app.goo.gl/123Yma2QRjswTuuD9?g_st=ipc","address":"Μιαούλη, Αμάρυνθος 340 06","categoryIds":["fish-tavernas"],"categories":["Fish Tavernas"]},"sameCategory":[{"id":"fishTavernasRestaurants_21394a13a305","slug":"gorgona-di-stefano-amarythos-oyzeri-psarotaverna-2139","kind":"restaurant","name":"Gorgona Di Stefano Amarythos Oυζερι Psarotaverna","lat":38.391896520308414,"lng":23.883711972578777,"url":"https://maps.app.goo.gl/Q3hYqnNSaAEfk5UH8?g_st=ipc","address":"Κων/νου Καραμανλή 2, Αμάρυνθος 340 06","categoryIds":["fish-tavernas"],"categories":["Fish Tavernas"]},{"id":"fishTavernasRestaurants_63c1df7c960e","slug":"remetzo-63c1","kind":"restaurant","name":"Ρεμέτζο","lat":38.39112282038602,"lng":23.797236892149673,"url":"https://maps.app.goo.gl/oqv397oz79KFz6w69?g_st=ipc","address":"Λεωφ. Αρχαίου Θεάτρου 42, Ερέτρια 340 08","categoryIds":["fish-tavernas"],"categories":["Fish Tavernas"]},{"id":"fishTavernasRestaurants_71251c14afd0","slug":"psarotaverna-to-sesi-7125","kind":"restaurant","name":"Ψαροταβέρνα Το Σέσι","lat":38.24842775538029,"lng":23.99464421753432,"url":"https://maps.app.goo.gl/84sjRRsuicEhYQth9?g_st=ipc","address":"Λεωφ. Ποσειδώνος 53, Σέσι 190 07","categoryIds":["fish-tavernas"],"categories":["Fish Tavernas"]},{"id":"fishTavernasRestaurants_4cf95cf3a3a2","slug":"to-koytoyki-toy-perikli-4cf9","kind":"restaurant","name":"Το κουτούκι του Περικλή","lat":38.43468667088763,"lng":23.62151189556845,"url":"https://maps.app.goo.gl/nQGXrzboUPgm58NX9?g_st=ipc","address":"Νέα Λάμψακος 341 00","categoryIds":["fish-tavernas"],"categories":["Fish Tavernas"]},{"id":"fishTavernasRestaurants_3fe79490cff3","slug":"kapetanios-3fe7","kind":"restaurant","name":"Καπετάνιος","lat":38.43674651836107,"lng":23.6218638887793,"url":"https://maps.app.goo.gl/JQSmhWPQjaPxMKdR8?g_st=ipc","address":"Παραλία Λαμψάκου 341 00","categoryIds":["fish-tavernas"],"categories":["Fish Tavernas"]},{"id":"fishTavernasRestaurants_4a843009a81f","slug":"to-kyma-toy-loyka-4a84","kind":"restaurant","name":"Το κύμα του Λουκά","lat":38.43818318214878,"lng":23.621937029677294,"url":"https://maps.app.goo.gl/EE6oa72MB34puz5e8?g_st=ipc","address":"Δημοσθένη, Τόσκα, Νέα Λάμψακος 341 00","categoryIds":["fish-tavernas"],"categories":["Fish Tavernas"]},{"id":"fishTavernasRestaurants_068b7509beb9","slug":"oyzeri-akrogiali-068b","kind":"restaurant","name":"Ουζερί \"Ακρογιάλι\"","lat":38.440313479921635,"lng":23.621738281701006,"url":"https://maps.app.goo.gl/iJW3zjT5zf2LYsK16?g_st=ipc","address":"λοχία Ρωμιόπουλου 13, Χαλκίδα Νέα Λάμψακος 341 00","categoryIds":["fish-tavernas"],"categories":["Fish Tavernas"]},{"id":"fishTavernasRestaurants_2ed9da451033","slug":"teskos-2ed9","kind":"restaurant","name":"ΤΕΣΚΟΣ","lat":38.513309644695795,"lng":23.63544291330188,"url":"https://maps.app.goo.gl/fFb2Q8BVpKvPF6gTA?g_st=ipc","address":"Αγίου Νικολάου 42, Νέα Αρτάκη 346 00","categoryIds":["fish-tavernas"],"categories":["Fish Tavernas"]}],"nearby":[{"id":"fishTavernasRestaurants_21394a13a305","slug":"gorgona-di-stefano-amarythos-oyzeri-psarotaverna-2139","kind":"restaurant","name":"Gorgona Di Stefano Amarythos Oυζερι Psarotaverna","lat":38.391896520308414,"lng":23.883711972578777,"url":"https://maps.app.goo.gl/Q3hYqnNSaAEfk5UH8?g_st=ipc","address":"Κων/νου Καραμανλή 2, Αμάρυνθος 340 06","categoryIds":["fish-tavernas"],"categories":["Fish Tavernas"],"distanceKm":0.34568267770739014},{"id":"municipalities_6af6e7b2b379","slug":"eretria-6af6","kind":"municipality","name":"Ερέτρια","lat":38.39,"lng":23.8,"region":"Στερεά Ελλάδα","name_en":"Eretria","region_en":"Central Greece","distanceKm":6.953764328752774},{"id":"fishTavernasRestaurants_63c1df7c960e","slug":"remetzo-63c1","kind":"restaurant","name":"Ρεμέτζο","lat":38.39112282038602,"lng":23.797236892149673,"url":"https://maps.app.goo.gl/oqv397oz79KFz6w69?g_st=ipc","address":"Λεωφ. Αρχαίου Θεάτρου 42, Ερέτρια 340 08","categoryIds":["fish-tavernas"],"categories":["Fish Tavernas"],"distanceKm":7.192382279530919},{"id":"wineriesVineyards_387acae649dd","slug":"lykos-winery-387a","kind":"restaurant","name":"Lykos Winery","lat":38.40318852137616,"lng":23.75129901619749,"url":"https://maps.app.goo.gl/N8pQEWcDemQKLK6N6?g_st=ipc","address":"ΜΑΛΑΚΩΝΤΑΣ 0, Eretria 340 08","categoryIds":["wineries-vineyards"],"categories":["Wineries & Vineyards"],"distanceKm":11.268391200378352},{"id":"municipalities_a230abd1223f","slug":"oropos-a230","kind":"municipality","name":"Ωρωπός","lat":38.3,"lng":23.7833,"region":"Ανατολικά Προάστια","name_en":"Oropos","region_en":"Eastern Suburbs","distanceKm":13.212684425607392},{"id":"greekRestaurants_fb8150b1b5bf","slug":"taverna-o-litsas-fb81","kind":"restaurant","name":"Ταβέρνα Ο Λίτσας","lat":38.2808566827325,"lng":23.792798463384955,"url":"https://maps.app.goo.gl/DPJMb7ZiPi9MTzov7","address":"Λεωφ. Αθηνών Ωρωπού, Μήλεσι Αττικής 190 11","categoryIds":["greek-restaurants"],"categories":["Greek Restaurants"],"distanceKm":14.46540226154386},{"id":"greekRestaurants_c595c62efc6b","slug":"mparmpa-vasilis-c595","kind":"restaurant","name":"Μπάρμπα Βασίλης","lat":38.23380794795737,"lng":23.89319631949878,"url":"https://maps.app.goo.gl/C74xDes5etzk12FL7","address":"Σπύρου Πολύχρονη, Μικροχώρι 190 14","categoryIds":["greek-restaurants"],"categories":["Greek Restaurants"],"distanceKm":17.588131693918772},{"id":"wineriesVineyards_3edb4c37dc1f","slug":"estates-costa-lazaridi-oenotria-land-3edb","kind":"restaurant","name":"Estates Costa Lazaridi - Oenotria Land","lat":38.23173089487007,"lng":23.870908077071547,"url":"https://maps.app.goo.gl/aoRwmKxMU5cHCnRX6?g_st=ipc","address":"2nd km Kapandriti Kalamos road, Kapandriti, 19014, 190 14","categoryIds":["wineries-vineyards"],"categories":["Wineries & Vineyards"],"distanceKm":17.796745705942307}],"sameRegion":[]},"__N_SSG":true}