{"pageProps":{"entity":{"id":"greekRestaurants_c6cbcafef8ce","slug":"to-palaio-kafeneio-c6cb","kind":"restaurant","name":"Το παλαιό καφενείο","lat":37.984456056477114,"lng":23.70991900524202,"url":"https://maps.app.goo.gl/giNLK8YBTxmzzF9PA","address":"Κορυτσάς 48, Αθήνα 104 47","categoryIds":["greek-restaurants"],"categories":["Greek Restaurants"]},"sameCategory":[{"id":"greekRestaurants_7e068071958f","slug":"rafiki-7e06","kind":"restaurant","name":"Ραφίκι","lat":37.98338715429696,"lng":23.71184940799049,"url":"https://maps.app.goo.gl/awtPeTxoWYGakCkX9","address":"Πέλλης 22, Αθήνα 104 47","categoryIds":["greek-restaurants"],"categories":["Greek Restaurants"]},{"id":"greekRestaurants_9611782bc12d","slug":"o-thessalos-9611","kind":"restaurant","name":"Ο Θεσσαλός","lat":37.98471994306453,"lng":23.712346428545427,"url":"https://maps.app.goo.gl/nM83keU2k42E2kxJ6","address":"Μελενίκου 2, Αθήνα 104 47","categoryIds":["greek-restaurants"],"categories":["Greek Restaurants"]},{"id":"greekRestaurants_fe1298439f3b","slug":"pyroliki-fe12","kind":"restaurant","name":"Πυρολίκι","lat":37.98138914645396,"lng":23.713920948942256,"url":"https://maps.app.goo.gl/VoibgN4wKpaNpoSG7","address":"Μεγ. Αλεξάνδρου 117, Αθήνα 104 35","categoryIds":["greek-restaurants"],"categories":["Greek Restaurants"]},{"id":"greekRestaurants_91881b4e9587","slug":"seramiko-9188","kind":"restaurant","name":"Σεράμικο","lat":37.98162530293091,"lng":23.71443381634983,"url":"https://maps.app.goo.gl/o8XfcUJ1JPyFTfao8","address":"Μεγ. Αλεξάνδρου 109-111, Αθήνα 104 35","categoryIds":["greek-restaurants"],"categories":["Greek Restaurants"]},{"id":"greekRestaurants_bad759859413","slug":"ta-skalakia-bad7","kind":"restaurant","name":"Τα Σκαλάκια","lat":37.98954880589726,"lng":23.709123253452237,"url":"https://maps.app.goo.gl/Dec4aP4V9Z2pEehcA","address":"Μαραθωνομάχων 57, Αθήνα 104 41","categoryIds":["greek-restaurants"],"categories":["Greek Restaurants"]},{"id":"greekRestaurants_1b0710fd0635","slug":"loyis-kafeneio-1b07","kind":"restaurant","name":"Λούης καφενείο","lat":37.98085946462118,"lng":23.71532632472864,"url":"https://maps.app.goo.gl/HykcqWbVLkwR9HqJ7","address":"Λεωνίδου 87, Αθήνα 104 35","categoryIds":["greek-restaurants"],"categories":["Greek Restaurants"]},{"id":"greekRestaurants_83a0250938d4","slug":"taverna-ton-filon-83a0","kind":"restaurant","name":"Ταβέρνα των Φίλων","lat":37.99014835512761,"lng":23.713340464618646,"url":"https://maps.app.goo.gl/CyUaWUVM84i2Ym18A","address":"Άργους 66, Αθήνα 104 41","categoryIds":["greek-restaurants"],"categories":["Greek Restaurants"]},{"id":"greekRestaurants_79d853816a19","slug":"rakor-79d8","kind":"restaurant","name":"Rakor","lat":37.98047740550758,"lng":23.717062587155947,"url":"https://maps.app.goo.gl/eVrzxTMuCzQvAE596","address":"Πλαταιών 10, Αθήνα 104 35","categoryIds":["greek-restaurants"],"categories":["Greek Restaurants"]}],"nearby":[{"id":"cheapEatsRestaurants_26cfead773fa","slug":"o-peinaleos-o-peinaleos-26cf","kind":"restaurant","name":"Ο ΠΕΙΝΑΛΕΟΣ -O Peinaleos","lat":37.984683017890625,"lng":23.71166951732043,"url":"https://maps.app.goo.gl/6gyRh1g3eUYCXoVV9?g_st=ipc","address":"Προφήτου Δανιήλ 35, Αθήνα 104 47","categoryIds":["cheap-eats"],"categories":["Gyros & Cheap Eats"],"distanceKm":0.15547890671422537},{"id":"coffeeBrunchRestaurants_694f840c415f","slug":"mour-athens-694f","kind":"restaurant","name":"Mour Athens","lat":37.9833034256398,"lng":23.711600559592124,"url":"https://maps.app.goo.gl/t12h1kgPVWW5kBNk8?g_st=ipc","address":"Κορυτσάς 15, Αθήνα 104 47","categoryIds":["coffee-brunch"],"categories":["Coffee & Brunch Spots"],"distanceKm":0.19531015958834302},{"id":"vegetarianRestaurants_c67e718a73e4","slug":"calibra-votanikos-c67e","kind":"restaurant","name":"CALIBRA - Votanikos","lat":37.98303566126477,"lng":23.711367796488275,"url":"https://maps.app.goo.gl/aPvyrqA5tYdbUuhP8?g_st=ipc","address":"CALIBRA - Votanikos","categoryIds":["vegetarian"],"categories":["Vegetarian Friendly Restaurants"],"distanceKm":0.20265240705489077},{"id":"greekRestaurants_7e068071958f","slug":"rafiki-7e06","kind":"restaurant","name":"Ραφίκι","lat":37.98338715429696,"lng":23.71184940799049,"url":"https://maps.app.goo.gl/awtPeTxoWYGakCkX9","address":"Πέλλης 22, Αθήνα 104 47","categoryIds":["greek-restaurants"],"categories":["Greek Restaurants"],"distanceKm":0.2067612581178097},{"id":"greekRestaurants_9611782bc12d","slug":"o-thessalos-9611","kind":"restaurant","name":"Ο Θεσσαλός","lat":37.98471994306453,"lng":23.712346428545427,"url":"https://maps.app.goo.gl/nM83keU2k42E2kxJ6","address":"Μελενίκου 2, Αθήνα 104 47","categoryIds":["greek-restaurants"],"categories":["Greek Restaurants"],"distanceKm":0.2147563620144025},{"id":"coffeeBrunchRestaurants_23781ddd1e06","slug":"10am-apotheke-2378","kind":"restaurant","name":"10AM apotheke","lat":37.98117919525422,"lng":23.71209439007436,"url":"https://maps.app.goo.gl/a8MxDmC9cjFhDaGA8?g_st=ic","address":"Konstantinoupoleos Ave. 82, Athina 104 35","categoryIds":["coffee-brunch"],"categories":["Coffee & Brunch Spots"],"distanceKm":0.4112374056709662},{"id":"cheapEatsRestaurants_8f156c4c3126","slug":"o-meraklis-cheiropoiitos-gyros-8f15","kind":"restaurant","name":"«Ο Μερακλής» Χειροποίητος Γύρος","lat":37.987612206644826,"lng":23.712852337967995,"url":"https://maps.app.goo.gl/SzCvMEeUoY15EeqY8?g_st=ipc","address":"Πλάτωνος 50-52, Αθήνα 104 41","categoryIds":["cheap-eats"],"categories":["Gyros & Cheap Eats"],"distanceKm":0.43503145377303754},{"id":"greekRestaurants_fe1298439f3b","slug":"pyroliki-fe12","kind":"restaurant","name":"Πυρολίκι","lat":37.98138914645396,"lng":23.713920948942256,"url":"https://maps.app.goo.gl/VoibgN4wKpaNpoSG7","address":"Μεγ. Αλεξάνδρου 117, Αθήνα 104 35","categoryIds":["greek-restaurants"],"categories":["Greek Restaurants"],"distanceKm":0.489202098022402}],"sameRegion":[]},"__N_SSG":true}