{"pageProps":{"entity":{"id":"fishTavernasRestaurants_bd9876636f9e","slug":"to-steki-tou-psara-bd98","kind":"restaurant","name":"To steki tou psara","lat":40.66006472959922,"lng":22.944806880091097,"url":"https://maps.app.goo.gl/7KH5KmXVrcaeNEh36","address":"Agnostou Stratiotou 33, Polichni 565 33","categoryIds":["fish-tavernas"],"categories":["Fish Tavernas"]},"sameCategory":[{"id":"fishTavernasRestaurants_bc4a7296f096","slug":"ouzo-jordan-bc4a","kind":"restaurant","name":"Ouzo Jordan","lat":40.66214244715697,"lng":22.949433655289134,"url":"https://maps.app.goo.gl/sSPrTBB7crBhtfLs6?g_st=ipc","address":"Stadiou 6, Thessaloniki 565 33","categoryIds":["fish-tavernas"],"categories":["Fish Tavernas"]},{"id":"fishTavernasRestaurants_20b8b4ae6be5","slug":"karnagio-psarotaverna-20b8","kind":"restaurant","name":"Καρνάγιο ΨΑΡΟΤΑΒΕΡΝΑ","lat":40.65672226446403,"lng":22.929289665430808,"url":"https://maps.app.goo.gl/dET6AhcimdU74KXm7?g_st=ipc","address":"Akriton 15, Ampelokipi 561 23","categoryIds":["fish-tavernas"],"categories":["Fish Tavernas"]},{"id":"fishTavernasRestaurants_669c4e5a11b9","slug":"nisaki-669c","kind":"restaurant","name":"Nisaki","lat":40.656777734821844,"lng":22.92922500008805,"url":"https://maps.app.goo.gl/hvKpXiAYMeS5Y9za8?g_st=ipc","address":"Akriton 13, Ampelokipi 561 23","categoryIds":["fish-tavernas"],"categories":["Fish Tavernas"]},{"id":"fishTavernasRestaurants_a0a70eb01c99","slug":"ouzeri-kosmas-a0a7","kind":"restaurant","name":"Ouzeri \"Kosmas\"","lat":40.64801268123014,"lng":22.93043130003418,"url":"https://maps.app.goo.gl/vEURBm27mFZ4pGJfA?g_st=ipc","address":"Vasilikis Papathanasiou 74, Thessaloniki 546 29","categoryIds":["fish-tavernas"],"categories":["Fish Tavernas"]},{"id":"fishTavernasRestaurants_f7102e19ba0d","slug":"koukida-fun-seafood-f710","kind":"restaurant","name":"Koukida Fun-Seafood","lat":40.643445839214266,"lng":22.95570392041812,"url":"https://maps.app.goo.gl/B9KYRcx4RDrq1Zh48?g_st=ipc","address":"Agrafon 13, Thessaloniki 546 34","categoryIds":["fish-tavernas"],"categories":["Fish Tavernas"]},{"id":"fishTavernasRestaurants_ec7fddf4df43","slug":"mourga-ec7f","kind":"restaurant","name":"Mourga","lat":40.635412338789585,"lng":22.94963013274726,"url":"https://maps.app.goo.gl/u7q8zzuEjPhJ53mR7?g_st=ipc","address":"Christopoulou 12, Thessaloniki 546 35","categoryIds":["fish-tavernas"],"categories":["Fish Tavernas"]},{"id":"fishTavernasRestaurants_8db62faa099d","slug":"soyrtoyko-mezedopoleio-8db6","kind":"restaurant","name":"Σουρτουκω μεζεδοπωλειο","lat":40.63587084309679,"lng":22.93649033295163,"url":"https://maps.app.goo.gl/2gKngBbQebvZETCi6?g_st=ipc","address":"Likourgou 3, Thessaloniki 546 25","categoryIds":["fish-tavernas"],"categories":["Fish Tavernas"]},{"id":"fishTavernasRestaurants_8f9bed2e06ef","slug":"mezen-salonica-8f9b","kind":"restaurant","name":"Mezen Salonica","lat":40.634689809940646,"lng":22.93869474433628,"url":"https://maps.app.goo.gl/gwG2QG5GLKMHTAKd8?g_st=ipc","address":"Rogkoti 3, Thessaloniki 546 24","categoryIds":["fish-tavernas"],"categories":["Fish Tavernas"]}],"nearby":[{"id":"cheapEatsRestaurants_07b527cd1a8e","slug":"dia-xoiros-polixni-07b5","kind":"restaurant","name":"Dia Xoiros Polixni","lat":40.658685525095265,"lng":22.942609620515523,"url":"https://maps.app.goo.gl/4YvZLZyRTdLs8Tpz7?g_st=ipc","address":"Agnostou Stratiotou 13, Polichni 565 33","categoryIds":["cheap-eats"],"categories":["Gyros & Cheap Eats"],"distanceKm":0.24056525206495907},{"id":"cheapEatsRestaurants_30688d61885b","slug":"steakhouse-stelios-3068","kind":"restaurant","name":"Steakhouse \"Stelios\"","lat":40.65823566269056,"lng":22.942075529553357,"url":"https://maps.app.goo.gl/9ryfqmhFoEZjSBu89?g_st=ipc","address":"Agnostou Stratiotou 40, Polichni 565 33","categoryIds":["cheap-eats"],"categories":["Gyros & Cheap Eats"],"distanceKm":0.30732213098783423},{"id":"coffeeBrunchRestaurants_964653005e5d","slug":"maharaja-skg-heaven-of-shisha-9646","kind":"restaurant","name":"MAHARAJA SKG - Heaven of Shisha","lat":40.658033849704225,"lng":22.941967646222036,"url":"https://maps.app.goo.gl/Ct3Z2v1aCBYrtE5k9?g_st=ipc","address":"Agnostou Stratiotou 36, Polichni 565 33","categoryIds":["coffee-brunch"],"categories":["Coffee & Brunch Spots"],"distanceKm":0.3291729430519177},{"id":"familyFriendly_91fdc1b07999","slug":"parko-tzeni-karezi-91fd","kind":"restaurant","name":"Πάρκο Τζένη Καρέζη","lat":40.65858356268694,"lng":22.948886429553223,"url":"https://maps.app.goo.gl/GLfxf6LcGPn5DhUJA?g_st=ipc","address":"Polichni 565 32","categoryIds":["family-friendly"],"categories":["Kid Friendly Locations"],"distanceKm":0.3815012868885415},{"id":"fishTavernasRestaurants_bc4a7296f096","slug":"ouzo-jordan-bc4a","kind":"restaurant","name":"Ouzo Jordan","lat":40.66214244715697,"lng":22.949433655289134,"url":"https://maps.app.goo.gl/sSPrTBB7crBhtfLs6?g_st=ipc","address":"Stadiou 6, Thessaloniki 565 33","categoryIds":["fish-tavernas"],"categories":["Fish Tavernas"],"distanceKm":0.4535248019668068},{"id":"coffeeBrunchRestaurants_5e2abc98be89","slug":"ayli-open-air-coffee-bar-5e2a","kind":"restaurant","name":"Αυλή Open Air Coffee Bar","lat":40.65671676420057,"lng":22.939866059031072,"url":"https://maps.app.goo.gl/awEDoCCaNWaCXmC17?g_st=ipc","address":"Πάρκο, Davaki, Neapoli 567 27","categoryIds":["coffee-brunch"],"categories":["Coffee & Brunch Spots"],"distanceKm":0.558830153297039},{"id":"italianRestaurants_753fa8defec2","slug":"raffaele-pizza-pasta-753f","kind":"restaurant","name":"Raffaele Pizza & Pasta","lat":40.66556499607672,"lng":22.94711551769067,"url":"https://maps.app.goo.gl/EpFwtHWFaS5GMZ8C9?g_st=ipc","address":"40.6655613219397, 22.94711932792721","categoryIds":["italian"],"categories":["Italian Restaurants"],"distanceKm":0.6418534122115201},{"id":"italianRestaurants_8d018442e7f5","slug":"freskia-zymi-pizza-pasta-fresca-8d01","kind":"restaurant","name":"Freskia zymi,pizza ,pasta fresca","lat":40.654424928028824,"lng":22.93913723718484,"url":"https://maps.app.goo.gl/Nhxk1VKn5ej1EsSF6?g_st=ipc","address":"P. Tsaldari 29, Neapoli 567 27","categoryIds":["italian"],"categories":["Italian Restaurants"],"distanceKm":0.7886762076087453}],"sameRegion":[]},"__N_SSG":true}