{"pageProps":{"entity":{"id":"greekRestaurants_b650f3fa3a9f","slug":"xrysikos-restaurant-b650","kind":"restaurant","name":"Xrysikos Restaurant","lat":40.724131299619074,"lng":22.908510129508898,"url":"https://maps.app.goo.gl/aewn1jT9fs3LU3he8?g_st=ipc","address":"Agias Paraskevis 9, Paleokastro 570 13","categoryIds":["greek-restaurants"],"categories":["Greek Restaurants"]},"sameCategory":[{"id":"greekRestaurants_a2bd75aa1df9","slug":"faidimos-a2bd","kind":"restaurant","name":"Φαίδιμος","lat":40.72205390492354,"lng":22.92535107333131,"url":"https://maps.app.goo.gl/zYo3CVk2Wm5dkqA19?g_st=ipc","address":"Κονταξοπούλου, & Θεσσαλονίκης 98, Ωραιόκαστρο 570 13","categoryIds":["greek-restaurants"],"categories":["Greek Restaurants"]},{"id":"greekRestaurants_25aab707dbe6","slug":"taverna-charisis-25aa","kind":"restaurant","name":"Ταβέρνα Χαρίσης","lat":40.74300735227225,"lng":22.865911910966187,"url":"https://maps.app.goo.gl/Kjqd8y15rnvwbGch8?g_st=ipc","address":"Έναντι Γυμνασίου Νεοχωρούδας, Νεοχωρούδα 545 00","categoryIds":["greek-restaurants"],"categories":["Greek Restaurants"]},{"id":"greekRestaurants_91be864c5607","slug":"to-traino-91be","kind":"restaurant","name":"Το Τραίνο","lat":40.67703057575148,"lng":22.918208800232915,"url":"https://maps.app.goo.gl/vzgBa3uY1wT8n7z49?g_st=ipc","address":"Eth. Antistaseos 102, Evosmos 562 24","categoryIds":["greek-restaurants"],"categories":["Greek Restaurants"]},{"id":"greekRestaurants_335a73f8c28f","slug":"to-dilavo-335a","kind":"restaurant","name":"Το Δίλαβο","lat":40.67696648177201,"lng":22.91974503350985,"url":"https://maps.app.goo.gl/WbYog3HDi7k69z6Y6?g_st=ipc","address":"Αντώνη Τρίτση 98, Εύοσμος 562 24","categoryIds":["greek-restaurants"],"categories":["Greek Restaurants"]},{"id":"greekRestaurants_1519d05a3bce","slug":"mantemi-casual-dining-1519","kind":"restaurant","name":"ΜΑΝΤΕΜΙ | Casual Dining","lat":40.67409229961713,"lng":22.905893700060766,"url":"https://maps.app.goo.gl/A7GLofJnsBowRAkj8?g_st=ipc","address":"Meandrou 79, Evosmos 562 24","categoryIds":["greek-restaurants"],"categories":["Greek Restaurants"]},{"id":"greekRestaurants_489dcbab3d02","slug":"troyfa-mezedopoleio-489d","kind":"restaurant","name":"Τρούφα Μεζεδοπωλείο","lat":40.673704664191845,"lng":22.915531200227242,"url":"https://maps.app.goo.gl/NQbg2QuYmJZjW8Ha6?g_st=ipc","address":"Olimpiados 101, Evosmos 562 24","categoryIds":["greek-restaurants"],"categories":["Greek Restaurants"]},{"id":"greekRestaurants_726e02b8b685","slug":"anama-726e","kind":"restaurant","name":"Anama","lat":40.67309178488354,"lng":22.90614317972579,"url":"https://maps.app.goo.gl/Bt17EdhYtg5pRDnb8?g_st=ipc","address":"Κολοκοτρώνη 10, Εύοσμος 562 24","categoryIds":["greek-restaurants"],"categories":["Greek Restaurants"]},{"id":"greekRestaurants_35d8717196c2","slug":"taverna-oyzeri-plateia-35d8","kind":"restaurant","name":"Ταβέρνα Ουζερί Πλατεία","lat":40.689496085376405,"lng":22.856919434456977,"url":"https://maps.app.goo.gl/DEtWfVmzXSzTpbjD9?g_st=ipc","address":"Ρήγα Φεραίου 1, Δέλτα 570 08","categoryIds":["greek-restaurants"],"categories":["Greek Restaurants"]}],"nearby":[{"id":"dessertsRestaurants_2fe15f278a42","slug":"roxane-2fe1","kind":"restaurant","name":"Rōxánē","lat":40.72277068014523,"lng":22.90986284593618,"url":"https://maps.app.goo.gl/vbfuQxUAYJbahN6L9?g_st=ipc","address":"P. Mela 5, Paleokastro 570 13","categoryIds":["desserts"],"categories":["Dessert Shops"],"distanceKm":0.18943251546730366},{"id":"municipalities_a63748723842","slug":"oraiokastro-a637","kind":"municipality","name":"Ωραιόκαστρο","lat":40.7303,"lng":22.9086,"region":"Περιαστική Ζώνη","name_en":"Oraiokastro","region_en":"Suburban Zone","distanceKm":0.6859699905169057},{"id":"fishTavernasRestaurants_403462b419e4","slug":"tsipouro-restaurants-germanos-4034","kind":"restaurant","name":"Tsipouro Restaurants \"Germanos\"","lat":40.731011417439056,"lng":22.920109091479663,"url":"https://maps.app.goo.gl/Q6ReNhghxPSgvRJX6","address":"Leof. Dimokratias 41, Oreokastro 570 13","categoryIds":["fish-tavernas"],"categories":["Fish Tavernas"],"distanceKm":1.2412008892209823},{"id":"greekRestaurants_a2bd75aa1df9","slug":"faidimos-a2bd","kind":"restaurant","name":"Φαίδιμος","lat":40.72205390492354,"lng":22.92535107333131,"url":"https://maps.app.goo.gl/zYo3CVk2Wm5dkqA19?g_st=ipc","address":"Κονταξοπούλου, & Θεσσαλονίκης 98, Ωραιόκαστρο 570 13","categoryIds":["greek-restaurants"],"categories":["Greek Restaurants"],"distanceKm":1.4378868864906527},{"id":"familyFriendly_d1a47ca0dedf","slug":"freedom-interactive-playzone-d1a4","kind":"restaurant","name":"Freedom Interactive Playzone","lat":40.70867369830318,"lng":22.911054983573504,"url":"https://maps.app.goo.gl/GummsjTvyttusdP46?g_st=ipc","address":"Μακεδονικού Αγώνα, Zappa &, Oreokastro 570 13","categoryIds":["family-friendly"],"categories":["Kid Friendly Locations"],"distanceKm":1.7321370300677112},{"id":"coffeeBrunchRestaurants_6fcd59193f91","slug":"zeo-artopoiia-zeo-bakers-6fcd","kind":"restaurant","name":"ΖΕΩ ΑΡΤΟΠΟΙΙΑ-ZEO BAKERS","lat":40.69174182669169,"lng":22.913440204115485,"url":"https://maps.app.goo.gl/8h5SFGtMUr8hFemr9?g_st=ipc","address":"Ilioupoleos 2, Oreokastro 570 13","categoryIds":["coffee-brunch"],"categories":["Coffee & Brunch Spots"],"distanceKm":3.6254401498433793},{"id":"familyFriendly_318b4f24e07f","slug":"parko-deinosayron-318b","kind":"restaurant","name":"ΠΑΡΚΟ ΔΕΙΝΟΣΑΥΡΩΝ","lat":40.701527729460004,"lng":22.939792993737786,"url":"https://maps.app.goo.gl/jZyLiRLATZktk5dG7?g_st=ipc","address":"Thessaloniki 7ο χλμ, Oreokastro 570 13","categoryIds":["family-friendly"],"categories":["Kid Friendly Locations"],"distanceKm":3.642686122143315},{"id":"greekRestaurants_25aab707dbe6","slug":"taverna-charisis-25aa","kind":"restaurant","name":"Ταβέρνα Χαρίσης","lat":40.74300735227225,"lng":22.865911910966187,"url":"https://maps.app.goo.gl/Kjqd8y15rnvwbGch8?g_st=ipc","address":"Έναντι Γυμνασίου Νεοχωρούδας, Νεοχωρούδα 545 00","categoryIds":["greek-restaurants"],"categories":["Greek Restaurants"],"distanceKm":4.157905495588914}],"sameRegion":[]},"__N_SSG":true}