{"pageProps":{"entity":{"id":"dessertsRestaurants_851176573aad","slug":"zacharoplasteio-anastasia-8511","kind":"restaurant","name":"Ζαχαροπλαστείο ΑΝΑΣΤΑΣΙΑ","lat":37.936737596940006,"lng":23.764139852020705,"url":"https://maps.app.goo.gl/ckE6feeSmvZNEMur9?g_st=ipc","address":"Νεύτωνος 23, Ηλιούπολη 163 43","categoryIds":["desserts"],"categories":["Dessert Shops"]},"sameCategory":[{"id":"dessertsRestaurants_87a8c1a7fdc0","slug":"l-arte-del-gelato-87a8","kind":"restaurant","name":"L'Arte del Gelato","lat":37.9335716460019,"lng":23.757250383926916,"url":"https://maps.app.goo.gl/d44Jasgx3fqMB2996?g_st=ipc","address":"Λεωφ. Ελ. Βενιζέλου 135, Ηλιούπολη 163 45","categoryIds":["desserts"],"categories":["Dessert Shops"]},{"id":"dessertsRestaurants_7c5a207d8534","slug":"galaktopoleio-stamoy-7c5a","kind":"restaurant","name":"Γαλακτοπωλείο ΣΤΑΜΟΥ","lat":37.93137189453027,"lng":23.754775535968022,"url":"https://maps.app.goo.gl/o9wp2AdrozqHihcN7?g_st=ipc","address":"Λεωφ. Σοφοκλή Βενιζέλου 96, Ηλιούπολη 163 41","categoryIds":["desserts"],"categories":["Dessert Shops"]},{"id":"dessertsRestaurants_65e04c3f641c","slug":"cinnabon-athens-metro-mall-65e0","kind":"restaurant","name":"Cinnabon (Athens Metro Mall)","lat":37.93941612015106,"lng":23.739972879470894,"url":"https://maps.app.goo.gl/71DTBLWMjXBGonps5?g_st=ipc","address":"Παρ. Λεωφ. Βουλιαγμένης 276, Αγ. Δημήτριος Αττικής 173 43","categoryIds":["desserts"],"categories":["Dessert Shops"]},{"id":"dessertsRestaurants_daa8389af0d5","slug":"zacharoplasteia-konstantinidis-daa8","kind":"restaurant","name":"Ζαχαροπλαστεία Κωνσταντινίδης","lat":37.92117733712683,"lng":23.74398997445251,"url":"https://maps.app.goo.gl/gfQPbYfHSNZUpXX47?g_st=ipc","address":"Παρ. Λεωφ. Βουλιαγμένης 534, Άλιμος 174 56","categoryIds":["desserts"],"categories":["Dessert Shops"]},{"id":"dessertsRestaurants_bf8ca0a3720e","slug":"elli-s-cakes-bf8c","kind":"restaurant","name":"Elli's Cakes","lat":37.9448495085085,"lng":23.734073926930343,"url":"https://maps.app.goo.gl/eufNFz1Bu9hgqeNm6?g_st=ipc","address":"Λεωφ. Αγίου Δημητρίου 40, Αγ. Δημήτριος Αττικής 173 41","categoryIds":["desserts"],"categories":["Dessert Shops"]},{"id":"dessertsRestaurants_f02a5d6ebd1d","slug":"melorama-f02a","kind":"restaurant","name":"Μελόραμα","lat":37.936036012331414,"lng":23.729840384667007,"url":"https://maps.app.goo.gl/YEvU9a6cA5Vmingw8?g_st=ipc","address":"Λεωφ. Αγίου Δημητρίου 161, Αγ. Δημήτριος Αττικής 173 43","categoryIds":["desserts"],"categories":["Dessert Shops"]},{"id":"dessertsRestaurants_36cfd9004102","slug":"fresh-mail-pagkratioy-36cf","kind":"restaurant","name":"Fresh Mail Παγκρατίου","lat":37.963053181322294,"lng":23.74589240163266,"url":"https://maps.app.goo.gl/umohxobBLijQzZis5?g_st=ipc","address":"Filolaou 124Α, Athina 116 33","categoryIds":["desserts"],"categories":["Dessert Shops"]},{"id":"dessertsRestaurants_055560d21207","slug":"zacharoplasteio-lido-0555","kind":"restaurant","name":"Ζαχαροπλαστείο Lido","lat":37.96582623086202,"lng":23.750235658736546,"url":"https://maps.app.goo.gl/6RDutorGFGKRD3ru9?g_st=ipc","address":"Χρεμωνίδου 35, Αθήνα 116 33","categoryIds":["desserts"],"categories":["Dessert Shops"]}],"nearby":[{"id":"cheapEatsRestaurants_e141c683e929","slug":"psitopoleio-o-ymittos-e141","kind":"restaurant","name":"ΨΗΤΟΠΩΛΕΙΟ Ο ΥΜΗΤΤΟΣ","lat":37.9376577150226,"lng":23.756325000053742,"url":"https://maps.app.goo.gl/jevMqjqUqMVWPizM7?g_st=ipc","address":"Λεωφ. Ειρήνης 12, Ηλιούπολη 163 45","categoryIds":["cheap-eats"],"categories":["Gyros & Cheap Eats"],"distanceKm":0.6929400212118354},{"id":"greekRestaurants_b996975f2765","slug":"to-koyzoylo-kritikes-geyseis-b996","kind":"restaurant","name":"Το Κουζουλό-Κρητικές Γεύσεις","lat":37.93790456342302,"lng":23.756307120209538,"url":"https://maps.app.goo.gl/92JS6PzrgTe3Moyv6","address":"Λεωφ. Ειρήνης 10, Ηλιούπολη 163 45","categoryIds":["greek-restaurants"],"categories":["Greek Restaurants"],"distanceKm":0.6990608224576399},{"id":"dessertsRestaurants_87a8c1a7fdc0","slug":"l-arte-del-gelato-87a8","kind":"restaurant","name":"L'Arte del Gelato","lat":37.9335716460019,"lng":23.757250383926916,"url":"https://maps.app.goo.gl/d44Jasgx3fqMB2996?g_st=ipc","address":"Λεωφ. Ελ. Βενιζέλου 135, Ηλιούπολη 163 45","categoryIds":["desserts"],"categories":["Dessert Shops"],"distanceKm":0.6992836922570574},{"id":"cheapEatsRestaurants_53e2baa7ddae","slug":"o-giorgos-ilioypoli-53e2","kind":"restaurant","name":"Ο Γιώργος (Ηλιούπολη)","lat":37.93157343086467,"lng":23.756713794378285,"url":"https://maps.app.goo.gl/ZHk6UviE5DhKfmAcA?g_st=ipc","address":"Πλ. Εθ. Αντιστάσεως 8, Ηλιούπολη 163 42","categoryIds":["cheap-eats"],"categories":["Gyros & Cheap Eats"],"distanceKm":0.8682736428379575},{"id":"asianRestaurants_36f4a8956e8a","slug":"oma-sushi-bar-36f4","kind":"restaurant","name":"Oma Sushi Bar","lat":37.94009382367438,"lng":23.754689791765557,"url":"https://maps.app.goo.gl/sQ4YgJ2S6xgEEqCf7?g_st=ipc","address":"Ανδρέα Παπανδρέου 22, Ηλιούπολη 163 45","categoryIds":["asian"],"categories":["Asian Restaurants"],"distanceKm":0.9088880514484232},{"id":"fishTavernasRestaurants_86f548233faf","slug":"mpalkoni-stis-kyklades-86f5","kind":"restaurant","name":"ΜΠΑΛΚΟΝΙ ΣΤΙΣ ΚΥΚΛΑΔΕΣ","lat":37.943007346903,"lng":23.772380593489483,"url":"https://maps.app.goo.gl/FNypnyT1fTicRews8?g_st=ipc","address":"Π. Μελά 13, Βύρωνας 162 33","categoryIds":["fish-tavernas"],"categories":["Fish Tavernas"],"distanceKm":1.0041353893104035},{"id":"dessertsRestaurants_7c5a207d8534","slug":"galaktopoleio-stamoy-7c5a","kind":"restaurant","name":"Γαλακτοπωλείο ΣΤΑΜΟΥ","lat":37.93137189453027,"lng":23.754775535968022,"url":"https://maps.app.goo.gl/o9wp2AdrozqHihcN7?g_st=ipc","address":"Λεωφ. Σοφοκλή Βενιζέλου 96, Ηλιούπολη 163 41","categoryIds":["desserts"],"categories":["Dessert Shops"],"distanceKm":1.0151127765921062},{"id":"greekRestaurants_5c488f0d8ce0","slug":"ether-athens-5c48","kind":"restaurant","name":"Ether Athens","lat":37.9300575683433,"lng":23.752395520807372,"url":"https://maps.app.goo.gl/X42jFmXfj3xf7XFx9","address":"Πριάμου 2, Ηλιούπολη 163 41","categoryIds":["greek-restaurants"],"categories":["Greek Restaurants"],"distanceKm":1.2698977921920487}],"sameRegion":[]},"__N_SSG":true}