{"pageProps":{"entity":{"id":"coffeeBrunchRestaurants_dd445cb17731","slug":"zambri-dd44","kind":"restaurant","name":"ZAMBRI","lat":38.0705711422009,"lng":23.812755176637886,"url":"https://maps.app.goo.gl/mFU9ypU9R2NajcX87?g_st=ipc","address":"Αγίου Δημητρίου 9, Κηφισιά 145 62","categoryIds":["coffee-brunch"],"categories":["Coffee & Brunch Spots"]},"sameCategory":[{"id":"coffeeBrunchRestaurants_be3a53f7f3e4","slug":"paul-kifisia-be3a","kind":"restaurant","name":"PAUL Κηφισιά","lat":38.072447961478396,"lng":23.81379476032691,"url":"https://maps.app.goo.gl/6xevQtpeMeVnnkfT6?g_st=ipc","address":"Λεβίδου 4, Κηφισιά 145 62","categoryIds":["coffee-brunch"],"categories":["Coffee & Brunch Spots"]},{"id":"coffeeBrunchRestaurants_6ad2753fc055","slug":"different-beast-6ad2","kind":"restaurant","name":"Different Beast","lat":38.072030542719524,"lng":23.814580386585376,"url":"https://maps.app.goo.gl/uz9Wpn9FMrG1tYuh9?g_st=ipc","address":"Κασσαβέτη 19, Αθήνα 145 61","categoryIds":["coffee-brunch"],"categories":["Coffee & Brunch Spots"]},{"id":"coffeeBrunchRestaurants_2322e1e847ee","slug":"natu-2322","kind":"restaurant","name":"NATU","lat":38.07417552050554,"lng":23.814760489983165,"url":"https://maps.app.goo.gl/wzJKDW9SrK9LDD9x8?g_st=ipc","address":"Λεβίδου 13, Κηφισιά 145 62","categoryIds":["coffee-brunch"],"categories":["Coffee & Brunch Spots"]},{"id":"coffeeBrunchRestaurants_7046edfbce5c","slug":"janet-craig-7046","kind":"restaurant","name":"Janet Craig","lat":38.05641063632366,"lng":23.806182036715274,"url":"https://maps.app.goo.gl/o5wNnYy8d5rdfCBx5?g_st=ipc","address":"28ης Οκτωβρίου 5, Μαρούσι 151 24","categoryIds":["coffee-brunch"],"categories":["Coffee & Brunch Spots"]},{"id":"coffeeBrunchRestaurants_37b671b3632a","slug":"alepou-37b6","kind":"restaurant","name":"Alepou","lat":38.060273733807854,"lng":23.79751630322254,"url":"https://maps.app.goo.gl/heYFVvSaJ4P8dDiS6?g_st=ipc","address":"Βαρβαρεσου, Πεύκη 151 21","categoryIds":["coffee-brunch"],"categories":["Coffee & Brunch Spots"]},{"id":"coffeeBrunchRestaurants_b9882b026b76","slug":"montakioy-maroysi-b988","kind":"restaurant","name":"ΜΟΝΤΑΚΙΟΥ ΜΑΡΟΥΣΙ","lat":38.03797108447277,"lng":23.80161359245891,"url":"https://maps.app.goo.gl/P3WZt5PaHNoTambf6?g_st=ipc","address":"Ρωμανού Μελωδού 1, Μαρούσι 151 25","categoryIds":["coffee-brunch"],"categories":["Coffee & Brunch Spots"]},{"id":"coffeeBrunchRestaurants_4c5186ad6b82","slug":"the-roosters-vrilissia-4c51","kind":"restaurant","name":"The Roosters Vrilissia","lat":38.037656279094364,"lng":23.82632315275067,"url":"https://maps.app.goo.gl/Ujy91XzzUb5AuEK38?g_st=ipc","address":"Θέτιδος 1 &, Ομήρου 2, Βριλήσσια 152 38","categoryIds":["coffee-brunch"],"categories":["Coffee & Brunch Spots"]},{"id":"coffeeBrunchRestaurants_a0c4a7f4af97","slug":"oi-pites-tis-giagias-eyridikis-a0c4","kind":"restaurant","name":"Οι πίτες της γιαγιάς Ευριδίκης","lat":38.03426712689994,"lng":23.833618598910473,"url":"https://maps.app.goo.gl/SZ38YLhtn9HgUGAZ9?g_st=ipc","address":"Κύπρου 25, Βριλήσσια 152 35","categoryIds":["coffee-brunch"],"categories":["Coffee & Brunch Spots"]}],"nearby":[{"id":"mexicanRestaurants_a0149c25ef48","slug":"dos-hermanos-a014","kind":"restaurant","name":"Dos Hermanos","lat":38.070224929633255,"lng":23.812971812919443,"url":"https://maps.app.goo.gl/4EBL1F4dh9gaVYdh7?g_st=ipc","address":"Κυριαζή 24, Κηφισιά 145 62","categoryIds":["mexican"],"categories":["Mexican Restaurants"],"distanceKm":0.04291456738508489},{"id":"greekRestaurants_ee1040d986a2","slug":"o-tzitzikas-kai-o-mermigkas-ee10","kind":"restaurant","name":"Ο Τζίτζικας και ο Μέρμηγκας","lat":38.071444564634874,"lng":23.81158159449847,"url":"https://maps.app.goo.gl/Baz66z9eF1nXkQDe8","address":"Γεωρ. Δροσίνη 12, Κηφισιά 145 62","categoryIds":["greek-restaurants"],"categories":["Greek Restaurants"],"distanceKm":0.1413731642429478},{"id":"italianRestaurants_9864a763d5a6","slug":"la-pasteria-9864","kind":"restaurant","name":"La Pasteria","lat":38.071971773331484,"lng":23.81375357994017,"url":"https://maps.app.goo.gl/jpzzbHYa7ZkuqiDh9?g_st=ipc","address":"Κασσαβέτη 12, Κηφισιά 145 62","categoryIds":["italian"],"categories":["Italian Restaurants"],"distanceKm":0.17858970153906453},{"id":"mexicanRestaurants_9321a8ed4f82","slug":"ancho-mexican-grill-9321","kind":"restaurant","name":"Ancho Mexican Grill","lat":38.072302577774266,"lng":23.812957916990147,"url":"https://maps.app.goo.gl/9YG5PfTVGoHqdG8N9?g_st=ipc","address":"Κασσαβέτη 9, Κηφισιά 145 62","categoryIds":["mexican"],"categories":["Mexican Restaurants"],"distanceKm":0.19334310771898924},{"id":"asianRestaurants_313cbf5dd5ee","slug":"wagamama-kifisia-313c","kind":"restaurant","name":"wagamama kifisia","lat":38.072331147675214,"lng":23.812549926712027,"url":"https://maps.app.goo.gl/ukrWwWHZBibG1ZuR9?g_st=ipc","address":"Κασσαβέτη 3, Αθήνα 145 62","categoryIds":["asian"],"categories":["Asian Restaurants"],"distanceKm":0.1965267020175521},{"id":"dessertsRestaurants_f6573343ee76","slug":"varsos-kifisias-f657","kind":"restaurant","name":"Βάρσος Κηφισιάς","lat":38.072362535009226,"lng":23.812748821182716,"url":"https://maps.app.goo.gl/e8AJnfXdPPGoGzkUA?g_st=ipc","address":"Κασσαβέτη 5, Κηφισιά 145 62","categoryIds":["desserts"],"categories":["Dessert Shops"],"distanceKm":0.19919456882846004},{"id":"dessertsRestaurants_133f25aa5736","slug":"lartecono-davinci-gelato-kifisia-133f","kind":"restaurant","name":"Lartecono Davinci Gelato (Kifisia)","lat":38.07209287623985,"lng":23.81427887695815,"url":"https://maps.app.goo.gl/TQ8GkG92N85onsZr9?g_st=ipc","address":"Κασσαβέτη 19, Κηφισιά 145 62","categoryIds":["desserts"],"categories":["Dessert Shops"],"distanceKm":0.21545809438831132},{"id":"coffeeBrunchRestaurants_be3a53f7f3e4","slug":"paul-kifisia-be3a","kind":"restaurant","name":"PAUL Κηφισιά","lat":38.072447961478396,"lng":23.81379476032691,"url":"https://maps.app.goo.gl/6xevQtpeMeVnnkfT6?g_st=ipc","address":"Λεβίδου 4, Κηφισιά 145 62","categoryIds":["coffee-brunch"],"categories":["Coffee & Brunch Spots"],"distanceKm":0.2276710402525778}],"sameRegion":[]},"__N_SSG":true}