{"pageProps":{"entity":{"id":"greekRestaurants_61c89fcbc275","slug":"zesti-folia-61c8","kind":"restaurant","name":"Zesti Folia","lat":41.13899906419447,"lng":24.888177425507816,"url":"https://maps.app.goo.gl/1VBzoELGi776Qugm7?g_st=ipc","address":"Xanthi 671 00","categoryIds":["greek-restaurants"],"categories":["Greek Restaurants"]},"sameCategory":[{"id":"greekRestaurants_1834cddf4425","slug":"fanarakia-1834","kind":"restaurant","name":"Φαναράκια","lat":41.14032773851066,"lng":24.8879657823805,"url":"https://maps.app.goo.gl/y1nyTpLWQTNThXBHA?g_st=ipc","address":"Geor. Staurou 18, Xanthi 671 00","categoryIds":["greek-restaurants"],"categories":["Greek Restaurants"]},{"id":"greekRestaurants_fb7bf4ba66dc","slug":"allotino-grill-house-fb7b","kind":"restaurant","name":"Allotino - Grill House","lat":41.137361529682444,"lng":24.890010570024067,"url":"https://maps.app.goo.gl/AHRF8Wye7ZPQjHMo7?g_st=ipc","address":"Michail Karaoli 45, Xanthi 671 00","categoryIds":["greek-restaurants"],"categories":["Greek Restaurants"]},{"id":"greekRestaurants_62acf7060367","slug":"strofi-sti-gefsi-62ac","kind":"restaurant","name":"Strofi sti gefsi","lat":41.138540641589884,"lng":24.88497591433977,"url":"https://maps.app.goo.gl/vZvezQfXoEwBDn1u6?g_st=ipc","address":"El. Venizelou 92, Xanthi 671 00","categoryIds":["greek-restaurants"],"categories":["Greek Restaurants"]},{"id":"greekRestaurants_b1f57c1f157a","slug":"xanthippi-b1f5","kind":"restaurant","name":"Ξανθίππη","lat":41.14719202764731,"lng":24.886025864538365,"url":"https://maps.app.goo.gl/2qTChTp88e8Jr9dA9?g_st=ipc","address":"1ο ΧΛΜ, Stavroupoli 671 00","categoryIds":["greek-restaurants"],"categories":["Greek Restaurants"]},{"id":"greekRestaurants_4712fe0e994b","slug":"filio-4712","kind":"restaurant","name":"Filio","lat":41.131060070513215,"lng":24.896289548704306,"url":"https://maps.app.goo.gl/1p3faP8wz7aqdwVy6?g_st=ipc","address":"Xanthi 671 00","categoryIds":["greek-restaurants"],"categories":["Greek Restaurants"]},{"id":"greekRestaurants_465f20138405","slug":"mezedotechnimata-465f","kind":"restaurant","name":"Mezedotechnimata","lat":41.10434218813076,"lng":24.899828458702697,"url":"https://maps.app.goo.gl/uhpur6cq4FRmH4H77?g_st=ipc","address":"Πετεινός 671 00","categoryIds":["greek-restaurants"],"categories":["Greek Restaurants"]},{"id":"greekRestaurants_e8c6c63d9264","slug":"kapsoyli-e8c6","kind":"restaurant","name":"καψούλι","lat":41.116926466455745,"lng":25.401623976597524,"url":"https://maps.app.goo.gl/Z1dAApwmcfN1vv1z9?g_st=ipc","address":"Μαρώνειας 29, Κομοτηνή 691 32","categoryIds":["greek-restaurants"],"categories":["Greek Restaurants"]},{"id":"greekRestaurants_445417046828","slug":"ellinon-geyseis-4454","kind":"restaurant","name":"Ελλήνων Γεύσεις","lat":41.08295713418629,"lng":23.551696546945724,"url":"https://maps.app.goo.gl/LhjWaaa92Grbc9WU8?g_st=ipc","address":"Μακεδονομάχων 37 με Κερασούντος Γωνία, Σέρρες 621 22","categoryIds":["greek-restaurants"],"categories":["Greek Restaurants"]}],"nearby":[{"id":"greekRestaurants_1834cddf4425","slug":"fanarakia-1834","kind":"restaurant","name":"Φαναράκια","lat":41.14032773851066,"lng":24.8879657823805,"url":"https://maps.app.goo.gl/y1nyTpLWQTNThXBHA?g_st=ipc","address":"Geor. Staurou 18, Xanthi 671 00","categoryIds":["greek-restaurants"],"categories":["Greek Restaurants"],"distanceKm":0.14880110992214315},{"id":"greekRestaurants_fb7bf4ba66dc","slug":"allotino-grill-house-fb7b","kind":"restaurant","name":"Allotino - Grill House","lat":41.137361529682444,"lng":24.890010570024067,"url":"https://maps.app.goo.gl/AHRF8Wye7ZPQjHMo7?g_st=ipc","address":"Michail Karaoli 45, Xanthi 671 00","categoryIds":["greek-restaurants"],"categories":["Greek Restaurants"],"distanceKm":0.23816334873149236},{"id":"greekRestaurants_62acf7060367","slug":"strofi-sti-gefsi-62ac","kind":"restaurant","name":"Strofi sti gefsi","lat":41.138540641589884,"lng":24.88497591433977,"url":"https://maps.app.goo.gl/vZvezQfXoEwBDn1u6?g_st=ipc","address":"El. Venizelou 92, Xanthi 671 00","categoryIds":["greek-restaurants"],"categories":["Greek Restaurants"],"distanceKm":0.2729067916768991},{"id":"municipalities_10b14dbcbc1b","slug":"xanthi-10b1","kind":"municipality","name":"Ξάνθη","lat":41.14,"lng":24.885,"region":"Ανατολική Μακεδονία και Θράκη","name_en":"Xanthi","region_en":"Eastern Macedonia & Thrace","distanceKm":0.28842358432945636},{"id":"dessertsRestaurants_e5a8be129f28","slug":"papaparaskeyas-e5a8","kind":"restaurant","name":"Παπαπαρασκευάς","lat":41.13596445158542,"lng":24.887595282004852,"url":"https://maps.app.goo.gl/Suf5sjaXV3dpf4nq7?g_st=ipc","address":"28is Oktovriou 186, Xanthi 671 00","categoryIds":["desserts"],"categories":["Dessert Shops"],"distanceKm":0.3409370627229692},{"id":"greekRestaurants_b1f57c1f157a","slug":"xanthippi-b1f5","kind":"restaurant","name":"Ξανθίππη","lat":41.14719202764731,"lng":24.886025864538365,"url":"https://maps.app.goo.gl/2qTChTp88e8Jr9dA9?g_st=ipc","address":"1ο ΧΛΜ, Stavroupoli 671 00","categoryIds":["greek-restaurants"],"categories":["Greek Restaurants"],"distanceKm":0.9286602963805681},{"id":"greekRestaurants_4712fe0e994b","slug":"filio-4712","kind":"restaurant","name":"Filio","lat":41.131060070513215,"lng":24.896289548704306,"url":"https://maps.app.goo.gl/1p3faP8wz7aqdwVy6?g_st=ipc","address":"Xanthi 671 00","categoryIds":["greek-restaurants"],"categories":["Greek Restaurants"],"distanceKm":1.1139296312344937},{"id":"greekRestaurants_465f20138405","slug":"mezedotechnimata-465f","kind":"restaurant","name":"Mezedotechnimata","lat":41.10434218813076,"lng":24.899828458702697,"url":"https://maps.app.goo.gl/uhpur6cq4FRmH4H77?g_st=ipc","address":"Πετεινός 671 00","categoryIds":["greek-restaurants"],"categories":["Greek Restaurants"],"distanceKm":3.975328156559963}],"sameRegion":[]},"__N_SSG":true}