{"pageProps":{"entity":{"id":"asianRestaurants_5a81fb6b9192","slug":"zuzuto-ramen-5a81","kind":"restaurant","name":"Zuzuto Ramen","lat":37.98563972505005,"lng":23.764296512977037,"url":"https://maps.app.goo.gl/ryow8NsFhZuQLDhK7?g_st=ipc","address":"Χαλκηδόνος 66, Αθήνα 115 27","categoryIds":["asian"],"categories":["Asian Restaurants"]},"sameCategory":[{"id":"asianRestaurants_01d2fd8409bc","slug":"siam-thai-food-01d2","kind":"restaurant","name":"Siam Thai Food","lat":37.98765776292927,"lng":23.75850606152562,"url":"https://maps.app.goo.gl/V19mHCb8LHh8jNgz6?g_st=ipc","address":"Βατοπεδίου 6, Αθήνα 115 23","categoryIds":["asian"],"categories":["Asian Restaurants"]},{"id":"asianRestaurants_473a72132f5a","slug":"noodle-bar-zografou-473a","kind":"restaurant","name":"Noodle Bar Zografou","lat":37.98033900085368,"lng":23.7645797480279,"url":"https://maps.app.goo.gl/mX2bUrDUmSpXcEdF7","address":"Geor. Papandreou 31, Zografou 157 73","categoryIds":["asian"],"categories":["Asian Restaurants"]},{"id":"asianRestaurants_11e9b056b89d","slug":"bulacan-halo-halo-11e9","kind":"restaurant","name":"Bulacan Halo-Halo","lat":37.98164028909841,"lng":23.759642721567413,"url":"https://maps.app.goo.gl/XM8Buphrtabi3YYC9?g_st=ipc","address":"Μιχαλακοπούλου 105, Αθήνα 115 27","categoryIds":["asian"],"categories":["Asian Restaurants"]},{"id":"asianRestaurants_6980a2c0f36c","slug":"rawbata-6980","kind":"restaurant","name":"RawBata","lat":37.991621984562435,"lng":23.76287776299424,"url":"https://maps.app.goo.gl/j57HrF6nf6youYLV8","address":"Lakonias 33, Athina 115 23","categoryIds":["asian"],"categories":["Asian Restaurants"]},{"id":"asianRestaurants_315dc41692bd","slug":"sakura-sushi-and-steak-house-315d","kind":"restaurant","name":"Sakura Sushi and Steak House","lat":37.992808848594535,"lng":23.76520165923385,"url":"https://maps.app.goo.gl/qjninjaDQmMf2fNU7","address":"Doukissis Plakentias 73, Athina 115 23","categoryIds":["asian"],"categories":["Asian Restaurants"]},{"id":"asianRestaurants_4bddf7fbcbe7","slug":"street-wok-4bdd","kind":"restaurant","name":"Street Wok","lat":37.99333429542986,"lng":23.76565696133404,"url":"https://maps.app.goo.gl/xgYqVodevf1ae8hY7?g_st=ipc","address":"Ampelokipi Menemeni, Πανόρμου 115Ζ, Αθήνα 115 24","categoryIds":["asian"],"categories":["Asian Restaurants"]},{"id":"asianRestaurants_49017a334068","slug":"the-sushi-bar-4901","kind":"restaurant","name":"The Sushi Bar","lat":37.99837454773829,"lng":23.77552075939677,"url":"https://maps.app.goo.gl/US8MP4C24AbbzMtL9","address":"Geor. Vlachou 38, Athina 115 25","categoryIds":["asian"],"categories":["Asian Restaurants"]},{"id":"asianRestaurants_7aa0cb0c0f53","slug":"sister-7aa0","kind":"restaurant","name":"Sister","lat":38.003216085112086,"lng":23.7757633660399,"url":"https://maps.app.goo.gl/kRDH6Sdii2eyeoRw9?g_st=ipc","address":"Περικλέους 11, Νέο Ψυχικό 154 51","categoryIds":["asian"],"categories":["Asian Restaurants"]}],"nearby":[{"id":"coffeeBrunchRestaurants_e05f85a7bf8b","slug":"gaby-e05f","kind":"restaurant","name":"Gaby","lat":37.986676810313035,"lng":23.76468460968007,"url":"https://maps.app.goo.gl/i3aZZJMDZs8yiYD88?g_st=ipc","address":"Λεωφ. Μεσογείων 33-37, Αθήνα 115 26","categoryIds":["coffee-brunch"],"categories":["Coffee & Brunch Spots"],"distanceKm":0.12022993262664163},{"id":"municipalities_b643a309d451","slug":"goydi-b643","kind":"municipality","name":"Γουδί","lat":37.9833,"lng":23.765,"aliases":["Goudi","Gudi"],"region":"Κέντρο Αθήνας","name_en":"Goudi","region_en":"Athens Center","distanceKm":0.26737127752318157},{"id":"greekRestaurants_f3fc125c2d89","slug":"psistaria-to-agrinio-f3fc","kind":"restaurant","name":"Ψησταριά Το Αγρίνιο","lat":37.98365341957495,"lng":23.761708124944604,"url":"https://maps.app.goo.gl/C245RwiHHTqtJUfs8","address":"Σινώπης 18, Αθήνα 115 27","categoryIds":["greek-restaurants"],"categories":["Greek Restaurants"],"distanceKm":0.3166115386229832},{"id":"cheapEatsRestaurants_d31bf93dd3fb","slug":"prunas-d31b","kind":"restaurant","name":"Prunas","lat":37.98295319401702,"lng":23.765808326891843,"url":"https://maps.app.goo.gl/TvHy3uq6zYjv7y1f9?g_st=ipc","address":"Δημ. Γουλιάμου 58, Αθήνα 115 27","categoryIds":["cheap-eats"],"categories":["Gyros & Cheap Eats"],"distanceKm":0.32679418074599736},{"id":"municipalities_986a9c2ee700","slug":"zografoy-986a","kind":"municipality","name":"Ζωγράφου","lat":37.9833,"lng":23.7667,"aliases":["Zografou","Zographou"],"region":"Κέντρο Αθήνας","name_en":"Zografou","region_en":"Athens Center","distanceKm":0.33474971010078347},{"id":"vegetarianRestaurants_8d2c7b9eb78e","slug":"naanstop-indian-cuisine-8d2c","kind":"restaurant","name":"NaanStop Indian Cuisine","lat":37.98689020299092,"lng":23.76047169895521,"url":"https://maps.app.goo.gl/FunBo9MHcx5NDxcQ7?g_st=ipc","address":"Λεωφ. Αλεξάνδρας 223, Αθήνα 115 23","categoryIds":["vegetarian"],"categories":["Vegetarian Friendly Restaurants"],"distanceKm":0.3628987609626263},{"id":"coffeeBrunchRestaurants_778f1a8f2b27","slug":"noemi-athens-778f","kind":"restaurant","name":"Noemi Athens","lat":37.98261642912539,"lng":23.76682899259837,"url":"https://maps.app.goo.gl/CUvMnKb1Hruhtibb8?g_st=ipc","address":"Παπαδιαμαντοπούλου 138, Αθήνα 157 73","categoryIds":["coffee-brunch"],"categories":["Coffee & Brunch Spots"],"distanceKm":0.40283492416691},{"id":"coffeeBrunchRestaurants_015dc365632d","slug":"bless-hopes-drinks-015d","kind":"restaurant","name":"Bless Hopes & Drinks","lat":37.98177476738277,"lng":23.764992470497013,"url":"https://maps.app.goo.gl/bMheYFALtaZQt2eg9?g_st=ipc","address":"Παπαδιαμαντοπούλου 118, Ζωγράφου 157 73","categoryIds":["coffee-brunch"],"categories":["Coffee & Brunch Spots"],"distanceKm":0.4340705586042302}],"sameRegion":[]},"__N_SSG":true}