{"pageProps":{"entity":{"id":"municipalities_a7ebe9625d32","slug":"aliartos-a7eb","kind":"municipality","name":"Αλίαρτος","lat":38.3833,"lng":23.1,"region":"Στερεά Ελλάδα","name_en":"Aliartos","region_en":"Central Greece"},"sameCategory":[],"nearby":[{"id":"wineriesVineyards_91ab76f741da","slug":"ktima-moyson-muses-estate-91ab","kind":"restaurant","name":"Κτήμα Μουσών / Muses Estate","lat":38.310939635727244,"lng":23.111723523497265,"url":"https://maps.app.goo.gl/s6vXZTgfmnzvhcm38?g_st=ipc","address":"Άσκρη 320 02","categoryIds":["wineries-vineyards"],"categories":["Wineries & Vineyards"],"distanceKm":8.11079808345993},{"id":"mustSeeAttractions_e5512cd254da","slug":"skydive-athens-e551","kind":"restaurant","name":"Skydive Athens","lat":38.45479327540192,"lng":23.137313881202427,"url":"https://maps.app.goo.gl/uSXp93uUxm32U2Ms6?g_st=ipc","address":"Kopaida Airfield, Kastro Viotias 323 00","categoryIds":["attractions"],"categories":["Must-See Attractions"],"distanceKm":8.588661658947156},{"id":"monasteriesChurches_907048b5d580","slug":"iera-moni-genethlioy-tis-theotokoy-pelagias-9070","kind":"restaurant","name":"Ιερά Μονή Γενεθλίου της Θεοτόκου (Πελαγίας)","lat":38.459809569498496,"lng":23.266627094278455,"url":"https://maps.app.goo.gl/Xi5o5EhFW72ridKs8?g_st=ipc","address":"Ιερά Μονή Γενεθλίου της Θεοτόκου - Πελαγίας, Κόκκινο 320 01","categoryIds":["monasteries-churches"],"categories":["Monasteries & Spiritual Sites"],"distanceKm":16.825324846778564},{"id":"municipalities_f523a4be73e1","slug":"thiva-f523","kind":"municipality","name":"Θήβα","lat":38.325,"lng":23.318,"region":"Στερεά Ελλάδα","name_en":"Thebes","region_en":"Central Greece","distanceKm":20.084143594636014},{"id":"greekRestaurants_10ece8dd8944","slug":"kalligeyston-10ec","kind":"restaurant","name":"Καλλίγευστον","lat":38.43485008360987,"lng":22.87533637489723,"url":"https://maps.app.goo.gl/zYi1gLNTWPkzLzVD6?g_st=ipc","address":"Ελ. Βενιζέλου 19, Λιβαδειά 321 00","categoryIds":["greek-restaurants"],"categories":["Greek Restaurants"],"distanceKm":20.397326550834574},{"id":"municipalities_a3f2108a0447","slug":"livadeia-a3f2","kind":"municipality","name":"Λιβαδειά","lat":38.435,"lng":22.875,"aliases":["Livadia"],"region":"Στερεά Ελλάδα","name_en":"Livadeia","region_en":"Central Greece","distanceKm":20.430120939038236},{"id":"dessertsRestaurants_ee7a9d284945","slug":"in-out-patisserie-ee7a","kind":"restaurant","name":"In Out Patisserie","lat":38.62013328510681,"lng":23.231732554049056,"url":"https://maps.app.goo.gl/pezBgDeH43iQLTiq9?g_st=ipc","address":"Νέα Μαστού 1, Μαλεσίνα 350 01","categoryIds":["desserts"],"categories":["Dessert Shops"],"distanceKm":28.721463530629382},{"id":"municipalities_b881ef8f885c","slug":"atalanti-b881","kind":"municipality","name":"Αταλάντη","lat":38.65,"lng":23.0833,"region":"Στερεά Ελλάδα","name_en":"Atalanti","region_en":"Central Greece","distanceKm":29.691257451133495},{"id":"greekRestaurants_ad3a4104d172","slug":"taverna-lestori-ad3a","kind":"restaurant","name":"Ταβέρνα Λεστόρι","lat":38.16672026950688,"lng":23.331475593266063,"url":"https://maps.app.goo.gl/ua2rbjj6TsXM4Ua49?g_st=ipc","address":"Ι. Σακελλαρίου 59, Βίλια 190 12","categoryIds":["greek-restaurants"],"categories":["Greek Restaurants"],"distanceKm":31.4366154878771},{"id":"municipalities_e657fbc0371a","slug":"chalkida-e657","kind":"municipality","name":"Χαλκίδα","lat":38.4639,"lng":23.6022,"aliases":["Χαλκιδα","Xalkida"],"region":"Στερεά Ελλάδα","name_en":"Chalkida","region_en":"Central Greece","distanceKm":44.65729643051351},{"id":"municipalities_db0db54979fe","slug":"arachova-db0d","kind":"municipality","name":"Αράχωβα","lat":38.4794,"lng":22.5883,"aliases":["Αραχοβα"],"region":"Στερεά Ελλάδα","name_en":"Arachova","region_en":"Central Greece","distanceKm":45.83456696301576},{"id":"municipalities_2a5550d7f6f9","slug":"kamena-voyrla-2a55","kind":"municipality","name":"Καμένα Βούρλα","lat":38.7833,"lng":22.7833,"region":"Στερεά Ελλάδα","name_en":"Kamena Vourla","region_en":"Central Greece","distanceKm":52.30745740834678},{"id":"municipalities_f337a98c2278","slug":"delfoi-f337","kind":"municipality","name":"Δελφοί","lat":38.48,"lng":22.5,"aliases":["Δελφοι"],"region":"Στερεά Ελλάδα","name_en":"Delphi","region_en":"Central Greece","distanceKm":53.35728631879069},{"id":"municipalities_6af6e7b2b379","slug":"eretria-6af6","kind":"municipality","name":"Ερέτρια","lat":38.39,"lng":23.8,"region":"Στερεά Ελλάδα","name_en":"Eretria","region_en":"Central Greece","distanceKm":61.01558108499821},{"id":"municipalities_658c27b3c4d6","slug":"galaxeidi-658c","kind":"municipality","name":"Γαλαξείδι","lat":38.3769,"lng":22.3889,"aliases":["Γαλαξειδι","Galaxeidi"],"region":"Στερεά Ελλάδα","name_en":"Galaxidi","region_en":"Central Greece","distanceKm":61.98818637023232},{"id":"municipalities_30068cb262bd","slug":"istiaia-3006","kind":"municipality","name":"Ιστιαία","lat":38.95,"lng":23.15,"aliases":["Ιστιαίων"],"region":"Στερεά Ελλάδα","name_en":"Istiaia","region_en":"Central Greece","distanceKm":63.16350977856672},{"id":"municipalities_c523f08f4501","slug":"amfissa-c523","kind":"municipality","name":"Άμφισσα","lat":38.53,"lng":22.38,"aliases":["Amfissa"],"region":"Στερεά Ελλάδα","name_en":"Amfissa","region_en":"Central Greece","distanceKm":64.7807733577349},{"id":"municipalities_c0997f05bd92","slug":"lamia-c099","kind":"municipality","name":"Λαμία","lat":38.9,"lng":22.4333,"region":"Στερεά Ελλάδα","name_en":"Lamia","region_en":"Central Greece","distanceKm":81.57037066549839},{"id":"municipalities_1d4b51456d77","slug":"karpenisi-1d4b","kind":"municipality","name":"Καρπενήσι","lat":38.9167,"lng":21.7833,"region":"Στερεά Ελλάδα","name_en":"Karpenisi","region_en":"Central Greece","distanceKm":128.80856594686495}],"sameRegion":[{"id":"municipalities_1d4b51456d77","slug":"karpenisi-1d4b","kind":"municipality","name":"Καρπενήσι","lat":38.9167,"lng":21.7833,"region":"Στερεά Ελλάδα","name_en":"Karpenisi","region_en":"Central Greece"},{"id":"municipalities_2a5550d7f6f9","slug":"kamena-voyrla-2a55","kind":"municipality","name":"Καμένα Βούρλα","lat":38.7833,"lng":22.7833,"region":"Στερεά Ελλάδα","name_en":"Kamena Vourla","region_en":"Central Greece"},{"id":"municipalities_30068cb262bd","slug":"istiaia-3006","kind":"municipality","name":"Ιστιαία","lat":38.95,"lng":23.15,"aliases":["Ιστιαίων"],"region":"Στερεά Ελλάδα","name_en":"Istiaia","region_en":"Central Greece"},{"id":"municipalities_658c27b3c4d6","slug":"galaxeidi-658c","kind":"municipality","name":"Γαλαξείδι","lat":38.3769,"lng":22.3889,"aliases":["Γαλαξειδι","Galaxeidi"],"region":"Στερεά Ελλάδα","name_en":"Galaxidi","region_en":"Central Greece"},{"id":"municipalities_6af6e7b2b379","slug":"eretria-6af6","kind":"municipality","name":"Ερέτρια","lat":38.39,"lng":23.8,"region":"Στερεά Ελλάδα","name_en":"Eretria","region_en":"Central Greece"},{"id":"municipalities_a3f2108a0447","slug":"livadeia-a3f2","kind":"municipality","name":"Λιβαδειά","lat":38.435,"lng":22.875,"aliases":["Livadia"],"region":"Στερεά Ελλάδα","name_en":"Livadeia","region_en":"Central Greece"},{"id":"municipalities_b881ef8f885c","slug":"atalanti-b881","kind":"municipality","name":"Αταλάντη","lat":38.65,"lng":23.0833,"region":"Στερεά Ελλάδα","name_en":"Atalanti","region_en":"Central Greece"},{"id":"municipalities_c0997f05bd92","slug":"lamia-c099","kind":"municipality","name":"Λαμία","lat":38.9,"lng":22.4333,"region":"Στερεά Ελλάδα","name_en":"Lamia","region_en":"Central Greece"},{"id":"municipalities_c523f08f4501","slug":"amfissa-c523","kind":"municipality","name":"Άμφισσα","lat":38.53,"lng":22.38,"aliases":["Amfissa"],"region":"Στερεά Ελλάδα","name_en":"Amfissa","region_en":"Central Greece"},{"id":"municipalities_db0db54979fe","slug":"arachova-db0d","kind":"municipality","name":"Αράχωβα","lat":38.4794,"lng":22.5883,"aliases":["Αραχοβα"],"region":"Στερεά Ελλάδα","name_en":"Arachova","region_en":"Central Greece"},{"id":"municipalities_e657fbc0371a","slug":"chalkida-e657","kind":"municipality","name":"Χαλκίδα","lat":38.4639,"lng":23.6022,"aliases":["Χαλκιδα","Xalkida"],"region":"Στερεά Ελλάδα","name_en":"Chalkida","region_en":"Central Greece"},{"id":"municipalities_f337a98c2278","slug":"delfoi-f337","kind":"municipality","name":"Δελφοί","lat":38.48,"lng":22.5,"aliases":["Δελφοι"],"region":"Στερεά Ελλάδα","name_en":"Delphi","region_en":"Central Greece"},{"id":"municipalities_f523a4be73e1","slug":"thiva-f523","kind":"municipality","name":"Θήβα","lat":38.325,"lng":23.318,"region":"Στερεά Ελλάδα","name_en":"Thebes","region_en":"Central Greece"}],"mentionedGuides":[],"canonicalSlug":"aliartos-a7eb","isCanonicalEntity":true,"enrichment":{"summary_en":"Αλίαρτος is a curated neighborhood area in Στερεά Ελλάδα. It is connected to 0 nearby Googlementor picks to help travelers build a stronger local route.","summary_el":"Αλίαρτος είναι ένα επιλεγμένο σημείο ενδιαφέροντος στην περιοχή Στερεά Ελλάδα. Συνδέεται με 0 κοντινές προτάσεις του Googlementor για πιο ολοκληρωμένη εμπειρία.","vibe_tags":["local-neighborhood","base-for-exploring"],"best_for":["first-time visitors","walk-and-explore days","return visitors"],"visit_moments":["late morning walks","sunset exploration"],"practical_note":"0 curated places are within walkable distance from this area center.","nearby_walkable_count":0,"nearby_count_2km":0,"confidence":0.55}},"__N_SSG":true}