{"pageProps":{"entity":{"id":"coffeeBrunchRestaurants_81babb19d554","slug":"anax-brunch-all-day-bar-81ba","kind":"restaurant","name":"Anax - Brunch & All day bar","lat":36.54881053562097,"lng":26.352767048461835,"url":"https://maps.app.goo.gl/Fog59qRdXL1VwbPKA?g_st=ipc","address":"Island, Astipalea 859 00","categoryIds":["coffee-brunch"],"categories":["Coffee & Brunch Spots"]},"sameCategory":[{"id":"coffeeBrunchRestaurants_a3547d8efbea","slug":"kolokytha-a354","kind":"restaurant","name":"Kolokytha","lat":36.54726990012019,"lng":26.353646413648903,"url":"https://maps.app.goo.gl/6FaxgMCjdWj9EPA48?g_st=ipc","address":"Unnamed Rd, Astipalea 859 00","categoryIds":["coffee-brunch","desserts"],"categories":["Coffee & Brunch Spots","Dessert Shops"],"legacySlugs":["kolokytha-3090"]},{"id":"coffeeBrunchRestaurants_64018e74309c","slug":"meltemi-6401","kind":"restaurant","name":"Meltemi","lat":36.545359250189506,"lng":26.352356416685993,"url":"https://maps.app.goo.gl/nFrvN47758pZXWzT8?g_st=ipc","address":"Astypalaia 859 00","categoryIds":["coffee-brunch","desserts"],"categories":["Coffee & Brunch Spots","Dessert Shops"],"legacySlugs":["meltemi-57c8"]},{"id":"coffeeBrunchRestaurants_fa8dbaffc7b9","slug":"pergalidi-fa8d","kind":"restaurant","name":"Pergalídi","lat":36.9063101851879,"lng":25.998609552916683,"url":"https://maps.app.goo.gl/JbLEpGNTnyAChWqY7?g_st=ipc","address":"Lagada 840 08","categoryIds":["coffee-brunch"],"categories":["Coffee & Brunch Spots"]},{"id":"coffeeBrunchRestaurants_15f758934efb","slug":"jazzmin-15f7","kind":"restaurant","name":"Jazzmin","lat":36.83137874729602,"lng":25.898307325862916,"url":"https://maps.app.goo.gl/YcQVqpGJyQtWEuk59?g_st=ipc","address":"Χώρα 840 08","categoryIds":["coffee-brunch"],"categories":["Coffee & Brunch Spots"]},{"id":"coffeeBrunchRestaurants_7ba1b6bfb809","slug":"embassa-cafe-bar-7ba1","kind":"restaurant","name":"embassa cafe bar","lat":36.901100293710016,"lng":25.976110975169213,"url":"https://maps.app.goo.gl/EQeLPXrV9KJNt6Ut5?g_st=ipc","address":"Aigiali, Ormos Egialis 840 08","categoryIds":["coffee-brunch"],"categories":["Coffee & Brunch Spots"]},{"id":"coffeeBrunchRestaurants_23961ab696ae","slug":"seladi-cafe-bar-2396","kind":"restaurant","name":"Seladi cafe bar","lat":36.91575288586461,"lng":25.98223632900659,"url":"https://maps.app.goo.gl/K7ieijzQ2tNdrR3y5?g_st=ipc","address":"Epar.Od. Katapola-Thalarias, Lagada 840 08","categoryIds":["coffee-brunch"],"categories":["Coffee & Brunch Spots"]},{"id":"coffeeBrunchRestaurants_e2f6b0012785","slug":"arleta-e2f6","kind":"restaurant","name":"Arleta","lat":36.82638304281154,"lng":25.864058083086626,"url":"https://maps.app.goo.gl/W2NJQiPuDrDGXEQw5?g_st=ipc","address":"Κατάπολα 840 08","categoryIds":["coffee-brunch"],"categories":["Coffee & Brunch Spots"]},{"id":"coffeeBrunchRestaurants_2788ef940f49","slug":"lovly-bar-2788","kind":"restaurant","name":"Lovly Bar","lat":36.8298552621884,"lng":27.052523615328724,"url":"https://maps.app.goo.gl/tqo3zEFB2jssR8Md9?g_st=ipc","address":"Mastihari","categoryIds":["coffee-brunch"],"categories":["Coffee & Brunch Spots"]},{"id":"coffeeBrunchRestaurants_ffafa520148c","slug":"koufonisia-bakery-ffaf","kind":"restaurant","name":"Koufonisia Bakery","lat":36.933430589719315,"lng":25.601645574976523,"url":"https://maps.app.goo.gl/upgNqgqMcearc7wRA?g_st=ipc","address":"Koufonisia 843 00","categoryIds":["coffee-brunch"],"categories":["Coffee & Brunch Spots"]},{"id":"coffeeBrunchRestaurants_224b4f18bc1d","slug":"metoxi-cafe-224b","kind":"restaurant","name":"Metoxi Cafe","lat":36.84261561910303,"lng":27.207757730254055,"url":"https://maps.app.goo.gl/xLPQPWyVrDszRuA8A?g_st=ipc","address":"Κως ζια, Lagoudi Zia 853 00","categoryIds":["coffee-brunch"],"categories":["Coffee & Brunch Spots"]},{"id":"coffeeBrunchRestaurants_2e5d658747f2","slug":"svoronos-bakery-2e5d","kind":"restaurant","name":"Svoronos Bakery","lat":36.419048608663665,"lng":25.432096523213673,"url":"https://maps.app.goo.gl/UiCZYg6Gt2wABcPE8?g_st=ipc","address":"Greece, 25is Martiou, Thira 847 00","categoryIds":["coffee-brunch"],"categories":["Coffee & Brunch Spots"]},{"id":"coffeeBrunchRestaurants_d1e128561b78","slug":"mylos-beach-bar-kos-d1e1","kind":"restaurant","name":"Mylos Beach Bar Kos","lat":36.910338645379476,"lng":27.282292405147036,"url":"https://maps.app.goo.gl/6uVUCsAW9roKZ7jd6?g_st=ipc","address":"Akti Zouroudi, Kos 853 00","categoryIds":["coffee-brunch"],"categories":["Coffee & Brunch Spots"]}],"nearby":[{"id":"greekRestaurants_204f253dd532","slug":"antikastro-204f","kind":"restaurant","name":"antikastro","lat":36.54911350601486,"lng":26.354501637797917,"url":"https://maps.app.goo.gl/WHQ2qixYWioNZMKp6?g_st=ipc","address":"Πέρα Γιαλός, Αστυπάλαια 859 00","categoryIds":["greek-restaurants"],"categories":["Greek Restaurants"],"distanceKm":0.1585678524734858},{"id":"coffeeBrunchRestaurants_a3547d8efbea","slug":"kolokytha-a354","kind":"restaurant","name":"Kolokytha","lat":36.54726990012019,"lng":26.353646413648903,"url":"https://maps.app.goo.gl/6FaxgMCjdWj9EPA48?g_st=ipc","address":"Unnamed Rd, Astipalea 859 00","categoryIds":["coffee-brunch","desserts"],"categories":["Coffee & Brunch Spots","Dessert Shops"],"legacySlugs":["kolokytha-3090"],"distanceKm":0.1884621870618049},{"id":"municipalities_d2bf66140ab6","slug":"astypalaia-d2bf","kind":"municipality","name":"Αστυπάλαια","lat":36.55,"lng":26.35,"region":"Δωδεκάνησα","name_en":"Astypalaia","region_en":"Dodecanese","distanceKm":0.2803362623704479},{"id":"italianRestaurants_964eabf93843","slug":"pablo-pasta-corner-964e","kind":"restaurant","name":"Pablo Pasta Corner","lat":36.545609138218644,"lng":26.3527289228981,"url":"https://maps.app.goo.gl/oiQQ7oLzNp1QAEmS9?g_st=ipc","address":"G9W3+63, Astipalea 859 00","categoryIds":["italian"],"categories":["Italian Restaurants"],"distanceKm":0.35599544097455454},{"id":"greekRestaurants_25653bac7b54","slug":"paradosiako-kafeneio-to-kafeneio-toy-moyggoy-2565","kind":"restaurant","name":"Παραδοσιακό Καφενείο (To Καφενείο του Μουγγού)","lat":36.5453974756151,"lng":26.35310123253182,"url":"https://maps.app.goo.gl/gijNGaC27DHdZSCLA?g_st=ipc","address":"Αστυπάλαιας, Αστυπάλαια 859 00","categoryIds":["greek-restaurants"],"categories":["Greek Restaurants"],"distanceKm":0.3806872627384886},{"id":"greekRestaurants_1eb270eb5f4f","slug":"ageri-restaurant-1eb2","kind":"restaurant","name":"Ageri restaurant","lat":36.545373863016174,"lng":26.35247532810791,"url":"https://maps.app.goo.gl/rQHUiQxR5nqHhzwq6?g_st=ipc","address":"Αστυπάλαια 859 00","categoryIds":["greek-restaurants"],"categories":["Greek Restaurants"],"distanceKm":0.3830280717185234},{"id":"greekRestaurants_826ee6f6b42a","slug":"ducato-di-astypalea-826e","kind":"restaurant","name":"Ducato Di Astypalea","lat":36.54536940615809,"lng":26.35248428420808,"url":"https://maps.app.goo.gl/ZfS2feMAKcarSRzQ7?g_st=ipc","address":"Χώρα, Δωδεκάνησα 859 00","categoryIds":["greek-restaurants"],"categories":["Greek Restaurants"],"distanceKm":0.38346897393463614},{"id":"coffeeBrunchRestaurants_64018e74309c","slug":"meltemi-6401","kind":"restaurant","name":"Meltemi","lat":36.545359250189506,"lng":26.352356416685993,"url":"https://maps.app.goo.gl/nFrvN47758pZXWzT8?g_st=ipc","address":"Astypalaia 859 00","categoryIds":["coffee-brunch","desserts"],"categories":["Coffee & Brunch Spots","Dessert Shops"],"legacySlugs":["meltemi-57c8"],"distanceKm":0.38551454968253185},{"id":"greekRestaurants_9c87341404e8","slug":"to-stenaki-toy-koykla-to-stenaki-toy-koukla-9c87","kind":"restaurant","name":"Το στενάκι του Κούκλα.(to stenaki toy Koukla)","lat":36.545265395977154,"lng":26.35261447161412,"url":"https://maps.app.goo.gl/SnNzgQyWmVDaVzEZ8?g_st=ipc","address":"Astypalaia Chora myloi, Αστυπάλαια 859 00","categoryIds":["greek-restaurants"],"categories":["Greek Restaurants"],"distanceKm":0.3944371009901778},{"id":"greekRestaurants_869806f17064","slug":"apanemia-8698","kind":"restaurant","name":"Απανεμιά","lat":36.54479553075043,"lng":26.354427413382332,"url":"https://maps.app.goo.gl/rmFvvL97zEvLD4fw7?g_st=ipc","address":"Αστυπάλαια 859 00","categoryIds":["greek-restaurants"],"categories":["Greek Restaurants"],"distanceKm":0.4704415781019526},{"id":"greekRestaurants_0b3881d28de7","slug":"kafeneio-karai-0b38","kind":"restaurant","name":"Καφενείο Καράι","lat":36.54472153605894,"lng":26.355418637517822,"url":"https://maps.app.goo.gl/y4D61qmZahwjDV357?g_st=ipc","address":"Αστυπάλαια 859 00","categoryIds":["greek-restaurants"],"categories":["Greek Restaurants"],"distanceKm":0.5126762887534099},{"id":"greekRestaurants_9d808a2d74ce","slug":"krokodeilos-9d80","kind":"restaurant","name":"Κροκόδειλος","lat":36.54308732348962,"lng":26.343405441539794,"url":"https://maps.app.goo.gl/dNbrA36bRneAQ4R88?g_st=ipc","address":"Επαρ.Οδ. Λειβάδιων-Βαθύς, Λιβάδια 859 00","categoryIds":["greek-restaurants"],"categories":["Greek Restaurants"],"distanceKm":1.0508917863623704},{"id":"greekRestaurants_836c2ffc58fd","slug":"to-gerani-836c","kind":"restaurant","name":"Το Γεράνι","lat":36.54308410706101,"lng":26.342679449404006,"url":"https://maps.app.goo.gl/uDHS2p6qbdnAvE7M7?g_st=ipc","address":"Επαρ.Οδ. Λειβάδιων-Βαθύς, Λιβάδια 859 00","categoryIds":["greek-restaurants"],"categories":["Greek Restaurants"],"distanceKm":1.1034076871814915},{"id":"greekRestaurants_0efe597f6052","slug":"kantina-steno-0efe","kind":"restaurant","name":"Kantina Steno","lat":36.578365860361565,"lng":26.36528478817132,"url":"https://maps.app.goo.gl/ftUWF8trr9faMU188?g_st=ipc","address":"Αστυπάλαια 859 00","categoryIds":["greek-restaurants"],"categories":["Greek Restaurants"],"distanceKm":3.4713556179617324},{"id":"fishTavernasRestaurants_973cb4eff711","slug":"almyra-973c","kind":"restaurant","name":"Almyra","lat":36.57689109395972,"lng":26.38668535748424,"url":"https://maps.app.goo.gl/8xxh7iRxAnHBuD868?g_st=ipc","address":"Ανάληψη 859 00","categoryIds":["fish-tavernas"],"categories":["Fish Tavernas"],"distanceKm":4.350431072289122},{"id":"greekRestaurants_5adcb69583f2","slug":"linta-5adc","kind":"restaurant","name":"Λίντα","lat":36.519974196290576,"lng":26.303428373074162,"url":"https://maps.app.goo.gl/xpZE4y7i9j1YPs8b8?g_st=ipc","address":"859 00, Αστυπάλαια","categoryIds":["greek-restaurants"],"categories":["Greek Restaurants"],"distanceKm":5.45099045313732},{"id":"greekRestaurants_1291f93c2098","slug":"galini-1291","kind":"restaurant","name":"Γαλήνη","lat":36.62037244151068,"lng":26.39449516471844,"url":"https://maps.app.goo.gl/k4HzLQosfKRd3oNv7?g_st=ipc","address":"Έξω Βαθύ 859 00","categoryIds":["greek-restaurants"],"categories":["Greek Restaurants"],"distanceKm":8.786375366489663}],"sameRegion":[],"mentionedGuides":[],"canonicalSlug":"anax-brunch-all-day-bar-81ba","isCanonicalEntity":true,"enrichment":{"summary_en":"Anax - Brunch & All day bar is a curated restaurant in Astipalea 859 00 in the Coffee & Brunch Spots collection. It is connected to 11 nearby Googlementor picks to help travelers build a stronger local route.","summary_el":"Anax - Brunch & All day bar είναι ένα επιλεγμένο σημείο φαγητού στην περιοχή Astipalea 859 00 και ανήκει στη συλλογή Coffee & Brunch Spots. Συνδέεται με 11 κοντινές προτάσεις του Googlementor για πιο ολοκληρωμένη εμπειρία.","vibe_tags":["curated","daytime-favorite"],"best_for":["first-time visitors","food lovers"],"visit_moments":["early morning","late brunch"],"practical_note":"Address and direct map link are available for easy turn-by-turn access.","nearby_walkable_count":11,"nearby_count_2km":13,"confidence":0.98}},"__N_SSG":true}