{"pageProps":{"entity":{"id":"dessertsRestaurants_bdb87120c3b8","slug":"athina-kon-bdb8","kind":"restaurant","name":"ΑΘΗΝΑΪΚΟΝ","lat":38.00959872140439,"lng":23.78101021168435,"url":"https://maps.app.goo.gl/ACrYfvjmkufL8q3g9?g_st=ipc","address":"Νικολάου Μάντζαρου 1 &, Εθ. Αντιστάσεως, Νέο Ψυχικό 154 51","categoryIds":["desserts"],"categories":["Dessert Shops"]},"sameCategory":[{"id":"dessertsRestaurants_578f4bf4ed9c","slug":"dimitris-economides-athens-578f","kind":"restaurant","name":"Dimitris Economides Athens","lat":38.008931143721306,"lng":23.779615664170734,"url":"https://maps.app.goo.gl/wRvmhWMFJRUQ21b49?g_st=ipc","address":"Λεωφ. Κηφισίας 340, Νέο Ψυχικό 154 51","categoryIds":["desserts","luxury-dining"],"categories":["Dessert Shops","Luxury Dining"],"legacySlugs":["dimitris-economides-athens-e53f"]},{"id":"dessertsRestaurants_c99ab06196ae","slug":"carpo-psychiko-c99a","kind":"restaurant","name":"carpo psychiko","lat":38.00433299399579,"lng":23.77588410102084,"url":"https://maps.app.goo.gl/cHiF8braV8253FBP6?g_st=ipc","address":"Dim. Vasiliou 1, Neo Psichiko 154 51","categoryIds":["desserts"],"categories":["Dessert Shops"]},{"id":"dessertsRestaurants_b43c17b9e94d","slug":"le-greche-neo-psychiko-b43c","kind":"restaurant","name":"Le Greche NEO Psychiko","lat":38.00380450511544,"lng":23.775289515752554,"url":"https://maps.app.goo.gl/hRu6XR8fQTV8oMCF6?g_st=ipc","address":"Λυκούργου 2, Νέο Ψυχικό 154 51","categoryIds":["desserts"],"categories":["Dessert Shops"]},{"id":"dessertsRestaurants_44539c96154c","slug":"katamaya-sweet-savory-4453","kind":"restaurant","name":"Katamaya Sweet & Savory","lat":38.001728655646296,"lng":23.776605222448108,"url":"https://maps.app.goo.gl/d4khgseTBK8h5W1MA?g_st=ipc","address":"Δημ. Βασιλείου 20, Ψυχικό 154 51","categoryIds":["desserts"],"categories":["Dessert Shops"]},{"id":"dessertsRestaurants_69d8bc325b59","slug":"the-sweet-spot-69d8","kind":"restaurant","name":"The Sweet Spot","lat":38.000116106882906,"lng":23.77349448800709,"url":"https://maps.app.goo.gl/CH4eLFxcoxyVn5pM9?g_st=ipc","address":"Αδριανείου 46, Αθήνα 115 25","categoryIds":["desserts"],"categories":["Dessert Shops"]},{"id":"dessertsRestaurants_9de68b3616c9","slug":"nana-gioti-glyka-apo-spiti-9de6","kind":"restaurant","name":"ΝΑΝΑ ΓΙΩΤΗ - ΓΛΥΚΑ ΑΠΟ ΣΠΙΤΙ","lat":38.01918939040668,"lng":23.794563800847534,"url":"https://maps.app.goo.gl/Pj3P4kdv7qvwkpQG6?g_st=ic","address":"Papanikoli 46, Chalandri 152 32","categoryIds":["desserts"],"categories":["Dessert Shops"]},{"id":"dessertsRestaurants_632e9113067f","slug":"mike-632e","kind":"restaurant","name":"ΜΙΚΕ","lat":38.023677794017026,"lng":23.786751421962965,"url":"https://maps.app.goo.gl/V5DcUdgiwebZo8JS6?g_st=ipc","address":"Καλλιγά 31, Φιλοθέη 152 37","categoryIds":["desserts"],"categories":["Dessert Shops"]},{"id":"dessertsRestaurants_8bed364f6d2d","slug":"solo-gelato-chalandri-8bed","kind":"restaurant","name":"Solo Gelato Chalandri","lat":38.01968693370907,"lng":23.79741986314135,"url":"https://maps.app.goo.gl/VbYTpPhNsegGr8sa6?g_st=ipc","address":"Ανδρέα Παπανδρέου 44, Χαλάνδρι 152 32","categoryIds":["desserts"],"categories":["Dessert Shops"]},{"id":"dessertsRestaurants_babd3d2ca062","slug":"evita-loves-cakes-babd","kind":"restaurant","name":"Evita Loves Cakes","lat":38.0200138607173,"lng":23.79854862190682,"url":"https://maps.app.goo.gl/uPYrT5Fyo6EZTYdv7?g_st=ipc","address":"Καραολη Δημήτριου 23A, Χαλάνδρι 152 32","categoryIds":["desserts"],"categories":["Dessert Shops"]},{"id":"dessertsRestaurants_1340f4510458","slug":"terkenlis-chalandri-1340","kind":"restaurant","name":"Τερκενλής Χαλάνδρι","lat":38.017510768826554,"lng":23.80115941464693,"url":"https://maps.app.goo.gl/KH7YfmY3KwdAXppf7?g_st=ipc","address":"Παπανικολή 100, Χαλάνδρι 152 32","categoryIds":["desserts"],"categories":["Dessert Shops"]},{"id":"dessertsRestaurants_c2edf21ae9fe","slug":"choureal-choux-profiterole-c2ed","kind":"restaurant","name":"CHOUREAL - Choux & Profiterole","lat":38.02110578860944,"lng":23.7987271310142,"url":"https://maps.app.goo.gl/y6r478JecsCWC6aR6?g_st=ipc","address":"Ιφικράτους 2, Χαλάνδρι 152 32","categoryIds":["desserts"],"categories":["Dessert Shops"]},{"id":"dessertsRestaurants_0c24728d84f7","slug":"zacharoplasteia-konstantinidis-0c24","kind":"restaurant","name":"Ζαχαροπλαστεία Κωνσταντινίδης","lat":37.994489109318636,"lng":23.768109247569534,"url":"https://maps.app.goo.gl/KRDBFxECZQJmykCB8?g_st=ipc","address":"Λεωφ. Κηφισίας 116, Αθήνα 115 26","categoryIds":["desserts"],"categories":["Dessert Shops"]}],"nearby":[{"id":"italianRestaurants_11b5c7ddc2cb","slug":"lolita-s-athens-11b5","kind":"restaurant","name":"Lolita's Athens","lat":38.00900399306317,"lng":23.779848762939032,"url":"https://maps.app.goo.gl/yBBC5XtbjE87q2fEA?g_st=ipc","address":"Λεωφ. Κηφισίας 340, Νέο Ψυχικό 154 51","categoryIds":["italian","luxury-dining"],"categories":["Italian Restaurants","Luxury Dining"],"legacySlugs":["lolita-s-athens-c233"],"distanceKm":0.12135757270892635},{"id":"dessertsRestaurants_578f4bf4ed9c","slug":"dimitris-economides-athens-578f","kind":"restaurant","name":"Dimitris Economides Athens","lat":38.008931143721306,"lng":23.779615664170734,"url":"https://maps.app.goo.gl/wRvmhWMFJRUQ21b49?g_st=ipc","address":"Λεωφ. Κηφισίας 340, Νέο Ψυχικό 154 51","categoryIds":["desserts","luxury-dining"],"categories":["Dessert Shops","Luxury Dining"],"legacySlugs":["dimitris-economides-athens-e53f"],"distanceKm":0.14296124402883015},{"id":"coffeeBrunchRestaurants_7101d26f85dd","slug":"montakioy-neo-psychiko-7101","kind":"restaurant","name":"ΜΟΝΤΑΚΙΟΥ - ΝΕΟ ΨΥΧΙΚΟ","lat":38.00899356630051,"lng":23.779485267398293,"url":"https://maps.app.goo.gl/e75yZ6CbqLTXVusq7?g_st=ipc","address":"Λεωφ. Κηφισίας 340, Νέο Ψυχικό 154 51","categoryIds":["coffee-brunch"],"categories":["Coffee & Brunch Spots"],"distanceKm":0.14959182789377465},{"id":"greekRestaurants_f0ef65b37af1","slug":"klimataria-f0ef","kind":"restaurant","name":"Κληματαριά","lat":38.00778653011235,"lng":23.78331764900774,"url":"https://maps.app.goo.gl/KjvZHvC6ghfyBWSu9?g_st=ipc","address":"Κωστή Παλαμά 29, Νέο Ψυχικό 154 51","categoryIds":["greek-restaurants"],"categories":["Greek Restaurants"],"distanceKm":0.28543578165486255},{"id":"fishTavernasRestaurants_bdb6fa732eec","slug":"foititis-bdb6","kind":"restaurant","name":"Φοιτητής","lat":38.00738588877098,"lng":23.783442614729104,"url":"https://maps.app.goo.gl/abzrUsQsRH3gKTL2A?g_st=ipc","address":"Θεμιστοκλέους 72-74, Νέο Ψυχικό 154 51","categoryIds":["fish-tavernas"],"categories":["Fish Tavernas"],"distanceKm":0.32551344383021846},{"id":"mexicanRestaurants_9da2b83be820","slug":"sanchez-athens-9da2","kind":"restaurant","name":"Sanchez Athens","lat":38.007276659968724,"lng":23.777915941580243,"url":"https://maps.app.goo.gl/kDVM5wdPB9hfwk4G6?g_st=ipc","address":"Ολυμπιονικών 310, Νέο Ψυχικό 154 51","categoryIds":["mexican"],"categories":["Mexican Restaurants"],"distanceKm":0.37438188104229525},{"id":"asianRestaurants_01f6cf956e90","slug":"hachiko-sushi-tales-cocktails-psychiko-01f6","kind":"restaurant","name":"Hachikō Sushi Tales & Cocktails Psychiko","lat":38.0061489322681,"lng":23.777100959451648,"url":"https://maps.app.goo.gl/zRs2QPwRWoXnA8cn9","address":"Olimpionikon 280, Neo Psichiko 154 51","categoryIds":["asian"],"categories":["Asian Restaurants"],"distanceKm":0.5142532690994729},{"id":"familyFriendly_b5558184750b","slug":"metalinou-playground-b555","kind":"restaurant","name":"Metalinou Playground","lat":38.011973755180826,"lng":23.77490238579276,"url":"https://maps.app.goo.gl/g4fD4H23t9pWgjgeA?g_st=ic","address":"Al. Papanastasiou 51, Psichiko 154 52","categoryIds":["family-friendly"],"categories":["Kid Friendly Locations"],"distanceKm":0.5967268505541591},{"id":"cheapEatsRestaurants_6fffd649c703","slug":"ta-soyvlakia-tis-lilas-6fff","kind":"restaurant","name":"Τα Σουβλάκια της Λίλας","lat":38.005272385766645,"lng":23.785280918308118,"url":"https://maps.app.goo.gl/47M2HP8TwbyX2Zp37?g_st=ipc","address":"25ης Μαρτίου 41, Νέο Ψυχικό 154 51","categoryIds":["cheap-eats"],"categories":["Gyros & Cheap Eats"],"distanceKm":0.6094511634990177},{"id":"italianRestaurants_ec803e4a09b8","slug":"etien-pizza-bar-ec80","kind":"restaurant","name":"Etien Pizza Bar","lat":38.00546047638011,"lng":23.78575711022555,"url":"https://maps.app.goo.gl/fXUuPjTevur2Va5m8?g_st=ipc","address":"25ης Μαρτίου 28, Νέο Ψυχικό 154 51","categoryIds":["italian"],"categories":["Italian Restaurants"],"distanceKm":0.6202478521423892},{"id":"asianRestaurants_03f354f3f469","slug":"gaku-sushi-izakaya-chalandri-03f3","kind":"restaurant","name":"GAKU Sushi Izakaya @ Chalandri","lat":38.01448829662791,"lng":23.785099711916384,"url":"https://maps.app.goo.gl/yx3uezXR3ayTjVvq7?g_st=ipc","address":"Likourgou 4, Chalandri 152 31","categoryIds":["asian"],"categories":["Asian Restaurants"],"distanceKm":0.6511267018039041},{"id":"italianRestaurants_6c7a694e9681","slug":"kentrina-6c7a","kind":"restaurant","name":"Kentrina","lat":38.013966629254554,"lng":23.786077267676728,"url":"https://maps.app.goo.gl/3jtSyfSCsogG92777?g_st=ipc","address":"Likourgou, Chalandri 152 31","categoryIds":["italian"],"categories":["Italian Restaurants"],"distanceKm":0.657995007662644},{"id":"burgersRestaurants_969f5f3e5d25","slug":"epos-burgers-chalandri-969f","kind":"restaurant","name":"Epos Burgers Chalandri","lat":38.01470688255288,"lng":23.784829615365847,"url":"https://maps.app.goo.gl/ZLd7Ph3tX8QHQZiq8?g_st=ic","address":"Likourgou 2, Chalandri 152 31","categoryIds":["burgers"],"categories":["Burger Spots"],"distanceKm":0.6592348527320514},{"id":"italianRestaurants_9ab88b8b6007","slug":"innamorata-9ab8","kind":"restaurant","name":"Innamorata","lat":38.01461502802222,"lng":23.785308731358,"url":"https://maps.app.goo.gl/6pHzTzWoidEixrLw8?g_st=ipc","address":"Likourgou 5Α, Chalandri 152 31","categoryIds":["italian","luxury-dining"],"categories":["Italian Restaurants","Luxury Dining"],"legacySlugs":["innamorata-4f87"],"distanceKm":0.6730114381902828},{"id":"burgersRestaurants_709666ea6902","slug":"akoko-athens-7096","kind":"restaurant","name":"Akoko Athens","lat":38.00485425312051,"lng":23.776133914107284,"url":"https://maps.app.goo.gl/bo55c6wZEvkSgiHn7?g_st=ipc","address":"Σολωμού 1, Νέο Ψυχικό 154 51","categoryIds":["burgers"],"categories":["Burger Spots"],"distanceKm":0.6788580160384982},{"id":"burgersRestaurants_d3fef77d7e5b","slug":"the-burger-joint-d3fe","kind":"restaurant","name":"The Burger Joint","lat":38.00432835767844,"lng":23.776577706406886,"url":"https://maps.app.goo.gl/zX4seBG8wnwkkKZo6?g_st=ipc","address":"Σολωμού 4, Νέο Ψυχικό 154 51","categoryIds":["burgers"],"categories":["Burger Spots"],"distanceKm":0.7030342700524723},{"id":"dessertsRestaurants_c99ab06196ae","slug":"carpo-psychiko-c99a","kind":"restaurant","name":"carpo psychiko","lat":38.00433299399579,"lng":23.77588410102084,"url":"https://maps.app.goo.gl/cHiF8braV8253FBP6?g_st=ipc","address":"Dim. Vasiliou 1, Neo Psichiko 154 51","categoryIds":["desserts"],"categories":["Dessert Shops"],"distanceKm":0.7379338237728007},{"id":"dessertsRestaurants_b43c17b9e94d","slug":"le-greche-neo-psychiko-b43c","kind":"restaurant","name":"Le Greche NEO Psychiko","lat":38.00380450511544,"lng":23.775289515752554,"url":"https://maps.app.goo.gl/hRu6XR8fQTV8oMCF6?g_st=ipc","address":"Λυκούργου 2, Νέο Ψυχικό 154 51","categoryIds":["desserts"],"categories":["Dessert Shops"],"distanceKm":0.8162875596029806},{"id":"asianRestaurants_7aa0cb0c0f53","slug":"sister-7aa0","kind":"restaurant","name":"Sister","lat":38.003216085112086,"lng":23.7757633660399,"url":"https://maps.app.goo.gl/kRDH6Sdii2eyeoRw9?g_st=ipc","address":"Περικλέους 11, Νέο Ψυχικό 154 51","categoryIds":["asian"],"categories":["Asian Restaurants"],"distanceKm":0.8455914271732758},{"id":"mexicanRestaurants_2a24bc59bf5a","slug":"casa-mexicana-2a24","kind":"restaurant","name":"Casa Mexicana","lat":38.00238200041886,"lng":23.77636430613833,"url":"https://maps.app.goo.gl/hZssyRcz7Rfft2mi6?g_st=ipc","address":"Δημ. Βασιλείου 16, Νέο Ψυχικό 154 51","categoryIds":["mexican"],"categories":["Mexican Restaurants"],"distanceKm":0.8997996613625076},{"id":"vegetarianRestaurants_1656162d68e6","slug":"the-sweet-lab-1656","kind":"restaurant","name":"Τhe Sweet Lab","lat":38.002062661373884,"lng":23.785233324910163,"url":"https://maps.app.goo.gl/Zb8o7YTUmMMx7EVx8?g_st=ipc","address":"Λεωφ. Δημοκρατίας 81, Kapodistriou 1, Athina 154 51","categoryIds":["vegetarian"],"categories":["Vegetarian Friendly Restaurants"],"distanceKm":0.9160267668377502},{"id":"dessertsRestaurants_44539c96154c","slug":"katamaya-sweet-savory-4453","kind":"restaurant","name":"Katamaya Sweet & Savory","lat":38.001728655646296,"lng":23.776605222448108,"url":"https://maps.app.goo.gl/d4khgseTBK8h5W1MA?g_st=ipc","address":"Δημ. Βασιλείου 20, Ψυχικό 154 51","categoryIds":["desserts"],"categories":["Dessert Shops"],"distanceKm":0.9564389888968199},{"id":"coffeeBrunchRestaurants_3bc65dffef91","slug":"hide-seek-all-day-bar-restaurant-3bc6","kind":"restaurant","name":"Hide & Seek - All day bar restaurant","lat":38.01697332433943,"lng":23.786770693061168,"url":"https://maps.app.goo.gl/6jRQwexkVc3z2pR59?g_st=ipc","address":"Λεωφ. Κηφισίας 254, Χαλάνδρι 152 31","categoryIds":["coffee-brunch"],"categories":["Coffee & Brunch Spots"],"distanceKm":0.962865495934316},{"id":"cheapEatsRestaurants_1dedf7a650a7","slug":"pita-pan-psychiko-1ded","kind":"restaurant","name":"Πίτα Παν Ψυχικό","lat":38.000864793942334,"lng":23.776520342405362,"url":"https://maps.app.goo.gl/ZXh8jCZFq67QiKQq7?g_st=ipc","address":"Αγγέλου Σικελιανού 28, Νέο Ψυχικό 154 51","categoryIds":["cheap-eats"],"categories":["Gyros & Cheap Eats"],"distanceKm":1.047817404058295}],"sameRegion":[],"mentionedGuides":[],"canonicalSlug":"athina-kon-bdb8","isCanonicalEntity":true,"enrichment":{"summary_en":"ΑΘΗΝΑΪΚΟΝ is a curated restaurant in Νέο Ψυχικό 154 51 in the Dessert Shops collection. It is connected to 17 nearby Googlementor picks to help travelers build a stronger local route.","summary_el":"ΑΘΗΝΑΪΚΟΝ είναι ένα επιλεγμένο σημείο φαγητού στην περιοχή Νέο Ψυχικό 154 51 και ανήκει στη συλλογή Dessert Shops. Συνδέεται με 17 κοντινές προτάσεις του Googlementor για πιο ολοκληρωμένη εμπειρία.","vibe_tags":["curated","sweet-stop"],"best_for":["first-time visitors","food lovers"],"visit_moments":["afternoon break","after dinner"],"practical_note":"Address and direct map link are available for easy turn-by-turn access.","nearby_walkable_count":17,"nearby_count_2km":79,"confidence":0.98}},"__N_SSG":true}