{"pageProps":{"entity":{"id":"italianRestaurants_823bd134291f","slug":"barolo-athens-823b","kind":"restaurant","name":"Barolo Athens","lat":38.00586689220605,"lng":23.766484829557008,"url":"https://maps.app.goo.gl/q6hjeusYdDxNxDkB9","address":"Davaki 1, Psichiko 154 52","categoryIds":["italian"],"categories":["Italian Restaurants"]},"sameCategory":[{"id":"italianRestaurants_fbd799de8573","slug":"parlo-restaurant-fbd7","kind":"restaurant","name":"Parlo Restaurant","lat":37.99920315769846,"lng":23.772042235397578,"url":"https://maps.app.goo.gl/x9LunWYHnZkLF3B68?g_st=ipc","address":"Αδριανείου 25Α, Αθήνα 115 25","categoryIds":["italian"],"categories":["Italian Restaurants"]},{"id":"italianRestaurants_239ca6b05a02","slug":"tale-koyale-239c","kind":"restaurant","name":"ΤΑΛΕ ΚΟΥΑΛΕ","lat":37.998832186045824,"lng":23.771946797243086,"url":"https://maps.app.goo.gl/yxs9qh1QSGqVTa1R6?g_st=ipc","address":"Αδριανείου 20, Αθήνα 115 25","categoryIds":["italian"],"categories":["Italian Restaurants"]},{"id":"italianRestaurants_c18420cfda0e","slug":"pizzamore-c184","kind":"restaurant","name":"Pizzamore","lat":38.01171283477954,"lng":23.755383909223237,"url":"https://maps.app.goo.gl/kYHyarXW2TAM2VEr9?g_st=ipc","address":"Πρωτοπαπαδάκη 20, Γαλάτσι 111 47","categoryIds":["italian"],"categories":["Italian Restaurants"]},{"id":"italianRestaurants_11b5c7ddc2cb","slug":"lolita-s-athens-11b5","kind":"restaurant","name":"Lolita's Athens","lat":38.00900399306317,"lng":23.779848762939032,"url":"https://maps.app.goo.gl/yBBC5XtbjE87q2fEA?g_st=ipc","address":"Λεωφ. Κηφισίας 340, Νέο Ψυχικό 154 51","categoryIds":["italian","luxury-dining"],"categories":["Italian Restaurants","Luxury Dining"],"legacySlugs":["lolita-s-athens-c233"]},{"id":"italianRestaurants_ec803e4a09b8","slug":"etien-pizza-bar-ec80","kind":"restaurant","name":"Etien Pizza Bar","lat":38.00546047638011,"lng":23.78575711022555,"url":"https://maps.app.goo.gl/fXUuPjTevur2Va5m8?g_st=ipc","address":"25ης Μαρτίου 28, Νέο Ψυχικό 154 51","categoryIds":["italian"],"categories":["Italian Restaurants"]},{"id":"italianRestaurants_9ab88b8b6007","slug":"innamorata-9ab8","kind":"restaurant","name":"Innamorata","lat":38.01461502802222,"lng":23.785308731358,"url":"https://maps.app.goo.gl/6pHzTzWoidEixrLw8?g_st=ipc","address":"Likourgou 5Α, Chalandri 152 31","categoryIds":["italian","luxury-dining"],"categories":["Italian Restaurants","Luxury Dining"],"legacySlugs":["innamorata-4f87"]},{"id":"italianRestaurants_6c7a694e9681","slug":"kentrina-6c7a","kind":"restaurant","name":"Kentrina","lat":38.013966629254554,"lng":23.786077267676728,"url":"https://maps.app.goo.gl/3jtSyfSCsogG92777?g_st=ipc","address":"Likourgou, Chalandri 152 31","categoryIds":["italian"],"categories":["Italian Restaurants"]},{"id":"italianRestaurants_9807c76fa027","slug":"kamikaze-9807","kind":"restaurant","name":"KAMIKAZE","lat":38.0243124367211,"lng":23.753568534514113,"url":"https://maps.app.goo.gl/nGW44VsbXXjFk6eF7?g_st=ipc","address":"Ναρκίσσου 34-36, Γαλάτσι 111 46","categoryIds":["italian"],"categories":["Italian Restaurants"]},{"id":"italianRestaurants_db8c50049699","slug":"pizzaiolo-db8c","kind":"restaurant","name":"pizzaiolo","lat":38.00035069734868,"lng":23.79281060180485,"url":"https://maps.app.goo.gl/KW1onnVwQCy1jQXk7?g_st=ipc","address":"Ασπασίας 63, Χολαργός 155 61","categoryIds":["italian"],"categories":["Italian Restaurants"]},{"id":"italianRestaurants_fee68a36e757","slug":"lisa-athens-fee6","kind":"restaurant","name":"Lisa Athens","lat":38.00121668798056,"lng":23.737030313370706,"url":"https://maps.app.goo.gl/eiXsobGt1KWweP7UA?g_st=ipc","address":"Φωκίωνος Νέγρη 25, Αθήνα 113 61","categoryIds":["italian"],"categories":["Italian Restaurants"]},{"id":"italianRestaurants_cc723f5b71ae","slug":"aperio-cucina-vino-cc72","kind":"restaurant","name":"Aperio cucina & vino","lat":38.00607265187326,"lng":23.797703238142986,"url":"https://maps.app.goo.gl/GkHg15eafgAV4fou5?g_st=ipc","address":"Μεσογείων 258, Χολαργός 155 61","categoryIds":["italian"],"categories":["Italian Restaurants"]},{"id":"italianRestaurants_9e93d0527186","slug":"casareccio-trattoria-pizzeria-9e93","kind":"restaurant","name":"Casareccio trattoria pizzeria","lat":37.995258640416544,"lng":23.796024502616564,"url":"https://maps.app.goo.gl/f357srheHFN2PfBk6?g_st=ipc","address":"Ξανθίππου 84, Χολαργός 155 61","categoryIds":["italian"],"categories":["Italian Restaurants"]}],"nearby":[{"id":"dessertsRestaurants_b43c17b9e94d","slug":"le-greche-neo-psychiko-b43c","kind":"restaurant","name":"Le Greche NEO Psychiko","lat":38.00380450511544,"lng":23.775289515752554,"url":"https://maps.app.goo.gl/hRu6XR8fQTV8oMCF6?g_st=ipc","address":"Λυκούργου 2, Νέο Ψυχικό 154 51","categoryIds":["desserts"],"categories":["Dessert Shops"],"distanceKm":0.8048050076011914},{"id":"dessertsRestaurants_c99ab06196ae","slug":"carpo-psychiko-c99a","kind":"restaurant","name":"carpo psychiko","lat":38.00433299399579,"lng":23.77588410102084,"url":"https://maps.app.goo.gl/cHiF8braV8253FBP6?g_st=ipc","address":"Dim. Vasiliou 1, Neo Psichiko 154 51","categoryIds":["desserts"],"categories":["Dessert Shops"],"distanceKm":0.8410102265793681},{"id":"burgersRestaurants_709666ea6902","slug":"akoko-athens-7096","kind":"restaurant","name":"Akoko Athens","lat":38.00485425312051,"lng":23.776133914107284,"url":"https://maps.app.goo.gl/bo55c6wZEvkSgiHn7?g_st=ipc","address":"Σολωμού 1, Νέο Ψυχικό 154 51","categoryIds":["burgers"],"categories":["Burger Spots"],"distanceKm":0.8528835763383169},{"id":"asianRestaurants_7aa0cb0c0f53","slug":"sister-7aa0","kind":"restaurant","name":"Sister","lat":38.003216085112086,"lng":23.7757633660399,"url":"https://maps.app.goo.gl/kRDH6Sdii2eyeoRw9?g_st=ipc","address":"Περικλέους 11, Νέο Ψυχικό 154 51","categoryIds":["asian"],"categories":["Asian Restaurants"],"distanceKm":0.8647466829657893},{"id":"dessertsRestaurants_69d8bc325b59","slug":"the-sweet-spot-69d8","kind":"restaurant","name":"The Sweet Spot","lat":38.000116106882906,"lng":23.77349448800709,"url":"https://maps.app.goo.gl/CH4eLFxcoxyVn5pM9?g_st=ipc","address":"Αδριανείου 46, Αθήνα 115 25","categoryIds":["desserts"],"categories":["Dessert Shops"],"distanceKm":0.886636802612736},{"id":"italianRestaurants_fbd799de8573","slug":"parlo-restaurant-fbd7","kind":"restaurant","name":"Parlo Restaurant","lat":37.99920315769846,"lng":23.772042235397578,"url":"https://maps.app.goo.gl/x9LunWYHnZkLF3B68?g_st=ipc","address":"Αδριανείου 25Α, Αθήνα 115 25","categoryIds":["italian"],"categories":["Italian Restaurants"],"distanceKm":0.8866515084817642},{"id":"burgersRestaurants_d3fef77d7e5b","slug":"the-burger-joint-d3fe","kind":"restaurant","name":"The Burger Joint","lat":38.00432835767844,"lng":23.776577706406886,"url":"https://maps.app.goo.gl/zX4seBG8wnwkkKZo6?g_st=ipc","address":"Σολωμού 4, Νέο Ψυχικό 154 51","categoryIds":["burgers"],"categories":["Burger Spots"],"distanceKm":0.9007008944256605},{"id":"italianRestaurants_239ca6b05a02","slug":"tale-koyale-239c","kind":"restaurant","name":"ΤΑΛΕ ΚΟΥΑΛΕ","lat":37.998832186045824,"lng":23.771946797243086,"url":"https://maps.app.goo.gl/yxs9qh1QSGqVTa1R6?g_st=ipc","address":"Αδριανείου 20, Αθήνα 115 25","categoryIds":["italian"],"categories":["Italian Restaurants"],"distanceKm":0.9170116101994364},{"id":"asianRestaurants_01f6cf956e90","slug":"hachiko-sushi-tales-cocktails-psychiko-01f6","kind":"restaurant","name":"Hachikō Sushi Tales & Cocktails Psychiko","lat":38.0061489322681,"lng":23.777100959451648,"url":"https://maps.app.goo.gl/zRs2QPwRWoXnA8cn9","address":"Olimpionikon 280, Neo Psichiko 154 51","categoryIds":["asian"],"categories":["Asian Restaurants"],"distanceKm":0.9306673474810322},{"id":"burgersRestaurants_2bbfe567ce4d","slug":"taz-smash-burger-2bbf","kind":"restaurant","name":"Taz Smash Burger","lat":37.9974813634221,"lng":23.768005845039937,"url":"https://maps.app.goo.gl/Ms7N2dUnnPDHDSW29?g_st=ipc","address":"Περικλή Σταύρου 3, Αθήνα 115 24","categoryIds":["burgers"],"categories":["Burger Spots"],"distanceKm":0.9419044746855904},{"id":"mexicanRestaurants_2a24bc59bf5a","slug":"casa-mexicana-2a24","kind":"restaurant","name":"Casa Mexicana","lat":38.00238200041886,"lng":23.77636430613833,"url":"https://maps.app.goo.gl/hZssyRcz7Rfft2mi6?g_st=ipc","address":"Δημ. Βασιλείου 16, Νέο Ψυχικό 154 51","categoryIds":["mexican"],"categories":["Mexican Restaurants"],"distanceKm":0.9483953504750551},{"id":"dessertsRestaurants_44539c96154c","slug":"katamaya-sweet-savory-4453","kind":"restaurant","name":"Katamaya Sweet & Savory","lat":38.001728655646296,"lng":23.776605222448108,"url":"https://maps.app.goo.gl/d4khgseTBK8h5W1MA?g_st=ipc","address":"Δημ. Βασιλείου 20, Ψυχικό 154 51","categoryIds":["desserts"],"categories":["Dessert Shops"],"distanceKm":0.9990150694524267},{"id":"familyFriendly_b5558184750b","slug":"metalinou-playground-b555","kind":"restaurant","name":"Metalinou Playground","lat":38.011973755180826,"lng":23.77490238579276,"url":"https://maps.app.goo.gl/g4fD4H23t9pWgjgeA?g_st=ic","address":"Al. Papanastasiou 51, Psichiko 154 52","categoryIds":["family-friendly"],"categories":["Kid Friendly Locations"],"distanceKm":1.0024912797148708},{"id":"mexicanRestaurants_9da2b83be820","slug":"sanchez-athens-9da2","kind":"restaurant","name":"Sanchez Athens","lat":38.007276659968724,"lng":23.777915941580243,"url":"https://maps.app.goo.gl/kDVM5wdPB9hfwk4G6?g_st=ipc","address":"Ολυμπιονικών 310, Νέο Ψυχικό 154 51","categoryIds":["mexican"],"categories":["Mexican Restaurants"],"distanceKm":1.013729874238169},{"id":"cheapEatsRestaurants_1dedf7a650a7","slug":"pita-pan-psychiko-1ded","kind":"restaurant","name":"Πίτα Παν Ψυχικό","lat":38.000864793942334,"lng":23.776520342405362,"url":"https://maps.app.goo.gl/ZXh8jCZFq67QiKQq7?g_st=ipc","address":"Αγγέλου Σικελιανού 28, Νέο Ψυχικό 154 51","categoryIds":["cheap-eats"],"categories":["Gyros & Cheap Eats"],"distanceKm":1.0404492469130622},{"id":"familyFriendly_3f48a5ea582b","slug":"gymboree-play-music-neo-psychiko-3f48","kind":"restaurant","name":"Gymboree Play & Music ΝΕΟ Ψυχικό","lat":38.00040956605857,"lng":23.77746842451767,"url":"https://maps.app.goo.gl/YhbenTKqVr5zHZrSA?g_st=ipc","address":"Γρ. Ξενόπουλου 3Α, Νέο Ψυχικό 154 51","categoryIds":["family-friendly"],"categories":["Kid Friendly Locations"],"distanceKm":1.1377166209304643},{"id":"cheapEatsRestaurants_6a4147d64308","slug":"klassikon-6a41","kind":"restaurant","name":"Κλασσικόν","lat":37.99808496466343,"lng":23.757900577588526,"url":"https://maps.app.goo.gl/RXpLLpBphHc6FhZD9?g_st=ipc","address":"Μητροπέτροβα 32, Αθήνα 114 76","categoryIds":["cheap-eats"],"categories":["Gyros & Cheap Eats"],"distanceKm":1.1465170721060558},{"id":"asianRestaurants_49017a334068","slug":"the-sushi-bar-4901","kind":"restaurant","name":"The Sushi Bar","lat":37.99837454773829,"lng":23.77552075939677,"url":"https://maps.app.goo.gl/US8MP4C24AbbzMtL9","address":"Geor. Vlachou 38, Athina 115 25","categoryIds":["asian"],"categories":["Asian Restaurants"],"distanceKm":1.149308792721579},{"id":"fishTavernasRestaurants_b281006b20df","slug":"kafeneio-oyzeri-lesvion-b281","kind":"restaurant","name":"Καφενείο Ουζερί Λέσβιον","lat":38.008048120056024,"lng":23.753608668653317,"url":"https://maps.app.goo.gl/RoRVKdrKmqxNRkrs5?g_st=ipc","address":"Βαρδουσίων 3, Γαλάτσι 111 47","categoryIds":["fish-tavernas"],"categories":["Fish Tavernas"],"distanceKm":1.1539160085109152},{"id":"italianRestaurants_c18420cfda0e","slug":"pizzamore-c184","kind":"restaurant","name":"Pizzamore","lat":38.01171283477954,"lng":23.755383909223237,"url":"https://maps.app.goo.gl/kYHyarXW2TAM2VEr9?g_st=ipc","address":"Πρωτοπαπαδάκη 20, Γαλάτσι 111 47","categoryIds":["italian"],"categories":["Italian Restaurants"],"distanceKm":1.1698107197814096},{"id":"cheapEatsRestaurants_0022a0eff11e","slug":"koytroylis-0022","kind":"restaurant","name":"ΚΟΥΤΡΟΥΛΗΣ","lat":37.99585400563359,"lng":23.762177083127305,"url":"https://maps.app.goo.gl/xGhyT1vrgFSKodic9?g_st=ipc","address":"Βαρνακιώτη 4, Αθήνα 115 24","categoryIds":["cheap-eats"],"categories":["Gyros & Cheap Eats"],"distanceKm":1.1756233172673678},{"id":"coffeeBrunchRestaurants_7101d26f85dd","slug":"montakioy-neo-psychiko-7101","kind":"restaurant","name":"ΜΟΝΤΑΚΙΟΥ - ΝΕΟ ΨΥΧΙΚΟ","lat":38.00899356630051,"lng":23.779485267398293,"url":"https://maps.app.goo.gl/e75yZ6CbqLTXVusq7?g_st=ipc","address":"Λεωφ. Κηφισίας 340, Νέο Ψυχικό 154 51","categoryIds":["coffee-brunch"],"categories":["Coffee & Brunch Spots"],"distanceKm":1.1908986637728753},{"id":"dessertsRestaurants_578f4bf4ed9c","slug":"dimitris-economides-athens-578f","kind":"restaurant","name":"Dimitris Economides Athens","lat":38.008931143721306,"lng":23.779615664170734,"url":"https://maps.app.goo.gl/wRvmhWMFJRUQ21b49?g_st=ipc","address":"Λεωφ. Κηφισίας 340, Νέο Ψυχικό 154 51","categoryIds":["desserts","luxury-dining"],"categories":["Dessert Shops","Luxury Dining"],"legacySlugs":["dimitris-economides-athens-e53f"],"distanceKm":1.1998410977941805},{"id":"dessertsRestaurants_6128b9a38565","slug":"zante-6128","kind":"restaurant","name":"Zante","lat":38.01329808317404,"lng":23.75625779357789,"url":"https://maps.app.goo.gl/vdA9XUPFa7M3vbdi7?g_st=ipc","address":"Ελ. Βενιζέλου 21, Γαλάτσι 111 47","categoryIds":["desserts"],"categories":["Dessert Shops"],"distanceKm":1.2188573801248854}],"sameRegion":[],"mentionedGuides":[{"slug":"tap-water-safe-greece-el","title":"Είναι Ασφαλές να Πίνετε Νερό Βρύσης στην Ελλάδα;"},{"slug":"tap-water-safe-greece","title":"Is Tap Water Safe to Drink in Greece?"},{"slug":"traveling-to-greece-on-a-budget-el","title":"Ταξιδι στην Ελλαδα με μικρο budget"},{"slug":"traveling-to-greece-on-a-budget","title":"Traveling to Greece on a Budget"}],"canonicalSlug":"barolo-athens-823b","isCanonicalEntity":true,"enrichment":{"summary_en":"Barolo Athens is a curated restaurant in Psichiko 154 52 in the Italian Restaurants collection. It is connected to 0 nearby Googlementor picks to help travelers build a stronger local route.","summary_el":"Barolo Athens είναι ένα επιλεγμένο σημείο φαγητού στην περιοχή Psichiko 154 52 και ανήκει στη συλλογή Italian Restaurants. Συνδέεται με 0 κοντινές προτάσεις του Googlementor για πιο ολοκληρωμένη εμπειρία.","vibe_tags":["curated"],"best_for":["first-time visitors","food lovers"],"visit_moments":["lunch stop","dinner stop"],"practical_note":"Address and direct map link are available for easy turn-by-turn access.","nearby_walkable_count":0,"nearby_count_2km":69,"confidence":0.9}},"__N_SSG":true}