{"pageProps":{"entity":{"id":"luxuryDiningRestaurants_1ddd2e5b1131","slug":"botrini-s-restaurant-mykonos-1ddd","kind":"restaurant","name":"Botrini's Restaurant Mykonos","lat":37.42357245673207,"lng":25.30823643743267,"url":"https://maps.app.goo.gl/ZQF2Z95MsiUa9YY38?g_st=ipc","address":"Agios Ioannis Mykonos, Cyclades, 846 00","categoryIds":["luxury-dining"],"categories":["Luxury Dining"]},"sameCategory":[{"id":"fishTavernasRestaurants_f0d4e1537e1b","slug":"hippie-fish-mykonos-f0d4","kind":"restaurant","name":"Hippie Fish Mykonos","lat":37.4216168444124,"lng":25.3115215810695,"url":"https://maps.app.goo.gl/P1ey2vdmerWsiMqXA?g_st=ipc","address":"Agios Ioannis, Mikonos 846 00","categoryIds":["fish-tavernas","luxury-dining"],"categories":["Fish Tavernas","Luxury Dining"],"legacySlugs":["hippie-fish-mykonos-d24a"]},{"id":"luxuryDiningRestaurants_137cd7d1e18b","slug":"yevo-by-bill-coo-mykonos-137c","kind":"restaurant","name":"YĒVO By Bill&Coo Mykonos","lat":37.43758072227673,"lng":25.32795511521471,"url":"https://maps.app.goo.gl/dgiE2BaNVt8Jhb1F6?g_st=ipc","address":"Μεγάλη Άμμος, Mikonos 846 00","categoryIds":["luxury-dining"],"categories":["Luxury Dining"]},{"id":"luxuryDiningRestaurants_0e975a4fcafc","slug":"baos-greek-restaurant-0e97","kind":"restaurant","name":"BAOS Greek Restaurant","lat":37.43694847921598,"lng":25.32914124723638,"url":"https://maps.app.goo.gl/BQon51NoPRn4CLnY6?g_st=ipc","address":"Myconian Korali Mykonos Town, Mikonos 846 00","categoryIds":["luxury-dining"],"categories":["Luxury Dining"]},{"id":"asianRestaurants_5d69fac12c7f","slug":"tokyo-joe-mykonos-5d69","kind":"restaurant","name":"Tokyo Joe Mykonos","lat":37.43430209897853,"lng":25.33164889840815,"url":"https://maps.app.goo.gl/SbcxFuCJ6NAhCk248?g_st=ipc","address":"Ano Vrisi, My Mall, Mikonos 846 00","categoryIds":["asian","luxury-dining"],"categories":["Asian Restaurants","Luxury Dining"],"legacySlugs":["tokyo-joe-mykonos-5522"]},{"id":"luxuryDiningRestaurants_ed9cd1741842","slug":"matsuhisa-mykonos-ed9c","kind":"restaurant","name":"Matsuhisa Mykonos","lat":37.44329085125445,"lng":25.330097754352987,"url":"https://maps.app.goo.gl/WTcgX6M9Jp2R7YGdA?g_st=ipc","address":"Belvedere Hotel School of Fine Arts District, Agiou Ioannou 1, Mikonos 846 00","categoryIds":["luxury-dining"],"categories":["Luxury Dining"]},{"id":"luxuryDiningRestaurants_864249c0b1ea","slug":"lio-mykonos-8642","kind":"restaurant","name":"Lío Mykonos","lat":37.44500603308255,"lng":25.32823624391178,"url":"https://maps.app.goo.gl/hS1c8JjDNAyUufSc6?g_st=ipc","address":"Enoplon Dinameon 6, Mikonos 846 00","categoryIds":["luxury-dining"],"categories":["Luxury Dining"]},{"id":"luxuryDiningRestaurants_dad780fcff6d","slug":"interni-restaurant-dad7","kind":"restaurant","name":"Interni Restaurant","lat":37.44559204956145,"lng":25.328710304133274,"url":"https://maps.app.goo.gl/x3D3HYwjgPTE7gGp6?g_st=ipc","address":"Matogianni, Mikonos 846 00","categoryIds":["luxury-dining"],"categories":["Luxury Dining"]},{"id":"luxuryDiningRestaurants_acb4788667d5","slug":"noema-acb4","kind":"restaurant","name":"Noema","lat":37.44557471142449,"lng":25.32948165492457,"url":"https://maps.app.goo.gl/Zjd8gVv5zkQ4UZxa9?g_st=ipc","address":"Panachra, Mikonos 846 00","categoryIds":["luxury-dining"],"categories":["Luxury Dining"]},{"id":"luxuryDiningRestaurants_cc0b0cabfb61","slug":"drakoulis-dry-raw-mykonos-cc0b","kind":"restaurant","name":"Drakoulis Dry & Raw Mykonos","lat":37.447121066093636,"lng":25.329034852890235,"url":"https://maps.app.goo.gl/K5Lrunurc26by6vJ6?g_st=ipc","address":"Mykonos 846 00","categoryIds":["luxury-dining"],"categories":["Luxury Dining"]},{"id":"luxuryDiningRestaurants_1500d9d46225","slug":"scorpios-1500","kind":"restaurant","name":"Scorpios","lat":37.40690634816725,"lng":25.347629445529506,"url":"https://maps.app.goo.gl/BWoH4D79nkxuwHvt9?g_st=ipc","address":"Paraga, Mikonos 846 00","categoryIds":["luxury-dining"],"categories":["Luxury Dining"]},{"id":"luxuryDiningRestaurants_60ad37649fda","slug":"principote-mykonos-60ad","kind":"restaurant","name":"Principote Mykonos","lat":37.47661163546428,"lng":25.359897401386203,"url":"https://maps.app.goo.gl/Ru8EWbLUas6Xvf7K9?g_st=ipc","address":"Panormos Beach, Mikonos 846 00","categoryIds":["luxury-dining"],"categories":["Luxury Dining"]},{"id":"luxuryDiningRestaurants_68f1019ed7a6","slug":"cabbanes-mykonos-68f1","kind":"restaurant","name":"Cabbanes Mykonos","lat":37.42267215380325,"lng":25.39444539705876,"url":"https://maps.app.goo.gl/dn2BSTCZPyK4NYU26?g_st=ipc","address":"Elia Beach, Mikonos 846 00","categoryIds":["luxury-dining"],"categories":["Luxury Dining"]}],"nearby":[{"id":"fishTavernasRestaurants_f0d4e1537e1b","slug":"hippie-fish-mykonos-f0d4","kind":"restaurant","name":"Hippie Fish Mykonos","lat":37.4216168444124,"lng":25.3115215810695,"url":"https://maps.app.goo.gl/P1ey2vdmerWsiMqXA?g_st=ipc","address":"Agios Ioannis, Mikonos 846 00","categoryIds":["fish-tavernas","luxury-dining"],"categories":["Fish Tavernas","Luxury Dining"],"legacySlugs":["hippie-fish-mykonos-d24a"],"distanceKm":0.3625567044614449},{"id":"greekRestaurants_566686612459","slug":"to-apomero-5666","kind":"restaurant","name":"To Apomero","lat":37.42477406853952,"lng":25.32149373228756,"url":"https://maps.app.goo.gl/4yepbmXBXgqmqxi48?g_st=ipc","address":"Ορνός 846 00","categoryIds":["greek-restaurants"],"categories":["Greek Restaurants"],"distanceKm":1.1783036362346477},{"id":"coffeeBrunchRestaurants_8a37a705164c","slug":"ola-mykonos-breakfast-tacos-cocktails-8a37","kind":"restaurant","name":"Ola Mykonos - Breakfast, Tacos, Cocktails","lat":37.42580212278426,"lng":25.322386656781635,"url":"https://maps.app.goo.gl/HfixfBMZYH8oTEGWA?g_st=ipc","address":"Korfos Beach, Mikonos 846 00","categoryIds":["coffee-brunch"],"categories":["Coffee & Brunch Spots"],"distanceKm":1.2739047118043623},{"id":"italianRestaurants_519a6524c076","slug":"farina-cucina-italiana-ornos-beach-519a","kind":"restaurant","name":"Farina Cucina Italiana Ornos Beach","lat":37.423083029478946,"lng":25.323628340986495,"url":"https://maps.app.goo.gl/M9VCoMv93LnDJZyTA?g_st=ipc","address":"Beach, Ornos 846 00","categoryIds":["italian"],"categories":["Italian Restaurants"],"distanceKm":1.360307594013986},{"id":"greekRestaurants_65a0b2970a3d","slug":"apaggio-restaurant-65a0","kind":"restaurant","name":"Apaggio Restaurant","lat":37.420283656696064,"lng":25.32646761589959,"url":"https://maps.app.goo.gl/UwjfqnkpvGWAV4zJ7?g_st=ipc","address":"Beach, BEFORE SANTA MARINA ENTRANCE, Ορνός 846 00","categoryIds":["greek-restaurants"],"categories":["Greek Restaurants"],"distanceKm":1.650988362659012},{"id":"italianRestaurants_26298b2afd51","slug":"sistina-mykonos-2629","kind":"restaurant","name":"Sistina Mykonos","lat":37.42270720054724,"lng":25.33392940009779,"url":"https://maps.app.goo.gl/jbVQZaFoXT3nCmEQ6?g_st=ipc","address":"Platis Gialos, Mikonos 846 00","categoryIds":["italian"],"categories":["Italian Restaurants"],"distanceKm":2.270922687435374},{"id":"greekRestaurants_d2f8ae2f57fa","slug":"lounda-pikantiki-gwnia-d2f8","kind":"restaurant","name":"Lounda Pikantiki Gwnia","lat":37.42680560196533,"lng":25.33370246443575,"url":"https://maps.app.goo.gl/QdG8cnBoWYdPGKcT8?g_st=ipc","address":"Unnamed Rd, Ψαρρού 846 00","categoryIds":["greek-restaurants"],"categories":["Greek Restaurants"],"distanceKm":2.277337775639254},{"id":"luxuryDiningRestaurants_137cd7d1e18b","slug":"yevo-by-bill-coo-mykonos-137c","kind":"restaurant","name":"YĒVO By Bill&Coo Mykonos","lat":37.43758072227673,"lng":25.32795511521471,"url":"https://maps.app.goo.gl/dgiE2BaNVt8Jhb1F6?g_st=ipc","address":"Μεγάλη Άμμος, Mikonos 846 00","categoryIds":["luxury-dining"],"categories":["Luxury Dining"],"distanceKm":2.336198190773651},{"id":"coffeeBrunchRestaurants_0c2a8fb81888","slug":"the-morning-table-0c2a","kind":"restaurant","name":"The Morning Table","lat":37.43394266189418,"lng":25.331625555430822,"url":"https://maps.app.goo.gl/kkRCE3TrjrxBPfbB7?g_st=ipc","address":"Vrysi, Mikonos 846 00","categoryIds":["coffee-brunch"],"categories":["Coffee & Brunch Spots"],"distanceKm":2.365388110358983},{"id":"luxuryDiningRestaurants_0e975a4fcafc","slug":"baos-greek-restaurant-0e97","kind":"restaurant","name":"BAOS Greek Restaurant","lat":37.43694847921598,"lng":25.32914124723638,"url":"https://maps.app.goo.gl/BQon51NoPRn4CLnY6?g_st=ipc","address":"Myconian Korali Mykonos Town, Mikonos 846 00","categoryIds":["luxury-dining"],"categories":["Luxury Dining"],"distanceKm":2.3705405776471933},{"id":"asianRestaurants_5d69fac12c7f","slug":"tokyo-joe-mykonos-5d69","kind":"restaurant","name":"Tokyo Joe Mykonos","lat":37.43430209897853,"lng":25.33164889840815,"url":"https://maps.app.goo.gl/SbcxFuCJ6NAhCk248?g_st=ipc","address":"Ano Vrisi, My Mall, Mikonos 846 00","categoryIds":["asian","luxury-dining"],"categories":["Asian Restaurants","Luxury Dining"],"legacySlugs":["tokyo-joe-mykonos-5522"],"distanceKm":2.3869081177838334},{"id":"mexicanRestaurants_9cdc9098224f","slug":"el-dorado-9cdc","kind":"restaurant","name":"El Dorado","lat":37.4384356377363,"lng":25.332482232008008,"url":"https://maps.app.goo.gl/Z4qdJprni1KMQm3YA?g_st=ipc","address":"Epar.Od. Mikonou, Mikonos 846 00","categoryIds":["mexican"],"categories":["Mexican Restaurants"],"distanceKm":2.704578532893146},{"id":"dessertsRestaurants_0d1a14ec5981","slug":"i-scream-homemade-ice-cream-cafe-0d1a","kind":"restaurant","name":"I SCREAM homemade ice cream-cafe","lat":37.443153733966156,"lng":25.32768461351495,"url":"https://maps.app.goo.gl/figeZhjJhW1w1WGh6?g_st=ipc","address":"20 Street Fabrica Sq, Xenias, Mikonos 846 00","categoryIds":["desserts"],"categories":["Dessert Shops"],"distanceKm":2.773001111885933},{"id":"italianRestaurants_abc3cc5c720d","slug":"d-angelo-abc3","kind":"restaurant","name":"D'Angelo","lat":37.44362332101064,"lng":25.32719398144958,"url":"https://maps.app.goo.gl/AvAZtykcYFB85kTp6?g_st=ipc","address":"Axioti, Mikonos 846 00","categoryIds":["italian"],"categories":["Italian Restaurants"],"distanceKm":2.7879605520088213},{"id":"asianRestaurants_db50748440dc","slug":"bambao-mykonos-db50","kind":"restaurant","name":"Bambao Mykonos","lat":37.44323173271624,"lng":25.328446119011353,"url":"https://maps.app.goo.gl/5qdrvDCYUmZRn2Jf6?g_st=ipc","address":"Fabrika, Mikonos 846 00","categoryIds":["asian"],"categories":["Asian Restaurants"],"distanceKm":2.8218460625908204},{"id":"greekRestaurants_b8d7854bf51f","slug":"nikos-gallop-restaurant-b8d7","kind":"restaurant","name":"Nikos Gallop Restaurant","lat":37.416901979165324,"lng":25.339315264425487,"url":"https://maps.app.goo.gl/naifPWfQpWokWye89?g_st=ipc","address":"Just between Platis Gialos and Psarou beaches On the way to Platys Gialos, Ψαρρού 846 00","categoryIds":["greek-restaurants"],"categories":["Greek Restaurants"],"distanceKm":2.8430613207466737},{"id":"coffeeBrunchRestaurants_ccfcae3739b1","slug":"the-liberty-breakfast-room-ccfc","kind":"restaurant","name":"The Liberty Breakfast Room","lat":37.44002249548534,"lng":25.33319976309242,"url":"https://maps.app.goo.gl/ytWHokwwmW4y1Baq5?g_st=ipc","address":"the liberty breakfast room, Mikonos 846 00","categoryIds":["coffee-brunch"],"categories":["Coffee & Brunch Spots"],"distanceKm":2.8643167600306363},{"id":"luxuryDiningRestaurants_ed9cd1741842","slug":"matsuhisa-mykonos-ed9c","kind":"restaurant","name":"Matsuhisa Mykonos","lat":37.44329085125445,"lng":25.330097754352987,"url":"https://maps.app.goo.gl/WTcgX6M9Jp2R7YGdA?g_st=ipc","address":"Belvedere Hotel School of Fine Arts District, Agiou Ioannou 1, Mikonos 846 00","categoryIds":["luxury-dining"],"categories":["Luxury Dining"],"distanceKm":2.9211837783820243},{"id":"dessertsRestaurants_fbeaff5bdac1","slug":"dopio-gelato-mykonos-fbea","kind":"restaurant","name":"Dopio Gelato Mykonos","lat":37.44519875814453,"lng":25.327173016826194,"url":"https://maps.app.goo.gl/Sp8BxDU518brNxns5?g_st=ipc","address":"Dopio Gelato Mykonos","categoryIds":["desserts"],"categories":["Dessert Shops"],"distanceKm":2.9288751065889946},{"id":"italianRestaurants_3ea0826fab26","slug":"casa-di-giorgio-mykonos-3ea0","kind":"restaurant","name":"Casa di Giorgio Mykonos","lat":37.44560651190884,"lng":25.326934720051547,"url":"https://maps.app.goo.gl/Cf4S8nv5DHQYNzkR7?g_st=ipc","address":"Mitropoleos 1, Hora 846 00","categoryIds":["italian"],"categories":["Italian Restaurants"],"distanceKm":2.9544029445101665},{"id":"luxuryDiningRestaurants_864249c0b1ea","slug":"lio-mykonos-8642","kind":"restaurant","name":"Lío Mykonos","lat":37.44500603308255,"lng":25.32823624391178,"url":"https://maps.app.goo.gl/hS1c8JjDNAyUufSc6?g_st=ipc","address":"Enoplon Dinameon 6, Mikonos 846 00","categoryIds":["luxury-dining"],"categories":["Luxury Dining"],"distanceKm":2.966217351543857},{"id":"luxuryDiningRestaurants_dad780fcff6d","slug":"interni-restaurant-dad7","kind":"restaurant","name":"Interni Restaurant","lat":37.44559204956145,"lng":25.328710304133274,"url":"https://maps.app.goo.gl/x3D3HYwjgPTE7gGp6?g_st=ipc","address":"Matogianni, Mikonos 846 00","categoryIds":["luxury-dining"],"categories":["Luxury Dining"],"distanceKm":3.0434926910344755},{"id":"fishTavernasRestaurants_08df03bfa4f6","slug":"to-maereio-08df","kind":"restaurant","name":"To Maereio","lat":37.44594592016657,"lng":25.32865488584039,"url":"https://maps.app.goo.gl/FeCit9aZLtZzL7DP8?g_st=ipc","address":"Ν, Kalogera 16, Mikonos 846 00","categoryIds":["fish-tavernas"],"categories":["Fish Tavernas"],"distanceKm":3.072360895020402},{"id":"luxuryDiningRestaurants_acb4788667d5","slug":"noema-acb4","kind":"restaurant","name":"Noema","lat":37.44557471142449,"lng":25.32948165492457,"url":"https://maps.app.goo.gl/Zjd8gVv5zkQ4UZxa9?g_st=ipc","address":"Panachra, Mikonos 846 00","categoryIds":["luxury-dining"],"categories":["Luxury Dining"],"distanceKm":3.0829015822908503}],"sameRegion":[],"mentionedGuides":[{"slug":"choose-perfect-greek-island-el","title":"Πώς να Επιλέξετε το Ιδανικό Ελληνικό Νησί"},{"slug":"choose-perfect-greek-island","title":"How to Choose the Perfect Greek Island for Your Trip"},{"slug":"greece-weather-swimming-ferry-guide-el","title":"Πότε να Επισκεφτείτε την Ελλάδα: Καιρός & Κολύμπι"},{"slug":"greece-weather-swimming-ferry-guide","title":"When to Visit Greece: Weather, Swimming & Ferries"},{"slug":"greek-bakeries-brunch-coffee-guide-el","title":"Ελληνική Αρτοποιία, Brunch & Κουλτούρα Καφέ"},{"slug":"greek-bakeries-brunch-coffee-guide","title":"Greek Bakeries, Brunch & Coffee Culture"},{"slug":"tap-water-safe-greece-el","title":"Είναι Ασφαλές να Πίνετε Νερό Βρύσης στην Ελλάδα;"},{"slug":"tap-water-safe-greece","title":"Is Tap Water Safe to Drink in Greece?"}],"canonicalSlug":"botrini-s-restaurant-mykonos-1ddd","isCanonicalEntity":true,"enrichment":{"summary_en":"Botrini's Restaurant Mykonos is a curated restaurant in 846 00 in the Luxury Dining collection. It is connected to 1 nearby Googlementor picks to help travelers build a stronger local route.","summary_el":"Botrini's Restaurant Mykonos είναι ένα επιλεγμένο σημείο φαγητού στην περιοχή 846 00 και ανήκει στη συλλογή Luxury Dining. Συνδέεται με 1 κοντινές προτάσεις του Googlementor για πιο ολοκληρωμένη εμπειρία.","vibe_tags":["curated","premium-dining"],"best_for":["first-time visitors","food lovers","special occasions"],"visit_moments":["lunch stop","dinner stop"],"practical_note":"Address and direct map link are available for easy turn-by-turn access.","nearby_walkable_count":1,"nearby_count_2km":5,"confidence":0.9}},"__N_SSG":true}