{"pageProps":{"entity":{"id":"wineriesVineyards_240cb6f5f493","slug":"boutari-winery-santorini-240c","kind":"restaurant","name":"Boutari Winery Santorini","lat":36.370584852516764,"lng":25.424958035575884,"url":"https://maps.app.goo.gl/5hnUYLAqB6RjWasSA?g_st=ipc","address":"Μεγαλοχώρι, Μεγαλοχώρι, Σαντορίνη 847 00","categoryIds":["wineries-vineyards"],"categories":["Wineries & Vineyards"]},"sameCategory":[{"id":"wineriesVineyards_95bc9b62cb5b","slug":"gavalas-winery-95bc","kind":"restaurant","name":"Gavalas Winery","lat":36.37555701249798,"lng":25.430540537475494,"url":"https://maps.app.goo.gl/HU6QyLSjJ1YzxuXn8?g_st=ipc","address":"Megalochori 847 00","categoryIds":["wineries-vineyards"],"categories":["Wineries & Vineyards"]},{"id":"wineriesVineyards_c14f70416a30","slug":"hatzidakis-winery-c14f","kind":"restaurant","name":"Hatzidakis Winery","lat":36.371163398793655,"lng":25.439369057100784,"url":"https://maps.app.goo.gl/kvS8SgMB33y9p72M7?g_st=ipc","address":"Kallisti, Pyrgos, Thira, 84701, Santorini 847 00","categoryIds":["wineries-vineyards"],"categories":["Wineries & Vineyards"]},{"id":"wineriesVineyards_a511a6e649e6","slug":"venetsanos-winery-a511","kind":"restaurant","name":"Venetsanos Winery","lat":36.38233875963969,"lng":25.43152035534749,"url":"https://maps.app.goo.gl/ptjxxz2nqAmMqrjo9?g_st=ipc","address":"Caldera Megalochori, Santorini Island 847 00","categoryIds":["wineries-vineyards"],"categories":["Wineries & Vineyards"]},{"id":"wineriesVineyards_0d0a1ba0c3f9","slug":"santo-wines-0d0a","kind":"restaurant","name":"Santo Wines","lat":36.38756634157811,"lng":25.436746775584044,"url":"https://maps.app.goo.gl/BfpzWvX44GGmmqF99?g_st=ipc","address":"Πύργος Καλλίστης 847 00","categoryIds":["wineries-vineyards"],"categories":["Wineries & Vineyards"]},{"id":"wineriesVineyards_19f34df9ea94","slug":"art-space-art-gallery-winery-museum-19f3","kind":"restaurant","name":"Art Space Art Gallery - Winery - Museum","lat":36.385965387765225,"lng":25.460385388763417,"url":"https://maps.app.goo.gl/21dhPUgPmbLqpjpb9?g_st=ipc","address":"Έξω Γωνιά 847 00","categoryIds":["wineries-vineyards"],"categories":["Wineries & Vineyards"]},{"id":"wineriesVineyards_6d919bba0952","slug":"canava-roussos-6d91","kind":"restaurant","name":"Canava Roussos","lat":36.38413007796539,"lng":25.46332243806347,"url":"https://maps.app.goo.gl/yATMtq83jmsb3HWJ9?g_st=ipc","address":"Episkopi Gonias 847 00","categoryIds":["wineries-vineyards"],"categories":["Wineries & Vineyards"]},{"id":"wineriesVineyards_2027b94783da","slug":"estate-argyros-2027","kind":"restaurant","name":"Estate Argyros","lat":36.3830947529534,"lng":25.464730249935148,"url":"https://maps.app.goo.gl/9Lgq7u7XqsKL7QdL8?g_st=ipc","address":"Episkopi Gonias 847 00","categoryIds":["wineries-vineyards"],"categories":["Wineries & Vineyards"]},{"id":"wineriesVineyards_8ab3932f0db2","slug":"artemis-karamolegos-8ab3","kind":"restaurant","name":"Artemis Karamolegos","lat":36.38835128439954,"lng":25.46365749287468,"url":"https://maps.app.goo.gl/6kQf3bRiieM4P2Es8?g_st=ipc","address":"Έξω Γωνιά 847 00","categoryIds":["wineries-vineyards"],"categories":["Wineries & Vineyards"]},{"id":"wineriesVineyards_ddfea8113f2e","slug":"cave-wine-museum-winery-koutsogiannopoulos-santorini-yposkafo-moyseio-oinoy-oinopoieio-koytsogiannopoylos-georgios-ddfe","kind":"restaurant","name":"Cave Wine Museum - Winery Koutsogiannopoulos Santorini (Υπόσκαφο Μουσείο Οίνου - Οινοποιείο Κουτσογιαννόπουλος Γεώργιος)","lat":36.39672195171486,"lng":25.460144574368652,"url":"https://maps.app.goo.gl/aGUb6MruiHYUGV8m8?g_st=ipc","address":"Βόθωνας, Βοθωνας 847 00","categoryIds":["wineries-vineyards"],"categories":["Wineries & Vineyards"]},{"id":"wineriesVineyards_28e385a5b348","slug":"gaia-winery-santorini-28e3","kind":"restaurant","name":"Gaia Winery Santorini","lat":36.391347708444265,"lng":25.485792242462427,"url":"https://maps.app.goo.gl/MLYCkmtcnHSNEbdT6?g_st=ipc","address":"Θέση Βραχειές, Έξω Γωνιά, Perivolia 847 00","categoryIds":["wineries-vineyards"],"categories":["Wineries & Vineyards"]},{"id":"wineriesVineyards_21a74b37ed66","slug":"vassaltis-vineyards-21a7","kind":"restaurant","name":"Vassaltis Vineyards","lat":36.44254790219748,"lng":25.43767809168264,"url":"https://maps.app.goo.gl/2AtdngotJUgMkr7o8?g_st=ipc","address":"Περιφερειακή οδός, Βουρβούλος 847 00","categoryIds":["wineries-vineyards"],"categories":["Wineries & Vineyards"]},{"id":"wineriesVineyards_3bdee9fa8d03","slug":"mikra-thira-winery-3bde","kind":"restaurant","name":"Mikra Thira Winery","lat":36.43912962546045,"lng":25.33447754994131,"url":"https://maps.app.goo.gl/RYuGtMWu3PcXZLU76?g_st=ipc","address":"Manolas 847 02","categoryIds":["wineries-vineyards"],"categories":["Wineries & Vineyards"]}],"nearby":[{"id":"wineriesVineyards_95bc9b62cb5b","slug":"gavalas-winery-95bc","kind":"restaurant","name":"Gavalas Winery","lat":36.37555701249798,"lng":25.430540537475494,"url":"https://maps.app.goo.gl/HU6QyLSjJ1YzxuXn8?g_st=ipc","address":"Megalochori 847 00","categoryIds":["wineries-vineyards"],"categories":["Wineries & Vineyards"],"distanceKm":0.7453071696901369},{"id":"wineriesVineyards_c14f70416a30","slug":"hatzidakis-winery-c14f","kind":"restaurant","name":"Hatzidakis Winery","lat":36.371163398793655,"lng":25.439369057100784,"url":"https://maps.app.goo.gl/kvS8SgMB33y9p72M7?g_st=ipc","address":"Kallisti, Pyrgos, Thira, 84701, Santorini 847 00","categoryIds":["wineries-vineyards"],"categories":["Wineries & Vineyards"],"distanceKm":1.2918739357478661},{"id":"wineriesVineyards_a511a6e649e6","slug":"venetsanos-winery-a511","kind":"restaurant","name":"Venetsanos Winery","lat":36.38233875963969,"lng":25.43152035534749,"url":"https://maps.app.goo.gl/ptjxxz2nqAmMqrjo9?g_st=ipc","address":"Caldera Megalochori, Santorini Island 847 00","categoryIds":["wineries-vineyards"],"categories":["Wineries & Vineyards"],"distanceKm":1.4329503549983769},{"id":"wineriesVineyards_0d0a1ba0c3f9","slug":"santo-wines-0d0a","kind":"restaurant","name":"Santo Wines","lat":36.38756634157811,"lng":25.436746775584044,"url":"https://maps.app.goo.gl/BfpzWvX44GGmmqF99?g_st=ipc","address":"Πύργος Καλλίστης 847 00","categoryIds":["wineries-vineyards"],"categories":["Wineries & Vineyards"],"distanceKm":2.1631759562982453},{"id":"mustSeeAttractions_fcaf48a77b52","slug":"akrotiri-fcaf","kind":"restaurant","name":"Akrotiri","lat":36.351796236748676,"lng":25.403447201033227,"url":"https://maps.app.goo.gl/wBKcGui1HWeMLpjPA?g_st=ipc","address":"Fira 847 00","categoryIds":["attractions"],"categories":["Must-See Attractions"],"distanceKm":2.841642515885263},{"id":"greekRestaurants_75e240e1e1c8","slug":"metaxy-mas-75e2","kind":"restaurant","name":"Μεταξύ Μας","lat":36.388052739264,"lng":25.45733589994344,"url":"https://maps.app.goo.gl/ncT3pVMegecbmYeZ8?g_st=ipc","address":"Έξω Γωνιά 847 00","categoryIds":["greek-restaurants"],"categories":["Greek Restaurants"],"distanceKm":3.489201772491004},{"id":"luxuryDiningRestaurants_c4314de9f562","slug":"alali-restaurant-c431","kind":"restaurant","name":"Alali Restaurant","lat":36.36348374683768,"lng":25.385971079626298,"url":"https://maps.app.goo.gl/bj4VGwDTK6k29a2h8?g_st=ipc","address":"epar. od. akrotiriou, Akrotiri 847 00","categoryIds":["luxury-dining"],"categories":["Luxury Dining"],"distanceKm":3.5790050662167245},{"id":"wineriesVineyards_19f34df9ea94","slug":"art-space-art-gallery-winery-museum-19f3","kind":"restaurant","name":"Art Space Art Gallery - Winery - Museum","lat":36.385965387765225,"lng":25.460385388763417,"url":"https://maps.app.goo.gl/21dhPUgPmbLqpjpb9?g_st=ipc","address":"Έξω Γωνιά 847 00","categoryIds":["wineries-vineyards"],"categories":["Wineries & Vineyards"],"distanceKm":3.603359526685098},{"id":"fishTavernasRestaurants_dac8860b7404","slug":"to-psaraki-dac8","kind":"restaurant","name":"To Psaraki","lat":36.33792749755298,"lng":25.43489591016144,"url":"https://maps.app.goo.gl/WeAqEXpj73UsAVaH8?g_st=ipc","address":"Marina, Vlichada 847 00","categoryIds":["fish-tavernas"],"categories":["Fish Tavernas"],"distanceKm":3.738797868343276},{"id":"wineriesVineyards_6d919bba0952","slug":"canava-roussos-6d91","kind":"restaurant","name":"Canava Roussos","lat":36.38413007796539,"lng":25.46332243806347,"url":"https://maps.app.goo.gl/yATMtq83jmsb3HWJ9?g_st=ipc","address":"Episkopi Gonias 847 00","categoryIds":["wineries-vineyards"],"categories":["Wineries & Vineyards"],"distanceKm":3.7503494876909804},{"id":"wineriesVineyards_2027b94783da","slug":"estate-argyros-2027","kind":"restaurant","name":"Estate Argyros","lat":36.3830947529534,"lng":25.464730249935148,"url":"https://maps.app.goo.gl/9Lgq7u7XqsKL7QdL8?g_st=ipc","address":"Episkopi Gonias 847 00","categoryIds":["wineries-vineyards"],"categories":["Wineries & Vineyards"],"distanceKm":3.8227493396106618},{"id":"wineriesVineyards_8ab3932f0db2","slug":"artemis-karamolegos-8ab3","kind":"restaurant","name":"Artemis Karamolegos","lat":36.38835128439954,"lng":25.46365749287468,"url":"https://maps.app.goo.gl/6kQf3bRiieM4P2Es8?g_st=ipc","address":"Έξω Γωνιά 847 00","categoryIds":["wineries-vineyards"],"categories":["Wineries & Vineyards"],"distanceKm":3.988188572691542},{"id":"municipalities_5b32b43e93f7","slug":"santorini-5b32","kind":"municipality","name":"Σαντορίνη","lat":36.3932,"lng":25.4615,"aliases":["Thira","Thera","Santorin","Σαντορίνα","Σαντορινη","Θήρα","Θηρα"],"region":"Κυκλάδες","name_en":"Santorini","region_en":"Cyclades","distanceKm":4.126121839927476},{"id":"wineriesVineyards_ddfea8113f2e","slug":"cave-wine-museum-winery-koutsogiannopoulos-santorini-yposkafo-moyseio-oinoy-oinopoieio-koytsogiannopoylos-georgios-ddfe","kind":"restaurant","name":"Cave Wine Museum - Winery Koutsogiannopoulos Santorini (Υπόσκαφο Μουσείο Οίνου - Οινοποιείο Κουτσογιαννόπουλος Γεώργιος)","lat":36.39672195171486,"lng":25.460144574368652,"url":"https://maps.app.goo.gl/aGUb6MruiHYUGV8m8?g_st=ipc","address":"Βόθωνας, Βοθωνας 847 00","categoryIds":["wineries-vineyards"],"categories":["Wineries & Vineyards"],"distanceKm":4.285823101492221},{"id":"fishTavernasRestaurants_f99700801233","slug":"the-nets-f997","kind":"restaurant","name":"Τhe Nets","lat":36.340213032449526,"lng":25.45472858487458,"url":"https://maps.app.goo.gl/RiiBmieqG8r1Dh4o9?g_st=ipc","address":"Perivolos Beach, Santorini 847 00","categoryIds":["fish-tavernas"],"categories":["Fish Tavernas"],"distanceKm":4.30266899201307},{"id":"municipalities_1eedf0b4b9bd","slug":"perissa-1eed","kind":"municipality","name":"Περίσσα","lat":36.3536,"lng":25.4739,"region":"Σαντορίνη","name_en":"Perissa","region_en":"Santorini","distanceKm":4.772081265140523},{"id":"fishTavernasRestaurants_df6d0cb0c542","slug":"fratzeskos-tavern-df6d","kind":"restaurant","name":"Fratzeskos tavern","lat":36.35690375814628,"lng":25.475715801192347,"url":"https://maps.app.goo.gl/jm2dpd1gs6ZU1Gb48?g_st=ipc","address":"Perissa 847 03","categoryIds":["fish-tavernas"],"categories":["Fish Tavernas"],"distanceKm":4.79278325588018},{"id":"municipalities_4a175944114f","slug":"kamari-4a17","kind":"municipality","name":"Καμάρι","lat":36.3711,"lng":25.4804,"region":"Σαντορίνη","name_en":"Kamari","region_en":"Santorini","distanceKm":4.964253235027455},{"id":"municipalities_d0dfb358cefd","slug":"fira-d0df","kind":"municipality","name":"Φηρά","lat":36.4167,"lng":25.4326,"region":"Σαντορίνη","name_en":"Fira","region_en":"Santorini","distanceKm":5.173190779864548},{"id":"coffeeBrunchRestaurants_2e5d658747f2","slug":"svoronos-bakery-2e5d","kind":"restaurant","name":"Svoronos Bakery","lat":36.419048608663665,"lng":25.432096523213673,"url":"https://maps.app.goo.gl/UiCZYg6Gt2wABcPE8?g_st=ipc","address":"Greece, 25is Martiou, Thira 847 00","categoryIds":["coffee-brunch"],"categories":["Coffee & Brunch Spots"],"distanceKm":5.4266694711899355},{"id":"fishTavernasRestaurants_2d350f785ac9","slug":"triana-tavern-2d35","kind":"restaurant","name":"Triana Tavern","lat":36.42013344956067,"lng":25.432032180485958,"url":"https://maps.app.goo.gl/FwBmnh2RPeVaK64U6?g_st=ipc","address":"25is Martiou 405, Thira 847 00","categoryIds":["fish-tavernas"],"categories":["Fish Tavernas"],"distanceKm":5.54581643439152},{"id":"luxuryDiningRestaurants_a54c6ec9f1fa","slug":"selene-restaurant-a54c","kind":"restaurant","name":"Selene Restaurant","lat":36.4214954695669,"lng":25.43077555199888,"url":"https://maps.app.goo.gl/WMAKe6khJLqtbDgo7?g_st=ipc","address":"Old catholic monastery, Thira 847 00","categoryIds":["luxury-dining"],"categories":["Luxury Dining"],"distanceKm":5.68489845657953},{"id":"wineriesVineyards_28e385a5b348","slug":"gaia-winery-santorini-28e3","kind":"restaurant","name":"Gaia Winery Santorini","lat":36.391347708444265,"lng":25.485792242462427,"url":"https://maps.app.goo.gl/MLYCkmtcnHSNEbdT6?g_st=ipc","address":"Θέση Βραχειές, Έξω Γωνιά, Perivolia 847 00","categoryIds":["wineries-vineyards"],"categories":["Wineries & Vineyards"],"distanceKm":5.915161455611005},{"id":"luxuryDiningRestaurants_60ed304175f8","slug":"koukoumavlos-restaurant-60ed","kind":"restaurant","name":"Koukoumavlos Restaurant","lat":36.43146159101605,"lng":25.424418520966256,"url":"https://maps.app.goo.gl/uc1kbLbBqgnUhLot7?g_st=ipc","address":"Imerovigli 847 00","categoryIds":["luxury-dining"],"categories":["Luxury Dining"],"distanceKm":6.769356686445855}],"sameRegion":[],"mentionedGuides":[{"slug":"choose-perfect-greek-island-el","title":"Πώς να Επιλέξετε το Ιδανικό Ελληνικό Νησί"},{"slug":"choose-perfect-greek-island","title":"How to Choose the Perfect Greek Island for Your Trip"},{"slug":"greece-weather-swimming-ferry-guide-el","title":"Πότε να Επισκεφτείτε την Ελλάδα: Καιρός & Κολύμπι"},{"slug":"greece-weather-swimming-ferry-guide","title":"When to Visit Greece: Weather, Swimming & Ferries"},{"slug":"greek-bakeries-brunch-coffee-guide-el","title":"Ελληνική Αρτοποιία, Brunch & Κουλτούρα Καφέ"},{"slug":"greek-bakeries-brunch-coffee-guide","title":"Greek Bakeries, Brunch & Coffee Culture"},{"slug":"tap-water-safe-greece-el","title":"Είναι Ασφαλές να Πίνετε Νερό Βρύσης στην Ελλάδα;"},{"slug":"tap-water-safe-greece","title":"Is Tap Water Safe to Drink in Greece?"}],"canonicalSlug":"boutari-winery-santorini-240c","isCanonicalEntity":true,"enrichment":{"summary_en":"Boutari Winery Santorini is a curated restaurant in Σαντορίνη 847 00 in the Wineries & Vineyards collection. It is connected to 1 nearby Googlementor picks to help travelers build a stronger local route.","summary_el":"Boutari Winery Santorini είναι ένα επιλεγμένο σημείο φαγητού στην περιοχή Σαντορίνη 847 00 και ανήκει στη συλλογή Wineries & Vineyards. Συνδέεται με 1 κοντινές προτάσεις του Googlementor για πιο ολοκληρωμένη εμπειρία.","vibe_tags":["curated","wine-moment"],"best_for":["first-time visitors","food lovers"],"visit_moments":["lunch stop","dinner stop"],"practical_note":"Address and direct map link are available for easy turn-by-turn access.","nearby_walkable_count":1,"nearby_count_2km":3,"confidence":0.9}},"__N_SSG":true}