{"pageProps":{"entity":{"id":"dessertsRestaurants_4314e81fb349","slug":"boutique-baking-pepi-beza-4314","kind":"restaurant","name":"Boutique Baking Pepi Beza","lat":40.59730321322995,"lng":22.979587033632086,"url":"https://maps.app.goo.gl/daRMg1RfmVJcgATKA?g_st=ipc","address":"Meg. Alexandrou 3, Pilea 555 35","categoryIds":["desserts"],"categories":["Dessert Shops"]},"sameCategory":[{"id":"dessertsRestaurants_cc58df47a36e","slug":"nick-alexoudas-cc58","kind":"restaurant","name":"NICK ALEXOUDAS","lat":40.60097575143556,"lng":22.988160776463623,"url":"https://maps.app.goo.gl/svQRP7nS7UargNrc9?g_st=ipc","address":"Profitou Ilia 77, Pilea 555 35","categoryIds":["desserts"],"categories":["Dessert Shops"]},{"id":"dessertsRestaurants_a176ca58a94e","slug":"il-panino-a176","kind":"restaurant","name":"Il Panino","lat":40.60111282600128,"lng":22.964094400386756,"url":"https://maps.app.goo.gl/xgjKYkQmNmr9oVeU6?g_st=ipc","address":"Leof. Kon/nou Karamanli 154, Thessaloniki 542 48","categoryIds":["desserts"],"categories":["Dessert Shops"]},{"id":"dessertsRestaurants_0447f5ff16d8","slug":"pie-serres-lambrakis-0447","kind":"restaurant","name":"Pie \"SERRES\" Lambrakis","lat":40.611438946577884,"lng":22.985616518677983,"url":"https://maps.app.goo.gl/t2b2XQwYxmP3pkBd6?g_st=ipc","address":"Grigoriou Lampraki 222, Thessaloniki 555 34","categoryIds":["desserts"],"categories":["Dessert Shops"]},{"id":"dessertsRestaurants_8b22dff88156","slug":"alfa-ice-cream-cafe-8b22","kind":"restaurant","name":"Alfa Ice-Cream Cafe","lat":40.60099594467994,"lng":22.959526782313244,"url":"https://maps.app.goo.gl/tbZTnf9V3BccEmubA?g_st=ipc","address":"Delfon 143, Thessaloniki 546 46","categoryIds":["desserts"],"categories":["Dessert Shops"]},{"id":"dessertsRestaurants_84006bf7f4fa","slug":"sugarini-8400","kind":"restaurant","name":"Sugarini","lat":40.61332571258828,"lng":22.981104601509724,"url":"https://maps.app.goo.gl/m9owYPpFDRCrPtgq6?g_st=ipc","address":"Grigoriou Lampraki 169, Thessaloniki 543 52","categoryIds":["desserts"],"categories":["Dessert Shops"]},{"id":"dessertsRestaurants_6236474f11ab","slug":"siropiasta-michailidis-6236","kind":"restaurant","name":"Siropiasta Michailidis","lat":40.61392951977613,"lng":22.979367441197244,"url":"https://maps.app.goo.gl/3YNsRZFm5KexaNhJ7?g_st=ipc","address":"Grigoriou Lampraki 160, Thessaloniki 543 52","categoryIds":["desserts"],"categories":["Dessert Shops"]},{"id":"dessertsRestaurants_99d685460c3f","slug":"bombolo-99d6","kind":"restaurant","name":"BOMBOLO","lat":40.614466360968855,"lng":22.977765505829847,"url":"https://maps.app.goo.gl/z5pR8EZkJS12MpdQ9?g_st=ipc","address":"Grigoriou Lampraki 150, Thessaloniki 543 51","categoryIds":["desserts"],"categories":["Dessert Shops"]},{"id":"dessertsRestaurants_f84ed009af83","slug":"terkenlis-f84e","kind":"restaurant","name":"Terkenlis","lat":40.59488849299692,"lng":22.956363253741753,"url":"https://maps.app.goo.gl/xBak2d9JxbKxQpz57?g_st=ipc","address":"Leof. Vasilissis Olgas 235, Thessaloniki 546 55","categoryIds":["desserts"],"categories":["Dessert Shops"]},{"id":"dessertsRestaurants_7728725cae0c","slug":"zacharoplasteio-ilios-kleanthoys-hlios-pastry-shop-kleanthous-7728","kind":"restaurant","name":"ΖΑΧΑΡΟΠΛΑΣΤΕΙΟ ΗΛΙΟΣ ΚΛΕΑΝΘΟΥΣ /Hlios Pastry Shop Kleanthous","lat":40.61382568960551,"lng":22.969099400369018,"url":"https://maps.app.goo.gl/tNhNJReBE4oYvZx6A?g_st=ipc","address":"Kleanthous 60, Thessaloniki 544 53","categoryIds":["desserts"],"categories":["Dessert Shops"]},{"id":"dessertsRestaurants_e4f66f8adfe3","slug":"nikos-alexoudas-e4f6","kind":"restaurant","name":"Nikos Alexoudas","lat":40.610389059142975,"lng":22.958123238836652,"url":"https://maps.app.goo.gl/ifbqMFmsGqy7oaxA8?g_st=ipc","address":"Makedonias 18, Thessaloniki 546 42","categoryIds":["desserts"],"categories":["Dessert Shops"]},{"id":"dessertsRestaurants_4fb635c33210","slug":"trigona-elenidi-4fb6","kind":"restaurant","name":"Trigona Elenidi","lat":40.58725693671977,"lng":22.9548680363337,"url":"https://maps.app.goo.gl/EpRLs9ycdMXcJNP16?g_st=ipc","address":"Adrianoupoleos 19, Kalamaria 551 33","categoryIds":["desserts"],"categories":["Dessert Shops"]},{"id":"dessertsRestaurants_1eb1d7d0a39b","slug":"trigona-elenidis-antheon-1eb1","kind":"restaurant","name":"Τρίγωνα Ελενίδης (Ανθέων)","lat":40.601144746020374,"lng":22.95082783427097,"url":"https://maps.app.goo.gl/f4c7NqVni4s54aXE6?g_st=ipc","address":"Geor. Papandreou 6, Thessaloniki 546 45","categoryIds":["desserts"],"categories":["Dessert Shops"]}],"nearby":[{"id":"fishTavernasRestaurants_3eebfb65840d","slug":"glykanisos-3eeb","kind":"restaurant","name":"Glykanisos","lat":40.59789425560311,"lng":22.984970079796003,"url":"https://maps.app.goo.gl/uuxCBL4zdiCK3Cui9?g_st=ipc","address":"Meg. Alexandrou 46, Pilea 555 35","categoryIds":["fish-tavernas"],"categories":["Fish Tavernas"],"distanceKm":0.4592185388687945},{"id":"fishTavernasRestaurants_e3cad400eebc","slug":"panos-cafe-e3ca","kind":"restaurant","name":"Panos Cafe","lat":40.59910171918994,"lng":22.972711652033485,"url":"https://maps.app.goo.gl/2xVCRJ82JXQ9xNYm7?g_st=ipc","address":"Alkamenous 5, Thessaloniki 542 50","categoryIds":["fish-tavernas"],"categories":["Fish Tavernas"],"distanceKm":0.6139673185331055},{"id":"cheapEatsRestaurants_11495dfdb881","slug":"fina-kota-kai-souvlaki-1149","kind":"restaurant","name":"Fina Kota kai Souvlaki","lat":40.59910110403599,"lng":22.970582136003614,"url":"https://maps.app.goo.gl/eUYE4q3etTD9FkZs6?g_st=ipc","address":"Al. Papanastasiou 164, Thessaloniki 542 49","categoryIds":["cheap-eats"],"categories":["Gyros & Cheap Eats"],"distanceKm":0.7861228722870112},{"id":"greekRestaurants_87ad943f04be","slug":"mpaloyxis-87ad","kind":"restaurant","name":"ΜΠΑΛΟΥΞΗΣ","lat":40.60469663357637,"lng":22.980860258041304,"url":"https://maps.app.goo.gl/mkwSB515HmQ3h8yA8?g_st=ipc","address":"Δορυλαίου 86, Πυλαία 544 54","categoryIds":["greek-restaurants"],"categories":["Greek Restaurants"],"distanceKm":0.8291085450402476},{"id":"dessertsRestaurants_cc58df47a36e","slug":"nick-alexoudas-cc58","kind":"restaurant","name":"NICK ALEXOUDAS","lat":40.60097575143556,"lng":22.988160776463623,"url":"https://maps.app.goo.gl/svQRP7nS7UargNrc9?g_st=ipc","address":"Profitou Ilia 77, Pilea 555 35","categoryIds":["desserts"],"categories":["Dessert Shops"],"distanceKm":0.8311111087060249},{"id":"familyFriendly_b986941160fd","slug":"elaiorema-b986","kind":"restaurant","name":"Elaiorema","lat":40.60429462558645,"lng":22.984614393067023,"url":"https://maps.app.goo.gl/2QyvxSuh6SKLNY7X8?g_st=ic","address":"Pylaia 555 35","categoryIds":["family-friendly"],"categories":["Kid Friendly Locations"],"distanceKm":0.8857286871256598},{"id":"cheapEatsRestaurants_9ba4d2c7ce05","slug":"devido-9ba4","kind":"restaurant","name":"Devido","lat":40.6015548155933,"lng":22.97004729221759,"url":"https://maps.app.goo.gl/LhdTXdShbHy87PAv9?g_st=ipc","address":"Nik. Plastira 2, Thessaloniki 542 50","categoryIds":["cheap-eats"],"categories":["Gyros & Cheap Eats"],"distanceKm":0.9339163679913474},{"id":"italianRestaurants_2946916b6ad2","slug":"pizza-plain-2946","kind":"restaurant","name":"Pizza Plain","lat":40.601547606224,"lng":22.970026389723678,"url":"https://maps.app.goo.gl/gJ7QpRFhLKuDpyFc9?g_st=ipc","address":"Nik. Plastira 2, Thessaloniki 542 50","categoryIds":["italian"],"categories":["Italian Restaurants"],"distanceKm":0.9350338904301486},{"id":"greekRestaurants_6425778ff662","slug":"apeirotan-6425","kind":"restaurant","name":"Απειρωτάν","lat":40.60427891782613,"lng":22.97278851420961,"url":"https://maps.app.goo.gl/Z1kHXx11hgTP2xe29?g_st=ipc","address":"Γυμνασιάρχου Κωνσταντίνου Μικρού 32, Θεσσαλονίκη 542 50","categoryIds":["greek-restaurants"],"categories":["Greek Restaurants"],"distanceKm":0.9649339760386467},{"id":"greekRestaurants_cf4b92a49ee3","slug":"vregmeni-gata-cf4b","kind":"restaurant","name":"Βρεγμένη Γάτα","lat":40.60532273136461,"lng":22.974506640452905,"url":"https://maps.app.goo.gl/ei8BmMqU9LPgvJwq9?g_st=ipc","address":"Απόλλωνος 4, Θεσσαλονίκη 544 54","categoryIds":["greek-restaurants"],"categories":["Greek Restaurants"],"distanceKm":0.9895198747488758},{"id":"coffeeBrunchRestaurants_7f4ca735b5ec","slug":"laterna-7f4c","kind":"restaurant","name":"Laterna","lat":40.597256928464596,"lng":22.96766795433404,"url":"https://maps.app.goo.gl/UuEUGrB58srruWFPA?g_st=ipc","address":"Voulgari 64, Thessaloniki 542 49","categoryIds":["coffee-brunch"],"categories":["Coffee & Brunch Spots"],"distanceKm":1.0063476090795689},{"id":"municipalities_743916b7b194","slug":"charilaoy-7439","kind":"municipality","name":"Χαριλάου","lat":40.6054,"lng":22.9851,"region":"Θεσσαλονίκη","name_en":"Charilaou","region_en":"Thessaloniki","distanceKm":1.013512815272416},{"id":"greekRestaurants_46e9b5128099","slug":"mezedopoleio-sti-gonia-tis-inas-46e9","kind":"restaurant","name":"ΜΕΖΕΔΟΠΩΛΕΙΟ ΣΤΗ ΓΩΝΙΑ ΤΗΣ ΙΝΑΣ","lat":40.60655899968898,"lng":22.97552887156289,"url":"https://maps.app.goo.gl/cVtcjxY8sNr9dRR19?g_st=ipc","address":"Απόλλωνος 20, Θεσσαλονίκη 544 54","categoryIds":["greek-restaurants"],"categories":["Greek Restaurants"],"distanceKm":1.0847240998962673},{"id":"cheapEatsRestaurants_1eaaf4657a81","slug":"thanasis-sons-1eaa","kind":"restaurant","name":"Thanasis & Sons","lat":40.60379888554604,"lng":22.969062086462387,"url":"https://maps.app.goo.gl/osKm1rqFwwfzqdrLA?g_st=ipc","address":"Al. Papanastasiou 133, Thessaloniki 542 50","categoryIds":["cheap-eats"],"categories":["Gyros & Cheap Eats"],"distanceKm":1.1451103181394848},{"id":"municipalities_4a13189642f7","slug":"aggelochori-4a13","kind":"municipality","name":"Αγγελοχώρι","lat":40.5886,"lng":22.9875,"aliases":["Αγγελοχωρι"],"region":"Θεσσαλονίκη","name_en":"Angelochori","region_en":"Thessaloniki","distanceKm":1.1759916641054604},{"id":"greekRestaurants_4e13929c0cd5","slug":"fytra-4e13","kind":"restaurant","name":"Φύτρα","lat":40.6012681636797,"lng":22.966673149641366,"url":"https://maps.app.goo.gl/GaGbnHHiWn6UF2go6?g_st=ipc","address":"Αδριανουπόλεως 10, Θεσσαλονίκη 542 49","categoryIds":["greek-restaurants"],"categories":["Greek Restaurants"],"distanceKm":1.1760601623403502},{"id":"cheapEatsRestaurants_d5f34328ce60","slug":"grn-toympa-d5f3","kind":"restaurant","name":"ΓΡΝ Τούμπα","lat":40.606092536657584,"lng":22.971298180015925,"url":"https://maps.app.goo.gl/xNHbtpHz8gpf4vYR6?g_st=ipc","address":"Michail Chourmouzi 41, Thessaloniki 544 53","categoryIds":["cheap-eats"],"categories":["Gyros & Cheap Eats"],"distanceKm":1.2020279283269448},{"id":"cheapEatsRestaurants_8ba579af851d","slug":"steakhouse-costas-8ba5","kind":"restaurant","name":"Steakhouse Costas","lat":40.607757700164754,"lng":22.984167654560377,"url":"https://maps.app.goo.gl/vkLu33M5Ct15FeXa6?g_st=ipc","address":"Emmanouil Fili 15, Pilea 555 34","categoryIds":["cheap-eats"],"categories":["Gyros & Cheap Eats"],"distanceKm":1.2251208869400514},{"id":"cheapEatsRestaurants_1de3117b26db","slug":"omega-grill-1de3","kind":"restaurant","name":"Ωμέγα Grill","lat":40.6085969632586,"lng":22.97871142955339,"url":"https://maps.app.goo.gl/Jp9h1Xe2kPqJT7td9?g_st=ipc","address":"Αμφιπόλεως 34, Thessaloniki 544 54","categoryIds":["cheap-eats"],"categories":["Gyros & Cheap Eats"],"distanceKm":1.2579814694348164},{"id":"italianRestaurants_26ce0faec041","slug":"raffaele-pizza-pasta-26ce","kind":"restaurant","name":"Raffaele Pizza & Pasta","lat":40.609052469541666,"lng":22.97944908191486,"url":"https://maps.app.goo.gl/t8jAxdhgPG7fRJcE7?g_st=ipc","address":"Αμφιπόλεως 45, Thessaloniki 544 54","categoryIds":["italian"],"categories":["Italian Restaurants"],"distanceKm":1.3065096027344214},{"id":"greekRestaurants_c1766e7bf95f","slug":"i-palia-athina-c176","kind":"restaurant","name":"Η Παλιά Αθήνα","lat":40.60696697600651,"lng":22.970143293615717,"url":"https://maps.app.goo.gl/uzsrCErBcVQi2b349?g_st=ipc","address":"Ίμβρου 24, Θεσσαλονίκη 544 53","categoryIds":["greek-restaurants"],"categories":["Greek Restaurants"],"distanceKm":1.3380363284598955},{"id":"greekRestaurants_bb87e6a51434","slug":"o-daskalos-bb87","kind":"restaurant","name":"Ο ΔΑΣΚΑΛΟΣ","lat":40.607225167696676,"lng":22.970329107131402,"url":"https://maps.app.goo.gl/J1XPLAWFgHM7NWS19?g_st=ipc","address":"Παπάφη 192, Ίμβρου 19-21, Θεσσαλονίκη 544 53","categoryIds":["greek-restaurants"],"categories":["Greek Restaurants"],"distanceKm":1.3520707837091086},{"id":"dessertsRestaurants_a176ca58a94e","slug":"il-panino-a176","kind":"restaurant","name":"Il Panino","lat":40.60111282600128,"lng":22.964094400386756,"url":"https://maps.app.goo.gl/xgjKYkQmNmr9oVeU6?g_st=ipc","address":"Leof. Kon/nou Karamanli 154, Thessaloniki 542 48","categoryIds":["desserts"],"categories":["Dessert Shops"],"distanceKm":1.3748983082311148},{"id":"familyFriendly_507eebfc1228","slug":"happy-play-507e","kind":"restaurant","name":"Happy Play","lat":40.58463538696909,"lng":22.98516339267734,"url":"https://maps.app.goo.gl/KdBGSDP4JgtkbeQQ7?g_st=ipc","address":"Ioanninon Rd 9-11, Pilea 555 35","categoryIds":["family-friendly"],"categories":["Kid Friendly Locations"],"distanceKm":1.4852127923151208}],"sameRegion":[],"mentionedGuides":[],"canonicalSlug":"boutique-baking-pepi-beza-4314","isCanonicalEntity":true,"enrichment":{"summary_en":"Boutique Baking Pepi Beza is a curated restaurant in Pilea 555 35 in the Dessert Shops collection. It is connected to 3 nearby Googlementor picks to help travelers build a stronger local route.","summary_el":"Boutique Baking Pepi Beza είναι ένα επιλεγμένο σημείο φαγητού στην περιοχή Pilea 555 35 και ανήκει στη συλλογή Dessert Shops. Συνδέεται με 3 κοντινές προτάσεις του Googlementor για πιο ολοκληρωμένη εμπειρία.","vibe_tags":["curated","sweet-stop"],"best_for":["first-time visitors","food lovers"],"visit_moments":["afternoon break","after dinner"],"practical_note":"Address and direct map link are available for easy turn-by-turn access.","nearby_walkable_count":3,"nearby_count_2km":63,"confidence":0.9}},"__N_SSG":true}