{"pageProps":{"entity":{"id":"italianRestaurants_e8e93eefa319","slug":"cena-e8e9","kind":"restaurant","name":"Cena","lat":40.63453379937182,"lng":22.938924721124444,"url":"https://maps.app.goo.gl/M6cnfrHcMrMNBhMNA?g_st=ipc","address":"Rogkoti 4, Thessaloniki 546 24","categoryIds":["italian"],"categories":["Italian Restaurants"]},"sameCategory":[{"id":"italianRestaurants_60ef8fd1f6df","slug":"high-school-pizza-bar-60ef","kind":"restaurant","name":"High School Pizza Bar","lat":40.63257762535487,"lng":22.939550561883348,"url":"https://maps.app.goo.gl/CkxsQoyZaG8gTuWG9?g_st=ipc","address":"Leof. Nikis 9Α, Thessaloniki 546 24","categoryIds":["italian"],"categories":["Italian Restaurants"]},{"id":"italianRestaurants_7cee9388f440","slug":"pizza-hood-7cee","kind":"restaurant","name":"Pizza Hood","lat":40.63650781158609,"lng":22.937112758246737,"url":"https://maps.app.goo.gl/PSUf6oyYdwKAkgEFA","address":"Ernestou Emprar 2, Thessaloniki 546 25","categoryIds":["italian"],"categories":["Italian Restaurants"]},{"id":"cheapEatsRestaurants_763f0b4ef33d","slug":"pizza-poselli-763f","kind":"restaurant","name":"Pízza Poselli","lat":40.63738632422352,"lng":22.938994583377827,"url":"https://maps.app.goo.gl/msSh5RZw3k81mKHWA?g_st=ipc","address":"Vilara 2, Thessaloniki 546 25","categoryIds":["cheap-eats","italian"],"categories":["Gyros & Cheap Eats","Italian Restaurants"],"legacySlugs":["pizza-poselli-5cd4"]},{"id":"cheapEatsRestaurants_284a6ef1dfeb","slug":"the-last-slice-284a","kind":"restaurant","name":"The Last Slice","lat":40.63188753569458,"lng":22.94190837965703,"url":"https://maps.app.goo.gl/iyZQfPWo4E2pskqX8?g_st=ipc","address":"Proxenou Koromila 1, Thessaloniki 546 23","categoryIds":["cheap-eats","italian"],"categories":["Gyros & Cheap Eats","Italian Restaurants"],"legacySlugs":["the-last-slice-2302"]},{"id":"italianRestaurants_7c05bdca6535","slug":"apallou-7c05","kind":"restaurant","name":"Apallou","lat":40.6319800622151,"lng":22.942842887749638,"url":"https://maps.app.goo.gl/gJ5jrWEXwAbU6ynW8?g_st=ipc","address":"Μητροπόλεως &, Karolou Ntil 10, Thessaloniki 546 23","categoryIds":["italian"],"categories":["Italian Restaurants"]},{"id":"italianRestaurants_cb35e3b45188","slug":"margherita-cb35","kind":"restaurant","name":"MARGHERITA","lat":40.631390383048206,"lng":22.94264327325537,"url":"https://maps.app.goo.gl/TiNtp5tDGN6Eji5d9?g_st=ipc","address":"Proxenou Koromila 11, Thessaloniki 546 23","categoryIds":["italian"],"categories":["Italian Restaurants"]},{"id":"cheapEatsRestaurants_e80e8a708de9","slug":"salento-wood-fired-street-food-e80e","kind":"restaurant","name":"Salento Wood Fired Street Food","lat":40.639269734572295,"lng":22.943990430297482,"url":"https://maps.app.goo.gl/6mWAWHUbEwXuAb589?g_st=ipc","address":"El. Venizelou 76, Thessaloniki 546 31","categoryIds":["cheap-eats","italian"],"categories":["Gyros & Cheap Eats","Italian Restaurants"],"legacySlugs":["salento-wood-fired-street-food-39b7"]},{"id":"italianRestaurants_cb2ae306e209","slug":"signora-trattoria-cb2a","kind":"restaurant","name":"Signora Trattoria","lat":40.63157039493222,"lng":22.94755320492566,"url":"https://maps.app.goo.gl/QzosxSTGJyN4yoBfA?g_st=ipc","address":"P. Mela 38, Paleon Patron Germanou 19, Thessaloniki 546 22","categoryIds":["italian"],"categories":["Italian Restaurants"]},{"id":"italianRestaurants_d3fb4b2d1274","slug":"osteria-dai-fioi-d3fb","kind":"restaurant","name":"Osteria dai Fioi","lat":40.633770916934814,"lng":22.950440152016508,"url":"https://maps.app.goo.gl/ptx8MrTs166UDsu79?g_st=ipc","address":"Leonida Iasonidou 9, Thessaloniki 546 35","categoryIds":["italian"],"categories":["Italian Restaurants"]},{"id":"italianRestaurants_d4a8673af302","slug":"rosticceria-di-salonicco-d4a8","kind":"restaurant","name":"Rosticceria di Salonicco","lat":40.633588139092396,"lng":22.954063296681706,"url":"https://maps.app.goo.gl/WqcXyq1eyTArWEmP6?g_st=ipc","address":"Armenopoulou 27, Thessaloniki 546 35","categoryIds":["italian"],"categories":["Italian Restaurants"]},{"id":"italianRestaurants_7e579a43d1ce","slug":"dos-margaritas-7e57","kind":"restaurant","name":"Dos Margaritas","lat":40.621386723569444,"lng":22.952891023289123,"url":"https://maps.app.goo.gl/XC8KbzgVXxEiYUru8?g_st=ipc","address":"Emiliou Riadi 5, Thessaloniki 546 40","categoryIds":["italian"],"categories":["Italian Restaurants"]},{"id":"italianRestaurants_0a96069b98fe","slug":"navona-restaurant-bar-0a96","kind":"restaurant","name":"Navona Restaurant Bar","lat":40.617883104732,"lng":22.952114230685524,"url":"https://maps.app.goo.gl/oPmtz2JTaw4nxWtp6","address":"Leof. Meg. Alexandrou 2, Thessaloniki 546 40","categoryIds":["italian"],"categories":["Italian Restaurants"]}],"nearby":[{"id":"asianRestaurants_7b20ac80bba4","slug":"hanaya-sushi-7b20","kind":"restaurant","name":"Hanaya Sushi","lat":40.6345384090758,"lng":22.93892478438703,"url":"https://maps.app.goo.gl/QoHkvVMWp7YGca2T8?g_st=ipc","address":"Rogkoti 4, Thessaloniki 546 24 (Bourla-Levi Building)","categoryIds":["asian"],"categories":["Asian Restaurants"],"distanceKm":0.0005126034934551253},{"id":"fishTavernasRestaurants_8f9bed2e06ef","slug":"mezen-salonica-8f9b","kind":"restaurant","name":"Mezen Salonica","lat":40.634689809940646,"lng":22.93869474433628,"url":"https://maps.app.goo.gl/gwG2QG5GLKMHTAKd8?g_st=ipc","address":"Rogkoti 3, Thessaloniki 546 24","categoryIds":["fish-tavernas"],"categories":["Fish Tavernas"],"distanceKm":0.026029599701424447},{"id":"dessertsRestaurants_77934967676e","slug":"souffler-7793","kind":"restaurant","name":"Soufflér","lat":40.63479159488401,"lng":22.93892769842922,"url":"https://maps.app.goo.gl/BLrPEMBFAqcE5fZP6?g_st=ipc","address":"Rogkoti 4, Thessaloniki 546 24","categoryIds":["desserts"],"categories":["Dessert Shops"],"distanceKm":0.028666654000305533},{"id":"dessertsRestaurants_70ba1f9e9560","slug":"sokolata-agapitos-patisserie-1944-70ba","kind":"restaurant","name":"Sokolata Agapitos Patisserie 1944","lat":40.63465415609907,"lng":22.93927735818438,"url":"https://maps.app.goo.gl/M7U7vTzULNaTuLAg7?g_st=ic","address":"Tsimiski 10, Thessaloniki 546 24","categoryIds":["desserts"],"categories":["Dessert Shops"],"distanceKm":0.03262772573950166},{"id":"coffeeBrunchRestaurants_225892e0cbdd","slug":"the-garden-bar-2258","kind":"restaurant","name":"The Garden Bar","lat":40.63514609058183,"lng":22.939331222845976,"url":"https://maps.app.goo.gl/KEZ45GJ89m9DDXvb6?g_st=ipc","address":"Ag. Mina 16, Thessaloniki 546 24","categoryIds":["coffee-brunch"],"categories":["Coffee & Brunch Spots"],"distanceKm":0.07623651105661929},{"id":"burgersRestaurants_d54ba5e0c0be","slug":"pax-d54b","kind":"restaurant","name":"Pax","lat":40.63378366371667,"lng":22.938802932281405,"url":"https://maps.app.goo.gl/WZscxBG8wSCngxdz8?g_st=ipc","address":"Eleftheriou Venizelou &, Kalapothaki 8, Thessaloniki 546 24","categoryIds":["burgers"],"categories":["Burger Spots"],"distanceKm":0.08404200575519175},{"id":"dessertsRestaurants_e887adc877c7","slug":"choureal-choux-profiterole-e887","kind":"restaurant","name":"CHOUREAL - Choux & Profiterole","lat":40.63486867839386,"lng":22.939852872521865,"url":"https://maps.app.goo.gl/UwfdcZR8Tfa1XRB89?g_st=ipc","address":"El. Venizelou 20, Thessaloniki 546 24","categoryIds":["desserts"],"categories":["Dessert Shops"],"distanceKm":0.08672183414552392},{"id":"cheapEatsRestaurants_d643220ae6b0","slug":"thess-bao-d643","kind":"restaurant","name":"Thess Bao","lat":40.633724315611715,"lng":22.93899137586201,"url":"https://maps.app.goo.gl/eQJvB2FMkUEghr9y7?g_st=ipc","address":"Kalapothaki 3, Thessaloniki 546 45","categoryIds":["cheap-eats"],"categories":["Gyros & Cheap Eats"],"distanceKm":0.0901860514599998},{"id":"greekRestaurants_5000cd964e1b","slug":"omikron-5000","kind":"restaurant","name":"Όμικρον","lat":40.63443899234816,"lng":22.937636685469105,"url":"https://maps.app.goo.gl/HVh64N8h1M3abkrM6?g_st=ipc","address":"Οπλοποιού 3, Θεσσαλονίκη 546 25","categoryIds":["greek-restaurants"],"categories":["Greek Restaurants"],"distanceKm":0.10919907253347096},{"id":"asianRestaurants_50e903fa0513","slug":"empire-sushi-bar-50e9","kind":"restaurant","name":"Εmpire Sushi Bar","lat":40.63454338249302,"lng":22.937599876944155,"url":"https://maps.app.goo.gl/xtgjstGFH9sAG6Ya7?g_st=ipc","address":"Oplopiou 3, Thessaloniki 546 25","categoryIds":["asian"],"categories":["Asian Restaurants"],"distanceKm":0.11180004181219097},{"id":"greekRestaurants_c2e6150deb88","slug":"voukakrato-c2e6","kind":"restaurant","name":"Voukakrato","lat":40.63349594522131,"lng":22.938988829539237,"url":"https://maps.app.goo.gl/cB9vpTY1obWtd2Ck7?g_st=ipc","address":"Kalapothaki 6, Thessaloniki 546 24","categoryIds":["greek-restaurants"],"categories":["Greek Restaurants"],"distanceKm":0.11553084107064031},{"id":"cheapEatsRestaurants_7d5766fbf936","slug":"sesoula-street-food-7d57","kind":"restaurant","name":"SESOULA Street Food","lat":40.63477422793839,"lng":22.937577409662797,"url":"https://maps.app.goo.gl/831RBk3hM78pZN1a8?g_st=ipc","address":"Mitropoleos 6, Thessaloniki 546 25","categoryIds":["cheap-eats"],"categories":["Gyros & Cheap Eats"],"distanceKm":0.116791654014487},{"id":"asianRestaurants_169207d89dbd","slug":"sushi-city-1692","kind":"restaurant","name":"Sushi City","lat":40.633479553417104,"lng":22.939350429758118,"url":"https://maps.app.goo.gl/zBAUew3tfQKdJ3yX9","address":"Kalapothaki 7, Thessaloniki 546 45","categoryIds":["asian"],"categories":["Asian Restaurants"],"distanceKm":0.12260746075769353},{"id":"greekRestaurants_33ac18ee44f0","slug":"mamaloyka-33ac","kind":"restaurant","name":"Μαμαλούκα","lat":40.634129762929895,"lng":22.937535077448267,"url":"https://maps.app.goo.gl/gGsKj9f95wpoFDj7A?g_st=ipc","address":"Ίωνος Δραγoύμη 3, Θεσσαλονίκη 546 25","categoryIds":["greek-restaurants"],"categories":["Greek Restaurants"],"distanceKm":0.1255751050876085},{"id":"burgersRestaurants_ebadcc0c31a2","slug":"po-boys-skg-ebad","kind":"restaurant","name":"PO‘ BOYS skg","lat":40.63567624458847,"lng":22.93883473827237,"url":"https://maps.app.goo.gl/g2t2qtDt95d9ETNRA?g_st=ipc","address":"Ag. Mina 7, Thessaloniki 546 25","categoryIds":["burgers"],"categories":["Burger Spots"],"distanceKm":0.1272608317749502},{"id":"coffeeBrunchRestaurants_eb01fc18d144","slug":"mangiare-gastro-pizza-pasta-bar-eb01","kind":"restaurant","name":"Mangiare Gastro Pizza Pasta Bar","lat":40.63353783457787,"lng":22.939678053388604,"url":"https://maps.app.goo.gl/aWDb6qE5HF6MmFreA?g_st=ipc","address":"Mitropoleos 20, Thessaloniki 546 24","categoryIds":["coffee-brunch"],"categories":["Coffee & Brunch Spots"],"distanceKm":0.1276940913673051},{"id":"fishTavernasRestaurants_d0a79fe35429","slug":"7-thalasses-d0a7","kind":"restaurant","name":"7 Thalasses","lat":40.63335235155445,"lng":22.93920259335502,"url":"https://maps.app.goo.gl/Y7xSN6vCv7jLy7oPA?g_st=ipc","address":"Kalapothaki 10, Thessaloniki 546 24","categoryIds":["fish-tavernas","luxury-dining"],"categories":["Fish Tavernas","Luxury Dining"],"legacySlugs":["7-thalasses-f9b8"],"distanceKm":0.13344718387640034},{"id":"fishTavernasRestaurants_922d6e12caee","slug":"grada-nuevo-922d","kind":"restaurant","name":"Grada nuevo","lat":40.63326503370027,"lng":22.939389299837984,"url":"https://maps.app.goo.gl/rQ6F7EFgSPvzE7iK6?g_st=ipc","address":"Kalapothaki 14, Thessaloniki 546 24","categoryIds":["fish-tavernas","luxury-dining"],"categories":["Fish Tavernas","Luxury Dining"],"legacySlugs":["grada-nuevo-c78b"],"distanceKm":0.14642588295038517},{"id":"greekRestaurants_a6c1730c289f","slug":"akadimia-art-restaurant-a6c1","kind":"restaurant","name":"Ακαδημία art restaurant","lat":40.635868351005776,"lng":22.938600197259788,"url":"https://maps.app.goo.gl/tXw3izdEArtABRbT7?g_st=ipc","address":"Αγ. Μηνά 3, Θεσσαλονίκη 546 25","categoryIds":["greek-restaurants"],"categories":["Greek Restaurants"],"distanceKm":0.1509008931298785},{"id":"fishTavernasRestaurants_a41c35691ce2","slug":"kritikos-restaurant-port-a41c","kind":"restaurant","name":"Kritikos Restaurant Port","lat":40.63312219901904,"lng":22.938682406464917,"url":"https://maps.app.goo.gl/4a7sWdZdLkA9MqcNA?g_st=ipc","address":"Leof. Nikis 03, Thessaloniki 546 21","categoryIds":["fish-tavernas","luxury-dining"],"categories":["Fish Tavernas","Luxury Dining"],"legacySlugs":["kritikos-restaurant-port-b8a8"],"distanceKm":0.15828904907653715},{"id":"luxuryDiningRestaurants_1c1d2a89028b","slug":"clochard-1c1d","kind":"restaurant","name":"Clochard","lat":40.63347961221164,"lng":22.940223853089645,"url":"https://maps.app.goo.gl/kbkr5X52jL9fcqFi7?g_st=ipc","address":"Κομνηνών 10, Mitropoleos 23, Thessaloniki 546 24","categoryIds":["luxury-dining"],"categories":["Luxury Dining"],"distanceKm":0.16049449575405073},{"id":"luxuryDiningRestaurants_098393014e42","slug":"olympos-naoussa-0983","kind":"restaurant","name":"Olympos Naoussa","lat":40.63309915839342,"lng":22.938647906596046,"url":"https://maps.app.goo.gl/dnRtTeQACnMMpm9n9?g_st=ipc","address":"Leof. Nikis 5, Thessaloniki 546 24","categoryIds":["luxury-dining"],"categories":["Luxury Dining"],"distanceKm":0.16122591617296514},{"id":"asianRestaurants_788113ad98ac","slug":"sushaki-greek-sushi-experience-7881","kind":"restaurant","name":"Sushaki | Greek Sushi Experience","lat":40.63309136297845,"lng":22.939152229553493,"url":"https://maps.app.goo.gl/ggCr6zagpbao1wwt9","address":"Komninon 3, Thessaloniki 546 24","categoryIds":["asian"],"categories":["Asian Restaurants"],"distanceKm":0.16153649012711374},{"id":"greekRestaurants_af0b8e5d51b2","slug":"loupino-af0b","kind":"restaurant","name":"Loupino","lat":40.63421562776771,"lng":22.937015451825886,"url":"https://maps.app.goo.gl/iGLD7SMDZ7Y8N12R8?g_st=ipc","address":"Κατούνη 4, Θεσσαλονίκη 546 25","categoryIds":["greek-restaurants"],"categories":["Greek Restaurants"],"distanceKm":0.16494996905240827}],"sameRegion":[],"mentionedGuides":[],"canonicalSlug":"cena-e8e9","isCanonicalEntity":true,"enrichment":{"summary_en":"Cena is a curated restaurant in Thessaloniki 546 24 in the Italian Restaurants collection. It is connected to 147 nearby Googlementor picks to help travelers build a stronger local route.","summary_el":"Cena είναι ένα επιλεγμένο σημείο φαγητού στην περιοχή Thessaloniki 546 24 και ανήκει στη συλλογή Italian Restaurants. Συνδέεται με 147 κοντινές προτάσεις του Googlementor για πιο ολοκληρωμένη εμπειρία.","vibe_tags":["curated"],"best_for":["first-time visitors","food lovers"],"visit_moments":["lunch stop","dinner stop"],"practical_note":"Address and direct map link are available for easy turn-by-turn access.","nearby_walkable_count":147,"nearby_count_2km":259,"confidence":0.98}},"__N_SSG":true}