{"pageProps":{"entity":{"id":"greekRestaurants_61b5e2a0e0ab","slug":"estiatorio-thomas-61b5","kind":"restaurant","name":"ΕΣΤΙΑΤΟΡΙΟ ΘΩΜΑΣ","lat":40.624719539192625,"lng":21.50165204724572,"url":"https://maps.app.goo.gl/2bdGzZibgXKMFbu56?g_st=ipc","address":"ΑΜΥΝΤΑΙΟ 530 75","categoryIds":["greek-restaurants"],"categories":["Greek Restaurants"]},"sameCategory":[{"id":"greekRestaurants_a1e0b45c2175","slug":"opos-palia-a1e0","kind":"restaurant","name":"Όπως Παλιά","lat":40.516459246402064,"lng":22.091097986857875,"url":"https://maps.app.goo.gl/N33JSjsamCUmz8TN7?g_st=ipc","address":"Κεντρικός δρόμος Κουμαριάς -Σελιου, Κουμαριά 591 32","categoryIds":["greek-restaurants"],"categories":["Greek Restaurants"]},{"id":"greekRestaurants_be297b509b05","slug":"vergiotiko-be29","kind":"restaurant","name":"Βεργιώτικο","lat":40.51968475945456,"lng":22.2039284722324,"url":"https://maps.app.goo.gl/wi8AuWq5DENoFUXG9?g_st=ipc","address":"thomaidoy 2, Βέροια 591 32","categoryIds":["greek-restaurants"],"categories":["Greek Restaurants"]},{"id":"greekRestaurants_0981b7de54f0","slug":"to-palio-podilato-0981","kind":"restaurant","name":"Το Παλιό Ποδήλατο","lat":40.488027534727074,"lng":22.213478399857028,"url":"https://maps.app.goo.gl/ceUirhjtqEWPKLQM6?g_st=ipc","address":"Ράχη 591 32","categoryIds":["greek-restaurants"],"categories":["Greek Restaurants"]},{"id":"greekRestaurants_3811b6034323","slug":"paradosiaki-taverna-i-tsioyrgiaka-enoikiazomena-domatia-3811","kind":"restaurant","name":"Παραδοσιακή Ταβέρνα \"η Τσιούργιακα\" - Ενοικιαζόμενα Δωμάτια","lat":40.079571651875234,"lng":21.18215440733225,"url":"https://maps.app.goo.gl/TpqmBy42hQoUhFFw8?g_st=ipc","address":"Αετία 511 00","categoryIds":["greek-restaurants"],"categories":["Greek Restaurants"]},{"id":"greekRestaurants_83a8e7a17218","slug":"tsi-tsi-soyvla-mpar-83a8","kind":"restaurant","name":"Tsi Tsi Σουβla Mπαr","lat":40.62759907137701,"lng":22.441073335584885,"url":"https://maps.app.goo.gl/8Ekwg8Pc5gmDyw82A?g_st=ipc","address":"Eth. Antistasis 50, Alexandria 593 00","categoryIds":["greek-restaurants"],"categories":["Greek Restaurants"]},{"id":"greekRestaurants_ed78d50703bc","slug":"pelorios-ed78","kind":"restaurant","name":"ΠΕΛΩΡΙΟΣ","lat":40.76115060594356,"lng":22.490515886367657,"url":"https://maps.app.goo.gl/mycus3UK8H4JRUHLA?g_st=ipc","address":"ΕΟ Γιαννιτσών Θεσσαλονίκης 13, Νέα Πέλλα 580 05","categoryIds":["greek-restaurants"],"categories":["Greek Restaurants"]},{"id":"greekRestaurants_a5a7e6319368","slug":"taverna-archontiko-charinas-a5a7","kind":"restaurant","name":"Ταβέρνα Αρχοντικό Χαρινάς","lat":40.67152765437554,"lng":22.606881011648337,"url":"https://maps.app.goo.gl/R9gf3cRdrbFmw8LA7?g_st=ipc","address":"Άδενδρο 570 07","categoryIds":["greek-restaurants"],"categories":["Greek Restaurants"]},{"id":"greekRestaurants_0765f66fde9c","slug":"to-koytoyki-toy-nikola-0765","kind":"restaurant","name":"Το Κουτούκι του Νικόλα","lat":39.771642404674424,"lng":21.182737734785334,"url":"https://maps.app.goo.gl/rmdJZN2MRYsrSWWi7?g_st=ipc","address":"Τοσίτσα 6, Μέτσοβο 442 00","categoryIds":["greek-restaurants"],"categories":["Greek Restaurants"]},{"id":"greekRestaurants_05c7d7fb8213","slug":"fortoynis-tsipoyradiko-05c7","kind":"restaurant","name":"Φορτούνης, Τσιπουράδικο.","lat":39.707884842626186,"lng":21.625293841539552,"url":"https://maps.app.goo.gl/sULQJWCWbd9v5WuA9?g_st=ipc","address":"z, Βλαχάβα 23, Καλαμπάκα 422 00","categoryIds":["greek-restaurants"],"categories":["Greek Restaurants"]},{"id":"greekRestaurants_3b8e67bf08cc","slug":"estiatorio-panellinio-3b8e","kind":"restaurant","name":"Εστιατόριο Πανελλήνιο","lat":39.7071570806949,"lng":21.62351645286361,"url":"https://maps.app.goo.gl/hqPauRQr76VYpZir6?g_st=ipc","address":"Πλατεία Δημαρχείου, Καλαμπάκα 422 00","categoryIds":["greek-restaurants"],"categories":["Greek Restaurants"]},{"id":"greekRestaurants_df023e747e5f","slug":"kanela-kai-garyfallo-mushroom-restaurant-df02","kind":"restaurant","name":"ΚΑΝΕΛΑ ΚΑΙ ΓΑΡΥΦΑΛΛΟ, Mushroom Restaurant","lat":39.873717064633475,"lng":20.75043313227449,"url":"https://maps.app.goo.gl/RMbRCUycwB1E3Sf99?g_st=ipc","address":"Κεντρική Οδός Βίτσας, Βίτσα Ζαγορίου 440 07","categoryIds":["greek-restaurants"],"categories":["Greek Restaurants"]},{"id":"greekRestaurants_35d8717196c2","slug":"taverna-oyzeri-plateia-35d8","kind":"restaurant","name":"Ταβέρνα Ουζερί Πλατεία","lat":40.689496085376405,"lng":22.856919434456977,"url":"https://maps.app.goo.gl/DEtWfVmzXSzTpbjD9?g_st=ipc","address":"Ρήγα Φεραίου 1, Δέλτα 570 08","categoryIds":["greek-restaurants"],"categories":["Greek Restaurants"]}],"nearby":[{"id":"wineriesVineyards_b94be12d54af","slug":"ktima-dimopoylos-b94b","kind":"restaurant","name":"Κτήμα Δημόπουλος","lat":40.69536137671463,"lng":21.639884501803266,"url":"https://maps.app.goo.gl/vbjKsFrGPLCsWRvm7?g_st=ipc","address":"1ο χλμ, Xino Nero 530 72","categoryIds":["wineries-vineyards"],"categories":["Wineries & Vineyards"],"distanceKm":14.059111189332347},{"id":"municipalities_56af70d2af49","slug":"ptolemaida-56af","kind":"municipality","name":"Πτολεμαΐδα","lat":40.5167,"lng":21.6667,"region":"Δυτική Μακεδονία","name_en":"Ptolemaida","region_en":"Western Macedonia","distanceKm":18.401368128105382},{"id":"wineriesVineyards_5861d01e2ac1","slug":"alpha-estate-5861","kind":"restaurant","name":"Alpha Estate","lat":40.6946468662729,"lng":21.7063723336842,"url":"https://maps.app.goo.gl/3PDmKNgZdxnTo6Yg8?g_st=ipc","address":"2ο χλμ, Ag. Panteleimon 532 00","categoryIds":["wineries-vineyards"],"categories":["Wineries & Vineyards"],"distanceKm":18.938329726124902},{"id":"municipalities_7fd935ddd138","slug":"florina-7fd9","kind":"municipality","name":"Φλώρινα","lat":40.8167,"lng":21.4167,"region":"Δυτική Μακεδονία","name_en":"Florina","region_en":"Western Macedonia","distanceKm":22.515783076374692},{"id":"wineriesVineyards_49827f52117e","slug":"oinopoieia-vegoritis-4982","kind":"restaurant","name":"Οινοποιεία Βεγορίτις","lat":40.73416864325467,"lng":21.7391401355809,"url":"https://maps.app.goo.gl/MXd7HMch31d1vFaGA?g_st=ipc","address":"Αγ. Παντελεήμονας, Ag. Panteleimon 532 00","categoryIds":["wineries-vineyards"],"categories":["Wineries & Vineyards"],"distanceKm":23.434524839651857},{"id":"municipalities_6cef2b87b118","slug":"kastoria-6cef","kind":"municipality","name":"Καστοριά","lat":40.5181,"lng":21.26,"region":"Δυτική Μακεδονία","name_en":"Kastoria","region_en":"Western Macedonia","distanceKm":23.604035713206848}],"sameRegion":[],"mentionedGuides":[],"canonicalSlug":"estiatorio-thomas-61b5","isCanonicalEntity":true,"enrichment":{"summary_en":"ΕΣΤΙΑΤΟΡΙΟ ΘΩΜΑΣ is a curated restaurant in Greece in the Greek Restaurants collection. It is connected to 0 nearby Googlementor picks to help travelers build a stronger local route.","summary_el":"ΕΣΤΙΑΤΟΡΙΟ ΘΩΜΑΣ είναι ένα επιλεγμένο σημείο φαγητού στην περιοχή Greece και ανήκει στη συλλογή Greek Restaurants. Συνδέεται με 0 κοντινές προτάσεις του Googlementor για πιο ολοκληρωμένη εμπειρία.","vibe_tags":["curated"],"best_for":["first-time visitors","food lovers"],"visit_moments":["lunch stop","dinner stop"],"practical_note":"Address and direct map link are available for easy turn-by-turn access.","nearby_walkable_count":0,"nearby_count_2km":0,"confidence":0.9}},"__N_SSG":true}