{"pageProps":{"entity":{"id":"fishTavernasRestaurants_df6d0cb0c542","slug":"fratzeskos-tavern-df6d","kind":"restaurant","name":"Fratzeskos tavern","lat":36.35690375814628,"lng":25.475715801192347,"url":"https://maps.app.goo.gl/jm2dpd1gs6ZU1Gb48?g_st=ipc","address":"Perissa 847 03","categoryIds":["fish-tavernas"],"categories":["Fish Tavernas"]},"sameCategory":[{"id":"fishTavernasRestaurants_f99700801233","slug":"the-nets-f997","kind":"restaurant","name":"Τhe Nets","lat":36.340213032449526,"lng":25.45472858487458,"url":"https://maps.app.goo.gl/RiiBmieqG8r1Dh4o9?g_st=ipc","address":"Perivolos Beach, Santorini 847 00","categoryIds":["fish-tavernas"],"categories":["Fish Tavernas"]},{"id":"fishTavernasRestaurants_dac8860b7404","slug":"to-psaraki-dac8","kind":"restaurant","name":"To Psaraki","lat":36.33792749755298,"lng":25.43489591016144,"url":"https://maps.app.goo.gl/WeAqEXpj73UsAVaH8?g_st=ipc","address":"Marina, Vlichada 847 00","categoryIds":["fish-tavernas"],"categories":["Fish Tavernas"]},{"id":"fishTavernasRestaurants_2d350f785ac9","slug":"triana-tavern-2d35","kind":"restaurant","name":"Triana Tavern","lat":36.42013344956067,"lng":25.432032180485958,"url":"https://maps.app.goo.gl/FwBmnh2RPeVaK64U6?g_st=ipc","address":"25is Martiou 405, Thira 847 00","categoryIds":["fish-tavernas"],"categories":["Fish Tavernas"]},{"id":"fishTavernasRestaurants_3a6d2de72ff3","slug":"yalos-3a6d","kind":"restaurant","name":"Yalos","lat":36.429358736881454,"lng":25.45892129944303,"url":"https://maps.app.goo.gl/LaFf3b4PU7b9Fdin8?g_st=ipc","address":"Έξω Γιαλός Θήρας 847 00","categoryIds":["fish-tavernas"],"categories":["Fish Tavernas"]},{"id":"fishTavernasRestaurants_f0432a23e1ec","slug":"roza-s-f043","kind":"restaurant","name":"Roza's","lat":36.43483486218363,"lng":25.4369605787624,"url":"https://maps.app.goo.gl/E5GA7Cu7XS5a5jut9?g_st=ipc","address":"Vourvoulos Santorini Island, 847 00","categoryIds":["fish-tavernas"],"categories":["Fish Tavernas"]},{"id":"fishTavernasRestaurants_088f1a113b0b","slug":"afropsaro-santorini-088f","kind":"restaurant","name":"Afropsaro Santorini","lat":36.44373697181477,"lng":25.4260466585142,"url":"https://maps.app.goo.gl/ocoYehgdG9tZzoCd6?g_st=ipc","address":"Imerovigli 847 00","categoryIds":["fish-tavernas","luxury-dining"],"categories":["Fish Tavernas","Luxury Dining"],"legacySlugs":["afropsaro-santorini-da47"]},{"id":"fishTavernasRestaurants_1b4735e87a52","slug":"koubara-seafood-bar-restaurant-1b47","kind":"restaurant","name":"Koubara Seafood Bar Restaurant","lat":36.72514063337273,"lng":25.257265066552723,"url":"https://maps.app.goo.gl/kT2ULB9zvGfgQDHr6?g_st=ipc","address":"Κουμπάρα 840 01","categoryIds":["fish-tavernas"],"categories":["Fish Tavernas"]},{"id":"fishTavernasRestaurants_32f44df2e3e6","slug":"mouragio-taverna-32f4","kind":"restaurant","name":"Mouragio Taverna","lat":36.82713304585838,"lng":25.86300862920973,"url":"https://maps.app.goo.gl/qeiMhDDAhTy881ZMA?g_st=ipc","address":"Κατάπολα 840 08","categoryIds":["fish-tavernas"],"categories":["Fish Tavernas"]},{"id":"fishTavernasRestaurants_5505aae10c35","slug":"capetan-dimos-5505","kind":"restaurant","name":"Capetan Dimos","lat":36.826649786040434,"lng":25.864391545420993,"url":"https://maps.app.goo.gl/J1yUSdS75CdNMzon8?g_st=ipc","address":"Κατάπολα 840 08","categoryIds":["fish-tavernas"],"categories":["Fish Tavernas"]},{"id":"fishTavernasRestaurants_8f48155428a0","slug":"almyriki-8f48","kind":"restaurant","name":"Almyriki","lat":36.83118579310379,"lng":25.86459980269408,"url":"https://maps.app.goo.gl/eknLukeQuWd7G4fW8?g_st=ipc","address":"Katapola, Xilokeratidi 840 08","categoryIds":["fish-tavernas"],"categories":["Fish Tavernas"]},{"id":"fishTavernasRestaurants_368ca3267414","slug":"capetan-nikolas-368c","kind":"restaurant","name":"CAPETAN NIKOLAS","lat":36.931591561962186,"lng":25.597135247422372,"url":"https://maps.app.goo.gl/5J1tsPBuPnJDQAsV7?g_st=ipc","address":"Koufonisia 843 00","categoryIds":["fish-tavernas"],"categories":["Fish Tavernas"]},{"id":"fishTavernasRestaurants_da1220f4c7c3","slug":"limani-restaurant-da12","kind":"restaurant","name":"Limani Restaurant","lat":36.901162221052765,"lng":25.976288792173918,"url":"https://maps.app.goo.gl/CFKDV9FzeK4koTmt5?g_st=ipc","address":"Αιγιάλη 840 08","categoryIds":["fish-tavernas"],"categories":["Fish Tavernas"]}],"nearby":[{"id":"municipalities_1eedf0b4b9bd","slug":"perissa-1eed","kind":"municipality","name":"Περίσσα","lat":36.3536,"lng":25.4739,"region":"Σαντορίνη","name_en":"Perissa","region_en":"Santorini","distanceKm":0.40174064857394093},{"id":"municipalities_4a175944114f","slug":"kamari-4a17","kind":"municipality","name":"Καμάρι","lat":36.3711,"lng":25.4804,"region":"Σαντορίνη","name_en":"Kamari","region_en":"Santorini","distanceKm":1.6333224395175552},{"id":"fishTavernasRestaurants_f99700801233","slug":"the-nets-f997","kind":"restaurant","name":"Τhe Nets","lat":36.340213032449526,"lng":25.45472858487458,"url":"https://maps.app.goo.gl/RiiBmieqG8r1Dh4o9?g_st=ipc","address":"Perivolos Beach, Santorini 847 00","categoryIds":["fish-tavernas"],"categories":["Fish Tavernas"],"distanceKm":2.6414678969476255},{"id":"wineriesVineyards_2027b94783da","slug":"estate-argyros-2027","kind":"restaurant","name":"Estate Argyros","lat":36.3830947529534,"lng":25.464730249935148,"url":"https://maps.app.goo.gl/9Lgq7u7XqsKL7QdL8?g_st=ipc","address":"Episkopi Gonias 847 00","categoryIds":["wineries-vineyards"],"categories":["Wineries & Vineyards"],"distanceKm":3.073917525421681},{"id":"wineriesVineyards_6d919bba0952","slug":"canava-roussos-6d91","kind":"restaurant","name":"Canava Roussos","lat":36.38413007796539,"lng":25.46332243806347,"url":"https://maps.app.goo.gl/yATMtq83jmsb3HWJ9?g_st=ipc","address":"Episkopi Gonias 847 00","categoryIds":["wineries-vineyards"],"categories":["Wineries & Vineyards"],"distanceKm":3.2243756519851847},{"id":"wineriesVineyards_19f34df9ea94","slug":"art-space-art-gallery-winery-museum-19f3","kind":"restaurant","name":"Art Space Art Gallery - Winery - Museum","lat":36.385965387765225,"lng":25.460385388763417,"url":"https://maps.app.goo.gl/21dhPUgPmbLqpjpb9?g_st=ipc","address":"Έξω Γωνιά 847 00","categoryIds":["wineries-vineyards"],"categories":["Wineries & Vineyards"],"distanceKm":3.5109256659397134},{"id":"wineriesVineyards_c14f70416a30","slug":"hatzidakis-winery-c14f","kind":"restaurant","name":"Hatzidakis Winery","lat":36.371163398793655,"lng":25.439369057100784,"url":"https://maps.app.goo.gl/kvS8SgMB33y9p72M7?g_st=ipc","address":"Kallisti, Pyrgos, Thira, 84701, Santorini 847 00","categoryIds":["wineries-vineyards"],"categories":["Wineries & Vineyards"],"distanceKm":3.6202447524240804},{"id":"wineriesVineyards_8ab3932f0db2","slug":"artemis-karamolegos-8ab3","kind":"restaurant","name":"Artemis Karamolegos","lat":36.38835128439954,"lng":25.46365749287468,"url":"https://maps.app.goo.gl/6kQf3bRiieM4P2Es8?g_st=ipc","address":"Έξω Γωνιά 847 00","categoryIds":["wineries-vineyards"],"categories":["Wineries & Vineyards"],"distanceKm":3.6596698834386703},{"id":"greekRestaurants_75e240e1e1c8","slug":"metaxy-mas-75e2","kind":"restaurant","name":"Μεταξύ Μας","lat":36.388052739264,"lng":25.45733589994344,"url":"https://maps.app.goo.gl/ncT3pVMegecbmYeZ8?g_st=ipc","address":"Έξω Γωνιά 847 00","categoryIds":["greek-restaurants"],"categories":["Greek Restaurants"],"distanceKm":3.8346494581631694},{"id":"wineriesVineyards_28e385a5b348","slug":"gaia-winery-santorini-28e3","kind":"restaurant","name":"Gaia Winery Santorini","lat":36.391347708444265,"lng":25.485792242462427,"url":"https://maps.app.goo.gl/MLYCkmtcnHSNEbdT6?g_st=ipc","address":"Θέση Βραχειές, Έξω Γωνιά, Perivolia 847 00","categoryIds":["wineries-vineyards"],"categories":["Wineries & Vineyards"],"distanceKm":3.9348067563918847},{"id":"fishTavernasRestaurants_dac8860b7404","slug":"to-psaraki-dac8","kind":"restaurant","name":"To Psaraki","lat":36.33792749755298,"lng":25.43489591016144,"url":"https://maps.app.goo.gl/WeAqEXpj73UsAVaH8?g_st=ipc","address":"Marina, Vlichada 847 00","categoryIds":["fish-tavernas"],"categories":["Fish Tavernas"],"distanceKm":4.221095306062458},{"id":"municipalities_5b32b43e93f7","slug":"santorini-5b32","kind":"municipality","name":"Σαντορίνη","lat":36.3932,"lng":25.4615,"aliases":["Thira","Thera","Santorin","Σαντορίνα","Σαντορινη","Θήρα","Θηρα"],"region":"Κυκλάδες","name_en":"Santorini","region_en":"Cyclades","distanceKm":4.231876998982959},{"id":"wineriesVineyards_95bc9b62cb5b","slug":"gavalas-winery-95bc","kind":"restaurant","name":"Gavalas Winery","lat":36.37555701249798,"lng":25.430540537475494,"url":"https://maps.app.goo.gl/HU6QyLSjJ1YzxuXn8?g_st=ipc","address":"Megalochori 847 00","categoryIds":["wineries-vineyards"],"categories":["Wineries & Vineyards"],"distanceKm":4.545732446460007},{"id":"wineriesVineyards_ddfea8113f2e","slug":"cave-wine-museum-winery-koutsogiannopoulos-santorini-yposkafo-moyseio-oinoy-oinopoieio-koytsogiannopoylos-georgios-ddfe","kind":"restaurant","name":"Cave Wine Museum - Winery Koutsogiannopoulos Santorini (Υπόσκαφο Μουσείο Οίνου - Οινοποιείο Κουτσογιαννόπουλος Γεώργιος)","lat":36.39672195171486,"lng":25.460144574368652,"url":"https://maps.app.goo.gl/aGUb6MruiHYUGV8m8?g_st=ipc","address":"Βόθωνας, Βοθωνας 847 00","categoryIds":["wineries-vineyards"],"categories":["Wineries & Vineyards"],"distanceKm":4.641856077043159},{"id":"wineriesVineyards_240cb6f5f493","slug":"boutari-winery-santorini-240c","kind":"restaurant","name":"Boutari Winery Santorini","lat":36.370584852516764,"lng":25.424958035575884,"url":"https://maps.app.goo.gl/5hnUYLAqB6RjWasSA?g_st=ipc","address":"Μεγαλοχώρι, Μεγαλοχώρι, Σαντορίνη 847 00","categoryIds":["wineries-vineyards"],"categories":["Wineries & Vineyards"],"distanceKm":4.79278325588018},{"id":"wineriesVineyards_a511a6e649e6","slug":"venetsanos-winery-a511","kind":"restaurant","name":"Venetsanos Winery","lat":36.38233875963969,"lng":25.43152035534749,"url":"https://maps.app.goo.gl/ptjxxz2nqAmMqrjo9?g_st=ipc","address":"Caldera Megalochori, Santorini Island 847 00","categoryIds":["wineries-vineyards"],"categories":["Wineries & Vineyards"],"distanceKm":4.863861205035719},{"id":"wineriesVineyards_0d0a1ba0c3f9","slug":"santo-wines-0d0a","kind":"restaurant","name":"Santo Wines","lat":36.38756634157811,"lng":25.436746775584044,"url":"https://maps.app.goo.gl/BfpzWvX44GGmmqF99?g_st=ipc","address":"Πύργος Καλλίστης 847 00","categoryIds":["wineries-vineyards"],"categories":["Wineries & Vineyards"],"distanceKm":4.8783005004026725},{"id":"greekRestaurants_d26a24d58941","slug":"taverva-skaramagas-d26a","kind":"restaurant","name":"Taverva Skaramagas","lat":36.412079815836925,"lng":25.481638821541313,"url":"https://maps.app.goo.gl/zYEpZfjMiTY39WHB8?g_st=ipc","address":"Μονόλιθος 847 00","categoryIds":["greek-restaurants"],"categories":["Greek Restaurants"],"distanceKm":6.158165914199661},{"id":"mustSeeAttractions_fcaf48a77b52","slug":"akrotiri-fcaf","kind":"restaurant","name":"Akrotiri","lat":36.351796236748676,"lng":25.403447201033227,"url":"https://maps.app.goo.gl/wBKcGui1HWeMLpjPA?g_st=ipc","address":"Fira 847 00","categoryIds":["attractions"],"categories":["Must-See Attractions"],"distanceKm":6.496715916200159},{"id":"municipalities_d0dfb358cefd","slug":"fira-d0df","kind":"municipality","name":"Φηρά","lat":36.4167,"lng":25.4326,"region":"Σαντορίνη","name_en":"Fira","region_en":"Santorini","distanceKm":7.688019128510253},{"id":"coffeeBrunchRestaurants_2e5d658747f2","slug":"svoronos-bakery-2e5d","kind":"restaurant","name":"Svoronos Bakery","lat":36.419048608663665,"lng":25.432096523213673,"url":"https://maps.app.goo.gl/UiCZYg6Gt2wABcPE8?g_st=ipc","address":"Greece, 25is Martiou, Thira 847 00","categoryIds":["coffee-brunch"],"categories":["Coffee & Brunch Spots"],"distanceKm":7.9370105229849885},{"id":"fishTavernasRestaurants_2d350f785ac9","slug":"triana-tavern-2d35","kind":"restaurant","name":"Triana Tavern","lat":36.42013344956067,"lng":25.432032180485958,"url":"https://maps.app.goo.gl/FwBmnh2RPeVaK64U6?g_st=ipc","address":"25is Martiou 405, Thira 847 00","categoryIds":["fish-tavernas"],"categories":["Fish Tavernas"],"distanceKm":8.045036999447765},{"id":"luxuryDiningRestaurants_c4314de9f562","slug":"alali-restaurant-c431","kind":"restaurant","name":"Alali Restaurant","lat":36.36348374683768,"lng":25.385971079626298,"url":"https://maps.app.goo.gl/bj4VGwDTK6k29a2h8?g_st=ipc","address":"epar. od. akrotiriou, Akrotiri 847 00","categoryIds":["luxury-dining"],"categories":["Luxury Dining"],"distanceKm":8.069512368669477},{"id":"fishTavernasRestaurants_3a6d2de72ff3","slug":"yalos-3a6d","kind":"restaurant","name":"Yalos","lat":36.429358736881454,"lng":25.45892129944303,"url":"https://maps.app.goo.gl/LaFf3b4PU7b9Fdin8?g_st=ipc","address":"Έξω Γιαλός Θήρας 847 00","categoryIds":["fish-tavernas"],"categories":["Fish Tavernas"],"distanceKm":8.195667183076663}],"sameRegion":[],"mentionedGuides":[],"canonicalSlug":"fratzeskos-tavern-df6d","isCanonicalEntity":true,"enrichment":{"summary_en":"Fratzeskos tavern is a curated restaurant in Greece in the Fish Tavernas collection. It is connected to 1 nearby Googlementor picks to help travelers build a stronger local route.","summary_el":"Fratzeskos tavern είναι ένα επιλεγμένο σημείο φαγητού στην περιοχή Greece και ανήκει στη συλλογή Fish Tavernas. Συνδέεται με 1 κοντινές προτάσεις του Googlementor για πιο ολοκληρωμένη εμπειρία.","vibe_tags":["curated","seafood-local"],"best_for":["first-time visitors","food lovers"],"visit_moments":["lunch stop","dinner stop"],"practical_note":"Address and direct map link are available for easy turn-by-turn access.","nearby_walkable_count":1,"nearby_count_2km":2,"confidence":0.9}},"__N_SSG":true}