{"pageProps":{"entity":{"id":"fishTavernasRestaurants_34f5266090d9","slug":"frutti-di-mare-34f5","kind":"restaurant","name":"Frutti Di Mare","lat":40.63438694848729,"lng":22.940888460152426,"url":"https://maps.app.goo.gl/QXynDpqsYRkbv9EK8?g_st=ipc","address":"Komninon 20, Thessaloniki 546 24","categoryIds":["fish-tavernas"],"categories":["Fish Tavernas"]},"sameCategory":[{"id":"fishTavernasRestaurants_922d6e12caee","slug":"grada-nuevo-922d","kind":"restaurant","name":"Grada nuevo","lat":40.63326503370027,"lng":22.939389299837984,"url":"https://maps.app.goo.gl/rQ6F7EFgSPvzE7iK6?g_st=ipc","address":"Kalapothaki 14, Thessaloniki 546 24","categoryIds":["fish-tavernas","luxury-dining"],"categories":["Fish Tavernas","Luxury Dining"],"legacySlugs":["grada-nuevo-c78b"]},{"id":"fishTavernasRestaurants_d0a79fe35429","slug":"7-thalasses-d0a7","kind":"restaurant","name":"7 Thalasses","lat":40.63335235155445,"lng":22.93920259335502,"url":"https://maps.app.goo.gl/Y7xSN6vCv7jLy7oPA?g_st=ipc","address":"Kalapothaki 10, Thessaloniki 546 24","categoryIds":["fish-tavernas","luxury-dining"],"categories":["Fish Tavernas","Luxury Dining"],"legacySlugs":["7-thalasses-f9b8"]},{"id":"fishTavernasRestaurants_8f9bed2e06ef","slug":"mezen-salonica-8f9b","kind":"restaurant","name":"Mezen Salonica","lat":40.634689809940646,"lng":22.93869474433628,"url":"https://maps.app.goo.gl/gwG2QG5GLKMHTAKd8?g_st=ipc","address":"Rogkoti 3, Thessaloniki 546 24","categoryIds":["fish-tavernas"],"categories":["Fish Tavernas"]},{"id":"fishTavernasRestaurants_a41c35691ce2","slug":"kritikos-restaurant-port-a41c","kind":"restaurant","name":"Kritikos Restaurant Port","lat":40.63312219901904,"lng":22.938682406464917,"url":"https://maps.app.goo.gl/4a7sWdZdLkA9MqcNA?g_st=ipc","address":"Leof. Nikis 03, Thessaloniki 546 21","categoryIds":["fish-tavernas","luxury-dining"],"categories":["Fish Tavernas","Luxury Dining"],"legacySlugs":["kritikos-restaurant-port-b8a8"]},{"id":"fishTavernasRestaurants_848f1aa03974","slug":"bakaliarakia-tou-aristou-848f","kind":"restaurant","name":"Bakaliarakia tou Aristou","lat":40.634280544207144,"lng":22.93689333971641,"url":"https://maps.app.goo.gl/Y3cfc1d6DqQAP2VX9?g_st=ipc","address":"Katouni 3, Thessaloniki 546 25","categoryIds":["fish-tavernas"],"categories":["Fish Tavernas"]},{"id":"fishTavernasRestaurants_8db62faa099d","slug":"soyrtoyko-mezedopoleio-8db6","kind":"restaurant","name":"Σουρτουκω μεζεδοπωλειο","lat":40.63587084309679,"lng":22.93649033295163,"url":"https://maps.app.goo.gl/2gKngBbQebvZETCi6?g_st=ipc","address":"Likourgou 3, Thessaloniki 546 25","categoryIds":["fish-tavernas"],"categories":["Fish Tavernas"]},{"id":"fishTavernasRestaurants_ec7fddf4df43","slug":"mourga-ec7f","kind":"restaurant","name":"Mourga","lat":40.635412338789585,"lng":22.94963013274726,"url":"https://maps.app.goo.gl/u7q8zzuEjPhJ53mR7?g_st=ipc","address":"Christopoulou 12, Thessaloniki 546 35","categoryIds":["fish-tavernas"],"categories":["Fish Tavernas"]},{"id":"fishTavernasRestaurants_00693f87c0e2","slug":"new-galerius-0069","kind":"restaurant","name":"New Galerius","lat":40.631035931747235,"lng":22.949361572047398,"url":"https://maps.app.goo.gl/gjbLLdPASWWyhgcMA?g_st=ipc","address":"Apellou 3, Thessaloniki 546 22","categoryIds":["fish-tavernas"],"categories":["Fish Tavernas"]},{"id":"fishTavernasRestaurants_d45de4d8396f","slug":"marea-sea-spirit-d45d","kind":"restaurant","name":"MAREA sea spirit","lat":40.628341964657956,"lng":22.947576121389986,"url":"https://maps.app.goo.gl/Ck1Kd1PfuHwFhziJ6?g_st=ipc","address":"Margariti Lori 13, Thessaloniki 546 22","categoryIds":["fish-tavernas"],"categories":["Fish Tavernas"]},{"id":"fishTavernasRestaurants_58ab1d4f1af2","slug":"ouzerie-lola-58ab","kind":"restaurant","name":"Ouzerie Lola","lat":40.63145175292193,"lng":22.952078380847976,"url":"https://maps.app.goo.gl/idPwmz3cDUMQDRf87?g_st=ipc","address":"Agapinou 10, Thessaloniki 546 21","categoryIds":["fish-tavernas"],"categories":["Fish Tavernas"]},{"id":"fishTavernasRestaurants_f7102e19ba0d","slug":"koukida-fun-seafood-f710","kind":"restaurant","name":"Koukida Fun-Seafood","lat":40.643445839214266,"lng":22.95570392041812,"url":"https://maps.app.goo.gl/B9KYRcx4RDrq1Zh48?g_st=ipc","address":"Agrafon 13, Thessaloniki 546 34","categoryIds":["fish-tavernas"],"categories":["Fish Tavernas"]},{"id":"fishTavernasRestaurants_a0a70eb01c99","slug":"ouzeri-kosmas-a0a7","kind":"restaurant","name":"Ouzeri \"Kosmas\"","lat":40.64801268123014,"lng":22.93043130003418,"url":"https://maps.app.goo.gl/vEURBm27mFZ4pGJfA?g_st=ipc","address":"Vasilikis Papathanasiou 74, Thessaloniki 546 29","categoryIds":["fish-tavernas"],"categories":["Fish Tavernas"]}],"nearby":[{"id":"vegetarianRestaurants_32a8aea960ab","slug":"falafel-taste-middle-east-32a8","kind":"restaurant","name":"Falafel Taste Middle East","lat":40.63474906740278,"lng":22.94144363936892,"url":"https://maps.app.goo.gl/WjaRXr3X47WgLXLC6?g_st=ipc","address":"Agora Modiano, Vasileos Irakleiou 33, Thessaloniki 546 24","categoryIds":["vegetarian"],"categories":["Vegetarian Friendly Restaurants"],"distanceKm":0.0617742865078212},{"id":"cheapEatsRestaurants_5ddb8d5c463a","slug":"kyrios-mpampatsikos-5ddb","kind":"restaurant","name":"Κύριος Μπαμπάτσικος","lat":40.63461122232153,"lng":22.941727966275263,"url":"https://maps.app.goo.gl/dBrKhYFMn7bdAAyAA?g_st=ipc","address":"Vasileos Irakleiou 33, Thessaloniki 546 24","categoryIds":["cheap-eats"],"categories":["Gyros & Cheap Eats"],"distanceKm":0.07510182809982913},{"id":"coffeeBrunchRestaurants_c75ff3cb9f5e","slug":"rafiki-outdoors-c75f","kind":"restaurant","name":"Rafiki Outdoors","lat":40.63384593288072,"lng":22.94144670060357,"url":"https://maps.app.goo.gl/EDFEAtyxnASt6ymy5?g_st=ipc","address":"Tsimiski 33, Thessaloniki 546 34","categoryIds":["coffee-brunch"],"categories":["Coffee & Brunch Spots"],"distanceKm":0.07640704723063084},{"id":"greekRestaurants_4c3b01ea4aaf","slug":"bazagiazi-4c3b","kind":"restaurant","name":"Bazagiazi","lat":40.63449745236604,"lng":22.94197317773979,"url":"https://maps.app.goo.gl/aQvcxn9tCqZ7ihHN7?g_st=ipc","address":"Vasileos Irakleiou 35, Thessaloniki 546 24","categoryIds":["greek-restaurants"],"categories":["Greek Restaurants"],"distanceKm":0.09235344137781018},{"id":"cheapEatsRestaurants_3ea6371d1865","slug":"ochsenkopf-german-delicatessen-3ea6","kind":"restaurant","name":"Ochsenkopf German Delicatessen","lat":40.634945471087235,"lng":22.941783687986916,"url":"https://maps.app.goo.gl/B68oxS5kPucvmKVy7?g_st=ipc","address":"Αγορά Μοδιανο, Thessaloniki 546 24","categoryIds":["cheap-eats"],"categories":["Gyros & Cheap Eats"],"distanceKm":0.09779393952315019},{"id":"cheapEatsRestaurants_e9c2d48343e0","slug":"bombidia-bombs-e9c2","kind":"restaurant","name":"Bombídia - Bombs","lat":40.63441434318281,"lng":22.94206825187552,"url":"https://maps.app.goo.gl/a5enHSGzpNb2rYAJ7?g_st=ipc","address":"Vasileos Irakleiou 35, 37, Thessaloniki 546 24","categoryIds":["cheap-eats"],"categories":["Gyros & Cheap Eats"],"distanceKm":0.0996017295197426},{"id":"dessertsRestaurants_e887adc877c7","slug":"choureal-choux-profiterole-e887","kind":"restaurant","name":"CHOUREAL - Choux & Profiterole","lat":40.63486867839386,"lng":22.939852872521865,"url":"https://maps.app.goo.gl/UwfdcZR8Tfa1XRB89?g_st=ipc","address":"El. Venizelou 20, Thessaloniki 546 24","categoryIds":["desserts"],"categories":["Dessert Shops"],"distanceKm":0.10249724875292761},{"id":"luxuryDiningRestaurants_1c1d2a89028b","slug":"clochard-1c1d","kind":"restaurant","name":"Clochard","lat":40.63347961221164,"lng":22.940223853089645,"url":"https://maps.app.goo.gl/kbkr5X52jL9fcqFi7?g_st=ipc","address":"Κομνηνών 10, Mitropoleos 23, Thessaloniki 546 24","categoryIds":["luxury-dining"],"categories":["Luxury Dining"],"distanceKm":0.11543077619786093},{"id":"dessertsRestaurants_dcc7c5a7a10c","slug":"proficherie-dcc7","kind":"restaurant","name":"PROFICHÉRIE","lat":40.635435050961,"lng":22.940491002950786,"url":"https://maps.app.goo.gl/vrmA8yCaVwtzavyo7?g_st=ic","address":"El. Venizelou 28, Thessaloniki 546 24","categoryIds":["desserts"],"categories":["Dessert Shops"],"distanceKm":0.121273529057235},{"id":"burgersRestaurants_e1c3b2a2acd7","slug":"tarantino-modiano-e1c3","kind":"restaurant","name":"Tarantino Modiano","lat":40.63523520193276,"lng":22.941893523743314,"url":"https://maps.app.goo.gl/bUgobpjQbL4yxA2J7?g_st=ipc","address":"Vasileos Irakleiou 33, Thessaloniki 546 24","categoryIds":["burgers"],"categories":["Burger Spots"],"distanceKm":0.12684379583898842},{"id":"rooftopLoungesRestaurants_c00e2007b8c8","slug":"orizontes-roof-garden-c00e","kind":"restaurant","name":"Orizontes Roof Garden","lat":40.63324843271599,"lng":22.94121400261453,"url":"https://maps.app.goo.gl/k4RMBTJaYnWPwHrU7?g_st=ipc","address":"Aristotelous Sq 9, Thessaloniki 546 24","categoryIds":["rooftop-lounges"],"categories":["Rooftop Lounges"],"distanceKm":0.12954337073834546},{"id":"coffeeBrunchRestaurants_eb01fc18d144","slug":"mangiare-gastro-pizza-pasta-bar-eb01","kind":"restaurant","name":"Mangiare Gastro Pizza Pasta Bar","lat":40.63353783457787,"lng":22.939678053388604,"url":"https://maps.app.goo.gl/aWDb6qE5HF6MmFreA?g_st=ipc","address":"Mitropoleos 20, Thessaloniki 546 24","categoryIds":["coffee-brunch"],"categories":["Coffee & Brunch Spots"],"distanceKm":0.1390935642555991},{"id":"dessertsRestaurants_70ba1f9e9560","slug":"sokolata-agapitos-patisserie-1944-70ba","kind":"restaurant","name":"Sokolata Agapitos Patisserie 1944","lat":40.63465415609907,"lng":22.93927735818438,"url":"https://maps.app.goo.gl/M7U7vTzULNaTuLAg7?g_st=ic","address":"Tsimiski 10, Thessaloniki 546 24","categoryIds":["desserts"],"categories":["Dessert Shops"],"distanceKm":0.1391593683207774},{"id":"cheapEatsRestaurants_2a4da9b1c110","slug":"grn-2a4d","kind":"restaurant","name":"ΓΡΝ","lat":40.634922554090494,"lng":22.9424405001041,"url":"https://maps.app.goo.gl/QeUW3QZjeTvschnB8?g_st=ipc","address":"Ermou 24, Thessaloniki 546 24","categoryIds":["cheap-eats"],"categories":["Gyros & Cheap Eats"],"distanceKm":0.1438720434356142},{"id":"coffeeBrunchRestaurants_225892e0cbdd","slug":"the-garden-bar-2258","kind":"restaurant","name":"The Garden Bar","lat":40.63514609058183,"lng":22.939331222845976,"url":"https://maps.app.goo.gl/KEZ45GJ89m9DDXvb6?g_st=ipc","address":"Ag. Mina 16, Thessaloniki 546 24","categoryIds":["coffee-brunch"],"categories":["Coffee & Brunch Spots"],"distanceKm":0.1561816117246222},{"id":"dessertsRestaurants_fa6b1cda2935","slug":"terkenlis-fa6b","kind":"restaurant","name":"Terkenlis","lat":40.63318101509439,"lng":22.941941930979123,"url":"https://maps.app.goo.gl/x8RmTioRat9tbKBd8?g_st=ipc","address":"Tsimiski 30, Thessaloniki 546 36","categoryIds":["desserts"],"categories":["Dessert Shops"],"distanceKm":0.16088414633461492},{"id":"asianRestaurants_169207d89dbd","slug":"sushi-city-1692","kind":"restaurant","name":"Sushi City","lat":40.633479553417104,"lng":22.939350429758118,"url":"https://maps.app.goo.gl/zBAUew3tfQKdJ3yX9","address":"Kalapothaki 7, Thessaloniki 546 45","categoryIds":["asian"],"categories":["Asian Restaurants"],"distanceKm":0.1643917171027207},{"id":"italianRestaurants_e8e93eefa319","slug":"cena-e8e9","kind":"restaurant","name":"Cena","lat":40.63453379937182,"lng":22.938924721124444,"url":"https://maps.app.goo.gl/M6cnfrHcMrMNBhMNA?g_st=ipc","address":"Rogkoti 4, Thessaloniki 546 24","categoryIds":["italian"],"categories":["Italian Restaurants"],"distanceKm":0.16650993191742927},{"id":"asianRestaurants_7b20ac80bba4","slug":"hanaya-sushi-7b20","kind":"restaurant","name":"Hanaya Sushi","lat":40.6345384090758,"lng":22.93892478438703,"url":"https://maps.app.goo.gl/QoHkvVMWp7YGca2T8?g_st=ipc","address":"Rogkoti 4, Thessaloniki 546 24 (Bourla-Levi Building)","categoryIds":["asian"],"categories":["Asian Restaurants"],"distanceKm":0.1665556629700484},{"id":"dessertsRestaurants_77934967676e","slug":"souffler-7793","kind":"restaurant","name":"Soufflér","lat":40.63479159488401,"lng":22.93892769842922,"url":"https://maps.app.goo.gl/BLrPEMBFAqcE5fZP6?g_st=ipc","address":"Rogkoti 4, Thessaloniki 546 24","categoryIds":["desserts"],"categories":["Dessert Shops"],"distanceKm":0.17146465945475592},{"id":"cheapEatsRestaurants_d643220ae6b0","slug":"thess-bao-d643","kind":"restaurant","name":"Thess Bao","lat":40.633724315611715,"lng":22.93899137586201,"url":"https://maps.app.goo.gl/eQJvB2FMkUEghr9y7?g_st=ipc","address":"Kalapothaki 3, Thessaloniki 546 45","categoryIds":["cheap-eats"],"categories":["Gyros & Cheap Eats"],"distanceKm":0.17622642420688645},{"id":"fishTavernasRestaurants_922d6e12caee","slug":"grada-nuevo-922d","kind":"restaurant","name":"Grada nuevo","lat":40.63326503370027,"lng":22.939389299837984,"url":"https://maps.app.goo.gl/rQ6F7EFgSPvzE7iK6?g_st=ipc","address":"Kalapothaki 14, Thessaloniki 546 24","categoryIds":["fish-tavernas","luxury-dining"],"categories":["Fish Tavernas","Luxury Dining"],"legacySlugs":["grada-nuevo-c78b"],"distanceKm":0.17766982334042847},{"id":"fishTavernasRestaurants_d0a79fe35429","slug":"7-thalasses-d0a7","kind":"restaurant","name":"7 Thalasses","lat":40.63335235155445,"lng":22.93920259335502,"url":"https://maps.app.goo.gl/Y7xSN6vCv7jLy7oPA?g_st=ipc","address":"Kalapothaki 10, Thessaloniki 546 24","categoryIds":["fish-tavernas","luxury-dining"],"categories":["Fish Tavernas","Luxury Dining"],"legacySlugs":["7-thalasses-f9b8"],"distanceKm":0.18295562868056434},{"id":"fishTavernasRestaurants_8f9bed2e06ef","slug":"mezen-salonica-8f9b","kind":"restaurant","name":"Mezen Salonica","lat":40.634689809940646,"lng":22.93869474433628,"url":"https://maps.app.goo.gl/gwG2QG5GLKMHTAKd8?g_st=ipc","address":"Rogkoti 3, Thessaloniki 546 24","categoryIds":["fish-tavernas"],"categories":["Fish Tavernas"],"distanceKm":0.18815174621388794}],"sameRegion":[],"mentionedGuides":[],"canonicalSlug":"frutti-di-mare-34f5","isCanonicalEntity":true,"enrichment":{"summary_en":"Frutti Di Mare is a curated restaurant in Thessaloniki 546 24 in the Fish Tavernas collection. It is connected to 171 nearby Googlementor picks to help travelers build a stronger local route.","summary_el":"Frutti Di Mare είναι ένα επιλεγμένο σημείο φαγητού στην περιοχή Thessaloniki 546 24 και ανήκει στη συλλογή Fish Tavernas. Συνδέεται με 171 κοντινές προτάσεις του Googlementor για πιο ολοκληρωμένη εμπειρία.","vibe_tags":["curated","seafood-local"],"best_for":["first-time visitors","food lovers"],"visit_moments":["lunch stop","dinner stop"],"practical_note":"Address and direct map link are available for easy turn-by-turn access.","nearby_walkable_count":171,"nearby_count_2km":260,"confidence":0.98}},"__N_SSG":true}