{"pageProps":{"entity":{"id":"vegetarianRestaurants_4651fd50cc98","slug":"gi-4651","kind":"restaurant","name":"Γη","lat":37.867754101352695,"lng":23.757082449020576,"url":"https://maps.app.goo.gl/J8MbyuN6xbnsUxi89?g_st=ipc","address":"Γρ. Λαμπράκη 69, Γλυφάδα 166 75","categoryIds":["vegetarian"],"categories":["Vegetarian Friendly Restaurants"]},"sameCategory":[{"id":"vegetarianRestaurants_5e82930d8565","slug":"coconuts-nuts-specialties-5e82","kind":"restaurant","name":"COCONUTS Nuts & Specialties","lat":37.83974545115199,"lng":23.767343337140883,"url":"https://maps.app.goo.gl/C155rgfingteegQn8?g_st=ipc","address":"Λεωφ. Βασιλέως Παύλου 67, Βούλα 166 73","categoryIds":["vegetarian"],"categories":["Vegetarian Friendly Restaurants"]},{"id":"vegetarianRestaurants_74f8ca9bcb55","slug":"dinette-dafni-74f8","kind":"restaurant","name":"Dinette Dafni","lat":37.949260684351316,"lng":23.73612865746863,"url":"https://maps.app.goo.gl/kkxVViHsfrAhDtz38?g_st=ipc","address":"Μιχαήλ Καραολή 1-3, Αθήνα 172 35","categoryIds":["vegetarian"],"categories":["Vegetarian Friendly Restaurants"]},{"id":"mexicanRestaurants_e022afb77fe2","slug":"amigos-e022","kind":"restaurant","name":"Amigos","lat":37.94499454255761,"lng":23.71221746209658,"url":"https://maps.app.goo.gl/BHdiVv9h7dD8bkiu6?g_st=ipc","address":"Μεγ. Αλεξάνδρου 70, Νέα Σμύρνη 171 22","categoryIds":["mexican","vegetarian"],"categories":["Mexican Restaurants","Vegetarian Friendly Restaurants"],"legacySlugs":["amigos-83a2"]},{"id":"vegetarianRestaurants_de7324c496a6","slug":"fakafel-de73","kind":"restaurant","name":"Φakafel","lat":37.945977379116876,"lng":23.71063148252821,"url":"https://maps.app.goo.gl/r5AXr2ToKxBqZpAv9?g_st=ipc","address":"Φakafel","categoryIds":["vegetarian"],"categories":["Vegetarian Friendly Restaurants"]},{"id":"burgersRestaurants_82d2f41d9265","slug":"big-nick-82d2","kind":"restaurant","name":"Big Nick","lat":37.956445331565305,"lng":23.73566615673783,"url":"https://maps.app.goo.gl/j5eRwkA5Uf2bwVHs7?g_st=ipc","address":"Λεωφόρος Βουλιαγμένης 145, Αθήνα 116 31","categoryIds":["burgers","vegetarian"],"categories":["Burger Spots","Vegetarian Friendly Restaurants"],"legacySlugs":["big-nick-ce09"]},{"id":"vegetarianRestaurants_2e588abb0db5","slug":"baba-ghanoush-2e58","kind":"restaurant","name":"Baba Ghanoush","lat":37.96544673051708,"lng":23.74367426912522,"url":"https://maps.app.goo.gl/TVzEkkpCr1SQ2ZUEA?g_st=ipc","address":"Εμπεδοκλέους 25 - 27, Αθήνα 116 35","categoryIds":["vegetarian"],"categories":["Vegetarian Friendly Restaurants"]},{"id":"vegetarianRestaurants_663d79e21a0f","slug":"noa-poke-koukaki-663d","kind":"restaurant","name":"Noa Poke Koukaki","lat":37.962721066064105,"lng":23.72328239582356,"url":"https://maps.app.goo.gl/2BHN8JbCEv2oz4LT8?g_st=ipc","address":"Φαλήρου 84, Αθήνα 117 41","categoryIds":["vegetarian"],"categories":["Vegetarian Friendly Restaurants"]},{"id":"vegetarianRestaurants_06ce84bd30cd","slug":"mother-vegan-bistro-06ce","kind":"restaurant","name":"Mother Vegan Bistro","lat":37.962693218314804,"lng":23.721538252984118,"url":"https://maps.app.goo.gl/TZgz9fcY4M4aZZQD6?g_st=ipc","address":"Δημητρακοπούλου, Αγίου Νικολάου 95, Αθήνα 117 41","categoryIds":["vegetarian"],"categories":["Vegetarian Friendly Restaurants"]},{"id":"coffeeBrunchRestaurants_10b5704edcd7","slug":"karminio-all-day-eatery-10b5","kind":"restaurant","name":"KARMINIO - All Day Eatery","lat":37.963365261808825,"lng":23.721069408577183,"url":"https://maps.app.goo.gl/B47HWPSnhF6mtY1M8?g_st=ipc","address":"Βεΐκου 86, Αθήνα 117 41","categoryIds":["coffee-brunch","vegetarian"],"categories":["Coffee & Brunch Spots","Vegetarian Friendly Restaurants"],"legacySlugs":["karminio-all-day-eatery-44c1"]},{"id":"vegetarianRestaurants_26aa685f16e1","slug":"fresh-patisserie-26aa","kind":"restaurant","name":"Fresh Patisserie","lat":37.96747222997714,"lng":23.749300179574934,"url":"https://maps.app.goo.gl/M6kixY8DuERoUL8U8?g_st=ipc","address":"Ευτυχίδου 48, Αθήνα 116 34","categoryIds":["vegetarian"],"categories":["Vegetarian Friendly Restaurants"]},{"id":"coffeeBrunchRestaurants_88ec9d6dfbbc","slug":"joshua-tree-cafe-88ec","kind":"restaurant","name":"Joshua Tree Cafe","lat":37.96618895456632,"lng":23.73475215870415,"url":"https://maps.app.goo.gl/hxko2CRaz8QbMJPc8?g_st=ipc","address":"Αναπαύσεως 13, Αθήνα 116 36","categoryIds":["coffee-brunch","vegetarian"],"categories":["Coffee & Brunch Spots","Vegetarian Friendly Restaurants"],"legacySlugs":["joshua-tree-cafe-e75c"]},{"id":"vegetarianRestaurants_6bddca4a5310","slug":"the-room-mets-6bdd","kind":"restaurant","name":"THE ROOM METS","lat":37.96677955241959,"lng":23.737885963446566,"url":"https://maps.app.goo.gl/stBGTxofrCxpCP4q7?g_st=ipc","address":"Μαρκ. Μουσούρου 22, Αθήνα 116 36","categoryIds":["vegetarian"],"categories":["Vegetarian Friendly Restaurants"]}],"nearby":[{"id":"familyFriendly_11e87a91baef","slug":"plateia-chariton-11e8","kind":"restaurant","name":"Πλατεία Χαρίτων","lat":37.86415490115138,"lng":23.75493366426452,"url":"https://maps.app.goo.gl/eBpgr4RX9Y42hXEw6?g_st=ipc","address":"Σεμέλης 1, Γλυφάδα 166 74","categoryIds":["family-friendly"],"categories":["Kid Friendly Locations"],"distanceKm":0.4424365700215937},{"id":"greekRestaurants_b6c15b677224","slug":"to-drami-b6c1","kind":"restaurant","name":"To Drami","lat":37.86297028796149,"lng":23.75634712220573,"url":"https://maps.app.goo.gl/HFhEeo24Fzrwgfb98?g_st=ipc","address":"Laodikis 22, Glifada 166 74","categoryIds":["greek-restaurants"],"categories":["Greek Restaurants"],"distanceKm":0.5358379529421111},{"id":"burgersRestaurants_01217d39d9c7","slug":"queen-burger-0121","kind":"restaurant","name":"Queen Burger","lat":37.8629143636926,"lng":23.754961929770175,"url":"https://maps.app.goo.gl/cTKmuer8pw34Mj4m6","address":"Giannitsopoulou 3, Glifada 166 74","categoryIds":["burgers"],"categories":["Burger Spots"],"distanceKm":0.5694387997377106},{"id":"mexicanRestaurants_4df313ff7b2b","slug":"ancho-mexican-grill-4df3","kind":"restaurant","name":"Ancho Mexican Grill","lat":37.862745862193556,"lng":23.754877099753806,"url":"https://maps.app.goo.gl/LepDURte7YPh6NZL8?g_st=ipc","address":"Γιαννιτσοπούλου 3, Γλυφάδα 166 74","categoryIds":["mexican"],"categories":["Mexican Restaurants"],"distanceKm":0.5895809987421226},{"id":"greekRestaurants_b64cf8867729","slug":"tefariki-b64c","kind":"restaurant","name":"Τεφαρίκι","lat":37.871857113105406,"lng":23.752753345977908,"url":"https://maps.app.goo.gl/mcH8XPhdX39hW6V59","address":"Ξενοφώντος 28, Γλυφάδα 166 75","categoryIds":["greek-restaurants"],"categories":["Greek Restaurants"],"distanceKm":0.5937591953584233},{"id":"burgersRestaurants_dcffa319373f","slug":"just-burgers-dcff","kind":"restaurant","name":"Just Burgers","lat":37.86233017342334,"lng":23.756048198703365,"url":"https://maps.app.goo.gl/JHVusoRbYHy3Y7vt5?g_st=ipc","address":"Βασ. Γεωργίου Β 10, Γλυφάδα 166 74","categoryIds":["burgers"],"categories":["Burger Spots"],"distanceKm":0.6099086130613324},{"id":"italianRestaurants_dd5b148ca8d7","slug":"peccati-di-gola-dd5b","kind":"restaurant","name":"Peccati Di Gola","lat":37.86427445144013,"lng":23.751331713919253,"url":"https://maps.app.goo.gl/o1MzXXTU18xSPfb69?g_st=ipc","address":"Κύπρου 50, Γλυφάδα 166 75","categoryIds":["italian"],"categories":["Italian Restaurants"],"distanceKm":0.636038182899662},{"id":"asianRestaurants_f6ce39f326eb","slug":"noodle-bar-glyfada-f6ce","kind":"restaurant","name":"NOODLE BAR ΓΛΥΦΑΔΑ","lat":37.872037331445135,"lng":23.752155686687118,"url":"https://maps.app.goo.gl/GoKuSs69HC1RbxyBA?g_st=ipc","address":"Ξενοφώντος 20, Γλυφάδα 166 75","categoryIds":["asian"],"categories":["Asian Restaurants"],"distanceKm":0.6433189877001996},{"id":"dessertsRestaurants_ba7be89e8ea8","slug":"iceroll-ba7b","kind":"restaurant","name":"IceRoll","lat":37.86208515594954,"lng":23.755076469134906,"url":"https://maps.app.goo.gl/w1pmpophQeL2Fp7M9?g_st=ipc","address":"Γιαννιτσοπούλου 2, Γλυφάδα 166 74","categoryIds":["desserts"],"categories":["Dessert Shops"],"distanceKm":0.6544920601913314},{"id":"coffeeBrunchRestaurants_375d22b1c4b8","slug":"oven-manufactory-375d","kind":"restaurant","name":"Oven Manufactory","lat":37.861722119771066,"lng":23.756544787345767,"url":"https://maps.app.goo.gl/Hnd2mHRaJKRkA5F46?g_st=ipc","address":"Αρτέμιδος 9, Γλυφάδα 166 74","categoryIds":["coffee-brunch"],"categories":["Coffee & Brunch Spots"],"distanceKm":0.6723843391082909},{"id":"dessertsRestaurants_cd41f487bdde","slug":"l-arte-del-gelato-cd41","kind":"restaurant","name":"L'arte del Gelato","lat":37.86184048032113,"lng":23.755183232681343,"url":"https://maps.app.goo.gl/JTFmtLwXRBHhcLCs8?g_st=ipc","address":"Αρτέμιδος 1, Γλυφάδα 166 74","categoryIds":["desserts"],"categories":["Dessert Shops"],"distanceKm":0.6783709656487771},{"id":"dessertsRestaurants_2849c272c636","slug":"bufala-gelato-glyfada-2849","kind":"restaurant","name":"Bufala Gelato (Γλυφάδα)","lat":37.86176317702974,"lng":23.755337811216418,"url":"https://maps.app.goo.gl/51dbhckNQVJ8yNh37?g_st=ipc","address":"Αρτέμιδος 1, Γλυφάδα 166 74","categoryIds":["desserts"],"categories":["Dessert Shops"],"distanceKm":0.6835386300258478},{"id":"coffeeBrunchRestaurants_03882dd46eb2","slug":"paul-glyfada-0388","kind":"restaurant","name":"PAUL Γλυφάδα","lat":37.86192343683842,"lng":23.754387329250314,"url":"https://maps.app.goo.gl/yKiejsAj4L7LG4cJ7?g_st=ipc","address":"Κύπρου 70, Γλυφάδα 166 74","categoryIds":["coffee-brunch"],"categories":["Coffee & Brunch Spots"],"distanceKm":0.690158887953881},{"id":"coffeeBrunchRestaurants_2219681181b1","slug":"moyzilo-cheiropoiites-pites-2219","kind":"restaurant","name":"Μουζίλο Χειροποίητες Πίτες","lat":37.863579478184825,"lng":23.751077862250096,"url":"https://maps.app.goo.gl/BjHAhdumoxMHfZrP7?g_st=ipc","address":"Δούσμανη 13, Γλυφάδα 166 75","categoryIds":["coffee-brunch"],"categories":["Coffee & Brunch Spots"],"distanceKm":0.7023633338079585},{"id":"asianRestaurants_6985f147fd97","slug":"ekiben-kitchen-glyfada-6985","kind":"restaurant","name":"Ekiben Kitchen Glyfada","lat":37.861176848381916,"lng":23.75639518380584,"url":"https://maps.app.goo.gl/bR7jaQSkxn33eLgq7","address":"Laodikis 41, Glifada 166 74","categoryIds":["asian","burgers"],"categories":["Asian Restaurants","Burger Spots"],"legacySlugs":["ekiben-kitchen-glyfada-7ec8"],"distanceKm":0.7338413690453928},{"id":"luxuryDiningRestaurants_0dbacc69dd52","slug":"feedel-asador-0dba","kind":"restaurant","name":"FEEDEL ASADOR","lat":37.86621086434499,"lng":23.74871853137983,"url":"https://maps.app.goo.gl/axUbgwvJZkdNUx4n8?g_st=ipc","address":"Ν Ζερβα 24 Και, Κύπρου, Γλυφάδα 166 75","categoryIds":["luxury-dining"],"categories":["Luxury Dining"],"distanceKm":0.7539841609597707},{"id":"coffeeBrunchRestaurants_bf37b14fbfdf","slug":"kool-food-and-coffee-bf37","kind":"restaurant","name":"KOOL Food and Coffee","lat":37.8617153280559,"lng":23.75264950039194,"url":"https://maps.app.goo.gl/zAtPpG6k1DNtijDy5?g_st=ipc","address":"Leof. Dimarchou Aggelou Metaxa 22, Glifada 166 74","categoryIds":["coffee-brunch"],"categories":["Coffee & Brunch Spots"],"distanceKm":0.7760919604242317},{"id":"coffeeBrunchRestaurants_d0cf8543ac4f","slug":"la-linda-bakery-cafe-d0cf","kind":"restaurant","name":"La Linda Bakery & Café","lat":37.86700115203996,"lng":23.7478274102709,"url":"https://maps.app.goo.gl/2uSwHrZcryhig7ebA?g_st=ipc","address":"Κύπρου 13, Γλυφάδα 166 75","categoryIds":["coffee-brunch"],"categories":["Coffee & Brunch Spots"],"distanceKm":0.8167195037557617},{"id":"coffeeBrunchRestaurants_296c68e50c96","slug":"blends-mix-match-296c","kind":"restaurant","name":"Blends Mix & Match","lat":37.86035282429643,"lng":23.756257632105665,"url":"https://maps.app.goo.gl/VgzGwQBJonZ2HWs87?g_st=ic","address":"Pl. Nimfon, Glifada 166 74","categoryIds":["coffee-brunch"],"categories":["Coffee & Brunch Spots"],"distanceKm":0.8261634990921439},{"id":"coffeeBrunchRestaurants_1534d718f542","slug":"su-casa-1534","kind":"restaurant","name":"Su Casa","lat":37.8602791456983,"lng":23.75556920044941,"url":"https://maps.app.goo.gl/LzYwvbcwMZCWEetj9?g_st=ipc","address":"Pl. Nimfon, Glifada 166 74","categoryIds":["coffee-brunch"],"categories":["Coffee & Brunch Spots"],"distanceKm":0.8417256463340923},{"id":"fishTavernasRestaurants_fd7ed352bb9f","slug":"kapetan-giorgis-o-mytilinios-fd7e","kind":"restaurant","name":"Καπετάν Γιώργης «Ο Μυτιληνιός»","lat":37.86441144968363,"lng":23.748467238824272,"url":"https://maps.app.goo.gl/SNmz2TBABsNaydEj9?g_st=ipc","address":"Κωνσταντινουπόλεως 9, Γλυφάδα 166 75","categoryIds":["fish-tavernas"],"categories":["Fish Tavernas"],"distanceKm":0.8426669295172287},{"id":"dessertsRestaurants_cdd2ff99e09f","slug":"choureal-choux-profiterole-cdd2","kind":"restaurant","name":"Choureal - Choux & Profiterole","lat":37.86175419711277,"lng":23.7510964996929,"url":"https://maps.app.goo.gl/jqVCKVDpx8nte58k7?g_st=ipc","address":"Lazaraki 39, Glifada 166 75","categoryIds":["desserts"],"categories":["Dessert Shops"],"distanceKm":0.8492474757070652},{"id":"familyFriendly_bba3af84c3c6","slug":"bella-vespa-bba3","kind":"restaurant","name":"Bella Vespa","lat":37.86706675735918,"lng":23.747387332761612,"url":"https://maps.app.goo.gl/dpip4AngfBL8xv2M8?g_st=ipc","address":"Κύπρου 11, Γλυφάδα 166 75","categoryIds":["family-friendly","italian"],"categories":["Kid Friendly Locations","Italian Restaurants"],"legacySlugs":["bella-vespa-976a"],"distanceKm":0.8544718590786136},{"id":"luxuryDiningRestaurants_771807889c8b","slug":"beastalis-food-for-proud-meat-eaters-7718","kind":"restaurant","name":"BEASTALIS ,Food for proud meat eaters","lat":37.867214606158306,"lng":23.7473035874199,"url":"https://maps.app.goo.gl/2E1n4NVs2CjMsLQo7?g_st=ipc","address":"Κύπρου 9, Γλυφάδα 166 75","categoryIds":["luxury-dining"],"categories":["Luxury Dining"],"distanceKm":0.860490855541158}],"sameRegion":[],"mentionedGuides":[],"canonicalSlug":"gi-4651","isCanonicalEntity":true,"enrichment":{"summary_en":"Γη is a curated restaurant in Γλυφάδα 166 75 in the Vegetarian Friendly Restaurants collection. It is connected to 17 nearby Googlementor picks to help travelers build a stronger local route.","summary_el":"Γη είναι ένα επιλεγμένο σημείο φαγητού στην περιοχή Γλυφάδα 166 75 και ανήκει στη συλλογή Vegetarian Friendly Restaurants. Συνδέεται με 17 κοντινές προτάσεις του Googlementor για πιο ολοκληρωμένη εμπειρία.","vibe_tags":["curated"],"best_for":["first-time visitors","food lovers"],"visit_moments":["lunch stop","dinner stop"],"practical_note":"Address and direct map link are available for easy turn-by-turn access.","nearby_walkable_count":17,"nearby_count_2km":67,"confidence":0.98}},"__N_SSG":true}