{"pageProps":{"entity":{"id":"familyFriendly_b97882ce1ef1","slug":"gouves-water-park-water-slides-b978","kind":"restaurant","name":"Gouves Water Park Water Slides","lat":35.330529620260506,"lng":25.30109647574127,"url":"https://maps.app.goo.gl/VVxJNmLN85fw55Gd7?g_st=ipc","address":"88J2+J7, Kato Gouves 700 14","categoryIds":["family-friendly"],"categories":["Kid Friendly Locations"]},"sameCategory":[{"id":"familyFriendly_f556661b0d5a","slug":"dinosaur-park-f556","kind":"restaurant","name":"Dinosaur Park","lat":35.32673458782771,"lng":25.287539183910724,"url":"https://maps.app.goo.gl/Bv4uWJJC4Gk8ssCE8?g_st=ipc","address":"DEKK, Gournes 715 00","categoryIds":["family-friendly"],"categories":["Kid Friendly Locations"]},{"id":"familyFriendly_073dab707c07","slug":"cretaquarium-thalassokosmos-073d","kind":"restaurant","name":"CRETAquarium Thalassokosmos","lat":35.332361553594524,"lng":25.282456113974675,"url":"https://maps.app.goo.gl/4Hf2kigPt77kQGn87?g_st=ipc","address":"Heraklion 710 03","categoryIds":["family-friendly"],"categories":["Kid Friendly Locations"]},{"id":"familyFriendly_1ddd662e5e58","slug":"labyrinth-park-1ddd","kind":"restaurant","name":"Labyrinth Park","lat":35.2948469322292,"lng":25.35746794187921,"url":"https://maps.app.goo.gl/hzfaUBDJZ9VG57An9?g_st=ipc","address":"Hersonissos 700 14","categoryIds":["family-friendly"],"categories":["Kid Friendly Locations"]},{"id":"familyFriendly_1f20e7775883","slug":"pantheon-water-park-crete-1f20","kind":"restaurant","name":"PANTHEON WATER PARK | CRETE","lat":35.33123334208483,"lng":25.379236274931273,"url":"https://maps.app.goo.gl/HkckbLGJwUu91L4a6?g_st=ic","address":"Σολωμού Τέρμα, Anissaras 700 14","categoryIds":["family-friendly"],"categories":["Kid Friendly Locations"]},{"id":"familyFriendly_5c291a1b67e5","slug":"sport-point-5c29","kind":"restaurant","name":"Sport Point","lat":35.329005872034685,"lng":25.15446679791221,"url":"https://maps.app.goo.gl/UUXRrELKzb2aEokB8?g_st=ipc","address":"Καστρινογιαννάκη 1 και, Dervenakion, Iraklio 714 09","categoryIds":["family-friendly"],"categories":["Kid Friendly Locations"]},{"id":"familyFriendly_e3a260aa1584","slug":"calcetto-e3a2","kind":"restaurant","name":"Calcetto","lat":35.35988785622983,"lng":24.496442751230653,"url":"https://maps.app.goo.gl/acAH5pkUBqCJVJGj6?g_st=ipc","address":"Ιωάννου Καλαϊτζάκη, Rethymno 741 00","categoryIds":["family-friendly"],"categories":["Kid Friendly Locations"]},{"id":"familyFriendly_179239195c85","slug":"biotopoi-of-crete-nature-park-1792","kind":"restaurant","name":"Biotopoi of Crete Nature Park","lat":35.36002627927518,"lng":24.496326916546945,"url":"https://maps.app.goo.gl/bgFXGA2JPNnDk4Nh8?g_st=ipc","address":"Kalaitzakis Kastelakia, Rethymno 741 33","categoryIds":["family-friendly"],"categories":["Kid Friendly Locations"]},{"id":"familyFriendly_647731b73787","slug":"lake-kournas-6477","kind":"restaurant","name":"Lake Kournas","lat":35.33085393719484,"lng":24.275768556511693,"url":"https://maps.app.goo.gl/jBCqSTmypZMRabtf7?g_st=ipc","address":"Georgioupoli 730 07","categoryIds":["family-friendly"],"categories":["Kid Friendly Locations"]},{"id":"familyFriendly_2da660f5cea1","slug":"aqua-fun-2da6","kind":"restaurant","name":"Aqua Fun","lat":37.082347515027855,"lng":25.35405984069226,"url":"https://maps.app.goo.gl/kxZ4WVVMgAh5nHj19?g_st=ipc","address":"ΣΤΕΛΙΔΑ, Ag. Prokopios 843 00","categoryIds":["family-friendly"],"categories":["Kid Friendly Locations"]},{"id":"familyFriendly_83c448f68640","slug":"gipedo-podosfairoy-pagoy-83c4","kind":"restaurant","name":"Γήπεδο Ποδοσφαίρου Πάγου","lat":37.42646477570567,"lng":24.907668410293343,"url":"https://maps.app.goo.gl/BaTm12sUUp1d1c9g8?g_st=ipc","address":"Πάγος 841 00","categoryIds":["family-friendly"],"categories":["Kid Friendly Locations"]},{"id":"familyFriendly_03f29a25699e","slug":"funbox-03f2","kind":"restaurant","name":"Funbox","lat":37.450143269337566,"lng":25.34837194743214,"url":"https://maps.app.goo.gl/BEmUn1htaDH92gUZ7?g_st=ic","address":"Famelis Spiros, Mikonos 846 00","categoryIds":["family-friendly"],"categories":["Kid Friendly Locations"]},{"id":"familyFriendly_79cc8da6366f","slug":"butterflies-valley-79cc","kind":"restaurant","name":"Butterflies Valley","lat":36.33937370008562,"lng":28.059689128523214,"url":"https://maps.app.goo.gl/VV66xLTvU3w6LKzy9?g_st=ipc","address":"Επάνω Καλαμωνας 851 06","categoryIds":["family-friendly"],"categories":["Kid Friendly Locations"]}],"nearby":[{"id":"familyFriendly_f556661b0d5a","slug":"dinosaur-park-f556","kind":"restaurant","name":"Dinosaur Park","lat":35.32673458782771,"lng":25.287539183910724,"url":"https://maps.app.goo.gl/Bv4uWJJC4Gk8ssCE8?g_st=ipc","address":"DEKK, Gournes 715 00","categoryIds":["family-friendly"],"categories":["Kid Friendly Locations"],"distanceKm":1.3002740148545422},{"id":"familyFriendly_073dab707c07","slug":"cretaquarium-thalassokosmos-073d","kind":"restaurant","name":"CRETAquarium Thalassokosmos","lat":35.332361553594524,"lng":25.282456113974675,"url":"https://maps.app.goo.gl/4Hf2kigPt77kQGn87?g_st=ipc","address":"Heraklion 710 03","categoryIds":["family-friendly"],"categories":["Kid Friendly Locations"],"distanceKm":1.703187189674963},{"id":"familyFriendly_1ddd662e5e58","slug":"labyrinth-park-1ddd","kind":"restaurant","name":"Labyrinth Park","lat":35.2948469322292,"lng":25.35746794187921,"url":"https://maps.app.goo.gl/hzfaUBDJZ9VG57An9?g_st=ipc","address":"Hersonissos 700 14","categoryIds":["family-friendly"],"categories":["Kid Friendly Locations"],"distanceKm":6.47343830353612},{"id":"familyFriendly_1f20e7775883","slug":"pantheon-water-park-crete-1f20","kind":"restaurant","name":"PANTHEON WATER PARK | CRETE","lat":35.33123334208483,"lng":25.379236274931273,"url":"https://maps.app.goo.gl/HkckbLGJwUu91L4a6?g_st=ic","address":"Σολωμού Τέρμα, Anissaras 700 14","categoryIds":["family-friendly"],"categories":["Kid Friendly Locations"],"distanceKm":7.088939380972033},{"id":"municipalities_d1ff977f1393","slug":"chersonisos-d1ff","kind":"municipality","name":"Χερσόνησος","lat":35.3167,"lng":25.3833,"aliases":["Xersonissos","Hersonissos"],"region":"Κεντρική Κρήτη","name_en":"Hersonissos","region_en":"Central Crete","distanceKm":7.614714684428373},{"id":"wineriesVineyards_c0a0097ca7d1","slug":"scalarea-estate-c0a0","kind":"restaurant","name":"Scalarea Estate","lat":35.27599918818081,"lng":25.19305839713735,"url":"https://maps.app.goo.gl/NubfvqJ28uAYTWoX7?g_st=ipc","address":"Σκαλάνι 701 00","categoryIds":["wineries-vineyards"],"categories":["Wineries & Vineyards"],"distanceKm":11.527638535822323},{"id":"mustSeeAttractions_32e162886e33","slug":"knossos-palace-32e1","kind":"restaurant","name":"Knossos Palace","lat":35.29796093261648,"lng":25.162788626146504,"url":"https://maps.app.goo.gl/rAusZkVNEW96qAfY9?g_st=ipc","address":"Knossos 714 09","categoryIds":["attractions"],"categories":["Must-See Attractions"],"distanceKm":13.061369994850113},{"id":"familyFriendly_5c291a1b67e5","slug":"sport-point-5c29","kind":"restaurant","name":"Sport Point","lat":35.329005872034685,"lng":25.15446679791221,"url":"https://maps.app.goo.gl/UUXRrELKzb2aEokB8?g_st=ipc","address":"Καστρινογιαννάκη 1 και, Dervenakion, Iraklio 714 09","categoryIds":["family-friendly"],"categories":["Kid Friendly Locations"],"distanceKm":13.30287702107828},{"id":"municipalities_847eab0fe55c","slug":"stalida-847e","kind":"municipality","name":"Σταλίδα","lat":35.2932,"lng":25.4426,"region":"Κρήτη","name_en":"Stalida","region_en":"Crete","distanceKm":13.493898024541055},{"id":"cheapEatsRestaurants_d0529bd9203e","slug":"filia-giannari-d052","kind":"restaurant","name":"Filia Giannari","lat":35.33111188005716,"lng":25.144727327039348,"url":"https://maps.app.goo.gl/p8LFpYc2vTdDWnYp6?g_st=ipc","address":"kavpevtan Mavnoli Mpantouva 65, Iraklio 713 07","categoryIds":["cheap-eats"],"categories":["Gyros & Cheap Eats"],"distanceKm":14.185295908338244},{"id":"municipalities_339b513af1e5","slug":"irakleio-339b","kind":"municipality","name":"Ηράκλειο","lat":35.3403,"lng":25.1442,"aliases":["Heraklion","Ηράκλειον","Ηράκλια","Ηρακλειο","Iraklio","Heraklio"],"region":"Κεντρική Κρήτη","name_en":"Heraklion","region_en":"Central Crete","distanceKm":14.273581694352805},{"id":"wineriesVineyards_e2a27a918d4b","slug":"garakis-winery-e2a2","kind":"restaurant","name":"Garakis Winery","lat":35.23427724214697,"lng":25.19140759248994,"url":"https://maps.app.goo.gl/xe7Pzf6GWRjSnDGJ8?g_st=ipc","address":"Unnamed Road, Epano Archanes 701 00","categoryIds":["wineries-vineyards"],"categories":["Wineries & Vineyards"],"distanceKm":14.617819164078176},{"id":"dessertsRestaurants_247254daf3fe","slug":"queen-boutique-desserts-2472","kind":"restaurant","name":"Queen Boutique Desserts","lat":35.34028577182634,"lng":25.13554567801893,"url":"https://maps.app.goo.gl/6wWh68bY9rCwbUsj8?g_st=ic","address":"Ag. Titou, Iraklio 712 02","categoryIds":["desserts"],"categories":["Dessert Shops"],"distanceKm":15.05634891387426},{"id":"wineriesVineyards_b64a808a6747","slug":"titakis-wines-fabrika-wine-experience-b64a","kind":"restaurant","name":"Titakis Wines - Fabrika Wine Experience","lat":35.233323447258094,"lng":25.184146411319137,"url":"https://maps.app.goo.gl/2HrLkExRymtYSkLw8?g_st=ipc","address":"Κουνάβοι 701 00","categoryIds":["wineries-vineyards"],"categories":["Wineries & Vineyards"],"distanceKm":15.149996774737645},{"id":"dessertsRestaurants_374f4778e206","slug":"bombus-street-loukoumas-coffee-374f","kind":"restaurant","name":"Bombus Street Loukoumas & Coffee","lat":35.33637912527502,"lng":25.133042788251835,"url":"https://maps.app.goo.gl/AAjaiaEXbfkmmMRW6?g_st=ipc","address":"Pl. Kornarou 31, Iraklio 712 01","categoryIds":["desserts"],"categories":["Dessert Shops"],"distanceKm":15.258492719974447},{"id":"greekRestaurants_a50073ea32f7","slug":"peskesi-a500","kind":"restaurant","name":"Πεσκέσι","lat":35.34024406072665,"lng":25.132467165389027,"url":"https://maps.app.goo.gl/yUQNhdHvkcuWtksw6?g_st=ipc","address":"Καπετάν Χαραλάμπη 6-8, Ηράκλειο 712 02","categoryIds":["greek-restaurants"],"categories":["Greek Restaurants"],"distanceKm":15.334566564298823},{"id":"burgersRestaurants_cd2472c6c11c","slug":"burger-lab-cd24","kind":"restaurant","name":"Burger lab","lat":35.34068409863636,"lng":25.1306859517302,"url":"https://maps.app.goo.gl/uWp5QLp34WVqvaSm8?g_st=ic","address":"Chandakos 63, Iraklio 712 02","categoryIds":["burgers"],"categories":["Burger Spots"],"distanceKm":15.499190129062846},{"id":"municipalities_0abaeb44cae9","slug":"malia-0aba","kind":"municipality","name":"Μάλια","lat":35.283,"lng":25.462,"region":"Κρήτη","name_en":"Malia","region_en":"Crete","distanceKm":15.527910208509756},{"id":"wineriesVineyards_65b893a10fe8","slug":"digenakis-winery-65b8","kind":"restaurant","name":"Digenakis Winery","lat":35.20463323509506,"lng":25.193086290366207,"url":"https://maps.app.goo.gl/pUbzJ3zkVU4WZQWt5?g_st=ipc","address":"Epar.Od. Kallonis - Gdochia, Arkalochori 701 00","categoryIds":["wineries-vineyards"],"categories":["Wineries & Vineyards"],"distanceKm":17.091765353586627},{"id":"wineriesVineyards_e1a29dba58c6","slug":"alexakis-s-a-alexakis-winery-e1a2","kind":"restaurant","name":"Alexakis S.A. - Alexakis Winery","lat":35.30223283392354,"lng":25.115833737445403,"url":"https://maps.app.goo.gl/yJ2MV2fN5rdteunH9?g_st=ipc","address":"104-106 Irinis & Filias, Peridi Metohi Heraklion Crete 715 00","categoryIds":["wineries-vineyards"],"categories":["Wineries & Vineyards"],"distanceKm":17.10120447188882},{"id":"fishTavernasRestaurants_208b03cf6a01","slug":"ta-kalitera-208b","kind":"restaurant","name":"Ta Kalitera","lat":35.33845050978141,"lng":25.108732834642794,"url":"https://maps.app.goo.gl/Zzo1Mb3E832t3J2V6?g_st=ipc","address":"Arkadias 33, Xeropotamos 713 03","categoryIds":["fish-tavernas"],"categories":["Fish Tavernas"],"distanceKm":17.471837104563118},{"id":"wineriesVineyards_22764ebffa36","slug":"lyrarakis-winery-tasting-room-2276","kind":"restaurant","name":"Lyrarakis Winery & Tasting Room","lat":35.18420413415243,"lng":25.208537536815243,"url":"https://maps.app.goo.gl/im8sNsCc4aDTgz1y9?g_st=ipc","address":"Alagni, Arkalochori, 70300, Alagni, Heraklion, Crete 703 00","categoryIds":["wineries-vineyards"],"categories":["Wineries & Vineyards"],"distanceKm":18.312952989524156},{"id":"municipalities_28f34c2c61ff","slug":"archanes-asteroysia-28f3","kind":"municipality","name":"Αρχάνες - Αστερούσια","lat":35.166,"lng":25.15,"region":"Κεντρική Κρήτη","name_en":"Archanes - Asterousia","region_en":"Central Crete","distanceKm":22.86837159047275},{"id":"municipalities_43ae67a78abe","slug":"agios-georgios-lasithioy-43ae","kind":"municipality","name":"Άγιος Γεώργιος Λασιθίου","lat":35.207,"lng":25.511,"region":"Κρήτη","name_en":"Agios Georgios Lasithiou","region_en":"Crete","distanceKm":23.490661499291114}],"sameRegion":[],"mentionedGuides":[],"canonicalSlug":"gouves-water-park-water-slides-b978","isCanonicalEntity":true,"enrichment":{"summary_en":"Gouves Water Park Water Slides is a curated restaurant in Kato Gouves 700 14 in the Kid Friendly Locations collection. It is connected to 0 nearby Googlementor picks to help travelers build a stronger local route.","summary_el":"Gouves Water Park Water Slides είναι ένα επιλεγμένο σημείο φαγητού στην περιοχή Kato Gouves 700 14 και ανήκει στη συλλογή Kid Friendly Locations. Συνδέεται με 0 κοντινές προτάσεις του Googlementor για πιο ολοκληρωμένη εμπειρία.","vibe_tags":["curated","family-ready"],"best_for":["first-time visitors","food lovers","families"],"visit_moments":["lunch stop","dinner stop"],"practical_note":"Address and direct map link are available for easy turn-by-turn access.","nearby_walkable_count":0,"nearby_count_2km":2,"confidence":0.9}},"__N_SSG":true}