{"pageProps":{"entity":{"id":"cheapEatsRestaurants_ce1b9aa17757","slug":"gyrovolies-ce1b","kind":"restaurant","name":"GYROVOLIES","lat":40.50927064423355,"lng":22.925792825198258,"url":"https://maps.app.goo.gl/tcGBs6FexGiv7Ju47?g_st=ipc","address":"Eleytherias 1, Perea 570 19","categoryIds":["cheap-eats"],"categories":["Gyros & Cheap Eats"]},"sameCategory":[{"id":"cheapEatsRestaurants_62516fc5ff91","slug":"theologos-fast-food-6251","kind":"restaurant","name":"Theologos Fast Food","lat":40.56936513403147,"lng":22.960477178944696,"url":"https://maps.app.goo.gl/ivkmYsPpBSwDCJHG7?g_st=ipc","address":"18, Aidiniou 14, Kalamaria 551 32","categoryIds":["cheap-eats"],"categories":["Gyros & Cheap Eats"]},{"id":"cheapEatsRestaurants_3a3bde48c733","slug":"thess-gyro-3a3b","kind":"restaurant","name":"Thess...Gyro","lat":40.57305742887387,"lng":22.955729191150056,"url":"https://maps.app.goo.gl/UxFcV7SWYu9feyef9?g_st=ipc","address":"Smirnis 14, Kalamaria 551 32","categoryIds":["cheap-eats"],"categories":["Gyros & Cheap Eats"]},{"id":"cheapEatsRestaurants_5fc75ada9dd1","slug":"hot-pot-pasteria-5fc7","kind":"restaurant","name":"Hot Pot Pasteria","lat":40.555245602641975,"lng":22.992913714606928,"url":"https://maps.app.goo.gl/ZucBkKNWduhhUbyv9?g_st=ipc","address":"Mediterranean Cosmos, Thessaloniki","categoryIds":["cheap-eats"],"categories":["Gyros & Cheap Eats"]},{"id":"cheapEatsRestaurants_d02e33f8bb10","slug":"food-plaza-d02e","kind":"restaurant","name":"Food Plaza","lat":40.57666918251193,"lng":22.94927301198073,"url":"https://maps.app.goo.gl/zwY1QQTAGPf4oH7s8?g_st=ipc","address":"Skra 16, Kalamaria 551 32","categoryIds":["cheap-eats"],"categories":["Gyros & Cheap Eats"]},{"id":"burgersRestaurants_8f11f76e2e42","slug":"maverick-handmade-street-food-8f11","kind":"restaurant","name":"MAVERICK Handmade Street Food","lat":40.5733294711661,"lng":22.971759802516267,"url":"https://maps.app.goo.gl/Bc8D8iLK2oBQoFcm8?g_st=ipc","address":"Eth. Antistaseos 179, Kalamaria 551 34","categoryIds":["burgers","cheap-eats"],"categories":["Burger Spots","Gyros & Cheap Eats"],"legacySlugs":["maverick-handmade-street-food-77c2"]},{"id":"cheapEatsRestaurants_70bee89e8126","slug":"serafino-70be","kind":"restaurant","name":"Serafino","lat":40.58386899036688,"lng":22.951506267568906,"url":"https://maps.app.goo.gl/M1gK3j7aiDegVjjs6?g_st=ipc","address":"Metamorfoseos 11, Kalamaria 551 32","categoryIds":["cheap-eats"],"categories":["Gyros & Cheap Eats"]},{"id":"burgersRestaurants_4060fc5be247","slug":"maestro-cantina-4060","kind":"restaurant","name":"Maestro Cantina","lat":40.539870288194706,"lng":23.0207573353921,"url":"https://maps.app.goo.gl/WJTaYcJdPxACzwkXA?g_st=ipc","address":"EO Thessalonikis Poligirou 32, Thermi 570 01","categoryIds":["burgers","cheap-eats"],"categories":["Burger Spots","Gyros & Cheap Eats"],"legacySlugs":["maestro-cantina-5ff9"]},{"id":"cheapEatsRestaurants_0353751e2b08","slug":"grn-thermi-0353","kind":"restaurant","name":"ΓΡΝ Θέρμη","lat":40.54741782851475,"lng":23.01948092443365,"url":"https://maps.app.goo.gl/uCq2bBxGLbG7MnvB6?g_st=ipc","address":"Agiou Nikolaou 30, Thermi 570 01","categoryIds":["cheap-eats"],"categories":["Gyros & Cheap Eats"]},{"id":"cheapEatsRestaurants_530bf90a8d2b","slug":"lordon-530b","kind":"restaurant","name":"Lordon","lat":40.546997157219394,"lng":23.020384247436283,"url":"https://maps.app.goo.gl/3FBZX7roU6fjgkTS6?g_st=ipc","address":"Πλατεία Παραμάνα 18, Thermi 570 01","categoryIds":["cheap-eats"],"categories":["Gyros & Cheap Eats"]},{"id":"burgersRestaurants_54aa085a6ef8","slug":"sinners-smash-burgers-54aa","kind":"restaurant","name":"Sinners Smash Burgers","lat":40.57608642412674,"lng":22.98935981589618,"url":"https://maps.app.goo.gl/Y2NDJtMWMoJrutpZ6?g_st=ipc","address":"Στέλιου Καζαντζίδη 31, Pilea 555 35","categoryIds":["burgers","cheap-eats"],"categories":["Burger Spots","Gyros & Cheap Eats"],"legacySlugs":["sinners-smash-burgers-e79f"]},{"id":"burgersRestaurants_c2797cbf1cc8","slug":"jacaranda-c279","kind":"restaurant","name":"Jacaranda","lat":40.583007556132294,"lng":22.982557958626895,"url":"https://maps.app.goo.gl/1GxBYUFXBeTUU8iq6?g_st=ipc","address":"Στέλιου Καζαντζίδη 24, Pilea 555 35","categoryIds":["burgers","cheap-eats"],"categories":["Burger Spots","Gyros & Cheap Eats"],"legacySlugs":["jacaranda-05fa"]},{"id":"burgersRestaurants_8a735b95eb4f","slug":"paul-s-burger-8a73","kind":"restaurant","name":"Paul’s Burger","lat":40.59788362738132,"lng":22.95216160608432,"url":"https://maps.app.goo.gl/9L8fryr5EiA3D5rR9?g_st=ipc","address":"Geor. Papandreou 38, Thessaloniki 546 46","categoryIds":["burgers","cheap-eats"],"categories":["Burger Spots","Gyros & Cheap Eats"],"legacySlugs":["paul-s-burger-a56a"]}],"nearby":[{"id":"fishTavernasRestaurants_ecaa83f4acfd","slug":"archipelagos-ecaa","kind":"restaurant","name":"Archipelagos","lat":40.51031154332882,"lng":22.92896116717673,"url":"https://maps.app.goo.gl/VsctpgJ15cGguUW59?g_st=ipc","address":"P. Kountouriotou 37, Perea 575 00","categoryIds":["fish-tavernas"],"categories":["Fish Tavernas"],"distanceKm":0.29179182668302023},{"id":"greekRestaurants_820bfd5186cb","slug":"ta-mpinelikia-820b","kind":"restaurant","name":"Τα Μπινελίκια","lat":40.50703896441234,"lng":22.920737720394328,"url":"https://maps.app.goo.gl/oKvjS1FyjeCvcJy66?g_st=ipc","address":"Δημοκρατίας 104, Περαία 570 19","categoryIds":["greek-restaurants"],"categories":["Greek Restaurants"],"distanceKm":0.4941937706190382},{"id":"greekRestaurants_0c835368c56b","slug":"anestis-chasapotaverna-0c83","kind":"restaurant","name":"Ανέστης Χασαποταβέρνα","lat":40.502483515629656,"lng":22.91579650811081,"url":"https://maps.app.goo.gl/t2wP5pPZ82MXqh6X7?g_st=ipc","address":"Λεωφ. Θεσσαλονίκης - Μηχανιώνας 78, Περαία 570 19","categoryIds":["greek-restaurants"],"categories":["Greek Restaurants"],"distanceKm":1.1330655603976099},{"id":"dessertsRestaurants_162156adc1f2","slug":"nick-alexoudas-1621","kind":"restaurant","name":"NICK ALEXOUDAS","lat":40.50355208818679,"lng":22.970983268361184,"url":"https://maps.app.goo.gl/pdjwM7eD44CCVek79?g_st=ipc","address":"Θέρμη 570 01","categoryIds":["desserts"],"categories":["Dessert Shops"],"distanceKm":3.873188555893396},{"id":"fishTavernasRestaurants_74a21593aab9","slug":"prigkipas-2-74a2","kind":"restaurant","name":"Πρίγκιπας 2","lat":40.50076912252891,"lng":22.874276414295796,"url":"https://maps.app.goo.gl/bCTBJDRFAeRcLaM56?g_st=ipc","address":"Οικονομίου και, Neapoleos 1, Ag. Triada 570 19","categoryIds":["fish-tavernas"],"categories":["Fish Tavernas"],"distanceKm":4.456961680503081},{"id":"dessertsRestaurants_2befb2db83ce","slug":"terkenlis-2bef","kind":"restaurant","name":"Terkenlis","lat":40.525256969361955,"lng":22.97500623617725,"url":"https://maps.app.goo.gl/NfxGujkvPGiZ6Nah7?g_st=ipc","address":"Macedonia, airport, Thessaloniki","categoryIds":["desserts"],"categories":["Dessert Shops"],"distanceKm":4.523953830351733},{"id":"coffeeBrunchRestaurants_0acfd74b52d1","slug":"bonobo-0acf","kind":"restaurant","name":"bonobo","lat":40.469049217975595,"lng":22.95592261642206,"url":"https://maps.app.goo.gl/2aoNej1nWQNAJniB7?g_st=ipc","address":"Miaouli 78, Plagiari 575 00","categoryIds":["coffee-brunch"],"categories":["Coffee & Brunch Spots"],"distanceKm":5.1473052632866345},{"id":"greekRestaurants_730ebf3d54bc","slug":"to-steki-steak-house-730e","kind":"restaurant","name":"ΤΟ ΣΤΕΚΙ Steak House","lat":40.468079577548984,"lng":22.97361442896107,"url":"https://maps.app.goo.gl/bcVGXZXajJU5Ehw39?g_st=ipc","address":"Π. Μελά 9, Τρίλοφος 575 00","categoryIds":["greek-restaurants"],"categories":["Greek Restaurants"],"distanceKm":6.110136975198511},{"id":"coffeeBrunchRestaurants_5b87d322c2b5","slug":"pink-dot-cafe-5b87","kind":"restaurant","name":"Pink Dot Cafe","lat":40.548406580479465,"lng":22.98186227348721,"url":"https://maps.app.goo.gl/CG2fgJcxKmWaKuAV6?g_st=ipc","address":"Leof. Georgikis Scholis 84, Pilea 570 01","categoryIds":["coffee-brunch","desserts"],"categories":["Coffee & Brunch Spots","Dessert Shops"],"legacySlugs":["pink-dot-cafe-f1a3"],"distanceKm":6.4338039346561064},{"id":"familyFriendly_d122f87f1fed","slug":"kapsalas-tennis-club-d122","kind":"restaurant","name":"Καψάλας tennis club","lat":40.49945923504331,"lng":22.848750088608462,"url":"https://maps.app.goo.gl/yZyZ8YKUDg7Ac4pY7?g_st=ipc","address":"Θέση Επτάρια, Nea Michaniona 570 04","categoryIds":["family-friendly"],"categories":["Kid Friendly Locations"],"distanceKm":6.604523182637477},{"id":"wineriesVineyards_1453a2659012","slug":"gerovasileiou-estate-1453","kind":"restaurant","name":"Gerovasileiou Estate","lat":40.44938832129469,"lng":22.924743352052637,"url":"https://maps.app.goo.gl/C8APtFGMgaBwFMYcA?g_st=ipc","address":"ktima Gerovassiliou, Epanomi 575 00","categoryIds":["wineries-vineyards"],"categories":["Wineries & Vineyards"],"distanceKm":6.6592021200894305},{"id":"fishTavernasRestaurants_12f95d4f93d0","slug":"maiami-seafood-restaurant-12f9","kind":"restaurant","name":"Maiami Seafood Restaurant","lat":40.5660781564898,"lng":22.958426191574933,"url":"https://maps.app.goo.gl/iH1kytUDBvfY1Xmu5?g_st=ipc","address":"Thetidos 18, Kalamaria 551 32","categoryIds":["fish-tavernas","luxury-dining"],"categories":["Fish Tavernas","Luxury Dining"],"legacySlugs":["maiami-seafood-restaurant-20a0"],"distanceKm":6.892440901169516},{"id":"fishTavernasRestaurants_0b1c52c256c7","slug":"thermaikos-psarotaverna-kalamaria-thessaloniki-0b1c","kind":"restaurant","name":"Θερμαϊκός Ψαροταβέρνα | Καλαμαρία, Θεσσαλονίκη","lat":40.56643535238568,"lng":22.958306698225478,"url":"https://maps.app.goo.gl/fGHKAJK8MvBqvND6A?g_st=ipc","address":"Thetidos, Kalamaria 551 32","categoryIds":["fish-tavernas"],"categories":["Fish Tavernas"],"distanceKm":6.924844075370524},{"id":"fishTavernasRestaurants_d3195d3c5fff","slug":"arodo-d319","kind":"restaurant","name":"Aródo","lat":40.566822399097624,"lng":22.957889078590952,"url":"https://maps.app.goo.gl/1PTePSM62TKyXYyd9?g_st=ipc","address":"Thetidos 25, Θεσσαλονίκη 551 32","categoryIds":["fish-tavernas"],"categories":["Fish Tavernas"],"distanceKm":6.950519361114379},{"id":"coffeeBrunchRestaurants_3849ba172973","slug":"ergon-agora-east-3849","kind":"restaurant","name":"ERGON Agora (East)","lat":40.55876847950934,"lng":22.976949760424034,"url":"https://maps.app.goo.gl/um7bZpan68i3iqsx7?g_st=ipc","address":"Leof. Georgikis Scholis 50, Pilea Chortiatis 555 35","categoryIds":["coffee-brunch","family-friendly"],"categories":["Coffee & Brunch Spots","Kid Friendly Locations"],"legacySlugs":["ergon-agora-east-02cb"],"distanceKm":6.998847077160229},{"id":"fishTavernasRestaurants_8519dfc7e5a0","slug":"prigkipas-8519","kind":"restaurant","name":"Prigkipas","lat":40.56870307397198,"lng":22.96042239278236,"url":"https://maps.app.goo.gl/CftYQWb7WS78EL267?g_st=ipc","address":"Chanion 8, Kalamaria 551 32","categoryIds":["fish-tavernas"],"categories":["Fish Tavernas"],"distanceKm":7.227507357076445},{"id":"fishTavernasRestaurants_470d39921896","slug":"hamodrakas-seafood-restaurant-470d","kind":"restaurant","name":"Hamodrakas - Seafood Restaurant","lat":40.571711946022305,"lng":22.95231475803018,"url":"https://maps.app.goo.gl/6TCCV8GEPKaHee5b6?g_st=ipc","address":"Μ. Γαγύλη 13, Παραλία, Kalamaria 551 32","categoryIds":["fish-tavernas"],"categories":["Fish Tavernas"],"distanceKm":7.29590449260453},{"id":"cheapEatsRestaurants_62516fc5ff91","slug":"theologos-fast-food-6251","kind":"restaurant","name":"Theologos Fast Food","lat":40.56936513403147,"lng":22.960477178944696,"url":"https://maps.app.goo.gl/ivkmYsPpBSwDCJHG7?g_st=ipc","address":"18, Aidiniou 14, Kalamaria 551 32","categoryIds":["cheap-eats"],"categories":["Gyros & Cheap Eats"],"distanceKm":7.296734366695199},{"id":"familyFriendly_be918ccf9323","slug":"adventure-paintball-be91","kind":"restaurant","name":"Adventure Paintball","lat":40.54700993224624,"lng":22.99671406411148,"url":"https://maps.app.goo.gl/7H5QaUvgacWdSVGR6?g_st=ic","address":"A/D Thessalonikis Neon Moudanion, Thermi 570 01","categoryIds":["family-friendly"],"categories":["Kid Friendly Locations"],"distanceKm":7.317051230954134},{"id":"familyFriendly_15181c21c13f","slug":"magic-park-1518","kind":"restaurant","name":"Magic Park","lat":40.554442078448254,"lng":22.989769059470625,"url":"https://maps.app.goo.gl/b73PDCUhFyJQjo748?g_st=ipc","address":"Agias Anastasias 15, Thessaloniki 555 35","categoryIds":["family-friendly"],"categories":["Kid Friendly Locations"],"distanceKm":7.379883622534127},{"id":"fishTavernasRestaurants_e98c62e6ec54","slug":"en-plo-e98c","kind":"restaurant","name":"En Plo","lat":40.57398660392286,"lng":22.949456391166105,"url":"https://maps.app.goo.gl/veiyM1VvYLvbo86r8?g_st=ipc","address":"Nik. Plastira 14Β, Kalamaria 551 32","categoryIds":["fish-tavernas"],"categories":["Fish Tavernas"],"distanceKm":7.468736080873838},{"id":"greekRestaurants_0e26d4a47188","slug":"to-steki-0e26","kind":"restaurant","name":"Το Στέκι","lat":40.572585888519654,"lng":22.955645778588657,"url":"https://maps.app.goo.gl/1rTE4MnvZB8TLm2j8?g_st=ipc","address":"Κουντουριώτου 16, Καλαμαριά 551 32","categoryIds":["greek-restaurants"],"categories":["Greek Restaurants"],"distanceKm":7.478631899695625},{"id":"cheapEatsRestaurants_3a3bde48c733","slug":"thess-gyro-3a3b","kind":"restaurant","name":"Thess...Gyro","lat":40.57305742887387,"lng":22.955729191150056,"url":"https://maps.app.goo.gl/UxFcV7SWYu9feyef9?g_st=ipc","address":"Smirnis 14, Kalamaria 551 32","categoryIds":["cheap-eats"],"categories":["Gyros & Cheap Eats"],"distanceKm":7.530374527292647},{"id":"fishTavernasRestaurants_36204a46aece","slug":"to-karnagio-3620","kind":"restaurant","name":"Το Καρνάγιο","lat":40.574881874460935,"lng":22.94956377176227,"url":"https://maps.app.goo.gl/pPBVRQW1crZFz6ho8?g_st=ipc","address":"Agiou Nikolaou 4, Thessaloniki 551 32","categoryIds":["fish-tavernas"],"categories":["Fish Tavernas"],"distanceKm":7.5670984442721485}],"sameRegion":[],"mentionedGuides":[],"canonicalSlug":"gyrovolies-ce1b","isCanonicalEntity":true,"enrichment":{"summary_en":"GYROVOLIES is a curated restaurant in Perea 570 19 in the Gyros & Cheap Eats collection. It is connected to 2 nearby Googlementor picks to help travelers build a stronger local route.","summary_el":"GYROVOLIES είναι ένα επιλεγμένο σημείο φαγητού στην περιοχή Perea 570 19 και ανήκει στη συλλογή Gyros & Cheap Eats. Συνδέεται με 2 κοντινές προτάσεις του Googlementor για πιο ολοκληρωμένη εμπειρία.","vibe_tags":["curated","budget-friendly"],"best_for":["first-time visitors","food lovers","budget travelers"],"visit_moments":["lunch stop","dinner stop"],"practical_note":"Address and direct map link are available for easy turn-by-turn access.","nearby_walkable_count":2,"nearby_count_2km":3,"confidence":0.9}},"__N_SSG":true}