{"pageProps":{"entity":{"id":"cheapEatsRestaurants_a8d42456619d","slug":"k-grill-a8d4","kind":"restaurant","name":"K Grill","lat":37.94385577895444,"lng":23.685146441261658,"url":"https://maps.app.goo.gl/jm56NTQ4kCuysLqy9?g_st=ipc","address":"Λεωφ. Ελ. Βενιζέλου 330, Καλλιθέα 176 75","categoryIds":["cheap-eats"],"categories":["Gyros & Cheap Eats"]},"sameCategory":[{"id":"cheapEatsRestaurants_5a582036089f","slug":"soyvlakia-o-leyteris-5a58","kind":"restaurant","name":"Σουβλάκια Ο Λευτέρης","lat":37.9462875556964,"lng":23.690611255358668,"url":"https://maps.app.goo.gl/ZYkxvzMHun71tMk86?g_st=ipc","address":"Ξενοφώντος 146, Καλλιθέα 176 74","categoryIds":["cheap-eats"],"categories":["Gyros & Cheap Eats"]},{"id":"cheapEatsRestaurants_06d5422f5e7f","slug":"o-mitsos-06d5","kind":"restaurant","name":"Ο Μήτσος","lat":37.951501915719206,"lng":23.678968163051703,"url":"https://maps.app.goo.gl/dt9dXWs5vWdhfFah6?g_st=ipc","address":"Στρ. Μακρυγιάννη 92, Μοσχάτο 183 45","categoryIds":["cheap-eats"],"categories":["Gyros & Cheap Eats"]},{"id":"cheapEatsRestaurants_59ab2f655733","slug":"rosiko-pantopoleio-astana-59ab","kind":"restaurant","name":"Ρώσικο παντοπωλείο «Αστάνα»","lat":37.94852960059528,"lng":23.699447152301282,"url":"https://maps.app.goo.gl/Wayix2624vmNqYTT7?g_st=ipc","address":"Δημοσθένους 207, Καλλιθέα 176 73","categoryIds":["cheap-eats"],"categories":["Gyros & Cheap Eats"]},{"id":"cheapEatsRestaurants_d3888472f0b3","slug":"crepa-holic-kallithea-d388","kind":"restaurant","name":"Crepa Holic Kallithea","lat":37.95367992559356,"lng":23.699030666898533,"url":"https://maps.app.goo.gl/bLUgt75SSMUYsoXCA?g_st=ipc","address":"Λεωφ. Ελ. Βενιζέλου 185, Καλλιθέα 176 73","categoryIds":["cheap-eats"],"categories":["Gyros & Cheap Eats"]},{"id":"cheapEatsRestaurants_ae7b67ea9782","slug":"psitopoleio-o-lampros-ae7b","kind":"restaurant","name":"Ψητοπωλείο \"ο Λάμπρος\"","lat":37.93861571899796,"lng":23.703296381437085,"url":"https://maps.app.goo.gl/ufBXQHiqa3CEJ7PJ7?g_st=ipc","address":"Νέστορος 21, Παλαιό Φάληρο 175 61","categoryIds":["cheap-eats"],"categories":["Gyros & Cheap Eats"]},{"id":"cheapEatsRestaurants_270552aa07e7","slug":"o-sofras-tis-smyrnis-2705","kind":"restaurant","name":"Ο Σοφράς Της Σμύρνης","lat":37.93008545622269,"lng":23.69511056440978,"url":"https://maps.app.goo.gl/3hxTvGyB8jtFJcXXA?g_st=ipc","address":"Αγίου Αλεξάνδρου 60, Παλαιό Φάληρο 175 61","categoryIds":["cheap-eats"],"categories":["Gyros & Cheap Eats"]},{"id":"cheapEatsRestaurants_a367fef323c7","slug":"oi-rosides-soyvlaki-piroski-a367","kind":"restaurant","name":"Οι ρωσίδες Σουβλάκι-Πιροσκί","lat":37.95374548604023,"lng":23.701395628014694,"url":"https://maps.app.goo.gl/Ebo7K4NsszKopesC7?g_st=ipc","address":"Αναγνωσταρά 16, Καλλιθέα 176 73","categoryIds":["cheap-eats"],"categories":["Gyros & Cheap Eats"]},{"id":"cheapEatsRestaurants_d6753e770498","slug":"o-aris-d675","kind":"restaurant","name":"Ο ΑΡΗΣ","lat":37.95672934899719,"lng":23.669396304305284,"url":"https://maps.app.goo.gl/UpknKH1CFKmC87ij6?g_st=ipc","address":"Π. Μελά 14, Αγ. Ιωάννης Ρέντης 182 33","categoryIds":["cheap-eats"],"categories":["Gyros & Cheap Eats"]},{"id":"cheapEatsRestaurants_fb98feb8ab24","slug":"soyvlakia-o-leyteris-fb98","kind":"restaurant","name":"Σουβλάκια ο Λευτέρης","lat":37.947152588163014,"lng":23.712051232496496,"url":"https://maps.app.goo.gl/MTQDk9is4pkL1vPt9?g_st=ipc","address":"Ειρήνης 2, Νέα Σμύρνη 171 21","categoryIds":["cheap-eats"],"categories":["Gyros & Cheap Eats"]},{"id":"cheapEatsRestaurants_2631e9cf6c33","slug":"andreas-2631","kind":"restaurant","name":"Ανδρέας","lat":37.96513210122869,"lng":23.697946357808643,"url":"https://maps.app.goo.gl/FLdq6c6WUqhHtMqK9?g_st=ipc","address":"Χρυσοστόμου Σμύρνης 52, Ταύρος Αττικής 177 78","categoryIds":["cheap-eats"],"categories":["Gyros & Cheap Eats"]},{"id":"cheapEatsRestaurants_4c857b269660","slug":"soyvlakia-kalamakia-panostimo-4c85","kind":"restaurant","name":"Σουβλακια καλαμάκια πανοστιμο","lat":37.95437724216138,"lng":23.71201791711626,"url":"https://maps.app.goo.gl/wSd2i93DKt8GM9aEA?g_st=ipc","address":"Δοϊράνης 35, Καλλιθέα 176 72","categoryIds":["cheap-eats"],"categories":["Gyros & Cheap Eats"]},{"id":"asianRestaurants_ea18f7423739","slug":"streetwok-ea18","kind":"restaurant","name":"StreetWok","lat":37.94661589274436,"lng":23.715316438751927,"url":"https://maps.app.goo.gl/Wb2pGeyp5yUdVqfd9?g_st=ipc","address":"Λεωφ. Ελ. Βενιζέλου 37, Νέα Σμύρνη 171 23","categoryIds":["asian","cheap-eats"],"categories":["Asian Restaurants","Gyros & Cheap Eats"],"legacySlugs":["streetwok-7394"]}],"nearby":[{"id":"fishTavernasRestaurants_074f55a0dc1f","slug":"argoyra-074f","kind":"restaurant","name":"Άργουρα","lat":37.94571544668026,"lng":23.686046120341317,"url":"https://maps.app.goo.gl/1kvNDFxr5cv6uWZC9?g_st=ipc","address":"Αγησιλάου 49, Καλλιθέα 176 75","categoryIds":["fish-tavernas"],"categories":["Fish Tavernas"],"distanceKm":0.22132373075362705},{"id":"coffeeBrunchRestaurants_ae83561038ee","slug":"earth-athens-cafe-ae83","kind":"restaurant","name":"Earth Athens Cafe","lat":37.941294659441795,"lng":23.687632862231634,"url":"https://maps.app.goo.gl/ZTYgTAJLEes56zpH6?g_st=ipc","address":"Λεωφ. Ποσειδώνος 16, Αθήνα 176 74","categoryIds":["coffee-brunch"],"categories":["Coffee & Brunch Spots"],"distanceKm":0.35866705686263495},{"id":"fishTavernasRestaurants_d3ccb775792b","slug":"pezoylas-apo-to-1951-d3cc","kind":"restaurant","name":"ΠΕΖΟΥΛΑΣ (από το 1951)","lat":37.941197029624846,"lng":23.689708276473834,"url":"https://maps.app.goo.gl/wNokkeuemmPoYfgR7?g_st=ipc","address":"Πεισίστρατου 11, Καλλιθέα 176 74","categoryIds":["fish-tavernas"],"categories":["Fish Tavernas"],"distanceKm":0.49742310047944494},{"id":"coffeeBrunchRestaurants_4b099057dd52","slug":"jardin-all-day-stories-all-day-bar-restaurant-4b09","kind":"restaurant","name":"Jardin All Day Stories ALL DAY BAR RESTAURANT","lat":37.9431877608235,"lng":23.691220347054728,"url":"https://maps.app.goo.gl/6WktKFcLfn3upUnQ6?g_st=ipc","address":"Ναυάρχου Βότση 1, Καλλιθέα 176 74","categoryIds":["coffee-brunch"],"categories":["Coffee & Brunch Spots"],"distanceKm":0.5377769061201103},{"id":"cheapEatsRestaurants_5a582036089f","slug":"soyvlakia-o-leyteris-5a58","kind":"restaurant","name":"Σουβλάκια Ο Λευτέρης","lat":37.9462875556964,"lng":23.690611255358668,"url":"https://maps.app.goo.gl/ZYkxvzMHun71tMk86?g_st=ipc","address":"Ξενοφώντος 146, Καλλιθέα 176 74","categoryIds":["cheap-eats"],"categories":["Gyros & Cheap Eats"],"distanceKm":0.5502273835306035},{"id":"familyFriendly_2be04a6b1d81","slug":"parko-stayros-niarchos-2be0","kind":"restaurant","name":"Πάρκο Σταύρος Νιάρχος","lat":37.942200854453496,"lng":23.69345667519833,"url":"https://maps.app.goo.gl/8s92kLGvmU1yA3fe8?g_st=ipc","address":"Λεωφ. Ανδρέα Συγγρού 364, Καλλιθέα 176 74","categoryIds":["family-friendly"],"categories":["Kid Friendly Locations"],"distanceKm":0.75160650747775},{"id":"familyFriendly_a3e2f6188bf1","slug":"kentro-politismoy-idryma-stayros-niarchos-a3e2","kind":"restaurant","name":"Κέντρο Πολιτισμού Ίδρυμα Σταύρος Νιάρχος","lat":37.93985683037055,"lng":23.692122482978903,"url":"https://maps.app.goo.gl/ib2tnNRmM1foX6zd8?g_st=ipc","address":"Λεωφ. Ανδρέα Συγγρού 364, Καλλιθέα 176 74","categoryIds":["family-friendly","attractions"],"categories":["Kid Friendly Locations","Must-See Attractions"],"legacySlugs":["kentro-politismoy-idryma-stayros-niarchos-dc50"],"distanceKm":0.7562780405468229},{"id":"luxuryDiningRestaurants_84da05872d04","slug":"delta-restaurant-84da","kind":"restaurant","name":"Delta Restaurant","lat":37.939081506016144,"lng":23.69146940163584,"url":"https://maps.app.goo.gl/GSgBvngfewJdVtkA7?g_st=ipc","address":"Λεωφ. Ανδρέα Συγγρού 364, Αθήνα 176 74","categoryIds":["luxury-dining"],"categories":["Luxury Dining"],"distanceKm":0.7676414266150389},{"id":"greekRestaurants_be3d05b1fe1e","slug":"to-zempereki-koytoyki-moschato-be3d","kind":"restaurant","name":"Το Ζεμπερέκι - Κουτούκι | Μοσχάτο","lat":37.95039414676294,"lng":23.681530575454058,"url":"https://maps.app.goo.gl/D3JyGs93dHL849c59","address":"Σολωμού 92, Μοσχάτο 183 45","categoryIds":["greek-restaurants"],"categories":["Greek Restaurants"],"distanceKm":0.7931613160633934},{"id":"municipalities_b065b48a967f","slug":"freattyda-b065","kind":"municipality","name":"Φρεαττύδα","lat":37.9399,"lng":23.676,"region":"Πειραιάς","name_en":"Freattyda","region_en":"Piraeus","distanceKm":0.9147665403195604},{"id":"coffeeBrunchRestaurants_a7d2f7f99d61","slug":"flaked-croissanterie-moschato-a7d2","kind":"restaurant","name":"Flaked Croissanterie Moschato","lat":37.950290767501926,"lng":23.678176231264157,"url":"https://maps.app.goo.gl/dnEf78CD1KTT1Ewu8?g_st=ipc","address":"Ομήρου 67, Μοσχάτο 183 45","categoryIds":["coffee-brunch"],"categories":["Coffee & Brunch Spots"],"distanceKm":0.9410354637720846},{"id":"cheapEatsRestaurants_06d5422f5e7f","slug":"o-mitsos-06d5","kind":"restaurant","name":"Ο Μήτσος","lat":37.951501915719206,"lng":23.678968163051703,"url":"https://maps.app.goo.gl/dt9dXWs5vWdhfFah6?g_st=ipc","address":"Στρ. Μακρυγιάννη 92, Μοσχάτο 183 45","categoryIds":["cheap-eats"],"categories":["Gyros & Cheap Eats"],"distanceKm":1.008140062706315},{"id":"luxuryDiningRestaurants_8af90b11228b","slug":"e-o-pan-asian-restaurant-athens-8af9","kind":"restaurant","name":"e&o Pan-Asian Restaurant Athens","lat":37.94077150497406,"lng":23.696879786243304,"url":"https://maps.app.goo.gl/nAwF6RqCeQF6rY2P9?g_st=ipc","address":"Λεωφ. Ανδρέα Συγγρού 385, Παλαιό Φάληρο 175 64","categoryIds":["luxury-dining"],"categories":["Luxury Dining"],"distanceKm":1.0845681931962687},{"id":"familyFriendly_afbd73fa31fe","slug":"neo-psifiako-planitario-idrymatos-eygenidoy-afbd","kind":"restaurant","name":"Νέο Ψηφιακό Πλανητάριο Ιδρύματος Ευγενίδου","lat":37.939924135926155,"lng":23.69664152972377,"url":"https://maps.app.goo.gl/6jTSzr4LUutvW78x6?g_st=ipc","address":"387 Syggrou Ave. (entrance 11, Πεντέλης st, Αθήνα 175 64","categoryIds":["family-friendly"],"categories":["Kid Friendly Locations"],"distanceKm":1.0987486360673355},{"id":"greekRestaurants_9776b2d601ec","slug":"ladokolla-9776","kind":"restaurant","name":"Λαδόκολλα","lat":37.9520147160471,"lng":23.6947618008044,"url":"https://maps.app.goo.gl/R6yszu5SCxsZfVoCA","address":"Λεωφ. Ελ. Βενιζέλου 243, Καλλιθέα 176 73","categoryIds":["greek-restaurants"],"categories":["Greek Restaurants"],"distanceKm":1.2385177499459976},{"id":"greekRestaurants_80e12cc840c6","slug":"arsenis-80e1","kind":"restaurant","name":"Arsenis","lat":37.93975062587842,"lng":23.699103162428067,"url":"https://maps.app.goo.gl/gyD8tEfz4zabut3VA","address":"Ζησιμοπούλου 19, Παλαιό Φάληρο 175 64","categoryIds":["greek-restaurants"],"categories":["Greek Restaurants"],"distanceKm":1.3062504573808984},{"id":"greekRestaurants_8f822e8ac2ff","slug":"koytoyki-kalypso-8f82","kind":"restaurant","name":"Κουτούκι Καλυψώ","lat":37.94264199335833,"lng":23.700097006546933,"url":"https://maps.app.goo.gl/rZqTMGc8sQwmZ4zq9","address":"Πεντέλης 41-43, Παλαιό Φάληρο 175 64","categoryIds":["greek-restaurants"],"categories":["Greek Restaurants"],"distanceKm":1.3179524275358512},{"id":"dessertsRestaurants_aa7ff0f772d7","slug":"galaktopoleio-stamoy-aa7f","kind":"restaurant","name":"Γαλακτοπωλείο ΣΤΑΜΟΥ","lat":37.952436676546995,"lng":23.695715045897042,"url":"https://maps.app.goo.gl/rD5jojpe8yMT5k159?g_st=ipc","address":"Λεωφ. Ελ. Βενιζέλου 210, Καλλιθέα 176 75","categoryIds":["desserts"],"categories":["Dessert Shops"],"distanceKm":1.33010862094585},{"id":"cheapEatsRestaurants_59ab2f655733","slug":"rosiko-pantopoleio-astana-59ab","kind":"restaurant","name":"Ρώσικο παντοπωλείο «Αστάνα»","lat":37.94852960059528,"lng":23.699447152301282,"url":"https://maps.app.goo.gl/Wayix2624vmNqYTT7?g_st=ipc","address":"Δημοσθένους 207, Καλλιθέα 176 73","categoryIds":["cheap-eats"],"categories":["Gyros & Cheap Eats"],"distanceKm":1.3574156841723293},{"id":"municipalities_ddfd3c80db9c","slug":"kallithea-ddfd","kind":"municipality","name":"Καλλιθέα","lat":37.9503,"lng":23.6985,"aliases":["Kallithea","Kalithea","Καλλιθεα"],"region":"Νότια Προάστια","name_en":"Kallithea","region_en":"Southern Suburbs","distanceKm":1.3727777433450141},{"id":"asianRestaurants_6469a1c3e3f9","slug":"seoul-house-restaurant-6469","kind":"restaurant","name":"Seoul House Restaurant","lat":37.93747372174057,"lng":23.69891697936759,"url":"https://maps.app.goo.gl/ibEXR2ZExidRVduY6?g_st=ipc","address":"Ζησιμοπούλου 40, Παλαιό Φάληρο 175 64","categoryIds":["asian"],"categories":["Asian Restaurants"],"distanceKm":1.400670181966405},{"id":"mustSeeAttractions_7720a421889c","slug":"marina-floisvoy-7720","kind":"restaurant","name":"Μαρίνα Φλοίσβου","lat":37.9311951612676,"lng":23.68504538337465,"url":"https://maps.app.goo.gl/vxdQs7SscGUC98hY9?g_st=ipc","address":"Flisvos Marina, Αθήνα 175 61","categoryIds":["attractions"],"categories":["Must-See Attractions"],"distanceKm":1.407824350813905},{"id":"italianRestaurants_a8f55f60daad","slug":"napolitivo-a8f5","kind":"restaurant","name":"Napolitivo","lat":37.931139363113324,"lng":23.68556698847028,"url":"https://maps.app.goo.gl/iJWXQzLD79YWLeji9?g_st=ipc","address":"Λεωφ. Ποσειδώνος 702, Παλαιό Φάληρο 175 61","categoryIds":["italian"],"categories":["Italian Restaurants"],"distanceKm":1.4144818209645105},{"id":"italianRestaurants_47773e592b01","slug":"vitello-trattoria-romana-4777","kind":"restaurant","name":"Vitello Trattoria Romana","lat":37.93748817614671,"lng":23.699162197380616,"url":"https://maps.app.goo.gl/QapvvUw9jwdJSAM69?g_st=ipc","address":"Ζησιμοπούλου 41, Παλαιό Φάληρο 175 64","categoryIds":["italian"],"categories":["Italian Restaurants"],"distanceKm":1.4184486616570922}],"sameRegion":[],"mentionedGuides":[],"canonicalSlug":"k-grill-a8d4","isCanonicalEntity":true,"enrichment":{"summary_en":"K Grill is a curated restaurant in Καλλιθέα 176 75 in the Gyros & Cheap Eats collection. It is connected to 9 nearby Googlementor picks to help travelers build a stronger local route.","summary_el":"K Grill είναι ένα επιλεγμένο σημείο φαγητού στην περιοχή Καλλιθέα 176 75 και ανήκει στη συλλογή Gyros & Cheap Eats. Συνδέεται με 9 κοντινές προτάσεις του Googlementor για πιο ολοκληρωμένη εμπειρία.","vibe_tags":["curated","budget-friendly"],"best_for":["first-time visitors","food lovers","budget travelers"],"visit_moments":["lunch stop","dinner stop"],"practical_note":"Address and direct map link are available for easy turn-by-turn access.","nearby_walkable_count":9,"nearby_count_2km":47,"confidence":0.98}},"__N_SSG":true}