{"pageProps":{"entity":{"id":"asianRestaurants_df4a095e5eb1","slug":"kikko-sushi-fish-df4a","kind":"restaurant","name":"Kikko Sushi & Fish","lat":37.92527823438876,"lng":23.692729848366973,"url":"https://maps.app.goo.gl/kbxKKh8YDA8LNgPa6?g_st=ipc","address":"Αμφιτρίτης 8, Παλαιό Φάληρο 175 61","categoryIds":["asian"],"categories":["Asian Restaurants"]},"sameCategory":[{"id":"asianRestaurants_6469a1c3e3f9","slug":"seoul-house-restaurant-6469","kind":"restaurant","name":"Seoul House Restaurant","lat":37.93747372174057,"lng":23.69891697936759,"url":"https://maps.app.goo.gl/ibEXR2ZExidRVduY6?g_st=ipc","address":"Ζησιμοπούλου 40, Παλαιό Φάληρο 175 64","categoryIds":["asian"],"categories":["Asian Restaurants"]},{"id":"asianRestaurants_8c0b6c732554","slug":"black-lotus-vietnamese-restaurant-8c0b","kind":"restaurant","name":"Black Lotus Vietnamese Restaurant","lat":37.945120193663136,"lng":23.715750543219272,"url":"https://maps.app.goo.gl/ALPiHRy5LRfWNWfU7?g_st=ipc","address":"Ικονίου 11, Νέα Σμύρνη 171 23","categoryIds":["asian"],"categories":["Asian Restaurants"]},{"id":"asianRestaurants_ea18f7423739","slug":"streetwok-ea18","kind":"restaurant","name":"StreetWok","lat":37.94661589274436,"lng":23.715316438751927,"url":"https://maps.app.goo.gl/Wb2pGeyp5yUdVqfd9?g_st=ipc","address":"Λεωφ. Ελ. Βενιζέλου 37, Νέα Σμύρνη 171 23","categoryIds":["asian","cheap-eats"],"categories":["Asian Restaurants","Gyros & Cheap Eats"],"legacySlugs":["streetwok-7394"]},{"id":"asianRestaurants_6ef4181fa78e","slug":"kenko-japanese-restaurant-6ef4","kind":"restaurant","name":"Kenko Japanese Restaurant","lat":37.94729381865282,"lng":23.715042181127906,"url":"https://maps.app.goo.gl/XHTSnCRdEDq5dRxc7?g_st=ipc","address":"Λεωφ. Ελ. Βενιζέλου 22, Νέα Σμύρνη 171 21","categoryIds":["asian","luxury-dining"],"categories":["Asian Restaurants","Luxury Dining"],"legacySlugs":["kenko-japanese-restaurant-c964"]},{"id":"asianRestaurants_ac2889417da3","slug":"noodle-bar-peiraias-ac28","kind":"restaurant","name":"Noodle Bar Πειραιάς","lat":37.937017849380595,"lng":23.658515861113596,"url":"https://maps.app.goo.gl/bPMm8AQFpLTWbzzb7?g_st=ipc","address":"Ακτή Κουμουνδούρου 60, Πειραιάς 185 34","categoryIds":["asian"],"categories":["Asian Restaurants"]},{"id":"asianRestaurants_7724da0cbe7e","slug":"ten-modern-asian-7724","kind":"restaurant","name":"Ten Modern Asian","lat":37.93291413644206,"lng":23.647263058130683,"url":"https://maps.app.goo.gl/updMqDsRmH6egHAL7?g_st=ipc","address":"Μαρίνα Ζέας, Πειραιάς 185 36","categoryIds":["asian"],"categories":["Asian Restaurants"]},{"id":"asianRestaurants_674b8df64d5a","slug":"ceci-hong-kong-hot-pot-restaurant-674b","kind":"restaurant","name":"Ceci Hong Kong Hot Pot Restaurant","lat":37.96299269251651,"lng":23.714788342397448,"url":"https://maps.app.goo.gl/qSsZbhQeQPjLVDck8?g_st=ipc","address":"Λεωφ. Ελ. Βενιζέλου 14, Αθήνα 176 76","categoryIds":["asian"],"categories":["Asian Restaurants"]},{"id":"asianRestaurants_4f2a760fc2e5","slug":"rouan-thai-4f2a","kind":"restaurant","name":"Rouan Thai","lat":37.939187297472465,"lng":23.64209685014842,"url":"https://maps.app.goo.gl/s9uo8VDSoDevpowm6?g_st=ipc","address":"Νοταρά 131, Πειραιάς 185 36","categoryIds":["asian"],"categories":["Asian Restaurants"]},{"id":"asianRestaurants_48bbff4f4936","slug":"kitschen-48bb","kind":"restaurant","name":"Kitschen","lat":37.936566769814284,"lng":23.63928965922229,"url":"https://maps.app.goo.gl/1zPoyQ3qoTUyktA49?g_st=ipc","address":"Κανάρη 5, Πειραιάς 185 37","categoryIds":["asian"],"categories":["Asian Restaurants"]},{"id":"asianRestaurants_a89412856273","slug":"koyasan-in-koukaki-a894","kind":"restaurant","name":"Koyasan in koukaki","lat":37.96291366771106,"lng":23.723242897494586,"url":"https://maps.app.goo.gl/4sTjgzzfABYKexbx6?g_st=ipc","address":"17 & Ο, Ζαν Μωρεάς, Γεωρ. Ανδρούτσου, Αθήνα 117 41","categoryIds":["asian"],"categories":["Asian Restaurants"]},{"id":"asianRestaurants_be2d9e8cfa29","slug":"kuchisabishii-sakaba-be2d","kind":"restaurant","name":"Kuchisabishii Sakaba","lat":37.965507796335324,"lng":23.72667501899547,"url":"https://maps.app.goo.gl/mwPcNGYBVTJSy6C59?g_st=ic","address":"Falirou 36, Athina 117 42","categoryIds":["asian"],"categories":["Asian Restaurants"]},{"id":"asianRestaurants_83a81f921b31","slug":"tuk-tuk-thai-street-food-83a8","kind":"restaurant","name":"TUK TUK THAI STREET FOOD","lat":37.96606521122011,"lng":23.725716482971748,"url":"https://maps.app.goo.gl/dLSj52rnQDPAbaGg8?g_st=ipc","address":"Βεΐκου 40, Αθήνα 117 42","categoryIds":["asian"],"categories":["Asian Restaurants"]}],"nearby":[{"id":"italianRestaurants_c97c0ccdbf8c","slug":"o-italos-c97c","kind":"restaurant","name":"Ο Ιταλός","lat":37.926673536986776,"lng":23.69220389211545,"url":"https://maps.app.goo.gl/up3EpvmXnu7L2VC67?g_st=ipc","address":"Αλκυόνης 16, Παλαιό Φάληρο 175 61","categoryIds":["italian"],"categories":["Italian Restaurants"],"distanceKm":0.1618637785715391},{"id":"monasteriesChurches_350fade94be9","slug":"ieros-naos-agioy-alexandroy-350f","kind":"restaurant","name":"Ιερός Ναός Αγίου Αλεξάνδρου","lat":37.92675404012077,"lng":23.69297935050041,"url":"https://maps.app.goo.gl/oTPMMN55BBN9bVMA8?g_st=ipc","address":"Αγίου Αλεξάνδρου 14, Παλαιό Φάληρο 175 61","categoryIds":["monasteries-churches"],"categories":["Monasteries & Spiritual Sites"],"distanceKm":0.16555487582985876},{"id":"coffeeBrunchRestaurants_766ea98ae001","slug":"oi-pites-tis-sofias-766e","kind":"restaurant","name":"Οι πίτες της Σοφίας","lat":37.92792315472672,"lng":23.693652242106012,"url":"https://maps.app.goo.gl/yk8JxAF2vSDEd4wt8?g_st=ipc","address":"Αγίου Αλεξάνδρου 30, Παλαιό Φάληρο 175 61","categoryIds":["coffee-brunch"],"categories":["Coffee & Brunch Spots"],"distanceKm":0.3050265683385622},{"id":"familyFriendly_eb2517ef6cdc","slug":"flisvos-playground-eb25","kind":"restaurant","name":"Flisvos Playground","lat":37.9267608286871,"lng":23.6891198217997,"url":"https://maps.app.goo.gl/jLUBCzf12Wt3RSRK7?g_st=ipc","address":"Palaio Faliro 175 61","categoryIds":["family-friendly"],"categories":["Kid Friendly Locations"],"distanceKm":0.3569851139161894},{"id":"dessertsRestaurants_fc989a6fabce","slug":"zuccherino-fc98","kind":"restaurant","name":"Zuccherino","lat":37.929164062996655,"lng":23.69423089313357,"url":"https://maps.app.goo.gl/sw7fDPkoLwrWyuYH8?g_st=ipc","address":"Αγ. Αλεξάνδρου & Ναϊάδων, Παλαιό Φάληρο 175 61","categoryIds":["desserts"],"categories":["Dessert Shops"],"distanceKm":0.4516971303420182},{"id":"italianRestaurants_4319df2d5e15","slug":"da-bruno-4319","kind":"restaurant","name":"da Bruno","lat":37.92917795499007,"lng":23.694489698206436,"url":"https://maps.app.goo.gl/1dA2z4yKDCdZQUGbA","address":"Agiou Alexandrou 46, Paleo Faliro 175 61","categoryIds":["italian"],"categories":["Italian Restaurants"],"distanceKm":0.4602824873838429},{"id":"familyFriendly_f503c55e6f20","slug":"palio-faliro-park-f503","kind":"restaurant","name":"Palio Faliro Park","lat":37.927500164435116,"lng":23.68777633044372,"url":"https://maps.app.goo.gl/2D445MwyghagAFkRA?g_st=ic","address":"Leof. Poseidonos 17, Paleo Faliro 175 61","categoryIds":["family-friendly"],"categories":["Kid Friendly Locations"],"distanceKm":0.499811993315832},{"id":"familyFriendly_d5ba30df5709","slug":"parko-floisvos-d5ba","kind":"restaurant","name":"Πάρκο Φλοίσβος","lat":37.928217571282076,"lng":23.687928394626468,"url":"https://maps.app.goo.gl/xsiY1D9U4tz2Gxeu8?g_st=ipc","address":"Πάρκο Φλοίσβου Λεωφόρος Ποσειδονος παλαιο φαληρο, Αθήνα 175 61","categoryIds":["family-friendly"],"categories":["Kid Friendly Locations"],"distanceKm":0.5330854401227189},{"id":"cheapEatsRestaurants_270552aa07e7","slug":"o-sofras-tis-smyrnis-2705","kind":"restaurant","name":"Ο Σοφράς Της Σμύρνης","lat":37.93008545622269,"lng":23.69511056440978,"url":"https://maps.app.goo.gl/3hxTvGyB8jtFJcXXA?g_st=ipc","address":"Αγίου Αλεξάνδρου 60, Παλαιό Φάληρο 175 61","categoryIds":["cheap-eats"],"categories":["Gyros & Cheap Eats"],"distanceKm":0.5738758086489232},{"id":"dessertsRestaurants_84508f8235f2","slug":"zuccherino-8450","kind":"restaurant","name":"Zuccherino","lat":37.93016519402215,"lng":23.696227697191645,"url":"https://maps.app.goo.gl/tbe5oMETgxZAQkFK9?g_st=ipc","address":"Πρωτέως & Σειρήνων 48, Παλαιό Φάληρο 175 61","categoryIds":["desserts"],"categories":["Dessert Shops"],"distanceKm":0.6240281621157896},{"id":"municipalities_89aa8cc05ac2","slug":"palaio-faliro-89aa","kind":"municipality","name":"Παλαιό Φάληρο","lat":37.9286,"lng":23.701,"region":"Νότια Προάστια","name_en":"Palaio Faliro","region_en":"Southern Suburbs","distanceKm":0.8140015554029797},{"id":"dessertsRestaurants_4a419c4649f4","slug":"zacharoplasteia-kosmikon-p-faliro-4a41","kind":"restaurant","name":"ΖΑΧΑΡΟΠΛΑΣΤΕΙΑ ΚΟΣΜΙΚΟΝ Π.ΦΑΛΗΡΟ","lat":37.93261968622875,"lng":23.696837541827062,"url":"https://maps.app.goo.gl/JkkxEzmScmoGgm2v7?g_st=ipc","address":"Αγίου Αλεξάνδρου, Ζησιμοπούλου &, Παλαιό Φάληρο 175 61","categoryIds":["desserts"],"categories":["Dessert Shops"],"distanceKm":0.8922987610315665},{"id":"italianRestaurants_a8f55f60daad","slug":"napolitivo-a8f5","kind":"restaurant","name":"Napolitivo","lat":37.931139363113324,"lng":23.68556698847028,"url":"https://maps.app.goo.gl/iJWXQzLD79YWLeji9?g_st=ipc","address":"Λεωφ. Ποσειδώνος 702, Παλαιό Φάληρο 175 61","categoryIds":["italian"],"categories":["Italian Restaurants"],"distanceKm":0.9052288676913611},{"id":"mustSeeAttractions_7720a421889c","slug":"marina-floisvoy-7720","kind":"restaurant","name":"Μαρίνα Φλοίσβου","lat":37.9311951612676,"lng":23.68504538337465,"url":"https://maps.app.goo.gl/vxdQs7SscGUC98hY9?g_st=ipc","address":"Flisvos Marina, Αθήνα 175 61","categoryIds":["attractions"],"categories":["Must-See Attractions"],"distanceKm":0.941881626954113},{"id":"fishTavernasRestaurants_85d0b9f93ad9","slug":"psipsina-athinaiki-psarotaverna-85d0","kind":"restaurant","name":"Ψιψίνα - Αθηναϊκή Ψαροταβέρνα","lat":37.932530674886344,"lng":23.698986064990937,"url":"https://maps.app.goo.gl/Acz6F4ajfzUYXq7y7?g_st=ipc","address":"Colonel Zisimopoulos, 96, Athina 175 61","categoryIds":["fish-tavernas"],"categories":["Fish Tavernas"],"distanceKm":0.97541193308395},{"id":"greekRestaurants_30ac8464e0c3","slug":"kyr-aristos-30ac","kind":"restaurant","name":"Κυρ Αρίστος","lat":37.932597935183146,"lng":23.699203294233197,"url":"https://maps.app.goo.gl/EQaiuBpPZq633dxa7?g_st=ipc","address":"Zisimopoulou 96, Paleo Faliro 175 64","categoryIds":["greek-restaurants"],"categories":["Greek Restaurants"],"distanceKm":0.9923803886549549},{"id":"italianRestaurants_fb4db3d6df69","slug":"akakios-makaronadiko-fb4d","kind":"restaurant","name":"Ακάκιος μακαρονάδικο","lat":37.932532942991465,"lng":23.699425438393305,"url":"https://maps.app.goo.gl/Mjwxjxeqf2KWt2Hq5?g_st=ipc","address":"Αγίας Τριάδος 1, Παλαιό Φάληρο 175 64","categoryIds":["italian"],"categories":["Italian Restaurants"],"distanceKm":0.9978033819156497},{"id":"rooftopLoungesRestaurants_8bd69f8e140f","slug":"sky-bar-360-8bd6","kind":"restaurant","name":"Sky Bar 360","lat":37.91880690173223,"lng":23.70114636675223,"url":"https://maps.app.goo.gl/TMX4yShbMaVX6rTHA?g_st=ipc","address":"Λεωφ. Ποσειδώνος 72, Παλαιό Φάληρο 175 62","categoryIds":["rooftop-lounges"],"categories":["Rooftop Lounges"],"distanceKm":1.0309342761174298},{"id":"dessertsRestaurants_39196d9bee61","slug":"fatto-a-mano-3919","kind":"restaurant","name":"Fatto a Mano","lat":37.93356989313718,"lng":23.69912680674615,"url":"https://maps.app.goo.gl/6dQNxoEQLFVCyt9ZA?g_st=ipc","address":"Ζησιμοπούλου 86, Παλαιό Φάληρο 175 64","categoryIds":["desserts"],"categories":["Dessert Shops"],"distanceKm":1.0792834631236203},{"id":"burgersRestaurants_e2eccf34c175","slug":"hanky-panky-palaio-faliro-e2ec","kind":"restaurant","name":"Hanky Panky Palaio Faliro","lat":37.93089466239992,"lng":23.703396088291395,"url":"https://maps.app.goo.gl/psmqWjAqwrakd1ww7?g_st=ipc","address":"Πλ. Νταβάρη 2, Παλαιό Φάληρο 175 64","categoryIds":["burgers"],"categories":["Burger Spots"],"distanceKm":1.124821608185487},{"id":"coffeeBrunchRestaurants_c3b8d7875a67","slug":"upon-c3b8","kind":"restaurant","name":"UPON","lat":37.93165635013146,"lng":23.70322472978882,"url":"https://maps.app.goo.gl/yP6xS2xksJBA1Z4u7?g_st=ipc","address":"Dimokratias 33, Paleo Faliro 175 64","categoryIds":["coffee-brunch"],"categories":["Coffee & Brunch Spots"],"distanceKm":1.1620160230371004},{"id":"coffeeBrunchRestaurants_34ea25393225","slug":"hidden-alimos-34ea","kind":"restaurant","name":"Hidden Άλιμος","lat":37.9207925281224,"lng":23.706355320081276,"url":"https://maps.app.goo.gl/tNnv5bivZJzwGSak7?g_st=ipc","address":"Λεωφ. Ελευθερίας 45, Άλιμος 174 55","categoryIds":["coffee-brunch"],"categories":["Coffee & Brunch Spots"],"distanceKm":1.295060618867975},{"id":"greekRestaurants_842cd50fd946","slug":"mpampis-taverna-842c","kind":"restaurant","name":"Μπάμπης Ταβέρνα","lat":37.93493015100239,"lng":23.70154955498321,"url":"https://maps.app.goo.gl/SyFUZSdaS3SB5Mm48","address":"Λεωφ. Αμφιθέας 73, Παλαιό Φάληρο 175 64","categoryIds":["greek-restaurants"],"categories":["Greek Restaurants"],"distanceKm":1.3229596928324818},{"id":"asianRestaurants_6469a1c3e3f9","slug":"seoul-house-restaurant-6469","kind":"restaurant","name":"Seoul House Restaurant","lat":37.93747372174057,"lng":23.69891697936759,"url":"https://maps.app.goo.gl/ibEXR2ZExidRVduY6?g_st=ipc","address":"Ζησιμοπούλου 40, Παλαιό Φάληρο 175 64","categoryIds":["asian"],"categories":["Asian Restaurants"],"distanceKm":1.460616944119623}],"sameRegion":[],"mentionedGuides":[],"canonicalSlug":"kikko-sushi-fish-df4a","isCanonicalEntity":true,"enrichment":{"summary_en":"Kikko Sushi & Fish is a curated restaurant in Παλαιό Φάληρο 175 61 in the Asian Restaurants collection. It is connected to 10 nearby Googlementor picks to help travelers build a stronger local route.","summary_el":"Kikko Sushi & Fish είναι ένα επιλεγμένο σημείο φαγητού στην περιοχή Παλαιό Φάληρο 175 61 και ανήκει στη συλλογή Asian Restaurants. Συνδέεται με 10 κοντινές προτάσεις του Googlementor για πιο ολοκληρωμένη εμπειρία.","vibe_tags":["curated"],"best_for":["first-time visitors","food lovers"],"visit_moments":["lunch stop","dinner stop"],"practical_note":"Address and direct map link are available for easy turn-by-turn access.","nearby_walkable_count":10,"nearby_count_2km":39,"confidence":0.98}},"__N_SSG":true}