{"pageProps":{"entity":{"id":"municipalities_e21de95f608c","slug":"koroni-e21d","kind":"municipality","name":"Κορώνη","lat":36.7983,"lng":21.9561,"aliases":["Κορωνη","Corone"],"region":"Μεσσηνία","name_en":"Koroni","region_en":"Messinia"},"sameCategory":[],"nearby":[{"id":"fishTavernasRestaurants_46da75bbca86","slug":"kitro-beach-bar-46da","kind":"restaurant","name":"KITRO beach bar","lat":36.929308748219135,"lng":22.141911839670122,"url":"https://maps.app.goo.gl/UZ9gptAC7Z6jkYbL6?g_st=ipc","address":"Kitries 240 16","categoryIds":["fish-tavernas"],"categories":["Fish Tavernas"],"distanceKm":22.03328229026734},{"id":"greekRestaurants_b452b307e3d5","slug":"avli-casual-dining-b452","kind":"restaurant","name":"Avli Casual Dining","lat":36.81789567150713,"lng":21.706028012146277,"url":"https://maps.app.goo.gl/k2HPMX5K8YM6G2pE8?g_st=ipc","address":"Μπουμπουλίνας 1, Μεθώνη 240 06","categoryIds":["greek-restaurants"],"categories":["Greek Restaurants"],"distanceKm":22.369738504642438},{"id":"mustSeeAttractions_a60d85bb9886","slug":"methoni-castle-a60d","kind":"restaurant","name":"Methoni Castle","lat":36.81667229767631,"lng":21.705266643313138,"url":"https://maps.app.goo.gl/k9fRFDUZV5HCUUQ88?g_st=ipc","address":"Unnamed Rd, Methoni 240 06","categoryIds":["attractions"],"categories":["Must-See Attractions"],"distanceKm":22.424575998267578},{"id":"municipalities_b59892fe8b38","slug":"methoni-b598","kind":"municipality","name":"Μεθώνη","lat":36.8186,"lng":21.7025,"aliases":["Μεθωνη","Methone"],"region":"Μεσσηνία","name_en":"Methoni","region_en":"Messinia","distanceKm":22.689910640362232},{"id":"coffeeBrunchRestaurants_de7e3474dbb3","slug":"bouka-bouka-mare-de7e","kind":"restaurant","name":"Bouka Bouka Mare","lat":37.013989599006756,"lng":21.99717016667302,"url":"https://maps.app.goo.gl/8DUAGWFE2uqSxjoi6?g_st=ipc","address":"Παραλία, Messini 242 00","categoryIds":["coffee-brunch"],"categories":["Coffee & Brunch Spots"],"distanceKm":24.25999642760815},{"id":"municipalities_4e5522991f15","slug":"pylos-nestoras-4e55","kind":"municipality","name":"Πύλος - Νέστορας","lat":36.9167,"lng":21.7,"region":"Μεσσηνία","name_en":"Pylos - Nestor","region_en":"Messinia","distanceKm":26.315385872051337},{"id":"municipalities_916c7fc5dbd0","slug":"kardamyli-916c","kind":"municipality","name":"Καρδαμύλη","lat":36.887,"lng":22.231,"region":"Μάνη","name_en":"Kardamyli","region_en":"Mani","distanceKm":26.376161540405167},{"id":"greekRestaurants_bea663c90687","slug":"old-kardamili-traditional-restaurant-bea6","kind":"restaurant","name":"Old Kardamili Traditional Restaurant","lat":36.89060323769192,"lng":22.234603142422902,"url":"https://maps.app.goo.gl/6q92ZmmxYbRjcPAK7?g_st=ipc","address":"Καρδαμύλη 240 22","categoryIds":["greek-restaurants"],"categories":["Greek Restaurants"],"distanceKm":26.8239984189321},{"id":"luxuryDiningRestaurants_887b9130f7ba","slug":"anama-restaurant-887b","kind":"restaurant","name":"Anama Restaurant","lat":36.94955133528612,"lng":21.70334046442158,"url":"https://maps.app.goo.gl/FmHg6YqwP5dXkFBw9?g_st=ipc","address":"Anama Restaurant, Gialova 240 01","categoryIds":["luxury-dining"],"categories":["Luxury Dining"],"distanceKm":28.07765297403832},{"id":"greekRestaurants_d642ef20da89","slug":"taverna-stoy-kosta-vasileiadis-d642","kind":"restaurant","name":"Ταβέρνα ...Στου Κώστα (Βασιλειάδης)","lat":37.03271251663096,"lng":22.08556254235988,"url":"https://maps.app.goo.gl/kFDrXkX44UQVsEuj6?g_st=ipc","address":"Μπουρνιάς 241 00","categoryIds":["greek-restaurants"],"categories":["Greek Restaurants"],"distanceKm":28.49349696787207},{"id":"greekRestaurants_b6d91074b1e0","slug":"to-chagiati-b6d9","kind":"restaurant","name":"Το Χαγιάτι","lat":37.02551903300677,"lng":22.1045265688528,"url":"https://maps.app.goo.gl/ULLkprr1KA3431Kr5?g_st=ipc","address":"Χρυσοστόμου Σμύρνης 14, Καλαμάτα 241 00","categoryIds":["greek-restaurants"],"categories":["Greek Restaurants"],"distanceKm":28.504188030198925},{"id":"greekRestaurants_4b292579b6c1","slug":"kastraki-4b29","kind":"restaurant","name":"Καστράκι","lat":36.99814863061726,"lng":22.16327783385712,"url":"https://maps.app.goo.gl/ruMr5U1HpLAsRyMj8?g_st=ipc","address":"Verga, Καλαμάτα 241 00","categoryIds":["greek-restaurants"],"categories":["Greek Restaurants"],"distanceKm":28.86563622365721},{"id":"greekRestaurants_b977f4338c5f","slug":"i-goyrnopoyla-b977","kind":"restaurant","name":"Η Γουρνοπούλα","lat":37.04086694947287,"lng":22.10214692733091,"url":"https://maps.app.goo.gl/t4ZM2LzPoSJAP4xr7?g_st=ipc","address":"Αγίου Δημητρίου 3, Μπουρνιάς 241 00","categoryIds":["greek-restaurants"],"categories":["Greek Restaurants"],"distanceKm":29.934351104498944},{"id":"municipalities_27bb87995f2c","slug":"kalamata-27bb","kind":"municipality","name":"Καλαμάτα","lat":37.0389,"lng":22.1142,"aliases":["Kalamata","Καλαματα"],"region":"Μεσσηνία","name_en":"Kalamata","region_en":"Messinia","distanceKm":30.220703070434332},{"id":"dessertsRestaurants_56efe2dc9d58","slug":"mama-s-sweethouse-56ef","kind":"restaurant","name":"Mama's Sweethouse","lat":37.04347618258237,"lng":22.112767283500112,"url":"https://maps.app.goo.gl/S4yCk6avJpgbawKA7?g_st=ipc","address":"Amfias 20, Kalamata 241 00","categoryIds":["desserts"],"categories":["Dessert Shops"],"distanceKm":30.61373950804362},{"id":"cheapEatsRestaurants_4a509c86a037","slug":"souvlakia-o-tzimis-4a50","kind":"restaurant","name":"Souvlakia o Tzimis","lat":37.04342911583992,"lng":22.113254908943482,"url":"https://maps.app.goo.gl/VEjvVPTR3XkkoZxW8?g_st=ipc","address":"Mpenaki 1, Kalamata 241 00","categoryIds":["cheap-eats"],"categories":["Gyros & Cheap Eats"],"distanceKm":30.62882866455468},{"id":"dessertsRestaurants_0a8378cb10e5","slug":"chrysanthe-0a83","kind":"restaurant","name":"Chrysánthē","lat":37.04381316216458,"lng":22.112403710830222,"url":"https://maps.app.goo.gl/CqfQrVAqTCRArs3DA?g_st=ipc","address":"Ithomis 8, Kalamata 241 00","categoryIds":["desserts"],"categories":["Dessert Shops"],"distanceKm":30.63242472803463},{"id":"municipalities_dc35612c688a","slug":"kyparissia-dc35","kind":"municipality","name":"Κυπαρισσία","lat":37.25,"lng":21.6667,"region":"Μεσσηνία","name_en":"Kyparissia","region_en":"Messinia","distanceKm":56.41616617747597}],"sameRegion":[{"id":"municipalities_27bb87995f2c","slug":"kalamata-27bb","kind":"municipality","name":"Καλαμάτα","lat":37.0389,"lng":22.1142,"aliases":["Kalamata","Καλαματα"],"region":"Μεσσηνία","name_en":"Kalamata","region_en":"Messinia"},{"id":"municipalities_4e5522991f15","slug":"pylos-nestoras-4e55","kind":"municipality","name":"Πύλος - Νέστορας","lat":36.9167,"lng":21.7,"region":"Μεσσηνία","name_en":"Pylos - Nestor","region_en":"Messinia"},{"id":"municipalities_b59892fe8b38","slug":"methoni-b598","kind":"municipality","name":"Μεθώνη","lat":36.8186,"lng":21.7025,"aliases":["Μεθωνη","Methone"],"region":"Μεσσηνία","name_en":"Methoni","region_en":"Messinia"},{"id":"municipalities_dc35612c688a","slug":"kyparissia-dc35","kind":"municipality","name":"Κυπαρισσία","lat":37.25,"lng":21.6667,"region":"Μεσσηνία","name_en":"Kyparissia","region_en":"Messinia"}],"mentionedGuides":[],"canonicalSlug":"koroni-e21d","isCanonicalEntity":true,"enrichment":{"summary_en":"Κορώνη is a curated neighborhood area in Μεσσηνία. It is connected to 0 nearby Googlementor picks to help travelers build a stronger local route.","summary_el":"Κορώνη είναι ένα επιλεγμένο σημείο ενδιαφέροντος στην περιοχή Μεσσηνία. Συνδέεται με 0 κοντινές προτάσεις του Googlementor για πιο ολοκληρωμένη εμπειρία.","vibe_tags":["local-neighborhood","base-for-exploring"],"best_for":["first-time visitors","walk-and-explore days","return visitors"],"visit_moments":["late morning walks","sunset exploration"],"practical_note":"0 curated places are within walkable distance from this area center.","nearby_walkable_count":0,"nearby_count_2km":0,"confidence":0.55}},"__N_SSG":true}