{"pageProps":{"entity":{"id":"cheapEatsRestaurants_6b9bfc66a8e4","slug":"lacantina-streetfood-6b9b","kind":"restaurant","name":"Lacantina streetfood","lat":37.98418112510836,"lng":23.734735469259256,"url":"https://maps.app.goo.gl/in5jozRVDDW97jJc8?g_st=ipc","address":"Ζωοδόχου Πηγής 24, Αθήνα 106 81","categoryIds":["cheap-eats"],"categories":["Gyros & Cheap Eats"]},"sameCategory":[{"id":"burgersRestaurants_c839a7ca9229","slug":"prigkipas-c839","kind":"restaurant","name":"Πρiγκιπας","lat":37.983677017107105,"lng":23.73451147367233,"url":"https://maps.app.goo.gl/fEvt3vsxx19nFxqw8?g_st=ipc","address":"Χαρ. Τρικούπη 23, Αθήνα 106 81","categoryIds":["burgers","cheap-eats"],"categories":["Burger Spots","Gyros & Cheap Eats"],"legacySlugs":["prigkipas-f678"]},{"id":"cheapEatsRestaurants_318abcd239ee","slug":"kalopsimeno-318a","kind":"restaurant","name":"Καλοψημένο","lat":37.98304777386895,"lng":23.735997970914198,"url":"https://maps.app.goo.gl/TiMP26dpbHXJx6pS9?g_st=ipc","address":"Ιπποκράτους 37, Αθήνα 106 80","categoryIds":["cheap-eats"],"categories":["Gyros & Cheap Eats"]},{"id":"cheapEatsRestaurants_cab7e72e3b11","slug":"psitopoleion-giorgos-manos-cab7","kind":"restaurant","name":"Ψητοπωλείον Γιώργος - Μάνος","lat":37.9855993281782,"lng":23.733208439532696,"url":"https://maps.app.goo.gl/jYKrRJuSFDD632N47?g_st=ipc","address":"Θεμιστοκλέους 39, Αθήνα 106 77","categoryIds":["cheap-eats"],"categories":["Gyros & Cheap Eats"]},{"id":"cheapEatsRestaurants_724c8ca91031","slug":"mangal-724c","kind":"restaurant","name":"Mangal","lat":37.98648075392058,"lng":23.733903117356245,"url":"https://maps.app.goo.gl/fZ3o2N67Ya2WA1aQA?g_st=ipc","address":"Σολωμού 12, Αθήνα 106 83","categoryIds":["cheap-eats"],"categories":["Gyros & Cheap Eats"]},{"id":"cheapEatsRestaurants_cda079c65f38","slug":"lorda-cda0","kind":"restaurant","name":"Λόρδα","lat":37.986574816164286,"lng":23.734456878858524,"url":"https://maps.app.goo.gl/nBaQ33jw6JEZQp7X9?g_st=ipc","address":"Σπύρου Τρικούπη 3, Αθήνα 106 83","categoryIds":["cheap-eats"],"categories":["Gyros & Cheap Eats"]},{"id":"cheapEatsRestaurants_5338053c1323","slug":"cocoretsi-5338","kind":"restaurant","name":"Cocoretsi","lat":37.984933091622935,"lng":23.73142125517845,"url":"https://maps.app.goo.gl/sz7bawT1imNu9L696?g_st=ipc","address":"Ακαδημίας 95, Αθήνα 106 77","categoryIds":["cheap-eats"],"categories":["Gyros & Cheap Eats"]},{"id":"cheapEatsRestaurants_7a147c673f5b","slug":"soyvlaki-i-leivadia-7a14","kind":"restaurant","name":"Σουβλάκι Η Λειβαδιά","lat":37.984552486382015,"lng":23.7305119942548,"url":"https://maps.app.goo.gl/DMoZEUMYCkZLa2k59?g_st=ipc","address":"Κάνιγγος 2-4, Αθήνα 106 77","categoryIds":["cheap-eats"],"categories":["Gyros & Cheap Eats"]},{"id":"cheapEatsRestaurants_0f0ae09c0d4e","slug":"guerilla-chef-burgers-0f0a","kind":"restaurant","name":"Guerilla Chef Burgers","lat":37.98671993993366,"lng":23.731787435580728,"url":"https://maps.app.goo.gl/K2QVLnm9vHS1E3cF9?g_st=ipc","address":"37.98671993993366, 23.731787435580728","categoryIds":["cheap-eats"],"categories":["Gyros & Cheap Eats"]},{"id":"cheapEatsRestaurants_c56025371d6e","slug":"hayat-c560","kind":"restaurant","name":"Hayat","lat":37.98451943968109,"lng":23.73920441819002,"url":"https://maps.app.goo.gl/mqY78SsShBqeen4Q9?g_st=ipc","address":"Ιπποκράτους 78, Αθήνα 106 80","categoryIds":["cheap-eats"],"categories":["Gyros & Cheap Eats"]},{"id":"burgersRestaurants_3c1c73d21fec","slug":"meat-n-roses-kolonaki-3c1c","kind":"restaurant","name":"Meat n Roses Kolonaki","lat":37.97828442263524,"lng":23.735087640545906,"url":"https://maps.app.goo.gl/qGwCStnKNtrJzrtm6?g_st=ipc","address":"Αμερικής 7, Αθήνα 106 72","categoryIds":["burgers","cheap-eats"],"categories":["Burger Spots","Gyros & Cheap Eats"],"legacySlugs":["meat-n-roses-kolonaki-9219"]},{"id":"cheapEatsRestaurants_bbf053953e0b","slug":"leyteris-o-politis-ap-to-1951-bbf0","kind":"restaurant","name":"Λευτέρης ο Πολίτης (Απ'το 1951)","lat":37.98519549438972,"lng":23.72733221380902,"url":"https://maps.app.goo.gl/ChqL23bz9HeKVK9L8?g_st=ipc","address":"Σατωβριάνδου 20, Αθήνα 104 32","categoryIds":["cheap-eats"],"categories":["Gyros & Cheap Eats"]},{"id":"cheapEatsRestaurants_d410e8bfc12e","slug":"delicious-souvlaki-d410","kind":"restaurant","name":"Delicious Souvlaki","lat":37.98375720535008,"lng":23.72706851408364,"url":"https://maps.app.goo.gl/ULZUzVZRtCP5wbNN7?g_st=ipc","address":"Π. Τσαλδάρη 4, Αθήνα 104 31","categoryIds":["cheap-eats"],"categories":["Gyros & Cheap Eats"]}],"nearby":[{"id":"burgersRestaurants_c839a7ca9229","slug":"prigkipas-c839","kind":"restaurant","name":"Πρiγκιπας","lat":37.983677017107105,"lng":23.73451147367233,"url":"https://maps.app.goo.gl/fEvt3vsxx19nFxqw8?g_st=ipc","address":"Χαρ. Τρικούπη 23, Αθήνα 106 81","categoryIds":["burgers","cheap-eats"],"categories":["Burger Spots","Gyros & Cheap Eats"],"legacySlugs":["prigkipas-f678"],"distanceKm":0.05939252360487237},{"id":"vegetarianRestaurants_cf7f490bbd2d","slug":"bamboo-vegan-cf7f","kind":"restaurant","name":"Bamboo Vegan","lat":37.984730799052805,"lng":23.735878610157684,"url":"https://maps.app.goo.gl/BtDhoy7Tfhqa4zzX7?g_st=ipc","address":"Ζωοδόχου Πηγής 36, Αθήνα 106 81","categoryIds":["vegetarian"],"categories":["Vegetarian Friendly Restaurants"],"distanceKm":0.11735881729258123},{"id":"vegetarianRestaurants_4f70d2b2123b","slug":"filomila-vegeterian-food-4f70","kind":"restaurant","name":"Filomila Vegeterian Food","lat":37.9853717765479,"lng":23.73508897094766,"url":"https://maps.app.goo.gl/JYkwhsRENEnEtjgHA?g_st=ipc","address":"Ανδρέα Μεταξά 13, Αθήνα 106 81","categoryIds":["vegetarian"],"categories":["Vegetarian Friendly Restaurants"],"distanceKm":0.1359710042373825},{"id":"coffeeBrunchRestaurants_ea5204c1a6d8","slug":"boken-athens-ea52","kind":"restaurant","name":"Boken Athens","lat":37.98455750232933,"lng":23.733083600431524,"url":"https://maps.app.goo.gl/L42dwqLWL7TpGc5a8?g_st=ipc","address":"Εμμανουήλ Μπενάκη 40, Αθήνα 106 78","categoryIds":["coffee-brunch"],"categories":["Coffee & Brunch Spots"],"distanceKm":0.1507000989706279},{"id":"italianRestaurants_26c15b5688a4","slug":"valtezziana-2-0-26c1","kind":"restaurant","name":"Valtezziana 2.0","lat":37.985220488107345,"lng":23.735852167301612,"url":"https://maps.app.goo.gl/qNCJTFj4cbH4ymKR8?g_st=ipc","address":"Βαλτετσίου 41, Αθήνα 106 81","categoryIds":["italian"],"categories":["Italian Restaurants"],"distanceKm":0.15144348258995535},{"id":"municipalities_2f324ee27306","slug":"exarcheia-2f32","kind":"municipality","name":"Εξάρχεια","lat":37.984,"lng":23.7365,"aliases":["Exarchia","Eksarheia","Εξαρχεια","Εξαρχειά","Exarxia","Eksarchia"],"region":"Κέντρο Αθήνας","name_en":"Exarcheia","region_en":"Athens Center","distanceKm":0.15595260742279268},{"id":"fishTavernasRestaurants_f3208ead9a15","slug":"oyzeri-i-lesvos-f320","kind":"restaurant","name":"Ουζερί Η Λέσβος","lat":37.98449752332163,"lng":23.73299796536249,"url":"https://maps.app.goo.gl/zGLD1EQEqkqawMvG7?g_st=ipc","address":"Εμμανουήλ Μπενάκη 38, Αθήνα 106 78","categoryIds":["fish-tavernas"],"categories":["Fish Tavernas"],"distanceKm":0.15628879969832704},{"id":"dessertsRestaurants_0a4575669b20","slug":"sorolop-0a45","kind":"restaurant","name":"Sorolop","lat":37.98564970745245,"lng":23.73486137468713,"url":"https://maps.app.goo.gl/JHNfHtwZtaTRv5c86?g_st=ipc","address":"Ανδρέα Μεταξά 17, Αθήνα 106 81","categoryIds":["desserts"],"categories":["Dessert Shops"],"distanceKm":0.16367129222808566},{"id":"cheapEatsRestaurants_318abcd239ee","slug":"kalopsimeno-318a","kind":"restaurant","name":"Καλοψημένο","lat":37.98304777386895,"lng":23.735997970914198,"url":"https://maps.app.goo.gl/TiMP26dpbHXJx6pS9?g_st=ipc","address":"Ιπποκράτους 37, Αθήνα 106 80","categoryIds":["cheap-eats"],"categories":["Gyros & Cheap Eats"],"distanceKm":0.16770478481649012},{"id":"italianRestaurants_f3fa54dd222e","slug":"mystic-pizza-pasta-f3fa","kind":"restaurant","name":"Mystic Pizza & Pasta","lat":37.98571885741884,"lng":23.735343296198398,"url":"https://maps.app.goo.gl/1SJBX6YThtp2jdfQ8?g_st=ipc","address":"Εμμανουήλ Μπενάκη 76, Αθήνα 106 81","categoryIds":["italian"],"categories":["Italian Restaurants"],"distanceKm":0.17909395609589393},{"id":"greekRestaurants_be06a546e935","slug":"giantes-be06","kind":"restaurant","name":"Γιάντες","lat":37.98561482975353,"lng":23.735926375159003,"url":"https://maps.app.goo.gl/LuGL5j7KgtCFWxmA8","address":"Βαλτετσίου 44, Αθήνα 106 81","categoryIds":["greek-restaurants","luxury-dining"],"categories":["Greek Restaurants","Luxury Dining"],"legacySlugs":["giantes-2f3a"],"distanceKm":0.19054780744596303},{"id":"burgersRestaurants_293449c2193c","slug":"exberg-2934","kind":"restaurant","name":"Exberg","lat":37.985722017039464,"lng":23.73377568835493,"url":"https://maps.app.goo.gl/671QPGYqt87fhozt8?g_st=ipc","address":"Θεμιστοκλέους 56, Αθήνα 106 81","categoryIds":["burgers"],"categories":["Burger Spots"],"distanceKm":0.19087343936294135},{"id":"cheapEatsRestaurants_cab7e72e3b11","slug":"psitopoleion-giorgos-manos-cab7","kind":"restaurant","name":"Ψητοπωλείον Γιώργος - Μάνος","lat":37.9855993281782,"lng":23.733208439532696,"url":"https://maps.app.goo.gl/jYKrRJuSFDD632N47?g_st=ipc","address":"Θεμιστοκλέους 39, Αθήνα 106 77","categoryIds":["cheap-eats"],"categories":["Gyros & Cheap Eats"],"distanceKm":0.20683050255705598},{"id":"vegetarianRestaurants_77e942c763e9","slug":"magic-kitchen-chortofagia-themistokleoys-kentro-77e9","kind":"restaurant","name":"Magic Kitchen Χορτοφαγία Θεμιστοκλέους Κέντρο","lat":37.98582880467768,"lng":23.733583710090212,"url":"https://maps.app.goo.gl/ZQqCgQBx8g5Gjgrh7?g_st=ipc","address":"Θεμιστοκλέους 45, Αθήνα 106 82","categoryIds":["vegetarian"],"categories":["Vegetarian Friendly Restaurants"],"distanceKm":0.20918009110642308},{"id":"vegetarianRestaurants_ad1aabfd0107","slug":"cookoomela-grill-vegan-ad1a","kind":"restaurant","name":"Cookoomela Grill Vegan","lat":37.985828644021424,"lng":23.73352687550602,"url":"https://maps.app.goo.gl/QbLppt3u9uZg36Xi6?g_st=ipc","address":"Θεμιστοκλέους 43, Αθήνα 106 83","categoryIds":["vegetarian"],"categories":["Vegetarian Friendly Restaurants"],"distanceKm":0.2116132189433227},{"id":"coffeeBrunchRestaurants_d36dcbf8db8e","slug":"nuffsaid-athens-d36d","kind":"restaurant","name":"NuffSaid.Athens","lat":37.983130427686646,"lng":23.736758649889097,"url":"https://maps.app.goo.gl/HmGsxR2qGDJfvBKs6?g_st=ipc","address":"Διδότου 31, Αθήνα 106 80","categoryIds":["coffee-brunch"],"categories":["Coffee & Brunch Spots"],"distanceKm":0.2123459930630764},{"id":"dessertsRestaurants_1784b9fa852d","slug":"baklamania-1784","kind":"restaurant","name":"Baklamania","lat":37.985982058793134,"lng":23.733879471082627,"url":"https://maps.app.goo.gl/dVejuM8qJpCUsYq38?g_st=ipc","address":"Θεμιστοκλέους 49, Αθήνα 106 83","categoryIds":["desserts"],"categories":["Dessert Shops"],"distanceKm":0.21384567445137087},{"id":"vegetarianRestaurants_7f7c33a1a56c","slug":"rozalia-7f7c","kind":"restaurant","name":"Ροζαλία","lat":37.98607917346581,"lng":23.735180101843408,"url":"https://maps.app.goo.gl/UngDLMKcNPzNvksZ6?g_st=ipc","address":"Βαλτετσίου 59, Αθήνα 106 81","categoryIds":["vegetarian"],"categories":["Vegetarian Friendly Restaurants"],"distanceKm":0.21462061630520635},{"id":"vegetarianRestaurants_20df7d290d02","slug":"vicky-s-saj-20df","kind":"restaurant","name":"Vicky’s saj","lat":37.984555575680844,"lng":23.737197350556286,"url":"https://maps.app.goo.gl/GQheLZNx169PbGDK9?g_st=ipc","address":"Αραχώβης 29, Αθήνα 106 80","categoryIds":["vegetarian"],"categories":["Vegetarian Friendly Restaurants"],"distanceKm":0.21974364425826765},{"id":"vegetarianRestaurants_49bc3b76300b","slug":"falafelo-street-food-49bc","kind":"restaurant","name":"Falafelo Street Food","lat":37.98589482225123,"lng":23.733448804787468,"url":"https://maps.app.goo.gl/R4ear5h1EDzpwe8Y8?g_st=ipc","address":"Σουλτάνη 2-4, Αθήνα 106 83","categoryIds":["vegetarian"],"categories":["Vegetarian Friendly Restaurants"],"distanceKm":0.22141982992307646},{"id":"greekRestaurants_399d4f103d60","slug":"pakoymel-399d","kind":"restaurant","name":"Pακουμελ","lat":37.98611213872367,"lng":23.7356153825947,"url":"https://maps.app.goo.gl/ES9bhy4RguonMm8G8","address":"Εμμανουήλ Μπενάκη 71, Αθήνα 106 81","categoryIds":["greek-restaurants"],"categories":["Greek Restaurants"],"distanceKm":0.22814710937566252},{"id":"greekRestaurants_82fedd8f5eb8","slug":"aylak-politiki-kouzina-82fe","kind":"restaurant","name":"Aylak Politiki Kouzina","lat":37.986296240543886,"lng":23.73577500465613,"url":"https://maps.app.goo.gl/8H5UM5CTNGhY6tCz8","address":"Εμμανουήλ Μπενάκη 73, Αθήνα 106 81","categoryIds":["greek-restaurants"],"categories":["Greek Restaurants"],"distanceKm":0.2522192840420882},{"id":"cheapEatsRestaurants_724c8ca91031","slug":"mangal-724c","kind":"restaurant","name":"Mangal","lat":37.98648075392058,"lng":23.733903117356245,"url":"https://maps.app.goo.gl/fZ3o2N67Ya2WA1aQA?g_st=ipc","address":"Σολωμού 12, Αθήνα 106 83","categoryIds":["cheap-eats"],"categories":["Gyros & Cheap Eats"],"distanceKm":0.26590872448294856},{"id":"greekRestaurants_5d1d35aa177d","slug":"gioysoyroym-5d1d","kind":"restaurant","name":"Γιουσουρούμ","lat":37.98634442442922,"lng":23.733413179378076,"url":"https://maps.app.goo.gl/jh9iV3W2AMUY6Pev5","address":"Σουλτάνη 11, Αθήνα 106 82","categoryIds":["greek-restaurants"],"categories":["Greek Restaurants"],"distanceKm":0.26700723956953615}],"sameRegion":[],"mentionedGuides":[],"canonicalSlug":"lacantina-streetfood-6b9b","isCanonicalEntity":true,"enrichment":{"summary_en":"Lacantina streetfood is a curated restaurant in Αθήνα 106 81 in the Gyros & Cheap Eats collection. It is connected to 122 nearby Googlementor picks to help travelers build a stronger local route.","summary_el":"Lacantina streetfood είναι ένα επιλεγμένο σημείο φαγητού στην περιοχή Αθήνα 106 81 και ανήκει στη συλλογή Gyros & Cheap Eats. Συνδέεται με 122 κοντινές προτάσεις του Googlementor για πιο ολοκληρωμένη εμπειρία.","vibe_tags":["curated","budget-friendly"],"best_for":["first-time visitors","food lovers","budget travelers"],"visit_moments":["lunch stop","dinner stop"],"practical_note":"Address and direct map link are available for easy turn-by-turn access.","nearby_walkable_count":122,"nearby_count_2km":580,"confidence":0.98}},"__N_SSG":true}