{"pageProps":{"entity":{"id":"rooftopLoungesRestaurants_7e076fa27638","slug":"margarita-at-the-top-of-sense-7e07","kind":"restaurant","name":"Margarita At the Top of Sense","lat":40.63545426028475,"lng":22.93700542047033,"url":"https://maps.app.goo.gl/WnmhcnyR1pUzpjBc9?g_st=ipc","address":"Pl. Morichovou 11, Thessaloniki 546 25","categoryIds":["rooftop-lounges"],"categories":["Rooftop Lounges"]},"sameCategory":[{"id":"rooftopLoungesRestaurants_c00e2007b8c8","slug":"orizontes-roof-garden-c00e","kind":"restaurant","name":"Orizontes Roof Garden","lat":40.63324843271599,"lng":22.94121400261453,"url":"https://maps.app.goo.gl/k4RMBTJaYnWPwHrU7?g_st=ipc","address":"Aristotelous Sq 9, Thessaloniki 546 24","categoryIds":["rooftop-lounges"],"categories":["Rooftop Lounges"]},{"id":"rooftopLoungesRestaurants_37ff1d604564","slug":"ennea-rooftop-bar-37ff","kind":"restaurant","name":"Ennea Rooftop Bar","lat":40.63386856558694,"lng":22.943170697637683,"url":"https://maps.app.goo.gl/BC4vj2HMkPaRWUJY6?g_st=ipc","address":"MonAsty Thessaloniki Autograph Collection, Vasileos Irakleiou 45, Thessaloniki 546 23","categoryIds":["rooftop-lounges"],"categories":["Rooftop Lounges"]},{"id":"rooftopLoungesRestaurants_28b6f524a86b","slug":"bey-hamam-28b6","kind":"restaurant","name":"Bey Hamam","lat":40.635414762374545,"lng":22.945319011313067,"url":"https://maps.app.goo.gl/962RzcGYY41GffHm7?g_st=ipc","address":"Εγνατία, Mitropolitou Gennadiou 34, Thessaloniki 546 25","categoryIds":["rooftop-lounges"],"categories":["Rooftop Lounges"]},{"id":"rooftopLoungesRestaurants_1533c10141a1","slug":"allegro-1533","kind":"restaurant","name":"Allegro","lat":40.597207319655574,"lng":22.9475710644147,"url":"https://maps.app.goo.gl/JPyojcjpAj6bXV746?g_st=ipc","address":"25 Martiou & Coastal Road, Thessaloniki 546 46","categoryIds":["rooftop-lounges"],"categories":["Rooftop Lounges"]},{"id":"coffeeBrunchRestaurants_38190cc1f3e8","slug":"morrison-the-premium-rooftop-3819","kind":"restaurant","name":"Morrison • The Premium Rooftop","lat":40.60821540217915,"lng":22.998740403846558,"url":"https://maps.app.goo.gl/WNgG79yhRyL6k5GA9?g_st=ipc","address":"17is Noemvriou 87, Pilea 555 35","categoryIds":["coffee-brunch","rooftop-lounges"],"categories":["Coffee & Brunch Spots","Rooftop Lounges"],"legacySlugs":["morrison-the-premium-rooftop-2f03"]},{"id":"rooftopLoungesRestaurants_bb49421d891b","slug":"swell-roof-garden-bb49","kind":"restaurant","name":"Swell Roof Garden","lat":40.93644468023091,"lng":24.41131352952831,"url":"https://maps.app.goo.gl/u2rtEnenzWiQA1C79?g_st=ipc","address":"El. Venizelou 17, Kavala 653 02","categoryIds":["rooftop-lounges"],"categories":["Rooftop Lounges"]},{"id":"rooftopLoungesRestaurants_022b40d3c73a","slug":"avocado-cocktail-bar-022b","kind":"restaurant","name":"Avocado Cocktail Bar","lat":39.28423915622935,"lng":20.39914061806164,"url":"https://maps.app.goo.gl/Rej46ZikGi16jCPa6?g_st=ipc","address":"23ης Φεβρουαρίου, Parga 480 60","categoryIds":["rooftop-lounges"],"categories":["Rooftop Lounges"]},{"id":"rooftopLoungesRestaurants_fbedc289379a","slug":"taratsa-open-fbed","kind":"restaurant","name":"Taratsa Open","lat":38.83493516503128,"lng":20.711610210825643,"url":"https://maps.app.goo.gl/gucKqbib1YPXfXRd8?g_st=ipc","address":"EO Amfilochias Lefkadas, Lefkada 311 00","categoryIds":["rooftop-lounges"],"categories":["Rooftop Lounges"]},{"id":"coffeeBrunchRestaurants_21280d2fc2ee","slug":"telescope-cafe-bar-restaurant-2128","kind":"restaurant","name":"Telescope Cafe Bar Restaurant","lat":38.00692418431941,"lng":23.65623593846488,"url":"https://maps.app.goo.gl/qq7xzW7bEsPcyJT1A?g_st=ipc","address":"Φιλικής Εταιρείας, Χαϊδάρι 124 61","categoryIds":["coffee-brunch","rooftop-lounges"],"categories":["Coffee & Brunch Spots","Rooftop Lounges"],"legacySlugs":["telescope-cafe-bar-restaurant-0981"]},{"id":"rooftopLoungesRestaurants_f7a32b8c6926","slug":"deos-f7a3","kind":"restaurant","name":"Deos","lat":37.99283916898427,"lng":23.76419184118261,"url":"https://maps.app.goo.gl/XiQsBWs7XeVDvyW1A?g_st=ipc","address":"Λουίζης Ριανκούρ 64, Αθήνα 115 23","categoryIds":["rooftop-lounges"],"categories":["Rooftop Lounges"]},{"id":"rooftopLoungesRestaurants_f9c73dde5ada","slug":"sensimilia-cafe-bar-f9c7","kind":"restaurant","name":"Sensimilia Cafe Bar","lat":37.993035889378,"lng":23.76531520450526,"url":"https://maps.app.goo.gl/s89v4aAfgSswW1qy7?g_st=ipc","address":"Δουκίσσης Πλακεντίας 129, Αθήνα 115 23","categoryIds":["rooftop-lounges"],"categories":["Rooftop Lounges"]},{"id":"rooftopLoungesRestaurants_bda24dde9bba","slug":"titania-hotel-athens-bda2","kind":"restaurant","name":"Titania Hotel Athens","lat":37.98298183652686,"lng":23.731011710839574,"url":"https://maps.app.goo.gl/xqLuVZ72UNxG6j6w5?g_st=ipc","address":"Πανεπιστημίου 52, Αθήνα 106 78","categoryIds":["rooftop-lounges"],"categories":["Rooftop Lounges"]}],"nearby":[{"id":"greekRestaurants_9bcc793811d6","slug":"wonderwall-fun-dining-9bcc","kind":"restaurant","name":"WonderWall Fun Dining","lat":40.63522269434939,"lng":22.937190668731127,"url":"https://maps.app.goo.gl/gWA1A2nYg5nMyK6r8?g_st=ipc","address":"Αἰγύπτου 11, Θεσσαλονίκη 546 25","categoryIds":["greek-restaurants"],"categories":["Greek Restaurants"],"distanceKm":0.030122400675057122},{"id":"cheapEatsRestaurants_12570c882da7","slug":"kalofagas-psitopoleio-1257","kind":"restaurant","name":"Καλοφαγάς Ψητοπωλείο","lat":40.635544989771915,"lng":22.937363400408646,"url":"https://maps.app.goo.gl/N2y5cFSV48wgtN7g7?g_st=ipc","address":"Politechniou 24, Thessaloniki 546 25","categoryIds":["cheap-eats"],"categories":["Gyros & Cheap Eats"],"distanceKm":0.03184734612522203},{"id":"cheapEatsRestaurants_309d89ee38a5","slug":"laikon-309d","kind":"restaurant","name":"Laikon","lat":40.63567516803373,"lng":22.93753817677912,"url":"https://maps.app.goo.gl/jXzXhjGZbZTLHvnd9?g_st=ipc","address":"Politechniou 24, Thessaloniki 546 25","categoryIds":["cheap-eats"],"categories":["Gyros & Cheap Eats"],"distanceKm":0.05122837091962432},{"id":"fishTavernasRestaurants_8db62faa099d","slug":"soyrtoyko-mezedopoleio-8db6","kind":"restaurant","name":"Σουρτουκω μεζεδοπωλειο","lat":40.63587084309679,"lng":22.93649033295163,"url":"https://maps.app.goo.gl/2gKngBbQebvZETCi6?g_st=ipc","address":"Likourgou 3, Thessaloniki 546 25","categoryIds":["fish-tavernas"],"categories":["Fish Tavernas"],"distanceKm":0.06352046889876088},{"id":"burgersRestaurants_7709ed422386","slug":"raw-street-burger-thessaloniki-7709","kind":"restaurant","name":"Raw Street Burger - Thessaloniki","lat":40.6360216575253,"lng":22.93735358036402,"url":"https://maps.app.goo.gl/8jf35cPRudvWnsoP7?g_st=ipc","address":"Politechniou 53, Thessaloniki 546 25","categoryIds":["burgers","cheap-eats"],"categories":["Burger Spots","Gyros & Cheap Eats"],"legacySlugs":["raw-street-burger-thessaloniki-a3ea"],"distanceKm":0.06959635941552213},{"id":"greekRestaurants_ae25b604ff8c","slug":"trofi-sintrofi-ae25","kind":"restaurant","name":"+ ΤροΦή | Sintrofi","lat":40.63496526167509,"lng":22.936331658971874,"url":"https://maps.app.goo.gl/VZEPkfcaPiYufHTL7?g_st=ipc","address":"7, Doxis Street, Thessaloniki 546 25","categoryIds":["greek-restaurants"],"categories":["Greek Restaurants"],"distanceKm":0.07866956725497774},{"id":"mustSeeAttractions_7ae286bbaeee","slug":"museum-of-illusions-thessaloniki-7ae2","kind":"restaurant","name":"Museum of Illusions Thessaloniki","lat":40.635429116411395,"lng":22.93597563245193,"url":"https://maps.app.goo.gl/C3krXMYjPGracAP87?g_st=ipc","address":"Doxis 5, Thessaloniki 546 25","categoryIds":["attractions"],"categories":["Must-See Attractions"],"distanceKm":0.08694088895904269},{"id":"cheapEatsRestaurants_7d5766fbf936","slug":"sesoula-street-food-7d57","kind":"restaurant","name":"SESOULA Street Food","lat":40.63477422793839,"lng":22.937577409662797,"url":"https://maps.app.goo.gl/831RBk3hM78pZN1a8?g_st=ipc","address":"Mitropoleos 6, Thessaloniki 546 25","categoryIds":["cheap-eats"],"categories":["Gyros & Cheap Eats"],"distanceKm":0.08970736109167246},{"id":"greekRestaurants_9e02f77b6b20","slug":"tiganies-kai-schares-9e02","kind":"restaurant","name":"Τηγανιές και Σχάρες","lat":40.634600601276,"lng":22.936919320658006,"url":"https://maps.app.goo.gl/3eYmnpopLWBzSTuj9?g_st=ipc","address":"Katouni 3, Thessaloniki 526 22","categoryIds":["greek-restaurants"],"categories":["Greek Restaurants"],"distanceKm":0.09520018882661224},{"id":"burgersRestaurants_57ae2704265c","slug":"austin-smokehouse-bbq-57ae","kind":"restaurant","name":"Austin smokehouse bbq","lat":40.63591485801073,"lng":22.93805727931312,"url":"https://maps.app.goo.gl/wDKEYQZL9F4crVQk9?g_st=ipc","address":"Katouni 25, Thessaloniki 546 25","categoryIds":["burgers"],"categories":["Burger Spots"],"distanceKm":0.10247473965391649},{"id":"greekRestaurants_49d951272a6f","slug":"charoypi-49d9","kind":"restaurant","name":"Χαρούπι","lat":40.63543442383406,"lng":22.935693784240467,"url":"https://maps.app.goo.gl/Doz2MeGM9WFBW6vBA?g_st=ipc","address":"Δόξης 4, Θεσσαλονίκη 546 25","categoryIds":["greek-restaurants"],"categories":["Greek Restaurants"],"distanceKm":0.11070090570984172},{"id":"asianRestaurants_50e903fa0513","slug":"empire-sushi-bar-50e9","kind":"restaurant","name":"Εmpire Sushi Bar","lat":40.63454338249302,"lng":22.937599876944155,"url":"https://maps.app.goo.gl/xtgjstGFH9sAG6Ya7?g_st=ipc","address":"Oplopiou 3, Thessaloniki 546 25","categoryIds":["asian"],"categories":["Asian Restaurants"],"distanceKm":0.11302597640838428},{"id":"italianRestaurants_7cee9388f440","slug":"pizza-hood-7cee","kind":"restaurant","name":"Pizza Hood","lat":40.63650781158609,"lng":22.937112758246737,"url":"https://maps.app.goo.gl/PSUf6oyYdwKAkgEFA","address":"Ernestou Emprar 2, Thessaloniki 546 25","categoryIds":["italian"],"categories":["Italian Restaurants"],"distanceKm":0.11749916905919314},{"id":"mexicanRestaurants_d80043a5b99e","slug":"la-sirena-d800","kind":"restaurant","name":"La Sirena","lat":40.63444270479013,"lng":22.93646283547866,"url":"https://maps.app.goo.gl/vjssVZ1V39bo4zex6","address":"Fasianou 1, Thessaloniki 546 25","categoryIds":["mexican"],"categories":["Mexican Restaurants"],"distanceKm":0.12144123650358653},{"id":"greekRestaurants_5000cd964e1b","slug":"omikron-5000","kind":"restaurant","name":"Όμικρον","lat":40.63443899234816,"lng":22.937636685469105,"url":"https://maps.app.goo.gl/HVh64N8h1M3abkrM6?g_st=ipc","address":"Οπλοποιού 3, Θεσσαλονίκη 546 25","categoryIds":["greek-restaurants"],"categories":["Greek Restaurants"],"distanceKm":0.12482880337074734},{"id":"fishTavernasRestaurants_848f1aa03974","slug":"bakaliarakia-tou-aristou-848f","kind":"restaurant","name":"Bakaliarakia tou Aristou","lat":40.634280544207144,"lng":22.93689333971641,"url":"https://maps.app.goo.gl/Y3cfc1d6DqQAP2VX9?g_st=ipc","address":"Katouni 3, Thessaloniki 546 25","categoryIds":["fish-tavernas"],"categories":["Fish Tavernas"],"distanceKm":0.1308535090901896},{"id":"burgersRestaurants_b5205e897d93","slug":"tarantino-sandwiches-fries-b520","kind":"restaurant","name":"Tarantino Sandwiches & Fries","lat":40.63667870510283,"lng":22.93716261995098,"url":"https://maps.app.goo.gl/NKZaYUsTivGGc1mU7?g_st=ipc","address":"Ernestou Emprar 5, Thessaloniki 546 25","categoryIds":["burgers"],"categories":["Burger Spots"],"distanceKm":0.13679669003698663},{"id":"greekRestaurants_af0b8e5d51b2","slug":"loupino-af0b","kind":"restaurant","name":"Loupino","lat":40.63421562776771,"lng":22.937015451825886,"url":"https://maps.app.goo.gl/iGLD7SMDZ7Y8N12R8?g_st=ipc","address":"Κατούνη 4, Θεσσαλονίκη 546 25","categoryIds":["greek-restaurants"],"categories":["Greek Restaurants"],"distanceKm":0.13773225304215403},{"id":"coffeeBrunchRestaurants_fd2a487a0b78","slug":"ypsilon-fd2a","kind":"restaurant","name":"Υpsilon","lat":40.636365825174295,"lng":22.93811663555069,"url":"https://maps.app.goo.gl/7LvTZEdhDkTAMmp78?g_st=ipc","address":"Edessis 5, Thessaloniki 546 25","categoryIds":["coffee-brunch"],"categories":["Coffee & Brunch Spots"],"distanceKm":0.13808057443250651},{"id":"coffeeBrunchRestaurants_c5fcdd8f5d50","slug":"slow-kaffe-and-wine-c5fc","kind":"restaurant","name":"Slow Kaffe and Wine","lat":40.63667930749031,"lng":22.937326259309707,"url":"https://maps.app.goo.gl/sudFiDSGGdZvwXaq8?g_st=ipc","address":"Ernestou Emprar 10, Thessaloniki 546 25","categoryIds":["coffee-brunch"],"categories":["Coffee & Brunch Spots"],"distanceKm":0.13888328196666785},{"id":"greekRestaurants_a6c1730c289f","slug":"akadimia-art-restaurant-a6c1","kind":"restaurant","name":"Ακαδημία art restaurant","lat":40.635868351005776,"lng":22.938600197259788,"url":"https://maps.app.goo.gl/tXw3izdEArtABRbT7?g_st=ipc","address":"Αγ. Μηνά 3, Θεσσαλονίκη 546 25","categoryIds":["greek-restaurants"],"categories":["Greek Restaurants"],"distanceKm":0.14222994185549315},{"id":"greekRestaurants_33ac18ee44f0","slug":"mamaloyka-33ac","kind":"restaurant","name":"Μαμαλούκα","lat":40.634129762929895,"lng":22.937535077448267,"url":"https://maps.app.goo.gl/gGsKj9f95wpoFDj7A?g_st=ipc","address":"Ίωνος Δραγoύμη 3, Θεσσαλονίκη 546 25","categoryIds":["greek-restaurants"],"categories":["Greek Restaurants"],"distanceKm":0.15390969341761576},{"id":"burgersRestaurants_ebadcc0c31a2","slug":"po-boys-skg-ebad","kind":"restaurant","name":"PO‘ BOYS skg","lat":40.63567624458847,"lng":22.93883473827237,"url":"https://maps.app.goo.gl/g2t2qtDt95d9ETNRA?g_st=ipc","address":"Ag. Mina 7, Thessaloniki 546 25","categoryIds":["burgers"],"categories":["Burger Spots"],"distanceKm":0.1563229066096249},{"id":"fishTavernasRestaurants_8f9bed2e06ef","slug":"mezen-salonica-8f9b","kind":"restaurant","name":"Mezen Salonica","lat":40.634689809940646,"lng":22.93869474433628,"url":"https://maps.app.goo.gl/gwG2QG5GLKMHTAKd8?g_st=ipc","address":"Rogkoti 3, Thessaloniki 546 24","categoryIds":["fish-tavernas"],"categories":["Fish Tavernas"],"distanceKm":0.16596981917466572}],"sameRegion":[],"mentionedGuides":[],"canonicalSlug":"margarita-at-the-top-of-sense-7e07","isCanonicalEntity":true,"enrichment":{"summary_en":"Margarita At the Top of Sense is a curated restaurant in Thessaloniki 546 25 in the Rooftop Lounges collection. It is connected to 113 nearby Googlementor picks to help travelers build a stronger local route.","summary_el":"Margarita At the Top of Sense είναι ένα επιλεγμένο σημείο φαγητού στην περιοχή Thessaloniki 546 25 και ανήκει στη συλλογή Rooftop Lounges. Συνδέεται με 113 κοντινές προτάσεις του Googlementor για πιο ολοκληρωμένη εμπειρία.","vibe_tags":["curated","city-views"],"best_for":["first-time visitors","food lovers"],"visit_moments":["golden hour","night out"],"practical_note":"Address and direct map link are available for easy turn-by-turn access.","nearby_walkable_count":113,"nearby_count_2km":259,"confidence":0.98}},"__N_SSG":true}