{"pageProps":{"entity":{"id":"greekRestaurants_82199ba27aab","slug":"matambre-8219","kind":"restaurant","name":"Matambre","lat":38.17453592653479,"lng":23.91849447631357,"url":"https://maps.app.goo.gl/nZX2pdLZsc3fNQMa8","address":"Λεωφ. Λίμνης Μαραθώνος 245, Μαραθώνας 190 07","categoryIds":["greek-restaurants"],"categories":["Greek Restaurants"]},"sameCategory":[{"id":"greekRestaurants_a9fd28504adb","slug":"agroktima-regkoykoy-taverna-stamata-a9fd","kind":"restaurant","name":"Αγρόκτημα Ρεγκούκου Ταβέρνα Σταμάτα","lat":38.142623703496184,"lng":23.888598580375778,"url":"https://maps.app.goo.gl/X9aRczkLosh9Awyu8","address":"Έκτορος, Σταμάτα 145 75","categoryIds":["greek-restaurants"],"categories":["Greek Restaurants"]},{"id":"greekRestaurants_eb34b601c233","slug":"amygdaleza-eb34","kind":"restaurant","name":"Αμυγδαλέζα","lat":38.138791020092526,"lng":23.886474004082586,"url":"https://maps.app.goo.gl/xbczXzqr95568Y2p7","address":"Μεγ. Αλεξάνδρου 86, Σταμάτα 145 75","categoryIds":["greek-restaurants"],"categories":["Greek Restaurants"]},{"id":"greekRestaurants_a2675225a16c","slug":"taverna-galini-a267","kind":"restaurant","name":"Ταβέρνα Γαλήνη","lat":38.21564800607866,"lng":23.86762931136811,"url":"https://maps.app.goo.gl/Fk7koGAZ462ABfY76","address":"Λεωφ. Ειρήνης 8, Πολυδένδρι 190 14","categoryIds":["greek-restaurants"],"categories":["Greek Restaurants"]},{"id":"greekRestaurants_f163a01d5b8e","slug":"taverna-vasilakos-f163","kind":"restaurant","name":"Ταβέρνα Βασιλάκος","lat":38.216929169351175,"lng":23.868895678768617,"url":"https://maps.app.goo.gl/5w23D5PVYwasH98X9","address":"Λεωφ. Ειρήνης 4, Πολυδένδρι 190 14","categoryIds":["greek-restaurants"],"categories":["Greek Restaurants"]},{"id":"greekRestaurants_626964779e0f","slug":"pipinios-6269","kind":"restaurant","name":"Pipinios","lat":38.12550464522669,"lng":23.87986733346546,"url":"https://maps.app.goo.gl/iPGdNokEkHQwjcP5A","address":"Πέππα 1, Σταμάτα 145 75","categoryIds":["greek-restaurants"],"categories":["Greek Restaurants"]},{"id":"greekRestaurants_d3d5875fd455","slug":"to-tzaki-d3d5","kind":"restaurant","name":"Το τζάκι","lat":38.21655428611633,"lng":23.86821611372373,"url":"https://maps.app.goo.gl/7wN2L21tT2o7KxCV7","address":"Λεωφ. Ειρήνης 4, Πολυδένδρι 190 14","categoryIds":["greek-restaurants"],"categories":["Greek Restaurants"]},{"id":"greekRestaurants_24713ff3cd1e","slug":"taverna-o-makis-afidnes-2471","kind":"restaurant","name":"Ταβέρνα ο Μάκης, Αφίδνες","lat":38.192798626562244,"lng":23.84324387519098,"url":"https://maps.app.goo.gl/wEzHjcfenn2nmLN3A","address":"Λεωφ. Καλλίμαχου 2, Σταθμός Αφιδνών 190 14","categoryIds":["greek-restaurants"],"categories":["Greek Restaurants"]},{"id":"greekRestaurants_c595c62efc6b","slug":"mparmpa-vasilis-c595","kind":"restaurant","name":"Μπάρμπα Βασίλης","lat":38.23380794795737,"lng":23.89319631949878,"url":"https://maps.app.goo.gl/C74xDes5etzk12FL7","address":"Σπύρου Πολύχρονη, Μικροχώρι 190 14","categoryIds":["greek-restaurants"],"categories":["Greek Restaurants"]},{"id":"greekRestaurants_3188c54ebc61","slug":"vlachiki-gastra-3188","kind":"restaurant","name":"Βλάχικη Γάστρα","lat":38.11813280551885,"lng":23.875469007658698,"url":"https://maps.app.goo.gl/DHcE17CBEXSZqg9G9","address":"Κολοκοτρώνη 14, Ροδόπολη 145 74","categoryIds":["greek-restaurants"],"categories":["Greek Restaurants"]},{"id":"greekRestaurants_8bd7eaffbbd0","slug":"ayli-8bd7","kind":"restaurant","name":"Αυλή","lat":38.1169884488727,"lng":23.873697271500465,"url":"https://maps.app.goo.gl/j3KcRnM1M4kAsQz36","address":"25ης Μαρτίου 24, Ροδόπολη 145 74","categoryIds":["greek-restaurants"],"categories":["Greek Restaurants"]},{"id":"greekRestaurants_a8f96784536e","slug":"peinirli-eleytheriadis-a8f9","kind":"restaurant","name":"Πεϊνιρλί Ελευθεριάδης","lat":38.11739320879304,"lng":23.862199451872925,"url":"https://maps.app.goo.gl/hWqtsGrqa7nCZyh16","address":"Σολωμού 26, Δροσιά 145 72","categoryIds":["greek-restaurants"],"categories":["Greek Restaurants"]},{"id":"greekRestaurants_3e4d92e59717","slug":"taverna-ramnoys-3e4d","kind":"restaurant","name":"Ταβέρνα Ραμνούς","lat":38.21411980707791,"lng":24.03058229285915,"url":"https://maps.app.goo.gl/M3qEfsy6NhrFMcCH9","address":"Αρχαιολογικος Χωρος Ραμνους, Λεωφόρος Ραμνουντος Τερμα, Μαραθωνας 190 07","categoryIds":["greek-restaurants"],"categories":["Greek Restaurants"]}],"nearby":[{"id":"coffeeBrunchRestaurants_7dfa5bb5c12c","slug":"argithea-7dfa","kind":"restaurant","name":"Αργιθέα","lat":38.15948282094037,"lng":23.95837767969574,"url":"https://maps.app.goo.gl/w98y2hBDroKUDcwZ7?g_st=ipc","address":"Λεωφ. Μαραθώνος 11, Μαραθώνας 190 07","categoryIds":["coffee-brunch"],"categories":["Coffee & Brunch Spots"],"distanceKm":3.867662221199352},{"id":"municipalities_3b0d7e6ae7e7","slug":"marathonas-3b0d","kind":"municipality","name":"Μαραθώνας","lat":38.15,"lng":23.95,"region":"Ανατολικά Προάστια","name_en":"Marathon","region_en":"Eastern Suburbs","distanceKm":3.876936274496506},{"id":"greekRestaurants_a9fd28504adb","slug":"agroktima-regkoykoy-taverna-stamata-a9fd","kind":"restaurant","name":"Αγρόκτημα Ρεγκούκου Ταβέρνα Σταμάτα","lat":38.142623703496184,"lng":23.888598580375778,"url":"https://maps.app.goo.gl/X9aRczkLosh9Awyu8","address":"Έκτορος, Σταμάτα 145 75","categoryIds":["greek-restaurants"],"categories":["Greek Restaurants"],"distanceKm":4.4072778918017095},{"id":"greekRestaurants_eb34b601c233","slug":"amygdaleza-eb34","kind":"restaurant","name":"Αμυγδαλέζα","lat":38.138791020092526,"lng":23.886474004082586,"url":"https://maps.app.goo.gl/xbczXzqr95568Y2p7","address":"Μεγ. Αλεξάνδρου 86, Σταμάτα 145 75","categoryIds":["greek-restaurants"],"categories":["Greek Restaurants"],"distanceKm":4.861716452184057},{"id":"familyFriendly_840d2fe28674","slug":"ktima-kokotoy-840d","kind":"restaurant","name":"ΚΤΗΜΑ ΚΟΚΟΤΟΥ","lat":38.12312970101472,"lng":23.891798090837362,"url":"https://maps.app.goo.gl/9xRLBKhZXYMexEQX8?g_st=ipc","address":"Κτήμα Γ. Κοκοτού 1, Σταμάτα 145 75","categoryIds":["family-friendly","wineries-vineyards"],"categories":["Kid Friendly Locations","Wineries & Vineyards"],"legacySlugs":["ktima-kokotoy-a927"],"distanceKm":6.174432560377348},{"id":"greekRestaurants_a2675225a16c","slug":"taverna-galini-a267","kind":"restaurant","name":"Ταβέρνα Γαλήνη","lat":38.21564800607866,"lng":23.86762931136811,"url":"https://maps.app.goo.gl/Fk7koGAZ462ABfY76","address":"Λεωφ. Ειρήνης 8, Πολυδένδρι 190 14","categoryIds":["greek-restaurants"],"categories":["Greek Restaurants"],"distanceKm":6.376268704576965},{"id":"greekRestaurants_f163a01d5b8e","slug":"taverna-vasilakos-f163","kind":"restaurant","name":"Ταβέρνα Βασιλάκος","lat":38.216929169351175,"lng":23.868895678768617,"url":"https://maps.app.goo.gl/5w23D5PVYwasH98X9","address":"Λεωφ. Ειρήνης 4, Πολυδένδρι 190 14","categoryIds":["greek-restaurants"],"categories":["Greek Restaurants"],"distanceKm":6.403722325779896},{"id":"greekRestaurants_626964779e0f","slug":"pipinios-6269","kind":"restaurant","name":"Pipinios","lat":38.12550464522669,"lng":23.87986733346546,"url":"https://maps.app.goo.gl/iPGdNokEkHQwjcP5A","address":"Πέππα 1, Σταμάτα 145 75","categoryIds":["greek-restaurants"],"categories":["Greek Restaurants"],"distanceKm":6.413530056631923},{"id":"greekRestaurants_d3d5875fd455","slug":"to-tzaki-d3d5","kind":"restaurant","name":"Το τζάκι","lat":38.21655428611633,"lng":23.86821611372373,"url":"https://maps.app.goo.gl/7wN2L21tT2o7KxCV7","address":"Λεωφ. Ειρήνης 4, Πολυδένδρι 190 14","categoryIds":["greek-restaurants"],"categories":["Greek Restaurants"],"distanceKm":6.413643657077561},{"id":"italianRestaurants_6f0d9cef63fd","slug":"goloso-ristorante-pizzeria-6f0d","kind":"restaurant","name":"GOLOSO ristorante pizzeria","lat":38.139099968736645,"lng":23.85960963696723,"url":"https://maps.app.goo.gl/kpW87YGKNcL27Bhi9","address":"Grigoriou Lampraki 6, Ag. Stefanos 145 65","categoryIds":["italian"],"categories":["Italian Restaurants"],"distanceKm":6.483367289698181},{"id":"wineriesVineyards_07784b315d36","slug":"oinopoieio-zegginis-0778","kind":"restaurant","name":"Οινοποιείο Ζεγγίνης","lat":38.14341389755598,"lng":23.983053677151467,"url":"https://maps.app.goo.gl/ZRuTWvGbiLUcFQZw7?g_st=ipc","address":"Λεωφόρος Κάτω Σουλίου 62, Μαραθώνας 190 07","categoryIds":["wineries-vineyards"],"categories":["Wineries & Vineyards"],"distanceKm":6.620954369052525},{"id":"municipalities_da89497c2656","slug":"agios-stefanos-da89","kind":"municipality","name":"Άγιος Στέφανος","lat":38.1369,"lng":23.8586,"region":"Βόρεια Προάστια","name_en":"Agios Stefanos","region_en":"North Suburbs","distanceKm":6.703679615421005},{"id":"dessertsRestaurants_f058cc3bd51b","slug":"galaktopoleio-stamoy-f058","kind":"restaurant","name":"Γαλακτοπωλείο ΣΤΑΜΟΥ","lat":38.1355559087603,"lng":23.85739092129188,"url":"https://maps.app.goo.gl/qoaBzXLhGQRUPCxZ8?g_st=ipc","address":"Λεωφ. Μαραθώνος 88, Άνοιξη 145 69","categoryIds":["desserts"],"categories":["Dessert Shops"],"distanceKm":6.879793670185277},{"id":"greekRestaurants_24713ff3cd1e","slug":"taverna-o-makis-afidnes-2471","kind":"restaurant","name":"Ταβέρνα ο Μάκης, Αφίδνες","lat":38.192798626562244,"lng":23.84324387519098,"url":"https://maps.app.goo.gl/wEzHjcfenn2nmLN3A","address":"Λεωφ. Καλλίμαχου 2, Σταθμός Αφιδνών 190 14","categoryIds":["greek-restaurants"],"categories":["Greek Restaurants"],"distanceKm":6.883482698735411},{"id":"greekRestaurants_c595c62efc6b","slug":"mparmpa-vasilis-c595","kind":"restaurant","name":"Μπάρμπα Βασίλης","lat":38.23380794795737,"lng":23.89319631949878,"url":"https://maps.app.goo.gl/C74xDes5etzk12FL7","address":"Σπύρου Πολύχρονη, Μικροχώρι 190 14","categoryIds":["greek-restaurants"],"categories":["Greek Restaurants"],"distanceKm":6.95156904767162},{"id":"italianRestaurants_493a4203dbb3","slug":"da-michele-493a","kind":"restaurant","name":"Da Michele","lat":38.133061719353606,"lng":23.858730163431314,"url":"https://maps.app.goo.gl/ZAb7BbVjZ5jTGd8i8?g_st=ipc","address":"Λεωφ. Μαραθώνος 61, Άνοιξη 145 69","categoryIds":["italian"],"categories":["Italian Restaurants"],"distanceKm":6.969653327265108},{"id":"fishTavernasRestaurants_eaec6bd11d2a","slug":"tsipoyradiko-anoixi-para-tetarto-eaec","kind":"restaurant","name":"Τσιπουράδικο \"Άνοιξη παρά Τέταρτο\"","lat":38.13115537085702,"lng":23.860540472523713,"url":"https://maps.app.goo.gl/sSz3YRigMVCbLBcq6?g_st=ipc","address":"Αθηνών Χαλκίδος 17, Άνοιξη 145 69","categoryIds":["fish-tavernas"],"categories":["Fish Tavernas"],"distanceKm":6.996249810703304},{"id":"greekRestaurants_3188c54ebc61","slug":"vlachiki-gastra-3188","kind":"restaurant","name":"Βλάχικη Γάστρα","lat":38.11813280551885,"lng":23.875469007658698,"url":"https://maps.app.goo.gl/DHcE17CBEXSZqg9G9","address":"Κολοκοτρώνη 14, Ροδόπολη 145 74","categoryIds":["greek-restaurants"],"categories":["Greek Restaurants"],"distanceKm":7.3137516357238805},{"id":"greekRestaurants_8bd7eaffbbd0","slug":"ayli-8bd7","kind":"restaurant","name":"Αυλή","lat":38.1169884488727,"lng":23.873697271500465,"url":"https://maps.app.goo.gl/j3KcRnM1M4kAsQz36","address":"25ης Μαρτίου 24, Ροδόπολη 145 74","categoryIds":["greek-restaurants"],"categories":["Greek Restaurants"],"distanceKm":7.502891997420439},{"id":"wineriesVineyards_3edb4c37dc1f","slug":"estates-costa-lazaridi-oenotria-land-3edb","kind":"restaurant","name":"Estates Costa Lazaridi - Oenotria Land","lat":38.23173089487007,"lng":23.870908077071547,"url":"https://maps.app.goo.gl/aoRwmKxMU5cHCnRX6?g_st=ipc","address":"2nd km Kapandriti Kalamos road, Kapandriti, 19014, 190 14","categoryIds":["wineries-vineyards"],"categories":["Wineries & Vineyards"],"distanceKm":7.598456277408691},{"id":"municipalities_9db4da788e71","slug":"rodopoli-9db4","kind":"municipality","name":"Ροδόπολη","lat":38.1307,"lng":23.8504,"region":"Βόρεια Προάστια","name_en":"Rodopoli","region_en":"North Suburbs","distanceKm":7.69490048753217},{"id":"cheapEatsRestaurants_0da1d84ce28f","slug":"mitsos-0da1","kind":"restaurant","name":"Μητσος","lat":38.120677354658696,"lng":23.859244908556484,"url":"https://maps.app.goo.gl/5G7Zm7z9NT4rMbC6A?g_st=ipc","address":"Λεωφ. Δροσιάς Σταματάς 4, Δροσιά 145 75","categoryIds":["cheap-eats"],"categories":["Gyros & Cheap Eats"],"distanceKm":7.918964207560188},{"id":"italianRestaurants_7494ebc89891","slug":"amici-miei-cucina-italiana-7494","kind":"restaurant","name":"Amici Miei Cucina Italiana","lat":38.1201358654641,"lng":23.85982839112877,"url":"https://maps.app.goo.gl/TKR7jw9ozmdL38DBA?g_st=ipc","address":"στρατηγού πετρίτη 7, Δροσιά 145 72","categoryIds":["italian"],"categories":["Italian Restaurants"],"distanceKm":7.931511921835643},{"id":"burgersRestaurants_95cc953a5a70","slug":"con-voi-brunch-burgers-cocktails-95cc","kind":"restaurant","name":"Con Voi Brunch - Burgers & Cocktails","lat":38.12062536277459,"lng":23.858921152377892,"url":"https://maps.app.goo.gl/Nzdtzrh2vbG4T4VM8?g_st=ipc","address":"Λεωφ. Δροσιάς Σταματάς 2, Δροσιά 145 72","categoryIds":["burgers"],"categories":["Burger Spots"],"distanceKm":7.941880309949271}],"sameRegion":[],"mentionedGuides":[],"canonicalSlug":"matambre-8219","isCanonicalEntity":true,"enrichment":{"summary_en":"Matambre is a curated restaurant in Μαραθώνας 190 07 in the Greek Restaurants collection. It is connected to 0 nearby Googlementor picks to help travelers build a stronger local route.","summary_el":"Matambre είναι ένα επιλεγμένο σημείο φαγητού στην περιοχή Μαραθώνας 190 07 και ανήκει στη συλλογή Greek Restaurants. Συνδέεται με 0 κοντινές προτάσεις του Googlementor για πιο ολοκληρωμένη εμπειρία.","vibe_tags":["curated"],"best_for":["first-time visitors","food lovers"],"visit_moments":["lunch stop","dinner stop"],"practical_note":"Address and direct map link are available for easy turn-by-turn access.","nearby_walkable_count":0,"nearby_count_2km":0,"confidence":0.9}},"__N_SSG":true}