{"pageProps":{"entity":{"id":"greekRestaurants_46e9b5128099","slug":"mezedopoleio-sti-gonia-tis-inas-46e9","kind":"restaurant","name":"ΜΕΖΕΔΟΠΩΛΕΙΟ ΣΤΗ ΓΩΝΙΑ ΤΗΣ ΙΝΑΣ","lat":40.60655899968898,"lng":22.97552887156289,"url":"https://maps.app.goo.gl/cVtcjxY8sNr9dRR19?g_st=ipc","address":"Απόλλωνος 20, Θεσσαλονίκη 544 54","categoryIds":["greek-restaurants"],"categories":["Greek Restaurants"]},"sameCategory":[{"id":"greekRestaurants_cf4b92a49ee3","slug":"vregmeni-gata-cf4b","kind":"restaurant","name":"Βρεγμένη Γάτα","lat":40.60532273136461,"lng":22.974506640452905,"url":"https://maps.app.goo.gl/ei8BmMqU9LPgvJwq9?g_st=ipc","address":"Απόλλωνος 4, Θεσσαλονίκη 544 54","categoryIds":["greek-restaurants"],"categories":["Greek Restaurants"]},{"id":"greekRestaurants_6425778ff662","slug":"apeirotan-6425","kind":"restaurant","name":"Απειρωτάν","lat":40.60427891782613,"lng":22.97278851420961,"url":"https://maps.app.goo.gl/Z1kHXx11hgTP2xe29?g_st=ipc","address":"Γυμνασιάρχου Κωνσταντίνου Μικρού 32, Θεσσαλονίκη 542 50","categoryIds":["greek-restaurants"],"categories":["Greek Restaurants"]},{"id":"greekRestaurants_bb87e6a51434","slug":"o-daskalos-bb87","kind":"restaurant","name":"Ο ΔΑΣΚΑΛΟΣ","lat":40.607225167696676,"lng":22.970329107131402,"url":"https://maps.app.goo.gl/J1XPLAWFgHM7NWS19?g_st=ipc","address":"Παπάφη 192, Ίμβρου 19-21, Θεσσαλονίκη 544 53","categoryIds":["greek-restaurants"],"categories":["Greek Restaurants"]},{"id":"greekRestaurants_c1766e7bf95f","slug":"i-palia-athina-c176","kind":"restaurant","name":"Η Παλιά Αθήνα","lat":40.60696697600651,"lng":22.970143293615717,"url":"https://maps.app.goo.gl/uzsrCErBcVQi2b349?g_st=ipc","address":"Ίμβρου 24, Θεσσαλονίκη 544 53","categoryIds":["greek-restaurants"],"categories":["Greek Restaurants"]},{"id":"greekRestaurants_87ad943f04be","slug":"mpaloyxis-87ad","kind":"restaurant","name":"ΜΠΑΛΟΥΞΗΣ","lat":40.60469663357637,"lng":22.980860258041304,"url":"https://maps.app.goo.gl/mkwSB515HmQ3h8yA8?g_st=ipc","address":"Δορυλαίου 86, Πυλαία 544 54","categoryIds":["greek-restaurants"],"categories":["Greek Restaurants"]},{"id":"cheapEatsRestaurants_c619a7c97409","slug":"to-kokoraki-c619","kind":"restaurant","name":"ΤΟ ΚΟΚΟΡΑΚΙ","lat":40.6088349903696,"lng":22.967918512345722,"url":"https://maps.app.goo.gl/KNA3DuGAxNV9SYMs8?g_st=ipc","address":"Mark. Mpotsari 105, Thessaloniki 544 53","categoryIds":["cheap-eats","greek-restaurants"],"categories":["Gyros & Cheap Eats","Greek Restaurants"],"legacySlugs":["to-kokoraki-5da1"]},{"id":"greekRestaurants_4d78fe3c61be","slug":"rou-leisure-gatherings-4d78","kind":"restaurant","name":"Rou Leisure Gatherings","lat":40.61281592695175,"lng":22.975955444197268,"url":"https://maps.app.goo.gl/ms5wLYa1p3XXEfE18?g_st=ipc","address":"Πραξαγόρα 22, Θεσσαλονίκη 543 51","categoryIds":["greek-restaurants"],"categories":["Greek Restaurants"]},{"id":"greekRestaurants_575dfe5a741b","slug":"menu-me-noy-575d","kind":"restaurant","name":"Menu με...νου","lat":40.60815951661583,"lng":22.966514659148867,"url":"https://maps.app.goo.gl/x5kA6azJxjLv1HQX6?g_st=ipc","address":"Αλεξάνδρου Παπαναστασίου, Δ 87, Thessaloniki 544 53","categoryIds":["greek-restaurants"],"categories":["Greek Restaurants"]},{"id":"greekRestaurants_4e13929c0cd5","slug":"fytra-4e13","kind":"restaurant","name":"Φύτρα","lat":40.6012681636797,"lng":22.966673149641366,"url":"https://maps.app.goo.gl/GaGbnHHiWn6UF2go6?g_st=ipc","address":"Αδριανουπόλεως 10, Θεσσαλονίκη 542 49","categoryIds":["greek-restaurants"],"categories":["Greek Restaurants"]},{"id":"greekRestaurants_d9762e9f6ad6","slug":"to-neon-estiatorio-d976","kind":"restaurant","name":"ΤΟ ΝΕΟΝ εστιατόριο","lat":40.61224067227643,"lng":22.98407750802401,"url":"https://maps.app.goo.gl/fkULAaU3UcrpCHGRA?g_st=ipc","address":"Γρηγορίου Λαμπράκη 205 & Δημ.Τσιαπάνου 25-29, Άνω Τούμπα 543 52","categoryIds":["greek-restaurants"],"categories":["Greek Restaurants"]},{"id":"greekRestaurants_7a4337bc20a6","slug":"akrovatis-7a43","kind":"restaurant","name":"Ακροβάτης","lat":40.61307041653645,"lng":22.9677238002552,"url":"https://maps.app.goo.gl/kcK7ME3teiYGRent6?g_st=ipc","address":"Papafi 113, Thessaloniki 544 53","categoryIds":["greek-restaurants"],"categories":["Greek Restaurants"]},{"id":"greekRestaurants_2b555dc83271","slug":"soyvlakia-o-giannis-2b55","kind":"restaurant","name":"Σουβλάκια \"Ο Γιάννης\"","lat":40.61367230211868,"lng":22.968664986882153,"url":"https://maps.app.goo.gl/rGd5Se34NDg2Q9er5?g_st=ipc","address":"Κλεάνθους 54, Θεσσαλονίκη 544 53","categoryIds":["greek-restaurants"],"categories":["Greek Restaurants"]}],"nearby":[{"id":"greekRestaurants_cf4b92a49ee3","slug":"vregmeni-gata-cf4b","kind":"restaurant","name":"Βρεγμένη Γάτα","lat":40.60532273136461,"lng":22.974506640452905,"url":"https://maps.app.goo.gl/ei8BmMqU9LPgvJwq9?g_st=ipc","address":"Απόλλωνος 4, Θεσσαλονίκη 544 54","categoryIds":["greek-restaurants"],"categories":["Greek Restaurants"],"distanceKm":0.16230888028739807},{"id":"greekRestaurants_6425778ff662","slug":"apeirotan-6425","kind":"restaurant","name":"Απειρωτάν","lat":40.60427891782613,"lng":22.97278851420961,"url":"https://maps.app.goo.gl/Z1kHXx11hgTP2xe29?g_st=ipc","address":"Γυμνασιάρχου Κωνσταντίνου Μικρού 32, Θεσσαλονίκη 542 50","categoryIds":["greek-restaurants"],"categories":["Greek Restaurants"],"distanceKm":0.34321748652144973},{"id":"cheapEatsRestaurants_1de3117b26db","slug":"omega-grill-1de3","kind":"restaurant","name":"Ωμέγα Grill","lat":40.6085969632586,"lng":22.97871142955339,"url":"https://maps.app.goo.gl/Jp9h1Xe2kPqJT7td9?g_st=ipc","address":"Αμφιπόλεως 34, Thessaloniki 544 54","categoryIds":["cheap-eats"],"categories":["Gyros & Cheap Eats"],"distanceKm":0.3514723926699836},{"id":"cheapEatsRestaurants_d5f34328ce60","slug":"grn-toympa-d5f3","kind":"restaurant","name":"ΓΡΝ Τούμπα","lat":40.606092536657584,"lng":22.971298180015925,"url":"https://maps.app.goo.gl/xNHbtpHz8gpf4vYR6?g_st=ipc","address":"Michail Chourmouzi 41, Thessaloniki 544 53","categoryIds":["cheap-eats"],"categories":["Gyros & Cheap Eats"],"distanceKm":0.3608979999307459},{"id":"italianRestaurants_26ce0faec041","slug":"raffaele-pizza-pasta-26ce","kind":"restaurant","name":"Raffaele Pizza & Pasta","lat":40.609052469541666,"lng":22.97944908191486,"url":"https://maps.app.goo.gl/t8jAxdhgPG7fRJcE7?g_st=ipc","address":"Αμφιπόλεως 45, Thessaloniki 544 54","categoryIds":["italian"],"categories":["Italian Restaurants"],"distanceKm":0.4317298841158314},{"id":"greekRestaurants_bb87e6a51434","slug":"o-daskalos-bb87","kind":"restaurant","name":"Ο ΔΑΣΚΑΛΟΣ","lat":40.607225167696676,"lng":22.970329107131402,"url":"https://maps.app.goo.gl/J1XPLAWFgHM7NWS19?g_st=ipc","address":"Παπάφη 192, Ίμβρου 19-21, Θεσσαλονίκη 544 53","categoryIds":["greek-restaurants"],"categories":["Greek Restaurants"],"distanceKm":0.4451620789144461},{"id":"greekRestaurants_c1766e7bf95f","slug":"i-palia-athina-c176","kind":"restaurant","name":"Η Παλιά Αθήνα","lat":40.60696697600651,"lng":22.970143293615717,"url":"https://maps.app.goo.gl/uzsrCErBcVQi2b349?g_st=ipc","address":"Ίμβρου 24, Θεσσαλονίκη 544 53","categoryIds":["greek-restaurants"],"categories":["Greek Restaurants"],"distanceKm":0.4569004981544597},{"id":"municipalities_5bdb3c34c767","slug":"toympa-5bdb","kind":"municipality","name":"Τούμπα","lat":40.61,"lng":22.9725,"region":"Θεσσαλονίκη","name_en":"Toumpa","region_en":"Thessaloniki","distanceKm":0.46019058959160586},{"id":"greekRestaurants_87ad943f04be","slug":"mpaloyxis-87ad","kind":"restaurant","name":"ΜΠΑΛΟΥΞΗΣ","lat":40.60469663357637,"lng":22.980860258041304,"url":"https://maps.app.goo.gl/mkwSB515HmQ3h8yA8?g_st=ipc","address":"Δορυλαίου 86, Πυλαία 544 54","categoryIds":["greek-restaurants"],"categories":["Greek Restaurants"],"distanceKm":0.495431734290488},{"id":"cheapEatsRestaurants_3c28289caa25","slug":"giotis-3c28","kind":"restaurant","name":"Giotis","lat":40.60922266804071,"lng":22.97064673048183,"url":"https://maps.app.goo.gl/EWmSLiCCxYM2N33x6?g_st=ipc","address":"Mark. Mpotsari 150, Thessaloniki 544 53","categoryIds":["cheap-eats"],"categories":["Gyros & Cheap Eats"],"distanceKm":0.5075261884594016},{"id":"cheapEatsRestaurants_1eaaf4657a81","slug":"thanasis-sons-1eaa","kind":"restaurant","name":"Thanasis & Sons","lat":40.60379888554604,"lng":22.969062086462387,"url":"https://maps.app.goo.gl/osKm1rqFwwfzqdrLA?g_st=ipc","address":"Al. Papanastasiou 133, Thessaloniki 542 50","categoryIds":["cheap-eats"],"categories":["Gyros & Cheap Eats"],"distanceKm":0.6262854257941557},{"id":"cheapEatsRestaurants_f51539f3f3fe","slug":"kostas-f515","kind":"restaurant","name":"Kostas","lat":40.608571752720515,"lng":22.967969048628863,"url":"https://maps.app.goo.gl/bUnuC1Vh9ysa2VhL6?g_st=ipc","address":"Mark. Mpotsari 120, Thessaloniki 546 43","categoryIds":["cheap-eats"],"categories":["Gyros & Cheap Eats"],"distanceKm":0.6762884161228969},{"id":"cheapEatsRestaurants_c619a7c97409","slug":"to-kokoraki-c619","kind":"restaurant","name":"ΤΟ ΚΟΚΟΡΑΚΙ","lat":40.6088349903696,"lng":22.967918512345722,"url":"https://maps.app.goo.gl/KNA3DuGAxNV9SYMs8?g_st=ipc","address":"Mark. Mpotsari 105, Thessaloniki 544 53","categoryIds":["cheap-eats","greek-restaurants"],"categories":["Gyros & Cheap Eats","Greek Restaurants"],"legacySlugs":["to-kokoraki-5da1"],"distanceKm":0.6904973230803044},{"id":"coffeeBrunchRestaurants_9fa36f8be04c","slug":"rou-leisure-gatherings-9fa3","kind":"restaurant","name":"Rou Leisure Gatherings","lat":40.612773277438485,"lng":22.97595730543709,"url":"https://maps.app.goo.gl/GxRckrquv1sShJp28?g_st=ipc","address":"Praxagora 22, Thessaloniki 543 51","categoryIds":["coffee-brunch"],"categories":["Coffee & Brunch Spots"],"distanceKm":0.6919419668798574},{"id":"greekRestaurants_4d78fe3c61be","slug":"rou-leisure-gatherings-4d78","kind":"restaurant","name":"Rou Leisure Gatherings","lat":40.61281592695175,"lng":22.975955444197268,"url":"https://maps.app.goo.gl/ms5wLYa1p3XXEfE18?g_st=ipc","address":"Πραξαγόρα 22, Θεσσαλονίκη 543 51","categoryIds":["greek-restaurants"],"categories":["Greek Restaurants"],"distanceKm":0.6966697989141845},{"id":"cheapEatsRestaurants_9ba4d2c7ce05","slug":"devido-9ba4","kind":"restaurant","name":"Devido","lat":40.6015548155933,"lng":22.97004729221759,"url":"https://maps.app.goo.gl/LhdTXdShbHy87PAv9?g_st=ipc","address":"Nik. Plastira 2, Thessaloniki 542 50","categoryIds":["cheap-eats"],"categories":["Gyros & Cheap Eats"],"distanceKm":0.7237247957762285},{"id":"italianRestaurants_2946916b6ad2","slug":"pizza-plain-2946","kind":"restaurant","name":"Pizza Plain","lat":40.601547606224,"lng":22.970026389723678,"url":"https://maps.app.goo.gl/gJ7QpRFhLKuDpyFc9?g_st=ipc","address":"Nik. Plastira 2, Thessaloniki 542 50","categoryIds":["italian"],"categories":["Italian Restaurants"],"distanceKm":0.7254699965395722},{"id":"cheapEatsRestaurants_8ba579af851d","slug":"steakhouse-costas-8ba5","kind":"restaurant","name":"Steakhouse Costas","lat":40.607757700164754,"lng":22.984167654560377,"url":"https://maps.app.goo.gl/vkLu33M5Ct15FeXa6?g_st=ipc","address":"Emmanouil Fili 15, Pilea 555 34","categoryIds":["cheap-eats"],"categories":["Gyros & Cheap Eats"],"distanceKm":0.7413501068385876},{"id":"italianRestaurants_57f0e6de9174","slug":"trattoria-santa-rita-57f0","kind":"restaurant","name":"Trattoria Santa Rita","lat":40.612086768976745,"lng":22.969846546876834,"url":"https://maps.app.goo.gl/tJ95kQkAp73h9qDi8?g_st=ipc","address":"Malakopis 19, Thessaloniki 544 53","categoryIds":["italian"],"categories":["Italian Restaurants"],"distanceKm":0.7796763833388064},{"id":"greekRestaurants_575dfe5a741b","slug":"menu-me-noy-575d","kind":"restaurant","name":"Menu με...νου","lat":40.60815951661583,"lng":22.966514659148867,"url":"https://maps.app.goo.gl/x5kA6azJxjLv1HQX6?g_st=ipc","address":"Αλεξάνδρου Παπαναστασίου, Δ 87, Thessaloniki 544 53","categoryIds":["greek-restaurants"],"categories":["Greek Restaurants"],"distanceKm":0.7814943946630877},{"id":"familyFriendly_b986941160fd","slug":"elaiorema-b986","kind":"restaurant","name":"Elaiorema","lat":40.60429462558645,"lng":22.984614393067023,"url":"https://maps.app.goo.gl/2QyvxSuh6SKLNY7X8?g_st=ic","address":"Pylaia 555 35","categoryIds":["family-friendly"],"categories":["Kid Friendly Locations"],"distanceKm":0.8072725024945602},{"id":"municipalities_743916b7b194","slug":"charilaoy-7439","kind":"municipality","name":"Χαριλάου","lat":40.6054,"lng":22.9851,"region":"Θεσσαλονίκη","name_en":"Charilaou","region_en":"Thessaloniki","distanceKm":0.8182037529076778},{"id":"fishTavernasRestaurants_482591e75ff4","slug":"kritamos-meze-bar-4825","kind":"restaurant","name":"Kritamos Meze-Bar","lat":40.61409377580344,"lng":22.97473899193856,"url":"https://maps.app.goo.gl/PC1XeAa9i5F1wcwX7?g_st=ipc","address":"Tirolois 38, Thessaloniki 543 51","categoryIds":["fish-tavernas"],"categories":["Fish Tavernas"],"distanceKm":0.8404778666187425},{"id":"fishTavernasRestaurants_e3cad400eebc","slug":"panos-cafe-e3ca","kind":"restaurant","name":"Panos Cafe","lat":40.59910171918994,"lng":22.972711652033485,"url":"https://maps.app.goo.gl/2xVCRJ82JXQ9xNYm7?g_st=ipc","address":"Alkamenous 5, Thessaloniki 542 50","categoryIds":["fish-tavernas"],"categories":["Fish Tavernas"],"distanceKm":0.8626469961172549}],"sameRegion":[],"mentionedGuides":[],"canonicalSlug":"mezedopoleio-sti-gonia-tis-inas-46e9","isCanonicalEntity":true,"enrichment":{"summary_en":"ΜΕΖΕΔΟΠΩΛΕΙΟ ΣΤΗ ΓΩΝΙΑ ΤΗΣ ΙΝΑΣ is a curated restaurant in Θεσσαλονίκη 544 54 in the Greek Restaurants collection. It is connected to 20 nearby Googlementor picks to help travelers build a stronger local route.","summary_el":"ΜΕΖΕΔΟΠΩΛΕΙΟ ΣΤΗ ΓΩΝΙΑ ΤΗΣ ΙΝΑΣ είναι ένα επιλεγμένο σημείο φαγητού στην περιοχή Θεσσαλονίκη 544 54 και ανήκει στη συλλογή Greek Restaurants. Συνδέεται με 20 κοντινές προτάσεις του Googlementor για πιο ολοκληρωμένη εμπειρία.","vibe_tags":["curated"],"best_for":["first-time visitors","food lovers"],"visit_moments":["lunch stop","dinner stop"],"practical_note":"Address and direct map link are available for easy turn-by-turn access.","nearby_walkable_count":20,"nearby_count_2km":86,"confidence":0.98}},"__N_SSG":true}