{"pageProps":{"entity":{"id":"greekRestaurants_7620f2ece9a6","slug":"mpompyras-7620","kind":"restaurant","name":"Μπόμπυρας","lat":38.00484148971816,"lng":23.732856919000913,"url":"https://maps.app.goo.gl/9Ay3zpP2cfdFbPpw8","address":"Ευπαλίνου 21, Αθήνα 112 53","categoryIds":["greek-restaurants"],"categories":["Greek Restaurants"]},"sameCategory":[{"id":"greekRestaurants_3fdb385cf32e","slug":"dylan-3fdb","kind":"restaurant","name":"Dylan","lat":38.004029735437285,"lng":23.737919535339657,"url":"https://maps.app.goo.gl/BnADd9od1HHo98uB7?g_st=ipc","address":"Agias Zonis 38, Athina 113 64","categoryIds":["greek-restaurants"],"categories":["Greek Restaurants"]},{"id":"greekRestaurants_f9f686e79eab","slug":"o-mpakalogatos-f9f6","kind":"restaurant","name":"Ο Μπακαλόγατος","lat":38.00187471148547,"lng":23.740181411434346,"url":"https://maps.app.goo.gl/981vRQxbrAtrVwL46","address":"Φωκίωνος Νέγρη 72, Αθήνα 113 61","categoryIds":["greek-restaurants"],"categories":["Greek Restaurants"]},{"id":"greekRestaurants_bfb413275b7f","slug":"kyveli-bfb4","kind":"restaurant","name":"Κυβέλη","lat":37.99805749284101,"lng":23.73519064835316,"url":"https://maps.app.goo.gl/GZkR3yG4uYF9Asep6","address":"Επτανήσου 15, Αθήνα 112 57","categoryIds":["greek-restaurants"],"categories":["Greek Restaurants"]},{"id":"greekRestaurants_cf4d36c85e78","slug":"paradosiaki-taverna-o-spanos-cf4d","kind":"restaurant","name":"Παραδοσιακή Ταβέρνα ο Σπανός","lat":38.01128559769368,"lng":23.722291820236695,"url":"https://maps.app.goo.gl/M1LDEQBwqFbK8g7Y6","address":"Αριστείδου Οικονόμου 12, Αθήνα 104 45","categoryIds":["greek-restaurants"],"categories":["Greek Restaurants"]},{"id":"greekRestaurants_47b0ee0c8d13","slug":"mi-la-re-47b0","kind":"restaurant","name":"Μι λα ρε","lat":37.99704423560871,"lng":23.74315138793718,"url":"https://maps.app.goo.gl/mURYyiemhV3PvXjDA","address":"Ευελπίδων 87, Αθήνα 113 62","categoryIds":["greek-restaurants"],"categories":["Greek Restaurants"]},{"id":"greekRestaurants_f3b2aad713df","slug":"to-ampari-toy-pentara-f3b2","kind":"restaurant","name":"Το Αμπάρι του Πεντάρα","lat":38.007341170588916,"lng":23.749681397448036,"url":"https://maps.app.goo.gl/ocPNHJergJqkbxW6A","address":"Καυκάσου 157, Αθήνα 113 64","categoryIds":["greek-restaurants"],"categories":["Greek Restaurants"]},{"id":"greekRestaurants_2f6996caca4e","slug":"spyros-antonis-2f69","kind":"restaurant","name":"Σπύρος-Αντώνης","lat":38.01866922800358,"lng":23.738404062129728,"url":"https://maps.app.goo.gl/9kB2f5FdE7NhgyEF7","address":"Γαβριηλίδου 24, Αθήνα 111 41","categoryIds":["greek-restaurants"],"categories":["Greek Restaurants"]},{"id":"greekRestaurants_013c7ee68bf7","slug":"to-rini-013c","kind":"restaurant","name":"Το Ρίνι","lat":37.99027878775376,"lng":23.732870988899485,"url":"https://maps.app.goo.gl/RRByVB3HqZfDcnkK7","address":"Ρεθύμνου 8, Αθήνα 106 82","categoryIds":["greek-restaurants"],"categories":["Greek Restaurants"]},{"id":"greekRestaurants_fa7cc6bab7be","slug":"lefkes-on-the-side-fa7c","kind":"restaurant","name":"Lefkes on the Side","lat":38.013850196604025,"lng":23.75041166079297,"url":"https://maps.app.goo.gl/bBjijsL8Z595BXhZ7","address":"Λεωφ. Γαλατσίου 98, Γαλάτσι 111 46","categoryIds":["greek-restaurants"],"categories":["Greek Restaurants"]},{"id":"greekRestaurants_e2f8a1a4ded7","slug":"katsarola-e2f8","kind":"restaurant","name":"Κατσαρόλα","lat":37.98993156504118,"lng":23.741864128657266,"url":"https://maps.app.goo.gl/R5o9th6YAJUun6xp6","address":"Λεωφ. Αλεξάνδρας 74, Αθήνα 114 73","categoryIds":["greek-restaurants"],"categories":["Greek Restaurants"]},{"id":"greekRestaurants_24b930305a8e","slug":"leykes-24b9","kind":"restaurant","name":"Λεύκες","lat":38.01369593012145,"lng":23.750720348183243,"url":"https://maps.app.goo.gl/f11Mf8a6b4eezgj29","address":"Λεωφ. Γαλατσίου 100, Γαλάτσι 111 46","categoryIds":["greek-restaurants"],"categories":["Greek Restaurants"]},{"id":"greekRestaurants_0cec67514103","slug":"ama-lachei-0cec","kind":"restaurant","name":"Άμα Λάχει","lat":37.9881200037971,"lng":23.737007621122938,"url":"https://maps.app.goo.gl/94C3hp4xbRp1fKYt7","address":"Καλλιδρομίου 69, Αθήνα 106 83","categoryIds":["greek-restaurants"],"categories":["Greek Restaurants"]}],"nearby":[{"id":"italianRestaurants_a2a46beb60d1","slug":"mamas-pizza-a2a4","kind":"restaurant","name":"mamas pizza","lat":38.00286067766126,"lng":23.729687108811326,"url":"https://maps.app.goo.gl/GBCYCeq3F77e7FqH8?g_st=ipc","address":"Φυλής 197, Αθήνα 112 52","categoryIds":["italian"],"categories":["Italian Restaurants"],"distanceKm":0.3544692711904373},{"id":"coffeeBrunchRestaurants_8eea389a06d0","slug":"santo-belto-8eea","kind":"restaurant","name":"Santo Belto","lat":38.00295539657206,"lng":23.737407823969118,"url":"https://maps.app.goo.gl/ZWa6fMfeNKbHNQGB7?g_st=ipc","address":"Αγίας Ζώνης 21, Αθήνα 113 61","categoryIds":["coffee-brunch","desserts"],"categories":["Coffee & Brunch Spots","Dessert Shops"],"legacySlugs":["santo-belto-1567"],"distanceKm":0.45053212605683535},{"id":"greekRestaurants_3fdb385cf32e","slug":"dylan-3fdb","kind":"restaurant","name":"Dylan","lat":38.004029735437285,"lng":23.737919535339657,"url":"https://maps.app.goo.gl/BnADd9od1HHo98uB7?g_st=ipc","address":"Agias Zonis 38, Athina 113 64","categoryIds":["greek-restaurants"],"categories":["Greek Restaurants"],"distanceKm":0.45266444150983803},{"id":"cheapEatsRestaurants_3855239555fb","slug":"oi-meraklides-3855","kind":"restaurant","name":"Οι Μερακλήδες","lat":38.005421507151304,"lng":23.738069532004765,"url":"https://maps.app.goo.gl/cQBiuhmvhu6SiSrp9?g_st=ipc","address":"Αγίας Ζώνης 60, Αθήνα 112 56","categoryIds":["cheap-eats"],"categories":["Gyros & Cheap Eats"],"distanceKm":0.4612431563503812},{"id":"cheapEatsRestaurants_51111124208f","slug":"soyvlakopoleion-rigani-5111","kind":"restaurant","name":"Σουβλακοπωλείον Ρίγανη","lat":38.00099448703569,"lng":23.73511231778499,"url":"https://maps.app.goo.gl/fCW1TYPSHgUdCft78?g_st=ipc","address":"Φωκίωνος Νέγρη 15, Αθήνα 112 57","categoryIds":["cheap-eats"],"categories":["Gyros & Cheap Eats"],"distanceKm":0.47120806189909115},{"id":"vegetarianRestaurants_ac24d91fc2b5","slug":"geyseis-tis-damaskoy-ac24","kind":"restaurant","name":"Γεύσεις της Δαμασκού","lat":38.00104187111536,"lng":23.735527497819955,"url":"https://maps.app.goo.gl/CBgjw3FjXKsmZLqP9?g_st=ipc","address":"Φωκίωνος Νέγρη 19, Αθήνα 112 57","categoryIds":["vegetarian"],"categories":["Vegetarian Friendly Restaurants"],"distanceKm":0.48296802142515755},{"id":"dessertsRestaurants_27cc6726185a","slug":"zacharoplasteia-kosmikon-ag-nikolaos-27cc","kind":"restaurant","name":"ΖΑΧΑΡΟΠΛΑΣΤΕΙΑ ΚΟΣΜΙΚΟΝ ΑΓ.ΝΙΚΟΛΑΟΣ","lat":38.00667700680062,"lng":23.72782119868635,"url":"https://maps.app.goo.gl/qDYpfn8xkLTr164U7?g_st=ipc","address":"Λεωφ. Ιωνίας 104, Αθήνα 104 46","categoryIds":["desserts"],"categories":["Dessert Shops"],"distanceKm":0.4861301141492452},{"id":"cheapEatsRestaurants_fcf206bb8bf8","slug":"jackaroo-fcf2","kind":"restaurant","name":"Jackaroo","lat":38.00066185886443,"lng":23.735523749834027,"url":"https://maps.app.goo.gl/bKD82egRLvDN81sG9?g_st=ipc","address":"Φωκίωνος Νέγρη 18, Αθήνα 112 57","categoryIds":["cheap-eats"],"categories":["Gyros & Cheap Eats"],"distanceKm":0.5201884621624001},{"id":"italianRestaurants_fee68a36e757","slug":"lisa-athens-fee6","kind":"restaurant","name":"Lisa Athens","lat":38.00121668798056,"lng":23.737030313370706,"url":"https://maps.app.goo.gl/eiXsobGt1KWweP7UA?g_st=ipc","address":"Φωκίωνος Νέγρη 25, Αθήνα 113 61","categoryIds":["italian"],"categories":["Italian Restaurants"],"distanceKm":0.5442160524389758},{"id":"fishTavernasRestaurants_4ef32e781ddb","slug":"psaradiko-psarofageio-vlasis-4ef3","kind":"restaurant","name":"Ψαράδικο-Ψαροφαγείο Βλάσης","lat":38.00159683768883,"lng":23.739141642286196,"url":"https://maps.app.goo.gl/fHgyjqw3Rn6yqq6N6?g_st=ipc","address":"Φωκίωνος Νέγρη 47, Αθήνα 113 61","categoryIds":["fish-tavernas"],"categories":["Fish Tavernas"],"distanceKm":0.6583281686200998},{"id":"greekRestaurants_f9f686e79eab","slug":"o-mpakalogatos-f9f6","kind":"restaurant","name":"Ο Μπακαλόγατος","lat":38.00187471148547,"lng":23.740181411434346,"url":"https://maps.app.goo.gl/981vRQxbrAtrVwL46","address":"Φωκίωνος Νέγρη 72, Αθήνα 113 61","categoryIds":["greek-restaurants"],"categories":["Greek Restaurants"],"distanceKm":0.7215869884499156},{"id":"coffeeBrunchRestaurants_ce89cd6aa5d7","slug":"kick-ce89","kind":"restaurant","name":"KICK","lat":37.99916132656893,"lng":23.737461252467714,"url":"https://maps.app.goo.gl/72fZq7DBsWg8jnSR8?g_st=ipc","address":"Σποράδων 26, Αθήνα 113 61","categoryIds":["coffee-brunch"],"categories":["Coffee & Brunch Spots"],"distanceKm":0.7494557568123243},{"id":"coffeeBrunchRestaurants_5e77841cb06d","slug":"flake-5e77","kind":"restaurant","name":"Flake","lat":37.99900849338742,"lng":23.737419912416144,"url":"https://maps.app.goo.gl/Xk1A8oDNqWipGzYL6?g_st=ipc","address":"Σποράδων 24, Αθήνα 113 61","categoryIds":["coffee-brunch"],"categories":["Coffee & Brunch Spots"],"distanceKm":0.7619257698896814},{"id":"greekRestaurants_bfb413275b7f","slug":"kyveli-bfb4","kind":"restaurant","name":"Κυβέλη","lat":37.99805749284101,"lng":23.73519064835316,"url":"https://maps.app.goo.gl/GZkR3yG4uYF9Asep6","address":"Επτανήσου 15, Αθήνα 112 57","categoryIds":["greek-restaurants"],"categories":["Greek Restaurants"],"distanceKm":0.7815699501357061},{"id":"cheapEatsRestaurants_ec6036039639","slug":"dionysos-ec60","kind":"restaurant","name":"Διόνυσος","lat":37.99776607364749,"lng":23.735031186199688,"url":"https://maps.app.goo.gl/f7GyH9GtFQKGQmmS9?g_st=ipc","address":"Ιθάκης 12 12, Αθήνα 112 57","categoryIds":["cheap-eats"],"categories":["Gyros & Cheap Eats"],"distanceKm":0.8094880874767357},{"id":"dessertsRestaurants_b17cae58055b","slug":"solo-gelato-kypseli-b17c","kind":"restaurant","name":"SOLO GELATO ΚΥΨΕΛΗ","lat":37.997495076308105,"lng":23.735075284705523,"url":"https://maps.app.goo.gl/xy8KGbP1LQZJCmxX7?g_st=ipc","address":"Ιθάκης 9, Αθήνα 112 57","categoryIds":["desserts"],"categories":["Dessert Shops"],"distanceKm":0.8396912869999149},{"id":"vegetarianRestaurants_83307181ea44","slug":"gknoy-8330","kind":"restaurant","name":"ΓΚΝΟΥ","lat":37.99747301743944,"lng":23.73513103670901,"url":"https://maps.app.goo.gl/9hv6BgvR3DARK8469?g_st=ipc","address":"Επτανήσου 13, Αθήνα 112 57","categoryIds":["vegetarian"],"categories":["Vegetarian Friendly Restaurants"],"distanceKm":0.8432187110441244},{"id":"coffeeBrunchRestaurants_76650a6337b0","slug":"o-foyrnos-toy-remoyndoy-7665","kind":"restaurant","name":"Ο Φούρνος του Ρεμούνδου","lat":37.99778393444846,"lng":23.737266306236258,"url":"https://maps.app.goo.gl/6mpkX4B7SCACHFyy6?g_st=ipc","address":"Κυψέλης 37, Αθήνα 113 61","categoryIds":["coffee-brunch"],"categories":["Coffee & Brunch Spots"],"distanceKm":0.8747147962429168},{"id":"cheapEatsRestaurants_b098fa4e8c79","slug":"kaproys-b098","kind":"restaurant","name":"Κάπρους","lat":37.997892215729216,"lng":23.738708713405035,"url":"https://maps.app.goo.gl/zmZ9p1KuXBfmeQTP9?g_st=ipc","address":"Σπετσών 49, Αθήνα 113 62","categoryIds":["cheap-eats"],"categories":["Gyros & Cheap Eats"],"distanceKm":0.9273649619537723},{"id":"dessertsRestaurants_500065b70e96","slug":"mpozas-5000","kind":"restaurant","name":"Μπόζας","lat":37.99742038031428,"lng":23.73986164387991,"url":"https://maps.app.goo.gl/zSMSytPeL1fEn7U3A?g_st=ipc","address":"Κερκύρας 39 &, Παξών, Αθήνα 113 62","categoryIds":["desserts"],"categories":["Dessert Shops"],"distanceKm":1.0284184310673508},{"id":"municipalities_f73663b8f738","slug":"attiki-f736","kind":"municipality","name":"Αττική","lat":37.9958,"lng":23.7292,"aliases":["Αττικη","Victoria"],"region":"Κέντρο Αθήνας","name_en":"Attiki","region_en":"Athens Center","distanceKm":1.0551959697475108},{"id":"cheapEatsRestaurants_4b2392e8f1da","slug":"peirasmos-4b23","kind":"restaurant","name":"ΠΕΙΡΑΣΜΟΣ","lat":38.00274661999109,"lng":23.744683791776005,"url":"https://maps.app.goo.gl/wXj4gGBY4uF6K2yW8?g_st=ipc","address":"Βελβενδού 20, Αθήνα 113 63","categoryIds":["cheap-eats"],"categories":["Gyros & Cheap Eats"],"distanceKm":1.0621086217989608},{"id":"vegetarianRestaurants_35af3a72d872","slug":"leik-kafe-35af","kind":"restaurant","name":"λέικ καφέ","lat":37.99570532128052,"lng":23.737094528681606,"url":"https://maps.app.goo.gl/c3DSV5tXT2pKELDL8?g_st=ipc","address":"Αιγίνης 1, Αθήνα 113 62","categoryIds":["vegetarian"],"categories":["Vegetarian Friendly Restaurants"],"distanceKm":1.0816260068852264},{"id":"cheapEatsRestaurants_dcf501d079db","slug":"psitopoleio-o-meraklis-dcf5","kind":"restaurant","name":"Ψητοπωλείο Ο Μερακλής","lat":38.00168245244077,"lng":23.720330195200393,"url":"https://maps.app.goo.gl/szXw2A8e1LoKnCFc6?g_st=ipc","address":"Αγ. Μελετίου 183, Αθήνα 104 43","categoryIds":["cheap-eats"],"categories":["Gyros & Cheap Eats"],"distanceKm":1.1524178054151266}],"sameRegion":[],"mentionedGuides":[],"canonicalSlug":"mpompyras-7620","isCanonicalEntity":true,"enrichment":{"summary_en":"Μπόμπυρας is a curated restaurant in Αθήνα 112 53 in the Greek Restaurants collection. It is connected to 14 nearby Googlementor picks to help travelers build a stronger local route.","summary_el":"Μπόμπυρας είναι ένα επιλεγμένο σημείο φαγητού στην περιοχή Αθήνα 112 53 και ανήκει στη συλλογή Greek Restaurants. Συνδέεται με 14 κοντινές προτάσεις του Googlementor για πιο ολοκληρωμένη εμπειρία.","vibe_tags":["curated"],"best_for":["first-time visitors","food lovers"],"visit_moments":["lunch stop","dinner stop"],"practical_note":"Address and direct map link are available for easy turn-by-turn access.","nearby_walkable_count":14,"nearby_count_2km":67,"confidence":0.98}},"__N_SSG":true}