{"pageProps":{"entity":{"id":"gyrosSouvlakiRestaurants_22073f048cbc","slug":"o-kostas-2207","kind":"restaurant","name":"O Kostas","lat":37.972,"lng":23.726,"url":"https://maps.app.goo.gl/sample28","address":"Adrianou 116, Athina 105 58","categoryIds":["cheap-eats"],"categories":["Gyros & Cheap Eats"]},"sameCategory":[{"id":"gyrosSouvlakiRestaurants_ddb106f4030b","slug":"gyros-psyrri-ddb1","kind":"restaurant","name":"Gyros Psyrri","lat":37.974,"lng":23.727,"url":"https://maps.app.goo.gl/sample30","address":"Agiou Filippou 19, Athina 105 55","categoryIds":["cheap-eats"],"categories":["Gyros & Cheap Eats"]},{"id":"gyrosSouvlakiRestaurants_514910b62a38","slug":"souvlaki-monastiraki-5149","kind":"restaurant","name":"Souvlaki Monastiraki","lat":37.975,"lng":23.729,"url":"https://maps.app.goo.gl/sample29","address":"Mitropoleos 2, Athina 105 63","categoryIds":["cheap-eats"],"categories":["Gyros & Cheap Eats"]},{"id":"cheapEatsRestaurants_3d671140dfef","slug":"o-thanasis-kempap-monastiraki-3d67","kind":"restaurant","name":"Ο Θανάσης κεμπάπ Μοναστηράκι","lat":37.976291478347854,"lng":23.726486093222853,"url":"https://maps.app.goo.gl/1dqXX7TB1pvVovcv8?g_st=ipc","address":"Μητροπόλεως 69, Αθήνα 105 55","categoryIds":["cheap-eats"],"categories":["Gyros & Cheap Eats"]},{"id":"cheapEatsRestaurants_7d6699a91456","slug":"o-gyros-poy-gyreyeis-7d66","kind":"restaurant","name":"ο γύρος που γυρεύεις","lat":37.968706021561665,"lng":23.729791439377735,"url":"https://maps.app.goo.gl/bMFjRtNN6Ztw4H43A?g_st=ipc","address":"Αθανασίου Διάκου 1 Ακρόπολη, Αθήνα 117 42","categoryIds":["cheap-eats"],"categories":["Gyros & Cheap Eats"]},{"id":"cheapEatsRestaurants_f2848f6727ab","slug":"tylixto-monastiraki-f284","kind":"restaurant","name":"TYLIXTO MONASTIRAKI","lat":37.976859135543,"lng":23.727597993730694,"url":"https://maps.app.goo.gl/s8G17xLU1a1prvZq8?g_st=ipc","address":"Aiolou 19 TYLIXTO, Αιόλου 19, Αθήνα 105 51","categoryIds":["cheap-eats"],"categories":["Gyros & Cheap Eats"]},{"id":"asianRestaurants_3e39975f70d5","slug":"streetwok-3e39","kind":"restaurant","name":"StreetWok","lat":37.97689230907057,"lng":23.727592595188877,"url":"https://maps.app.goo.gl/qhpXyetVXaLisBEWA?g_st=ipc","address":"Αιόλου 21, Αθήνα 105 63","categoryIds":["asian","cheap-eats"],"categories":["Asian Restaurants","Gyros & Cheap Eats"],"legacySlugs":["streetwok-7239"]},{"id":"cheapEatsRestaurants_8b657b1197a5","slug":"hoocut-8b65","kind":"restaurant","name":"Hoocut","lat":37.976849062316084,"lng":23.72809711402173,"url":"https://maps.app.goo.gl/gP2JFL8Nk8hDVyEZ6?g_st=ipc","address":"Πλ. Αγίας Ειρήνης 9, Αθήνα 105 63","categoryIds":["cheap-eats"],"categories":["Gyros & Cheap Eats"]},{"id":"cheapEatsRestaurants_3392ef0104b3","slug":"focacceria-napul-e-3392","kind":"restaurant","name":"Focacceria Napul’e","lat":37.97562561163699,"lng":23.730612422068372,"url":"https://maps.app.goo.gl/1Z8wuAKBZ1px7oFG6?g_st=ipc","address":"Πετράκη 30, Αθήνα 105 63","categoryIds":["cheap-eats"],"categories":["Gyros & Cheap Eats"]},{"id":"cheapEatsRestaurants_087b1f7ae690","slug":"potato-king-087b","kind":"restaurant","name":"Potato King","lat":37.97675298586362,"lng":23.723457601026865,"url":"https://maps.app.goo.gl/7oETcHQJwsjd3Q6S9?g_st=ipc","address":"Αγίου Φιλίππου 7, Αθήνα 105 55","categoryIds":["cheap-eats"],"categories":["Gyros & Cheap Eats"]},{"id":"cheapEatsRestaurants_fb9d26e8cad9","slug":"meat-the-greek-fb9d","kind":"restaurant","name":"Meat the Greek","lat":37.97583452449836,"lng":23.730527268129777,"url":"https://maps.app.goo.gl/4GCcGcuQpLTaTXZf8?g_st=ipc","address":"Φωκίωνος 2-4, Αθήνα 105 63","categoryIds":["cheap-eats"],"categories":["Gyros & Cheap Eats"]},{"id":"cheapEatsRestaurants_0f0b8dd68736","slug":"the-doc-s-burger-bar-0f0b","kind":"restaurant","name":"The Doc's Burger Bar","lat":37.97742334199844,"lng":23.725636669246807,"url":"https://maps.app.goo.gl/U7fwr2D5HgEHTzhH6?g_st=ipc","address":"Ανδρέα Μιαούλη 10, Αθήνα 105 54","categoryIds":["cheap-eats","vegetarian"],"categories":["Gyros & Cheap Eats","Vegetarian Friendly Restaurants"],"legacySlugs":["the-doc-s-burger-bar-089d"]},{"id":"cheapEatsRestaurants_7c127d112eef","slug":"dirty-manh-7c12","kind":"restaurant","name":"Dirty Manh","lat":37.96689597541608,"lng":23.728371721835774,"url":"https://maps.app.goo.gl/LaZcss8aznDJpxm89?g_st=ipc","address":"Νικ. Δημητρακοπούλου 5, Αθήνα 117 42","categoryIds":["cheap-eats"],"categories":["Gyros & Cheap Eats"]}],"nearby":[{"id":"mustSeeAttractions_9bfc186193fa","slug":"akropoli-athinon-9bfc","kind":"restaurant","name":"Ακρόπολη Αθηνών","lat":37.97153381829169,"lng":23.7257493192379,"url":"https://maps.app.goo.gl/p7J1mcB5DGfqSALg6?g_st=ipc","address":"Αθήνα 105 58","categoryIds":["attractions"],"categories":["Must-See Attractions"],"distanceKm":0.0563021033680301},{"id":"municipalities_4149fa79e27b","slug":"akropoli-4149","kind":"municipality","name":"Ακρόπολη","lat":37.9715,"lng":23.7257,"region":"Κέντρο Αθήνας","name_en":"Acropolis","region_en":"Athens Center","distanceKm":0.061502911765534726},{"id":"mustSeeAttractions_186b78600e45","slug":"parthenonas-186b","kind":"restaurant","name":"Παρθενώνας","lat":37.97152775110389,"lng":23.726714874737574,"url":"https://maps.app.goo.gl/ztHmcesfndwzvFuRA?g_st=ipc","address":"Αθήνα 105 58","categoryIds":["attractions"],"categories":["Must-See Attractions"],"distanceKm":0.08175685146506399},{"id":"mustSeeAttractions_e73ed47cb5a3","slug":"odeio-irodoy-toy-attikoy-e73e","kind":"restaurant","name":"Ωδείο Ηρώδου του Αττικού","lat":37.97079439393834,"lng":23.724582622108812,"url":"https://maps.app.goo.gl/rjXRZrpDRp5VnNP2A?g_st=ipc","address":"Διονυσίου Αρεοπαγίτου, Αθήνα 105 55","categoryIds":["attractions"],"categories":["Must-See Attractions"],"distanceKm":0.18277769770289728},{"id":"mustSeeAttractions_f9286196691d","slug":"anafiotika-f928","kind":"restaurant","name":"Αναφιώτικα","lat":37.97237012452399,"lng":23.728116657972198,"url":"https://maps.app.goo.gl/tWCR6cy3umt66P4p6?g_st=ipc","address":"Αθήνα 105 58","categoryIds":["attractions"],"categories":["Must-See Attractions"],"distanceKm":0.19004761329315806},{"id":"coffeeBrunchRestaurants_d230a95180a5","slug":"anafiotika-cafe-restaurant-d230","kind":"restaurant","name":"Anafiotika Cafe - Restaurant","lat":37.97339153102626,"lng":23.727755098705728,"url":"https://maps.app.goo.gl/5TUnwM6DgvopJtKt9?g_st=ipc","address":"Μνησικλέους 24β, Αθήνα 105 56","categoryIds":["coffee-brunch"],"categories":["Coffee & Brunch Spots"],"distanceKm":0.21819644077590178},{"id":"monasteriesChurches_8533fc9b9b94","slug":"ieros-naos-agion-anargyron-kolokynthi-metochion-panagioy-tafoy-8533","kind":"restaurant","name":"Ιερός Ναός Αγίων Αναργύρων Κολοκύνθη - Μετόχιον Παναγίου Τάφου","lat":37.97293435768165,"lng":23.728208879310362,"url":"https://maps.app.goo.gl/nKcEJuoZ25jXrQqeA?g_st=ipc","address":"Ερεχθέως 18, Αθήνα 105 56","categoryIds":["monasteries-churches"],"categories":["Monasteries & Spiritual Sites"],"distanceKm":0.21973477079132483},{"id":"fishTavernasRestaurants_2ec8563b4367","slug":"anefani-2ec8","kind":"restaurant","name":"Ανεφάνη","lat":37.973535712152035,"lng":23.727823659961384,"url":"https://maps.app.goo.gl/ZNPzCDATcCosWfhTA?g_st=ipc","address":"Μνησικλέους 24, Αθήνα 105 56","categoryIds":["fish-tavernas","rooftop-lounges"],"categories":["Fish Tavernas","Rooftop Lounges"],"legacySlugs":["anefani-d906"],"distanceKm":0.2339087060868554},{"id":"gyrosSouvlakiRestaurants_ddb106f4030b","slug":"gyros-psyrri-ddb1","kind":"restaurant","name":"Gyros Psyrri","lat":37.974,"lng":23.727,"url":"https://maps.app.goo.gl/sample30","address":"Agiou Filippou 19, Athina 105 55","categoryIds":["cheap-eats"],"categories":["Gyros & Cheap Eats"],"distanceKm":0.23904111439037257},{"id":"rooftopLoungesRestaurants_6bc9125d2c6e","slug":"odos-lysioy-6bc9","kind":"restaurant","name":"Οδος Λυσιου","lat":37.97368556896764,"lng":23.727989877138466,"url":"https://maps.app.goo.gl/QFStwG4KRSZkG2Em7?g_st=ipc","address":"Mnisikleous 22 and, Lisiou corner, Athina 105 56","categoryIds":["rooftop-lounges"],"categories":["Rooftop Lounges"],"distanceKm":0.2560316581538609},{"id":"mustSeeAttractions_c2101de8cfd4","slug":"romaiki-agora-athinon-c210","kind":"restaurant","name":"Ρωμαϊκή Αγορά Αθηνών","lat":37.974304073145795,"lng":23.72610046442621,"url":"https://maps.app.goo.gl/ix2gNhhwsMZiBHES8?g_st=ipc","address":"Πολυγνώτου 3, Αθήνα 105 55","categoryIds":["attractions"],"categories":["Must-See Attractions"],"distanceKm":0.2563525438415216},{"id":"monasteriesChurches_3b14e4e4fde2","slug":"ieros-naos-agias-sofias-akropoleos-3b14","kind":"restaurant","name":"Ιερός Ναός Αγίας Σοφίας Ακροπόλεως","lat":37.96969305070506,"lng":23.72539590621987,"url":"https://maps.app.goo.gl/GdJWue7opw56LmEv9?g_st=ipc","address":"Διονυσίου Αρεοπαγίτου 45, Αθήνα 117 42","categoryIds":["monasteries-churches"],"categories":["Monasteries & Spiritual Sites"],"distanceKm":0.2619296050596313},{"id":"coffeeBrunchRestaurants_ef8ff3ba5523","slug":"melina-mercouri-cafe-ef8f","kind":"restaurant","name":"Melina Mercouri Café","lat":37.973329408985265,"lng":23.72859454809977,"url":"https://maps.app.goo.gl/fE5D7HkmY8kdkhM6A?g_st=ic","address":"Lisiou 22, Athina 105 56","categoryIds":["coffee-brunch"],"categories":["Coffee & Brunch Spots"],"distanceKm":0.2712462155058951},{"id":"monasteriesChurches_10f29f7ed669","slug":"ieros-naos-agioy-nikolaoy-ragkava-10f2","kind":"restaurant","name":"Ιερός Ναός Αγίου Νικολάου Ραγκαβά","lat":37.972457611954724,"lng":23.729131060991204,"url":"https://maps.app.goo.gl/HnQHckK1xrE13jmu5?g_st=ipc","address":"Πρυτανείου 1, Αθήνα 105 58","categoryIds":["monasteries-churches"],"categories":["Monasteries & Spiritual Sites"],"distanceKm":0.27913328834488876},{"id":"mustSeeAttractions_4e551e61d3d7","slug":"gate-of-athena-archegetis-4e55","kind":"restaurant","name":"Gate of Athena Archegetis","lat":37.974568649716346,"lng":23.725518029561396,"url":"https://maps.app.goo.gl/DQtGJPqpneygKtHk7?g_st=ipc","address":"Διοσκούρων, Epaminonda &, Athina 105 55","categoryIds":["attractions"],"categories":["Must-See Attractions"],"distanceKm":0.28872834667678576},{"id":"mustSeeAttractions_2a618ba12cb4","slug":"aerides-2a61","kind":"restaurant","name":"Αέρηδες","lat":37.97449623338425,"lng":23.727043202053398,"url":"https://maps.app.goo.gl/djGFTxoDCCB83eyN6?g_st=ipc","address":"Αθήνα 105 55","categoryIds":["attractions"],"categories":["Must-See Attractions"],"distanceKm":0.2922427671722293},{"id":"dessertsRestaurants_db3d47fd588a","slug":"arte-athens-db3d","kind":"restaurant","name":"Arte Athens","lat":37.97243004672386,"lng":23.729479004279412,"url":"https://maps.app.goo.gl/Lqr3t1JFkHesFNnk6?g_st=ipc","address":"Τριπόδων 16, Αθήνα 105 58","categoryIds":["desserts"],"categories":["Dessert Shops"],"distanceKm":0.3086819486665669},{"id":"greekRestaurants_e299a6be96f9","slug":"to-kafeneio-e299","kind":"restaurant","name":"Το Καφενείο","lat":37.97255962660001,"lng":23.729567011443763,"url":"https://maps.app.goo.gl/3s8YnKNXM61cpsz69","address":"Επιχάρμου 1, Αθήνα 105 58","categoryIds":["greek-restaurants"],"categories":["Greek Restaurants"],"distanceKm":0.318801781128139},{"id":"greekRestaurants_60d2190d08b8","slug":"aerides-mezedopoleio-plaka-60d2","kind":"restaurant","name":"Αέρηδες Μεζεδοπωλείο Πλάκα","lat":37.974495755428926,"lng":23.72798871305526,"url":"https://maps.app.goo.gl/Cx6gQQWkCy2n1mXw6","address":"Διογένους 3, Αθήνα 105 56","categoryIds":["greek-restaurants"],"categories":["Greek Restaurants"],"distanceKm":0.3277228705226445},{"id":"municipalities_5bc013791cf8","slug":"plaka-5bc0","kind":"municipality","name":"Πλάκα","lat":37.9726,"lng":23.7297,"region":"Κέντρο Αθήνας","name_en":"Plaka","region_en":"Athens Center","distanceKm":0.33111781484716285},{"id":"coffeeBrunchRestaurants_278a93a562e8","slug":"vrysaki-278a","kind":"restaurant","name":"Βρυσάκι","lat":37.97478391705531,"lng":23.724523558556633,"url":"https://maps.app.goo.gl/Ji4XoLwygMsPtG528?g_st=ipc","address":"Βρυσακίου 17, Αθήνα 105 55","categoryIds":["coffee-brunch"],"categories":["Coffee & Brunch Spots"],"distanceKm":0.3355212943645124},{"id":"mustSeeAttractions_8085cf28024a","slug":"choragic-monument-of-lysicrates-8085","kind":"restaurant","name":"Choragic Monument of Lysicrates","lat":37.97108971386169,"lng":23.72994596958006,"url":"https://maps.app.goo.gl/7Xgk65sqPNFM93Sy9?g_st=ipc","address":"Epimenidou 3, Athina 105 58","categoryIds":["attractions"],"categories":["Must-See Attractions"],"distanceKm":0.36039688978041146},{"id":"vegetarianRestaurants_e1e5ea98ec84","slug":"jaipur-palace-plaka-e1e5","kind":"restaurant","name":"Jaipur Palace Plaka","lat":37.9746957700778,"lng":23.728563859316758,"url":"https://maps.app.goo.gl/aNRwgGJgRT99wmHt5?g_st=ipc","address":"Mnisikleous 7B, Athina 105 56","categoryIds":["vegetarian"],"categories":["Vegetarian Friendly Restaurants"],"distanceKm":0.3746452592616632},{"id":"mustSeeAttractions_397dfba9f16b","slug":"notia-klitys-akropolis-athinon-397d","kind":"restaurant","name":"Νότια Κλιτύς Ακρόπολης Αθηνών","lat":37.96962866994438,"lng":23.729046031418846,"url":"https://maps.app.goo.gl/5RAt8qpszUA945pG8?g_st=ipc","address":"Διονυσίου Αρεοπαγίτου, Αθήνα 105 58","categoryIds":["attractions"],"categories":["Must-See Attractions"],"distanceKm":0.3752603586487743}],"sameRegion":[],"mentionedGuides":[],"canonicalSlug":"o-kostas-2207","isCanonicalEntity":true,"enrichment":{"summary_en":"O Kostas is a curated restaurant in Athina 105 58 in the Gyros & Cheap Eats collection. It is connected to 296 nearby Googlementor picks to help travelers build a stronger local route.","summary_el":"O Kostas είναι ένα επιλεγμένο σημείο φαγητού στην περιοχή Athina 105 58 και ανήκει στη συλλογή Gyros & Cheap Eats. Συνδέεται με 296 κοντινές προτάσεις του Googlementor για πιο ολοκληρωμένη εμπειρία.","vibe_tags":["curated","budget-friendly"],"best_for":["first-time visitors","food lovers","budget travelers"],"visit_moments":["lunch stop","dinner stop"],"practical_note":"Address and direct map link are available for easy turn-by-turn access.","nearby_walkable_count":296,"nearby_count_2km":646,"confidence":0.98}},"__N_SSG":true}