{"pageProps":{"entity":{"id":"municipalities_89aa8cc05ac2","slug":"palaio-faliro-89aa","kind":"municipality","name":"Παλαιό Φάληρο","lat":37.9286,"lng":23.701,"region":"Νότια Προάστια","name_en":"Palaio Faliro","region_en":"Southern Suburbs"},"sameCategory":[],"nearby":[{"id":"burgersRestaurants_e2eccf34c175","slug":"hanky-panky-palaio-faliro-e2ec","kind":"restaurant","name":"Hanky Panky Palaio Faliro","lat":37.93089466239992,"lng":23.703396088291395,"url":"https://maps.app.goo.gl/psmqWjAqwrakd1ww7?g_st=ipc","address":"Πλ. Νταβάρη 2, Παλαιό Φάληρο 175 64","categoryIds":["burgers"],"categories":["Burger Spots"],"distanceKm":0.33055746000682923},{"id":"coffeeBrunchRestaurants_c3b8d7875a67","slug":"upon-c3b8","kind":"restaurant","name":"UPON","lat":37.93165635013146,"lng":23.70322472978882,"url":"https://maps.app.goo.gl/yP6xS2xksJBA1Z4u7?g_st=ipc","address":"Dimokratias 33, Paleo Faliro 175 64","categoryIds":["coffee-brunch"],"categories":["Coffee & Brunch Spots"],"distanceKm":0.39188173248502906},{"id":"dessertsRestaurants_84508f8235f2","slug":"zuccherino-8450","kind":"restaurant","name":"Zuccherino","lat":37.93016519402215,"lng":23.696227697191645,"url":"https://maps.app.goo.gl/tbe5oMETgxZAQkFK9?g_st=ipc","address":"Πρωτέως & Σειρήνων 48, Παλαιό Φάληρο 175 61","categoryIds":["desserts"],"categories":["Dessert Shops"],"distanceKm":0.4533067864653946},{"id":"italianRestaurants_fb4db3d6df69","slug":"akakios-makaronadiko-fb4d","kind":"restaurant","name":"Ακάκιος μακαρονάδικο","lat":37.932532942991465,"lng":23.699425438393305,"url":"https://maps.app.goo.gl/Mjwxjxeqf2KWt2Hq5?g_st=ipc","address":"Αγίας Τριάδος 1, Παλαιό Φάληρο 175 64","categoryIds":["italian"],"categories":["Italian Restaurants"],"distanceKm":0.45860957046627215},{"id":"fishTavernasRestaurants_85d0b9f93ad9","slug":"psipsina-athinaiki-psarotaverna-85d0","kind":"restaurant","name":"Ψιψίνα - Αθηναϊκή Ψαροταβέρνα","lat":37.932530674886344,"lng":23.698986064990937,"url":"https://maps.app.goo.gl/Acz6F4ajfzUYXq7y7?g_st=ipc","address":"Colonel Zisimopoulos, 96, Athina 175 61","categoryIds":["fish-tavernas"],"categories":["Fish Tavernas"],"distanceKm":0.4714133747523262},{"id":"greekRestaurants_30ac8464e0c3","slug":"kyr-aristos-30ac","kind":"restaurant","name":"Κυρ Αρίστος","lat":37.932597935183146,"lng":23.699203294233197,"url":"https://maps.app.goo.gl/EQaiuBpPZq633dxa7?g_st=ipc","address":"Zisimopoulou 96, Paleo Faliro 175 64","categoryIds":["greek-restaurants"],"categories":["Greek Restaurants"],"distanceKm":0.47165310605540994},{"id":"cheapEatsRestaurants_270552aa07e7","slug":"o-sofras-tis-smyrnis-2705","kind":"restaurant","name":"Ο Σοφράς Της Σμύρνης","lat":37.93008545622269,"lng":23.69511056440978,"url":"https://maps.app.goo.gl/3hxTvGyB8jtFJcXXA?g_st=ipc","address":"Αγίου Αλεξάνδρου 60, Παλαιό Φάληρο 175 61","categoryIds":["cheap-eats"],"categories":["Gyros & Cheap Eats"],"distanceKm":0.5423119394849857},{"id":"italianRestaurants_4319df2d5e15","slug":"da-bruno-4319","kind":"restaurant","name":"da Bruno","lat":37.92917795499007,"lng":23.694489698206436,"url":"https://maps.app.goo.gl/1dA2z4yKDCdZQUGbA","address":"Agiou Alexandrou 46, Paleo Faliro 175 61","categoryIds":["italian"],"categories":["Italian Restaurants"],"distanceKm":0.5746086932770355},{"id":"dessertsRestaurants_39196d9bee61","slug":"fatto-a-mano-3919","kind":"restaurant","name":"Fatto a Mano","lat":37.93356989313718,"lng":23.69912680674615,"url":"https://maps.app.goo.gl/6dQNxoEQLFVCyt9ZA?g_st=ipc","address":"Ζησιμοπούλου 86, Παλαιό Φάληρο 175 64","categoryIds":["desserts"],"categories":["Dessert Shops"],"distanceKm":0.5765303318250826},{"id":"dessertsRestaurants_4a419c4649f4","slug":"zacharoplasteia-kosmikon-p-faliro-4a41","kind":"restaurant","name":"ΖΑΧΑΡΟΠΛΑΣΤΕΙΑ ΚΟΣΜΙΚΟΝ Π.ΦΑΛΗΡΟ","lat":37.93261968622875,"lng":23.696837541827062,"url":"https://maps.app.goo.gl/JkkxEzmScmoGgm2v7?g_st=ipc","address":"Αγίου Αλεξάνδρου, Ζησιμοπούλου &, Παλαιό Φάληρο 175 61","categoryIds":["desserts"],"categories":["Dessert Shops"],"distanceKm":0.5771117033264774},{"id":"dessertsRestaurants_fc989a6fabce","slug":"zuccherino-fc98","kind":"restaurant","name":"Zuccherino","lat":37.929164062996655,"lng":23.69423089313357,"url":"https://maps.app.goo.gl/sw7fDPkoLwrWyuYH8?g_st=ipc","address":"Αγ. Αλεξάνδρου & Ναϊάδων, Παλαιό Φάληρο 175 61","categoryIds":["desserts"],"categories":["Dessert Shops"],"distanceKm":0.5970066635512535},{"id":"coffeeBrunchRestaurants_766ea98ae001","slug":"oi-pites-tis-sofias-766e","kind":"restaurant","name":"Οι πίτες της Σοφίας","lat":37.92792315472672,"lng":23.693652242106012,"url":"https://maps.app.goo.gl/yk8JxAF2vSDEd4wt8?g_st=ipc","address":"Αγίου Αλεξάνδρου 30, Παλαιό Φάληρο 175 61","categoryIds":["coffee-brunch"],"categories":["Coffee & Brunch Spots"],"distanceKm":0.6488401618827999},{"id":"greekRestaurants_842cd50fd946","slug":"mpampis-taverna-842c","kind":"restaurant","name":"Μπάμπης Ταβέρνα","lat":37.93493015100239,"lng":23.70154955498321,"url":"https://maps.app.goo.gl/SyFUZSdaS3SB5Mm48","address":"Λεωφ. Αμφιθέας 73, Παλαιό Φάληρο 175 64","categoryIds":["greek-restaurants"],"categories":["Greek Restaurants"],"distanceKm":0.7055289392910058},{"id":"italianRestaurants_a0a70f822848","slug":"il-trovatore-a0a7","kind":"restaurant","name":"Il Trovatore","lat":37.93426882606043,"lng":23.704929709402517,"url":"https://maps.app.goo.gl/VEjqHzj7oG8PDciG7?g_st=ipc","address":"Γοργοποτάμου 14, Παλαιό Φάληρο 175 64","categoryIds":["italian"],"categories":["Italian Restaurants"],"distanceKm":0.7184154062244361},{"id":"monasteriesChurches_350fade94be9","slug":"ieros-naos-agioy-alexandroy-350f","kind":"restaurant","name":"Ιερός Ναός Αγίου Αλεξάνδρου","lat":37.92675404012077,"lng":23.69297935050041,"url":"https://maps.app.goo.gl/oTPMMN55BBN9bVMA8?g_st=ipc","address":"Αγίου Αλεξάνδρου 14, Παλαιό Φάληρο 175 61","categoryIds":["monasteries-churches"],"categories":["Monasteries & Spiritual Sites"],"distanceKm":0.7328180981210725},{"id":"italianRestaurants_c97c0ccdbf8c","slug":"o-italos-c97c","kind":"restaurant","name":"Ο Ιταλός","lat":37.926673536986776,"lng":23.69220389211545,"url":"https://maps.app.goo.gl/up3EpvmXnu7L2VC67?g_st=ipc","address":"Αλκυόνης 16, Παλαιό Φάληρο 175 61","categoryIds":["italian"],"categories":["Italian Restaurants"],"distanceKm":0.8006863549516082},{"id":"asianRestaurants_df4a095e5eb1","slug":"kikko-sushi-fish-df4a","kind":"restaurant","name":"Kikko Sushi & Fish","lat":37.92527823438876,"lng":23.692729848366973,"url":"https://maps.app.goo.gl/kbxKKh8YDA8LNgPa6?g_st=ipc","address":"Αμφιτρίτης 8, Παλαιό Φάληρο 175 61","categoryIds":["asian"],"categories":["Asian Restaurants"],"distanceKm":0.8140015554029797},{"id":"familyFriendly_feb6b1cb5cd1","slug":"little-land-kids-play-feb6","kind":"restaurant","name":"Little Land - Kids Play","lat":37.930642671894525,"lng":23.710426716839976,"url":"https://maps.app.goo.gl/fZKSbKJMUaonK7vh9?g_st=ipc","address":"Λεωφ. Ελ. Βενιζέλου 235, Παλαιό Φάληρο 175 63","categoryIds":["family-friendly"],"categories":["Kid Friendly Locations"],"distanceKm":0.8574191271875223},{"id":"coffeeBrunchRestaurants_34ea25393225","slug":"hidden-alimos-34ea","kind":"restaurant","name":"Hidden Άλιμος","lat":37.9207925281224,"lng":23.706355320081276,"url":"https://maps.app.goo.gl/tNnv5bivZJzwGSak7?g_st=ipc","address":"Λεωφ. Ελευθερίας 45, Άλιμος 174 55","categoryIds":["coffee-brunch"],"categories":["Coffee & Brunch Spots"],"distanceKm":0.9870828135280971},{"id":"italianRestaurants_47773e592b01","slug":"vitello-trattoria-romana-4777","kind":"restaurant","name":"Vitello Trattoria Romana","lat":37.93748817614671,"lng":23.699162197380616,"url":"https://maps.app.goo.gl/QapvvUw9jwdJSAM69?g_st=ipc","address":"Ζησιμοπούλου 41, Παλαιό Φάληρο 175 64","categoryIds":["italian"],"categories":["Italian Restaurants"],"distanceKm":1.0013769049690193},{"id":"asianRestaurants_6469a1c3e3f9","slug":"seoul-house-restaurant-6469","kind":"restaurant","name":"Seoul House Restaurant","lat":37.93747372174057,"lng":23.69891697936759,"url":"https://maps.app.goo.gl/ibEXR2ZExidRVduY6?g_st=ipc","address":"Ζησιμοπούλου 40, Παλαιό Φάληρο 175 64","categoryIds":["asian"],"categories":["Asian Restaurants"],"distanceKm":1.0034822519976176},{"id":"familyFriendly_eb2517ef6cdc","slug":"flisvos-playground-eb25","kind":"restaurant","name":"Flisvos Playground","lat":37.9267608286871,"lng":23.6891198217997,"url":"https://maps.app.goo.gl/jLUBCzf12Wt3RSRK7?g_st=ipc","address":"Palaio Faliro 175 61","categoryIds":["family-friendly"],"categories":["Kid Friendly Locations"],"distanceKm":1.061879133186223},{"id":"rooftopLoungesRestaurants_8bd69f8e140f","slug":"sky-bar-360-8bd6","kind":"restaurant","name":"Sky Bar 360","lat":37.91880690173223,"lng":23.70114636675223,"url":"https://maps.app.goo.gl/TMX4yShbMaVX6rTHA?g_st=ipc","address":"Λεωφ. Ποσειδώνος 72, Παλαιό Φάληρο 175 62","categoryIds":["rooftop-lounges"],"categories":["Rooftop Lounges"],"distanceKm":1.0890185218055441},{"id":"fishTavernasRestaurants_a7fb3513622e","slug":"liogerma-tis-athinas-a7fb","kind":"restaurant","name":"Λιόγερμα της Αθήνας","lat":37.938563581924875,"lng":23.703200039765804,"url":"https://maps.app.goo.gl/uLKm2p4zN326i9gP8?g_st=ipc","address":"Νέστορος 21, Παλαιό Φάληρο 175 61","categoryIds":["fish-tavernas"],"categories":["Fish Tavernas"],"distanceKm":1.1245758536172432}],"sameRegion":[{"id":"municipalities_093f8da9eef7","slug":"nea-smyrni-093f","kind":"municipality","name":"Νέα Σμύρνη","lat":37.9456,"lng":23.7142,"aliases":["Nea Smyrni","Nea Smirni","Νεα Σμυρνη","Nea Smyrne"],"region":"Νότια Προάστια","name_en":"Nea Smyrni","region_en":"Southern Suburbs"},{"id":"municipalities_2413d46e54f8","slug":"ymittos-2413","kind":"municipality","name":"Υμηττός","lat":37.9506,"lng":23.7511,"aliases":["Ymittos","Hymettos","Υμηττος"],"region":"Νότια Προάστια","name_en":"Ymittos","region_en":"Southern Suburbs"},{"id":"municipalities_3d9dbd89e718","slug":"glyfada-3d9d","kind":"municipality","name":"Γλυφάδα","lat":37.8782,"lng":23.743,"aliases":["Glyfada","Gliphada","Γλυφαδα","Glifada"],"region":"Νότια Προάστια","name_en":"Glyfada","region_en":"Southern Suburbs"},{"id":"municipalities_4714f1907ab8","slug":"elliniko-4714","kind":"municipality","name":"Ελληνικό","lat":37.892,"lng":23.743,"region":"Νότια Προάστια","name_en":"Elliniko","region_en":"Southern Suburbs"},{"id":"municipalities_4ce899ab5232","slug":"argyroypoli-4ce8","kind":"municipality","name":"Αργυρούπολη","lat":37.905,"lng":23.738,"region":"Νότια Προάστια","name_en":"Argyroupoli","region_en":"Southern Suburbs"},{"id":"municipalities_54bb39e9ab94","slug":"dafni-54bb","kind":"municipality","name":"Δάφνη","lat":37.95,"lng":23.732,"aliases":["Dafni","Daphni","Δαφνη","Daphne"],"region":"Νότια Προάστια","name_en":"Dafni","region_en":"Southern Suburbs"},{"id":"municipalities_79c2791cab2a","slug":"vari-79c2","kind":"municipality","name":"Βάρη","lat":37.8333,"lng":23.7917,"region":"Νότια Προάστια","name_en":"Vari","region_en":"Southern Suburbs"},{"id":"municipalities_9a7f68490e58","slug":"vyronas-9a7f","kind":"municipality","name":"Βύρωνας","lat":37.9667,"lng":23.7667,"aliases":["Vyronas","Vyrona","Βυρωνας","Vironas","Byron"],"region":"Νότια Προάστια","name_en":"Vyronas","region_en":"Southern Suburbs"},{"id":"municipalities_9c070c898016","slug":"ilioypoli-9c07","kind":"municipality","name":"Ηλιούπολη","lat":37.9303,"lng":23.7506,"aliases":["Ilioupoli","Heliopoli","Ηλιουπολη","Ηλιουπολις","Heliopolis"],"region":"Νότια Προάστια","name_en":"Ilioupoli","region_en":"Southern Suburbs"},{"id":"municipalities_a5772562f784","slug":"voyla-a577","kind":"municipality","name":"Βούλα","lat":37.8427,"lng":23.7763,"aliases":["Voula","Voyla","Βουλα"],"region":"Νότια Προάστια","name_en":"Voula","region_en":"Southern Suburbs"},{"id":"municipalities_ddfd3c80db9c","slug":"kallithea-ddfd","kind":"municipality","name":"Καλλιθέα","lat":37.9503,"lng":23.6985,"aliases":["Kallithea","Kalithea","Καλλιθεα"],"region":"Νότια Προάστια","name_en":"Kallithea","region_en":"Southern Suburbs"},{"id":"municipalities_e380923f57a8","slug":"alimos-e380","kind":"municipality","name":"Άλιμος","lat":37.9105,"lng":23.7239,"region":"Νότια Προάστια","name_en":"Alimos","region_en":"Southern Suburbs"},{"id":"municipalities_e38c35bbed55","slug":"voyliagmeni-e38c","kind":"municipality","name":"Βουλιαγμένη","lat":37.8095,"lng":23.7821,"region":"Νότια Προάστια","name_en":"Vouliagmeni","region_en":"Southern Suburbs"}],"mentionedGuides":[],"canonicalSlug":"palaio-faliro-89aa","isCanonicalEntity":true,"enrichment":{"summary_en":"Παλαιό Φάληρο is a curated neighborhood area in Νότια Προάστια. It is connected to 15 nearby Googlementor picks to help travelers build a stronger local route.","summary_el":"Παλαιό Φάληρο είναι ένα επιλεγμένο σημείο ενδιαφέροντος στην περιοχή Νότια Προάστια. Συνδέεται με 15 κοντινές προτάσεις του Googlementor για πιο ολοκληρωμένη εμπειρία.","vibe_tags":["local-neighborhood","base-for-exploring"],"best_for":["first-time visitors","walk-and-explore days","return visitors"],"visit_moments":["late morning walks","sunset exploration"],"practical_note":"15 curated places are within walkable distance from this area center.","nearby_walkable_count":15,"nearby_count_2km":51,"confidence":0.6}},"__N_SSG":true}