{"pageProps":{"entity":{"id":"familyFriendly_ad68bde06d5c","slug":"replayce-ad68","kind":"restaurant","name":"Replayce","lat":38.04114619526046,"lng":23.788356717778257,"url":"https://maps.app.goo.gl/ByfaE3CKqvW9hrLv6?g_st=ipc","address":"OAKA Gate Z, Αμαρυσίας Αρτέμιδος, Μαρούσι 151 22","categoryIds":["family-friendly"],"categories":["Kid Friendly Locations"]},"sameCategory":[{"id":"familyFriendly_20cf4ac4b119","slug":"freeline-athens-inline-skating-school-20cf","kind":"restaurant","name":"Freeline - Athens Inline Skating School","lat":38.04178979504894,"lng":23.783943829723313,"url":"https://maps.app.goo.gl/eikiyDUe7JH1ESeMA?g_st=ipc","address":"Μαρούσι 151 23","categoryIds":["family-friendly"],"categories":["Kid Friendly Locations"]},{"id":"familyFriendly_ca1b21e5d960","slug":"planet-physics-ca1b","kind":"restaurant","name":"Planet Physics","lat":38.03717219186782,"lng":23.78478282955737,"url":"https://maps.app.goo.gl/zXVMtXNDFGQx4jhn7?g_st=ipc","address":"Located in: Olympic Indoor Hall Nikos Galis, Leof. Olimpionikou Spirou Loui, Marousi 151 23","categoryIds":["family-friendly"],"categories":["Kid Friendly Locations"]},{"id":"familyFriendly_714cd57583c7","slug":"xplore-714c","kind":"restaurant","name":"XPLORE","lat":38.034636437257035,"lng":23.79103363842638,"url":"https://maps.app.goo.gl/TKKhEa5LN1Dy53v36?g_st=ipc","address":"Λεωφ. Κηφισίας 37Α, Μαρούσι 151 23","categoryIds":["family-friendly"],"categories":["Kid Friendly Locations"]},{"id":"familyFriendly_bdbc58481ced","slug":"enydreio-xplore-oceans-bdbc","kind":"restaurant","name":"Ενυδρείο XPLORE Oceans","lat":38.03457407087024,"lng":23.791982125171685,"url":"https://maps.app.goo.gl/qibAD4W4gNvVSf698?g_st=ipc","address":"Αγησιλάου, Μαρούσι 151 23","categoryIds":["family-friendly"],"categories":["Kid Friendly Locations"]},{"id":"familyFriendly_cd77fb44ab16","slug":"parko-makedonias-cd77","kind":"restaurant","name":"Πάρκο Μακεδονίας","lat":38.028321368571035,"lng":23.775138311849886,"url":"https://maps.app.goo.gl/XSK7TXJhDYgZz5qh7?g_st=ic","address":"Μακεδονίας, Louki Akrita &, Filothei 152 37","categoryIds":["family-friendly"],"categories":["Kid Friendly Locations"]},{"id":"familyFriendly_a0024b80ee95","slug":"block-games-a002","kind":"restaurant","name":"Block Games","lat":38.05634420757886,"lng":23.803830698656842,"url":"https://maps.app.goo.gl/KumHXE484XwJxn489?g_st=ipc","address":"Περικλέους 1, Μαρούσι 151 22","categoryIds":["family-friendly"],"categories":["Kid Friendly Locations"]},{"id":"familyFriendly_afe86b0c0ea7","slug":"game-project-afe8","kind":"restaurant","name":"GAME Project","lat":38.057383703991036,"lng":23.772780317559956,"url":"https://maps.app.goo.gl/XsjBK4zMnNMj3Syf6?g_st=ipc","address":"204, ELeftheriou Venizelou Str N, Αθήνα 141 22","categoryIds":["family-friendly"],"categories":["Kid Friendly Locations"]},{"id":"familyFriendly_973af7ec79c4","slug":"alsos-veikoy-973a","kind":"restaurant","name":"Άλσος Βεΐκου","lat":38.02808730194628,"lng":23.7654289848257,"url":"https://maps.app.goo.gl/ot5mvzRcDDXoA46w8?g_st=ipc","address":"Λεωφόρος Βεΐκου, Αναγεννήσεως &, Γαλάτσι 111 46","categoryIds":["family-friendly"],"categories":["Kid Friendly Locations"]},{"id":"familyFriendly_8c5536516bb1","slug":"theatraki-8c55","kind":"restaurant","name":"Theatraki","lat":38.02225032968998,"lng":23.814351171164784,"url":"https://maps.app.goo.gl/jauuVyHDGdr1MR746?g_st=ic","address":"Iraklidon 31, Chalandri 152 34","categoryIds":["family-friendly"],"categories":["Kid Friendly Locations"]},{"id":"familyFriendly_d45bb5296460","slug":"maroussi-tennis-club-d45b","kind":"restaurant","name":"Maroussi Tennis Club","lat":38.04651986209008,"lng":23.825630520397997,"url":"https://maps.app.goo.gl/pF3h6gGnqMiku8Wg9?g_st=ic","address":"Sismanogliou 74, Marousi 151 26","categoryIds":["family-friendly"],"categories":["Kid Friendly Locations"]},{"id":"familyFriendly_814843d50658","slug":"k9-arena-8148","kind":"restaurant","name":"K9 Arena","lat":38.07105818937244,"lng":23.783776935008227,"url":"https://maps.app.goo.gl/x9xASynDZReucwX5A?g_st=ipc","address":"Χαλκίδος 15, Λυκόβρυση 141 23","categoryIds":["family-friendly"],"categories":["Kid Friendly Locations"]},{"id":"familyFriendly_006b710ec86a","slug":"ktima-aristi-006b","kind":"restaurant","name":"ΚΤΗΜΑ ΑΡΙΣΤΗ","lat":38.01987728596246,"lng":23.81566062458868,"url":"https://maps.app.goo.gl/82avq8dPqN3VZq7W7?g_st=ipc","address":"Πλουτάρχου 10, Χαλάνδρι 152 34","categoryIds":["family-friendly"],"categories":["Kid Friendly Locations"]}],"nearby":[{"id":"familyFriendly_20cf4ac4b119","slug":"freeline-athens-inline-skating-school-20cf","kind":"restaurant","name":"Freeline - Athens Inline Skating School","lat":38.04178979504894,"lng":23.783943829723313,"url":"https://maps.app.goo.gl/eikiyDUe7JH1ESeMA?g_st=ipc","address":"Μαρούσι 151 23","categoryIds":["family-friendly"],"categories":["Kid Friendly Locations"],"distanceKm":0.3930213919097267},{"id":"dessertsRestaurants_01f94a155dc7","slug":"cinnabon-01f9","kind":"restaurant","name":"Cinnabon","lat":38.04451091204427,"lng":23.790126921989934,"url":"https://maps.app.goo.gl/vor1PCh85rY2x8xr5?g_st=ipc","address":"Andrea Papandreou 35 Loc. 215, 2nd floor, The Mall Athens, Μαρούσι 151 22","categoryIds":["desserts"],"categories":["Dessert Shops"],"distanceKm":0.4049832083629426},{"id":"mexicanRestaurants_e68c0563bcc0","slug":"ancho-mexican-grill-e68c","kind":"restaurant","name":"Ancho Mexican Grill","lat":38.04461245221765,"lng":23.790240662976885,"url":"https://maps.app.goo.gl/VDFRPLTGKi6Cxw6b9?g_st=ipc","address":"Ανδρέα Παπανδρέου 35, Μαρούσι 151 22","categoryIds":["mexican"],"categories":["Mexican Restaurants"],"distanceKm":0.4192550828596291},{"id":"familyFriendly_ca1b21e5d960","slug":"planet-physics-ca1b","kind":"restaurant","name":"Planet Physics","lat":38.03717219186782,"lng":23.78478282955737,"url":"https://maps.app.goo.gl/zXVMtXNDFGQx4jhn7?g_st=ipc","address":"Located in: Olympic Indoor Hall Nikos Galis, Leof. Olimpionikou Spirou Loui, Marousi 151 23","categoryIds":["family-friendly"],"categories":["Kid Friendly Locations"],"distanceKm":0.5415040502927546},{"id":"mustSeeAttractions_54efa8dcf204","slug":"olympiako-stadio-athinon-54ef","kind":"restaurant","name":"Ολυμπιακό Στάδιο Αθηνών","lat":38.035910568153284,"lng":23.786973025948996,"url":"https://maps.app.goo.gl/8fas6bpPgSs2neZj8?g_st=ipc","address":"Λεωφ. Ολυμπιονίκου Σπύρου Λούη 1, Μαρούσι 151 23","categoryIds":["attractions"],"categories":["Must-See Attractions"],"distanceKm":0.5946531219295277},{"id":"familyFriendly_714cd57583c7","slug":"xplore-714c","kind":"restaurant","name":"XPLORE","lat":38.034636437257035,"lng":23.79103363842638,"url":"https://maps.app.goo.gl/TKKhEa5LN1Dy53v36?g_st=ipc","address":"Λεωφ. Κηφισίας 37Α, Μαρούσι 151 23","categoryIds":["family-friendly"],"categories":["Kid Friendly Locations"],"distanceKm":0.7608698974549947},{"id":"familyFriendly_bdbc58481ced","slug":"enydreio-xplore-oceans-bdbc","kind":"restaurant","name":"Ενυδρείο XPLORE Oceans","lat":38.03457407087024,"lng":23.791982125171685,"url":"https://maps.app.goo.gl/qibAD4W4gNvVSf698?g_st=ipc","address":"Αγησιλάου, Μαρούσι 151 23","categoryIds":["family-friendly"],"categories":["Kid Friendly Locations"],"distanceKm":0.7967800444271128},{"id":"asianRestaurants_302bc43e3be3","slug":"wagamama-golden-hall-302b","kind":"restaurant","name":"Wagamama Golden Hall","lat":38.03406369279884,"lng":23.792244943430262,"url":"https://maps.app.goo.gl/A7uShDTP3yFcChSd7?g_st=ipc","address":"Λεωφ. Κηφισίας, Μαρούσι 151 23","categoryIds":["asian"],"categories":["Asian Restaurants"],"distanceKm":0.8580047595069339},{"id":"greekRestaurants_96a815ab2fda","slug":"spitjack-golden-hall-96a8","kind":"restaurant","name":"Spitjack Golden Hall","lat":38.034373053538495,"lng":23.793186418589283,"url":"https://maps.app.goo.gl/MjaG7qgQXBbLTT8n7","address":"Λεωφ. Κηφισίας 37A, Μαρούσι 151 23","categoryIds":["greek-restaurants"],"categories":["Greek Restaurants"],"distanceKm":0.8637854338248789},{"id":"cheapEatsRestaurants_28c94df5ce5f","slug":"krepilateion-28c9","kind":"restaurant","name":"ΚΡΕΠΗΛΑΤΕΙΟΝ","lat":38.037837677741585,"lng":23.799467140725334,"url":"https://maps.app.goo.gl/CSqgCp2SZrPwcWdC6?g_st=ipc","address":"Λεωφ. Κηφισίας 59, Μαρούσι 151 25","categoryIds":["cheap-eats"],"categories":["Gyros & Cheap Eats"],"distanceKm":1.0402287885335082},{"id":"burgersRestaurants_11e6ae00efca","slug":"melt-burgers-11e6","kind":"restaurant","name":"Melt Burgers","lat":38.037895872437886,"lng":23.799602975307902,"url":"https://maps.app.goo.gl/17z1ma6NXSDvgsM2A?g_st=ipc","address":"Λεωφ. Κηφισίας 59, Μαρούσι 151 24","categoryIds":["burgers"],"categories":["Burger Spots"],"distanceKm":1.0491170572839148},{"id":"burgersRestaurants_23f9084c3497","slug":"jazz-burger-bar-neo-irakleio-23f9","kind":"restaurant","name":"Jazz Burger Bar Νέο Ηρακλειο","lat":38.04095396558123,"lng":23.776308567252247,"url":"https://maps.app.goo.gl/K4k635ezwzDGdDJB9?g_st=ic","address":"Marinou Antipa 59, Iraklio 141 21","categoryIds":["burgers"],"categories":["Burger Spots"],"distanceKm":1.0553179459396032},{"id":"burgersRestaurants_5f190c7a3636","slug":"jazz-burger-bar-neo-irakleio-5f19","kind":"restaurant","name":"Jazz Burger Bar Νέο Ηρακλειο","lat":38.04095577978939,"lng":23.776308324847815,"url":"https://maps.app.goo.gl/hv2UknNHtTHVpeFG6?g_st=ipc","address":"Μαρίνου Αντύπα 59, Ηράκλειο 141 21","categoryIds":["burgers"],"categories":["Burger Spots"],"distanceKm":1.0553350901712157},{"id":"greekRestaurants_1ff9a64c2696","slug":"kempaptzidikon-mparmpalias-maroysi-1ff9","kind":"restaurant","name":"Κεμπαπτζιδικον Μπαρμπαλιάς Μαρούσι","lat":38.05149931311812,"lng":23.790028540438847,"url":"https://maps.app.goo.gl/NL3SuAhkVPXxocnF9","address":"Βύρωνος 19, Μαρούσι 151 22","categoryIds":["greek-restaurants"],"categories":["Greek Restaurants"],"distanceKm":1.1604853423870245},{"id":"fishTavernasRestaurants_2930f14bae6f","slug":"psariston-2930","kind":"restaurant","name":"Ψάριστον","lat":38.05007046502227,"lng":23.781403693268317,"url":"https://maps.app.goo.gl/4KPzMCG1HKq5Gpdw6?g_st=ipc","address":"Καλαβρύτων 16, Ηράκλειο 141 21, 141 21","categoryIds":["fish-tavernas"],"categories":["Fish Tavernas"],"distanceKm":1.1642343568459808},{"id":"cheapEatsRestaurants_f3077615404b","slug":"kantina-o-alekos-f307","kind":"restaurant","name":"Καντίνα \"ο Αλεκος\"","lat":38.04208740467577,"lng":23.77486464859004,"url":"https://maps.app.goo.gl/4oCtgVQEesHACQsu8?g_st=ipc","address":"Μαρίνου Αντύπα 47, Ηράκλειο 141 21","categoryIds":["cheap-eats"],"categories":["Gyros & Cheap Eats"],"distanceKm":1.1861677390275394},{"id":"coffeeBrunchRestaurants_b9882b026b76","slug":"montakioy-maroysi-b988","kind":"restaurant","name":"ΜΟΝΤΑΚΙΟΥ ΜΑΡΟΥΣΙ","lat":38.03797108447277,"lng":23.80161359245891,"url":"https://maps.app.goo.gl/P3WZt5PaHNoTambf6?g_st=ipc","address":"Ρωμανού Μελωδού 1, Μαρούσι 151 25","categoryIds":["coffee-brunch"],"categories":["Coffee & Brunch Spots"],"distanceKm":1.2134733725199385},{"id":"dessertsRestaurants_8ce39ac32801","slug":"cinnabon-halandri-8ce3","kind":"restaurant","name":"Cinnabon Halandri","lat":38.0300758962987,"lng":23.793141060079883,"url":"https://maps.app.goo.gl/n8CZv8iLgAB4Xf2E9?g_st=ipc","address":"Μαραθώνος 4, Χαλάνδρι 152 33","categoryIds":["desserts"],"categories":["Dessert Shops"],"distanceKm":1.3003221729400039},{"id":"coffeeBrunchRestaurants_15371932080b","slug":"willow-cafe-chalandri-1537","kind":"restaurant","name":"Willow Cafe Χαλάνδρι","lat":38.03103124415517,"lng":23.796167188145933,"url":"https://maps.app.goo.gl/KjpKvzNXdWoxzDFA7?g_st=ipc","address":"Ριζαρείου 9, Χαλάνδρι 152 33","categoryIds":["coffee-brunch"],"categories":["Coffee & Brunch Spots"],"distanceKm":1.3164075474924355},{"id":"luxuryDiningRestaurants_bbebf7e68168","slug":"moo-casa-steak-lobster-bbeb","kind":"restaurant","name":"MOO CASA steak & lobster","lat":38.04344953562119,"lng":23.772025529553066,"url":"https://maps.app.goo.gl/HwBgLRsMdgFuqNJTA?g_st=ipc","address":"Marinou Antipa 66, Iraklio 141 21","categoryIds":["luxury-dining"],"categories":["Luxury Dining"],"distanceKm":1.4529112581315355},{"id":"vegetarianRestaurants_d059c20a8f7f","slug":"eyripidis-d059","kind":"restaurant","name":"Ευριπίδης","lat":38.0306192216948,"lng":23.77843102660416,"url":"https://maps.app.goo.gl/645ivXdiBXiq5evG9?g_st=ipc","address":"Λεωφ. Καποδιστρίου 78, Φιλοθέη 142 35","categoryIds":["vegetarian"],"categories":["Vegetarian Friendly Restaurants"],"distanceKm":1.4580278096642538},{"id":"dessertsRestaurants_8a66394cff02","slug":"andrias-8a66","kind":"restaurant","name":"Ανδριάς","lat":38.031915217615015,"lng":23.776449986064225,"url":"https://maps.app.goo.gl/UyXFW37fEx8CzcR76?g_st=ipc","address":"Λεωφ. Καποδιστρίου 92, Νέα Ιωνία 142 35","categoryIds":["desserts"],"categories":["Dessert Shops"],"distanceKm":1.4632045026075569},{"id":"luxuryDiningRestaurants_8a047703e0fb","slug":"afropsaro-8a04","kind":"restaurant","name":"Αφρόψαρο","lat":38.04349613246651,"lng":23.771888846159882,"url":"https://maps.app.goo.gl/g7jbxhgYDYFvpnKX6?g_st=ipc","address":"Μαρίνου Αντύπα 62-66, Ηράκλειο 141 21","categoryIds":["luxury-dining"],"categories":["Luxury Dining"],"distanceKm":1.4656094494423093},{"id":"cheapEatsRestaurants_5f9d5dd343a6","slug":"ypoyrgeio-geyseon-soyvlaki-psita-5f9d","kind":"restaurant","name":"ΥΠΟΥΡΓΕΙΟ ΓΕΥΣΕΩΝ-Σουβλάκι,Ψητά","lat":38.04303394507047,"lng":23.771779772357615,"url":"https://maps.app.goo.gl/LCrvDRPpRco2nVuF9?g_st=ipc","address":"Φιλοθέης 67, Ηράκλειο 141 21","categoryIds":["cheap-eats","greek-restaurants"],"categories":["Gyros & Cheap Eats","Greek Restaurants"],"legacySlugs":["ypoyrgeio-geyseon-soyvlaki-psita-5023"],"distanceKm":1.4667817559344982}],"sameRegion":[],"mentionedGuides":[],"canonicalSlug":"replayce-ad68","isCanonicalEntity":true,"enrichment":{"summary_en":"Replayce is a curated restaurant in Μαρούσι 151 22 in the Kid Friendly Locations collection. It is connected to 7 nearby Googlementor picks to help travelers build a stronger local route.","summary_el":"Replayce είναι ένα επιλεγμένο σημείο φαγητού στην περιοχή Μαρούσι 151 22 και ανήκει στη συλλογή Kid Friendly Locations. Συνδέεται με 7 κοντινές προτάσεις του Googlementor για πιο ολοκληρωμένη εμπειρία.","vibe_tags":["curated","family-ready"],"best_for":["first-time visitors","food lovers","families"],"visit_moments":["lunch stop","dinner stop"],"practical_note":"Address and direct map link are available for easy turn-by-turn access.","nearby_walkable_count":7,"nearby_count_2km":40,"confidence":0.98}},"__N_SSG":true}