{"pageProps":{"entity":{"id":"coffeeBrunchRestaurants_0e2616bd7fc7","slug":"saloon-park-0e26","kind":"restaurant","name":"Saloon Park","lat":38.90092398449493,"lng":21.77279442117925,"url":"https://maps.app.goo.gl/ou4ZLrrH5JymyBSH7?g_st=ipc","address":"3ο χιλ Καρπενησίου Προυσσου, Karpenisi 361 00","categoryIds":["coffee-brunch","family-friendly"],"categories":["Coffee & Brunch Spots","Kid Friendly Locations"],"legacySlugs":["saloon-park-ea50"]},"sameCategory":[{"id":"coffeeBrunchRestaurants_273a7e7d2a9d","slug":"piu-verde-273a","kind":"restaurant","name":"Piu Verde","lat":37.993592134048,"lng":23.792630644928746,"url":"https://maps.app.goo.gl/uttCEc9rHvmfUF3c7?g_st=ipc","address":"Στρατ, Αλ. Παπάγου, Παπάγου 156 69","categoryIds":["coffee-brunch","family-friendly"],"categories":["Coffee & Brunch Spots","Kid Friendly Locations"],"legacySlugs":["piu-verde-840f"]},{"id":"coffeeBrunchRestaurants_f3a3be0d750a","slug":"alsos-cholargou-alsos-cholargoy-f3a3","kind":"restaurant","name":"Alsos Cholargou / Άλσος Χολαργού","lat":37.99731205193856,"lng":23.801346586633024,"url":"https://maps.app.goo.gl/9NgrgwXAtnAhzyQM7?g_st=ipc","address":"Ευριπίδου 1, Χολαργός 155 62","categoryIds":["coffee-brunch","family-friendly"],"categories":["Coffee & Brunch Spots","Kid Friendly Locations"],"legacySlugs":["alsos-cholargou-alsos-cholargoy-af91"]},{"id":"coffeeBrunchRestaurants_3849ba172973","slug":"ergon-agora-east-3849","kind":"restaurant","name":"ERGON Agora (East)","lat":40.55876847950934,"lng":22.976949760424034,"url":"https://maps.app.goo.gl/um7bZpan68i3iqsx7?g_st=ipc","address":"Leof. Georgikis Scholis 50, Pilea Chortiatis 555 35","categoryIds":["coffee-brunch","family-friendly"],"categories":["Coffee & Brunch Spots","Kid Friendly Locations"],"legacySlugs":["ergon-agora-east-02cb"]},{"id":"coffeeBrunchRestaurants_1257c9be30ac","slug":"villaggio-cafe-meze-1257","kind":"restaurant","name":"Villaggio café - mezé","lat":38.903233129898815,"lng":21.759044154104334,"url":"https://maps.app.goo.gl/TYafQiUuDWknuAyTA?g_st=ipc","address":"ΚΟΡΥΣΧΑΔΕΣ 1, Karpenisi 361 00","categoryIds":["coffee-brunch"],"categories":["Coffee & Brunch Spots"]},{"id":"coffeeBrunchRestaurants_7763ea7d7b5d","slug":"the-paradosiakon-traditional-7763","kind":"restaurant","name":"The Paradosiakón (Traditional)","lat":38.912425769319995,"lng":21.803412059232368,"url":"https://maps.app.goo.gl/ZSCvQWpooUkkCF4K7?g_st=ipc","address":"Eolou 1, Karpenisi 361 00","categoryIds":["coffee-brunch"],"categories":["Coffee & Brunch Spots"]},{"id":"coffeeBrunchRestaurants_5fe3af39ab2b","slug":"825-eat-and-coffee-karpenissi-5fe3","kind":"restaurant","name":"825 eat and coffee Karpenissi","lat":38.879552565898926,"lng":21.74418375846026,"url":"https://maps.app.goo.gl/RS2SUMtbtY8WCrnF9?g_st=ipc","address":"Voutyro 361 00","categoryIds":["coffee-brunch"],"categories":["Coffee & Brunch Spots"]},{"id":"coffeeBrunchRestaurants_4e2dd1d22431","slug":"to-kafe-tis-charas-4e2d","kind":"restaurant","name":"Το καφέ της Χαράς","lat":38.86839469803581,"lng":21.760838169390635,"url":"https://maps.app.goo.gl/rmkYbTkw4mzL6Ws7A?g_st=ipc","address":"Κλαυσί 361 00","categoryIds":["coffee-brunch"],"categories":["Coffee & Brunch Spots"]},{"id":"familyFriendly_c02221112b03","slug":"keramario-paradosiaki-taverna-kai-xenones-c022","kind":"restaurant","name":"Κεραμαριό Παραδοσιακή Ταβέρνα και Ξενώνες","lat":39.40971777314896,"lng":21.605805073179642,"url":"https://maps.app.goo.gl/39GhkgeydgX7Y7Z5A?g_st=ipc","address":"Συνοικισμός Κεραμαριό, Δρακότρυπα, Mouzaki 430 60","categoryIds":["family-friendly"],"categories":["Kid Friendly Locations"]},{"id":"familyFriendly_adaa2f8a1e5a","slug":"vagonetto-adaa","kind":"restaurant","name":"Vagonetto","lat":38.63219190812368,"lng":22.37159554223315,"url":"https://maps.app.goo.gl/FxXNY1FFj7tEZcaq9?g_st=ipc","address":"51 km National Road Lamia-Amfissa, Amfissa 331 00","categoryIds":["family-friendly"],"categories":["Kid Friendly Locations"]},{"id":"coffeeBrunchRestaurants_8e8ab9c3ae16","slug":"alatiera-8e8a","kind":"restaurant","name":"Alatiera","lat":38.36054133352401,"lng":21.42496004301919,"url":"https://maps.app.goo.gl/CmTSEDR1jZPW7D6x6?g_st=ipc","address":"Epar.Od. Mesologgiou - Alikon Tourlidas 27, Missolonghi 302 00","categoryIds":["coffee-brunch"],"categories":["Coffee & Brunch Spots"]},{"id":"familyFriendly_f9db02b0c4d4","slug":"saint-george-athletic-park-f9db","kind":"restaurant","name":"Saint George Athletic Park","lat":39.54375380003077,"lng":21.786690732349854,"url":"https://maps.app.goo.gl/pwB8sxfXU5yLbEHY9?g_st=ipc","address":"Trikala 421 00","categoryIds":["family-friendly"],"categories":["Kid Friendly Locations"]},{"id":"familyFriendly_a4d875b2fad3","slug":"the-mill-of-the-elves-a4d8","kind":"restaurant","name":"The Mill of the Elves","lat":39.5462653378013,"lng":21.758814753478795,"url":"https://maps.app.goo.gl/HiNCRKX6yM5iQQuv6?g_st=ipc","address":"Πάρκο Ματσόπουλου, Trikala 421 00","categoryIds":["family-friendly"],"categories":["Kid Friendly Locations"]}],"nearby":[{"id":"italianRestaurants_cdb970122a35","slug":"kasmir-cdb9","kind":"restaurant","name":"Kasmir","lat":38.900597180204656,"lng":21.771398412012726,"url":"https://maps.app.goo.gl/tGER5rSkLzH68JTw8?g_st=ipc","address":"Mesabelia, Korischades 361 00","categoryIds":["italian"],"categories":["Italian Restaurants"],"distanceKm":0.12615189790114825},{"id":"greekRestaurants_00acd58871fd","slug":"parko-kefalovryso-00ac","kind":"restaurant","name":"Πάρκο Κεφαλόβρυσο","lat":38.89684310507032,"lng":21.782192032592697,"url":"https://maps.app.goo.gl/UMhtP2NgQ48sj1Ey8?g_st=ipc","address":"2ο χλμ. Καρπενησίου-Προυσού, Καρπενήσι 361 00","categoryIds":["greek-restaurants"],"categories":["Greek Restaurants"],"distanceKm":0.9312825322810956},{"id":"coffeeBrunchRestaurants_1257c9be30ac","slug":"villaggio-cafe-meze-1257","kind":"restaurant","name":"Villaggio café - mezé","lat":38.903233129898815,"lng":21.759044154104334,"url":"https://maps.app.goo.gl/TYafQiUuDWknuAyTA?g_st=ipc","address":"ΚΟΡΥΣΧΑΔΕΣ 1, Karpenisi 361 00","categoryIds":["coffee-brunch"],"categories":["Coffee & Brunch Spots"],"distanceKm":1.2172566243800553},{"id":"municipalities_1d4b51456d77","slug":"karpenisi-1d4b","kind":"municipality","name":"Καρπενήσι","lat":38.9167,"lng":21.7833,"region":"Στερεά Ελλάδα","name_en":"Karpenisi","region_en":"Central Greece","distanceKm":1.9757411926069093},{"id":"municipalities_d6c7bd09305e","slug":"karpenisi-d6c7","kind":"municipality","name":"Καρπενήσι","lat":38.912,"lng":21.797,"region":"Ορεινοί Προορισμοί","name_en":"Karpenisi","region_en":"Mountain Destinations","distanceKm":2.4297483476427852},{"id":"dessertsRestaurants_29d96cbe3da8","slug":"glykoplasteio-29d9","kind":"restaurant","name":"Glykoplasteío","lat":38.91264896054346,"lng":21.80246572954374,"url":"https://maps.app.goo.gl/c3y6StatonhrUYj26?g_st=ipc","address":"1ο χιλιόμετρο Εθνικής Οδού Καρπενησίου Λαμίας, Καρπενήσι, Karpenisi 361 00","categoryIds":["desserts"],"categories":["Dessert Shops"],"distanceKm":2.879476627551248},{"id":"coffeeBrunchRestaurants_7763ea7d7b5d","slug":"the-paradosiakon-traditional-7763","kind":"restaurant","name":"The Paradosiakón (Traditional)","lat":38.912425769319995,"lng":21.803412059232368,"url":"https://maps.app.goo.gl/ZSCvQWpooUkkCF4K7?g_st=ipc","address":"Eolou 1, Karpenisi 361 00","categoryIds":["coffee-brunch"],"categories":["Coffee & Brunch Spots"],"distanceKm":2.9418494179760915},{"id":"greekRestaurants_eba980ff28b5","slug":"taverna-psistaria-freideriki-eba9","kind":"restaurant","name":"Ταβέρνα Ψησταριά Φρειδερίκη","lat":38.87285394230774,"lng":21.75976720346808,"url":"https://maps.app.goo.gl/DUv6ASUURdJKUqvX9?g_st=ipc","address":"Κλαυσί 361 00","categoryIds":["greek-restaurants"],"categories":["Greek Restaurants"],"distanceKm":3.318663236953651},{"id":"greekRestaurants_5c3142c7d0fe","slug":"i-taverna-tis-kyra-zois-5c31","kind":"restaurant","name":"Η ταβέρνα της κυρά Ζωής","lat":38.9091706754785,"lng":21.810542639127807,"url":"https://maps.app.goo.gl/zkHGuBDnpHGCsSvs7?g_st=ipc","address":"ΑΡΧΙΜΑΝΔΡΙΤΟΥ ΠΑΠΑΝΙΚΟΛΑΟΥ 1, Καρπενήσι 361 00","categoryIds":["greek-restaurants"],"categories":["Greek Restaurants"],"distanceKm":3.392649029462968},{"id":"coffeeBrunchRestaurants_5fe3af39ab2b","slug":"825-eat-and-coffee-karpenissi-5fe3","kind":"restaurant","name":"825 eat and coffee Karpenissi","lat":38.879552565898926,"lng":21.74418375846026,"url":"https://maps.app.goo.gl/RS2SUMtbtY8WCrnF9?g_st=ipc","address":"Voutyro 361 00","categoryIds":["coffee-brunch"],"categories":["Coffee & Brunch Spots"],"distanceKm":3.43203623390549},{"id":"coffeeBrunchRestaurants_4e2dd1d22431","slug":"to-kafe-tis-charas-4e2d","kind":"restaurant","name":"Το καφέ της Χαράς","lat":38.86839469803581,"lng":21.760838169390635,"url":"https://maps.app.goo.gl/rmkYbTkw4mzL6Ws7A?g_st=ipc","address":"Κλαυσί 361 00","categoryIds":["coffee-brunch"],"categories":["Coffee & Brunch Spots"],"distanceKm":3.762223288697476},{"id":"greekRestaurants_a07698beb6f6","slug":"to-choriatiko-nasiopoylos-a076","kind":"restaurant","name":"Το Χωριάτικο Νασιόπουλος","lat":38.842767533520004,"lng":21.735734322174586,"url":"https://maps.app.goo.gl/r9NwSZEqGNG3NMHz8?g_st=ipc","address":"Νέο Μικρό Χωριό 361 00","categoryIds":["greek-restaurants"],"categories":["Greek Restaurants"],"distanceKm":7.218837443215014},{"id":"greekRestaurants_2db78cb8d961","slug":"chani-panetsoy-tavern-est-1884-2db7","kind":"restaurant","name":"Χάνι Πανέτσου - Tavern est. 1884","lat":38.924405703995355,"lng":21.929530373358407,"url":"https://maps.app.goo.gl/965nvpi16xp3euYk6?g_st=ipc","address":"52 χλμ, ΕΟ Λαμίας Καρπενησίου, Μεσαία Καψή 350 17","categoryIds":["greek-restaurants"],"categories":["Greek Restaurants"],"distanceKm":13.81006863300402}],"sameRegion":[],"mentionedGuides":[],"canonicalSlug":"saloon-park-0e26","isCanonicalEntity":true,"enrichment":{"summary_en":"Saloon Park is a curated restaurant in Karpenisi 361 00 in the Coffee & Brunch Spots collection. It is connected to 1 nearby Googlementor picks to help travelers build a stronger local route.","summary_el":"Saloon Park είναι ένα επιλεγμένο σημείο φαγητού στην περιοχή Karpenisi 361 00 και ανήκει στη συλλογή Coffee & Brunch Spots. Συνδέεται με 1 κοντινές προτάσεις του Googlementor για πιο ολοκληρωμένη εμπειρία.","vibe_tags":["curated","daytime-favorite","family-ready"],"best_for":["first-time visitors","food lovers","families"],"visit_moments":["early morning","late brunch"],"practical_note":"Address and direct map link are available for easy turn-by-turn access.","nearby_walkable_count":1,"nearby_count_2km":4,"confidence":0.9}},"__N_SSG":true}