{"pageProps":{"entity":{"id":"vegetarianRestaurants_c42b13d2db7e","slug":"shedia-home-cafe-restaurant-giftshop-c42b","kind":"restaurant","name":"Shedia Home - Cafe, Restaurant & Giftshop","lat":37.977833037817305,"lng":23.72875153673485,"url":"https://maps.app.goo.gl/9Dfe1mtSN788EyGb7?g_st=ipc","address":"Κολοκοτρώνη 56, Αθήνα 105 60","categoryIds":["vegetarian"],"categories":["Vegetarian Friendly Restaurants"]},"sameCategory":[{"id":"vegetarianRestaurants_5b207cd61024","slug":"av-it-5b20","kind":"restaurant","name":"AV IT","lat":37.976939825548584,"lng":23.728942581826033,"url":"https://maps.app.goo.gl/Kt7esiHQgo5rmoWc7?g_st=ipc","address":"Καλαμιώτου 8, Αθήνα 105 60","categoryIds":["vegetarian"],"categories":["Vegetarian Friendly Restaurants"]},{"id":"cheapEatsRestaurants_0155944d18e6","slug":"feyrouz-athens-0155","kind":"restaurant","name":"Feyrouz_Athens","lat":37.97815189918129,"lng":23.727647148068286,"url":"https://maps.app.goo.gl/vF2fcE6pnayp7atp8?g_st=ipc","address":"Καρόρη 23 και, Αγάθωνος 1, Αθήνα 105 51","categoryIds":["cheap-eats","vegetarian"],"categories":["Gyros & Cheap Eats","Vegetarian Friendly Restaurants"],"legacySlugs":["feyrouz-athens-e417"]},{"id":"vegetarianRestaurants_66f29ff77bdf","slug":"inloveagain-specialty-coffee-66f2","kind":"restaurant","name":"InLoveAgain. Specialty coffee","lat":37.97733209854113,"lng":23.72987682666704,"url":"https://maps.app.goo.gl/GuskwaqjTh2E9fc66?g_st=ipc","address":"Κλειτίου 3, Αθήνα 105 60","categoryIds":["vegetarian"],"categories":["Vegetarian Friendly Restaurants"]},{"id":"coffeeBrunchRestaurants_3bd143dc0b3c","slug":"anana-coffee-food-3bd1","kind":"restaurant","name":"Anana Coffee|Food","lat":37.9790791623964,"lng":23.72939339771832,"url":"https://maps.app.goo.gl/LVwtjjfHm1ZP7KNd9?g_st=ipc","address":"Πραξιτέλους 33, Αθήνα 105 60","categoryIds":["coffee-brunch","vegetarian"],"categories":["Coffee & Brunch Spots","Vegetarian Friendly Restaurants"],"legacySlugs":["anana-coffee-food-aa80"]},{"id":"vegetarianRestaurants_1564131c7925","slug":"vietnam-street-food-1564","kind":"restaurant","name":"VIETNAM STREET FOOD","lat":37.97675287050778,"lng":23.729819366572254,"url":"https://maps.app.goo.gl/WYdqmMy3mDqLNW7e8?g_st=ipc","address":"Περικλέους 56, Αθήνα 105 60","categoryIds":["vegetarian"],"categories":["Vegetarian Friendly Restaurants"]},{"id":"vegetarianRestaurants_b74f212f3c6f","slug":"vegan-beat-athens-b74f","kind":"restaurant","name":"Vegan Beat Athens","lat":37.976741727063335,"lng":23.729824452963804,"url":"https://maps.app.goo.gl/2r2EDKFSvkng4GkF9?g_st=ipc","address":"Περικλέους 56, Αθήνα 105 60","categoryIds":["vegetarian"],"categories":["Vegetarian Friendly Restaurants"]},{"id":"vegetarianRestaurants_7e314f6791f9","slug":"fontana-7e31","kind":"restaurant","name":"Fontana","lat":37.976643434278735,"lng":23.727544640785275,"url":"https://maps.app.goo.gl/AuBtWGWtH3xRZBEV8?g_st=ipc","address":"Αιόλου 17, Αθήνα 105 51","categoryIds":["vegetarian"],"categories":["Vegetarian Friendly Restaurants"]},{"id":"vegetarianRestaurants_dd280fa872e6","slug":"not-just-falafel-vegeterian-food-athens-vegan-friendly-dd28","kind":"restaurant","name":"Not Just Falafel | Vegeterian food Athens | Vegan Friendly","lat":37.97672606756175,"lng":23.730150682547393,"url":"https://maps.app.goo.gl/rugWqM8JRvoZaHPm9?g_st=ipc","address":"Ρόμβης 16, Αθήνα 105 62","categoryIds":["vegetarian"],"categories":["Vegetarian Friendly Restaurants"]},{"id":"vegetarianRestaurants_7a48cadc1cba","slug":"sugar-killer-7a48","kind":"restaurant","name":"Sugar Killer","lat":37.976654957150416,"lng":23.730157941231223,"url":"https://maps.app.goo.gl/326sYhMHWCiSjUJW9?g_st=ipc","address":"Περικλέους 33, Αθήνα 105 63","categoryIds":["vegetarian"],"categories":["Vegetarian Friendly Restaurants"]},{"id":"cheapEatsRestaurants_0f0b8dd68736","slug":"the-doc-s-burger-bar-0f0b","kind":"restaurant","name":"The Doc's Burger Bar","lat":37.97742334199844,"lng":23.725636669246807,"url":"https://maps.app.goo.gl/U7fwr2D5HgEHTzhH6?g_st=ipc","address":"Ανδρέα Μιαούλη 10, Αθήνα 105 54","categoryIds":["cheap-eats","vegetarian"],"categories":["Gyros & Cheap Eats","Vegetarian Friendly Restaurants"],"legacySlugs":["the-doc-s-burger-bar-089d"]},{"id":"vegetarianRestaurants_6103b84128cb","slug":"vegan-tour-athens-6103","kind":"restaurant","name":"Vegan tour Athens","lat":37.97635862482565,"lng":23.725860112285382,"url":"https://maps.app.goo.gl/HNSYbNbjWA38vytK7?g_st=ipc","address":"Πλ. Μοναστηρακίου, Αθήνα 105 55","categoryIds":["vegetarian"],"categories":["Vegetarian Friendly Restaurants"]},{"id":"dessertsRestaurants_ae317ae9a63f","slug":"plan-e-t-ice-cream-ae31","kind":"restaurant","name":"Plan(e)t Ice Cream","lat":37.9768796209685,"lng":23.725383311814642,"url":"https://maps.app.goo.gl/zzypW34gBH83e5G99?g_st=ipc","address":"Ερμού 86, Αθήνα 105 54","categoryIds":["desserts","vegetarian"],"categories":["Dessert Shops","Vegetarian Friendly Restaurants"],"legacySlugs":["plan-e-t-ice-cream-bddb"]}],"nearby":[{"id":"greekRestaurants_193dd3b500da","slug":"to-paradosiako-193d","kind":"restaurant","name":"Το Παραδοσιακό","lat":37.977707115390295,"lng":23.728787167486587,"url":"https://maps.app.goo.gl/NeJoupJj8mkFs1fXA","address":"Κολοκοτρώνη 59, Αθήνα 105 60","categoryIds":["greek-restaurants"],"categories":["Greek Restaurants"],"distanceKm":0.014345988658299984},{"id":"asianRestaurants_54f96c10eabf","slug":"shisan-sushi-bar-54f9","kind":"restaurant","name":"Shisan Sushi Bar","lat":37.97750088660989,"lng":23.729162812696888,"url":"https://maps.app.goo.gl/EXv9MbMpLAGJ5z8p9?g_st=ipc","address":"Καλαμιώτου 25, Αθήνα 106 81","categoryIds":["asian"],"categories":["Asian Restaurants"],"distanceKm":0.051609618254222306},{"id":"dessertsRestaurants_0b6ae51a593c","slug":"koykoyvagia-0b6a","kind":"restaurant","name":"Κουκουβάγια","lat":37.97736767389115,"lng":23.728413094267065,"url":"https://maps.app.goo.gl/CMZY3dTRrJ7tTadz6?g_st=ipc","address":"Σκουζέ 1, Αθήνα 105 60","categoryIds":["desserts"],"categories":["Dessert Shops"],"distanceKm":0.05964589028524052},{"id":"coffeeBrunchRestaurants_89fa6586b876","slug":"naked-athens-89fa","kind":"restaurant","name":"Naked Athens","lat":37.977383627962844,"lng":23.728247966730684,"url":"https://maps.app.goo.gl/hTG8NPLsUHzhqPFg6?g_st=ipc","address":"Πλ. Αγίας Ειρήνης 2, Αθήνα 105 60","categoryIds":["coffee-brunch"],"categories":["Coffee & Brunch Spots"],"distanceKm":0.06667342292667879},{"id":"cheapEatsRestaurants_5f988e7e01fc","slug":"food-str-5f98","kind":"restaurant","name":"Food Str","lat":37.977285336004456,"lng":23.72911901973204,"url":"https://maps.app.goo.gl/tiAdgVLPy9vMcbLd6?g_st=ipc","address":"Καλαμιώτου 14, Αθήνα 105 60","categoryIds":["cheap-eats"],"categories":["Gyros & Cheap Eats"],"distanceKm":0.06889470113107192},{"id":"cheapEatsRestaurants_73b2f6130df6","slug":"groovy-ham-73b2","kind":"restaurant","name":"Groovy Ham","lat":37.978434992498535,"lng":23.728303604469694,"url":"https://maps.app.goo.gl/bFq352ScX4ijnYoH8?g_st=ipc","address":"Μιλτιάδου 22, Αθήνα 105 60","categoryIds":["cheap-eats"],"categories":["Gyros & Cheap Eats"],"distanceKm":0.07759903419097304},{"id":"cheapEatsRestaurants_86cc4f5a9e30","slug":"kosta-souvlaki-86cc","kind":"restaurant","name":"Kosta Souvlaki","lat":37.97741645492704,"lng":23.72799295408667,"url":"https://maps.app.goo.gl/Hxj6uVgcEgiQuTDv8?g_st=ipc","address":"Πλ. Αγίας Ειρήνης 2, Αθήνα 105 60","categoryIds":["cheap-eats"],"categories":["Gyros & Cheap Eats"],"distanceKm":0.08103431582934398},{"id":"luxuryDiningRestaurants_e80ec81a6e88","slug":"ateno-cook-deli-e80e","kind":"restaurant","name":"Ateno Cook & Deli","lat":37.97838376630937,"lng":23.72811686512798,"url":"https://maps.app.goo.gl/f7xcdqi6HEkGGDrXA?g_st=ipc","address":"Αιόλου 52 &, Μιλτιάδου, Αθήνα 105 60","categoryIds":["luxury-dining"],"categories":["Luxury Dining"],"distanceKm":0.08273225799366454},{"id":"cheapEatsRestaurants_753d5449336c","slug":"la-pizzetta-753d","kind":"restaurant","name":"La Pizzetta","lat":37.97847520528142,"lng":23.728112025622647,"url":"https://maps.app.goo.gl/K4gKpgJyy7hobcQQ6?g_st=ipc","address":"Αιόλου 56, Αθήνα 105 60","categoryIds":["cheap-eats"],"categories":["Gyros & Cheap Eats"],"distanceKm":0.09077807736546668},{"id":"coffeeBrunchRestaurants_1535869ba0db","slug":"bookbar-by-kaktos-1535","kind":"restaurant","name":"BOOKBAR by Kaktos","lat":37.97778372453625,"lng":23.727694162578636,"url":"https://maps.app.goo.gl/nkivf4z4Dxrwg4Su6?g_st=ipc","address":"Αιόλου 39, Αθήνα 105 51","categoryIds":["coffee-brunch"],"categories":["Coffee & Brunch Spots"],"distanceKm":0.0928401845942261},{"id":"vegetarianRestaurants_5b207cd61024","slug":"av-it-5b20","kind":"restaurant","name":"AV IT","lat":37.976939825548584,"lng":23.728942581826033,"url":"https://maps.app.goo.gl/Kt7esiHQgo5rmoWc7?g_st=ipc","address":"Καλαμιώτου 8, Αθήνα 105 60","categoryIds":["vegetarian"],"categories":["Vegetarian Friendly Restaurants"],"distanceKm":0.1007223573051897},{"id":"cheapEatsRestaurants_0155944d18e6","slug":"feyrouz-athens-0155","kind":"restaurant","name":"Feyrouz_Athens","lat":37.97815189918129,"lng":23.727647148068286,"url":"https://maps.app.goo.gl/vF2fcE6pnayp7atp8?g_st=ipc","address":"Καρόρη 23 και, Αγάθωνος 1, Αθήνα 105 51","categoryIds":["cheap-eats","vegetarian"],"categories":["Gyros & Cheap Eats","Vegetarian Friendly Restaurants"],"legacySlugs":["feyrouz-athens-e417"],"distanceKm":0.1030877854717284},{"id":"greekRestaurants_62e8feb8d72b","slug":"eatery-bairaktaris-aiolou-29-62e8","kind":"restaurant","name":"Eatery Bairaktaris Aiolou 29","lat":37.97741431797203,"lng":23.727650746109706,"url":"https://maps.app.goo.gl/QiyDhjXfeNsDkt9k7","address":"Αιόλου 29, Αθήνα 105 51","categoryIds":["greek-restaurants"],"categories":["Greek Restaurants"],"distanceKm":0.10713033411576708},{"id":"burgersRestaurants_594f0da03951","slug":"the-smashers-athens-594f","kind":"restaurant","name":"The Smashers Athens","lat":37.976855263908405,"lng":23.728850035341498,"url":"https://maps.app.goo.gl/eZb9zRu5ZEKX8jLZ6?g_st=ipc","address":"Καλαμιώτου 7, Αθήνα 105 63","categoryIds":["burgers"],"categories":["Burger Spots"],"distanceKm":0.1090657345008914},{"id":"burgersRestaurants_7c6e8e764472","slug":"the-smashers-athens-7c6e","kind":"restaurant","name":"The Smashers Athens","lat":37.97685470027012,"lng":23.728849657560023,"url":"https://maps.app.goo.gl/uKyi2SUBZv1EWPoV7?g_st=ic","address":"Kalamiotou 7, Athina 105 63","categoryIds":["burgers"],"categories":["Burger Spots"],"distanceKm":0.10912559705617245},{"id":"vegetarianRestaurants_66f29ff77bdf","slug":"inloveagain-specialty-coffee-66f2","kind":"restaurant","name":"InLoveAgain. Specialty coffee","lat":37.97733209854113,"lng":23.72987682666704,"url":"https://maps.app.goo.gl/GuskwaqjTh2E9fc66?g_st=ipc","address":"Κλειτίου 3, Αθήνα 105 60","categoryIds":["vegetarian"],"categories":["Vegetarian Friendly Restaurants"],"distanceKm":0.11327317913453104},{"id":"monasteriesChurches_d3d098c448a4","slug":"ieros-naos-agias-eirinis-d3d0","kind":"restaurant","name":"Ιερός Ναός Αγίας Ειρήνης","lat":37.977134855411386,"lng":23.727779375021544,"url":"https://maps.app.goo.gl/JehgGspdoWfwue8w5?g_st=ipc","address":"Αιόλου 36, Αθήνα 105 60","categoryIds":["monasteries-churches"],"categories":["Monasteries & Spiritual Sites"],"distanceKm":0.11527263315446629},{"id":"coffeeBrunchRestaurants_268ab51f91a8","slug":"smak-zymeria-268a","kind":"restaurant","name":"Smak Ζυμερία","lat":37.97751180003605,"lng":23.730066447556442,"url":"https://maps.app.goo.gl/dAYcRqw7bHXmUKJz6?g_st=ipc","address":"Ρόμβης 21, Αθήνα 105 60","categoryIds":["coffee-brunch"],"categories":["Coffee & Brunch Spots"],"distanceKm":0.12065971329267935},{"id":"mexicanRestaurants_12ba982b5dec","slug":"ancho-mexican-grill-12ba","kind":"restaurant","name":"Ancho Mexican Grill","lat":37.97715705569823,"lng":23.72766354204186,"url":"https://maps.app.goo.gl/iYXrRpCvSYJUhEHx8?g_st=ipc","address":"Αιόλου 25, Αθήνα 105 51","categoryIds":["mexican"],"categories":["Mexican Restaurants"],"distanceKm":0.12142437867456345},{"id":"fishTavernasRestaurants_96126d9ba88c","slug":"zisis-9612","kind":"restaurant","name":"Ζήσης","lat":37.97677236195616,"lng":23.729130321852065,"url":"https://maps.app.goo.gl/B6NXu9TchhZNtX1m9?g_st=ipc","address":"Αθηναΐδος 3, Αθήνα 105 63","categoryIds":["fish-tavernas"],"categories":["Fish Tavernas"],"distanceKm":0.1225256469733264},{"id":"burgersRestaurants_d55e3b1fc4f6","slug":"one-burger-d55e","kind":"restaurant","name":"ONE BURGER","lat":37.97831953861062,"lng":23.727493287060057,"url":"https://maps.app.goo.gl/N76y7HGoU6TuZHcW8?g_st=ipc","address":"Αγάθωνος 7, Αθήνα 105 51","categoryIds":["burgers"],"categories":["Burger Spots"],"distanceKm":0.12283750007753799},{"id":"cheapEatsRestaurants_8b657b1197a5","slug":"hoocut-8b65","kind":"restaurant","name":"Hoocut","lat":37.976849062316084,"lng":23.72809711402173,"url":"https://maps.app.goo.gl/gP2JFL8Nk8hDVyEZ6?g_st=ipc","address":"Πλ. Αγίας Ειρήνης 9, Αθήνα 105 63","categoryIds":["cheap-eats"],"categories":["Gyros & Cheap Eats"],"distanceKm":0.12353703741272537},{"id":"coffeeBrunchRestaurants_0ae149633aed","slug":"folk-0ae1","kind":"restaurant","name":"Folk.","lat":37.97880874771429,"lng":23.72797999271096,"url":"https://maps.app.goo.gl/6T8xDeGdNhWe15Wy8?g_st=ipc","address":"Βύσσης 2, Αθήνα 105 51","categoryIds":["coffee-brunch"],"categories":["Coffee & Brunch Spots"],"distanceKm":0.12784390129896336},{"id":"mexicanRestaurants_d1ef1807c1f0","slug":"taco-loco-athens-d1ef","kind":"restaurant","name":"Taco Loco Athens","lat":37.9776204281013,"lng":23.730210870551065,"url":"https://maps.app.goo.gl/6pEPXa7waRhazPjR9?g_st=ipc","address":"Κολοκοτρώνη 39, Αθήνα 105 62","categoryIds":["mexican"],"categories":["Mexican Restaurants"],"distanceKm":0.13007614700539913}],"sameRegion":[],"mentionedGuides":[],"canonicalSlug":"shedia-home-cafe-restaurant-giftshop-c42b","isCanonicalEntity":true,"enrichment":{"summary_en":"Shedia Home - Cafe, Restaurant & Giftshop is a curated restaurant in Αθήνα 105 60 in the Vegetarian Friendly Restaurants collection. It is connected to 317 nearby Googlementor picks to help travelers build a stronger local route.","summary_el":"Shedia Home - Cafe, Restaurant & Giftshop είναι ένα επιλεγμένο σημείο φαγητού στην περιοχή Αθήνα 105 60 και ανήκει στη συλλογή Vegetarian Friendly Restaurants. Συνδέεται με 317 κοντινές προτάσεις του Googlementor για πιο ολοκληρωμένη εμπειρία.","vibe_tags":["curated"],"best_for":["first-time visitors","food lovers"],"visit_moments":["lunch stop","dinner stop"],"practical_note":"Address and direct map link are available for easy turn-by-turn access.","nearby_walkable_count":317,"nearby_count_2km":647,"confidence":0.98}},"__N_SSG":true}