{"pageProps":{"entity":{"id":"italianRestaurants_26298b2afd51","slug":"sistina-mykonos-2629","kind":"restaurant","name":"Sistina Mykonos","lat":37.42270720054724,"lng":25.33392940009779,"url":"https://maps.app.goo.gl/jbVQZaFoXT3nCmEQ6?g_st=ipc","address":"Platis Gialos, Mikonos 846 00","categoryIds":["italian"],"categories":["Italian Restaurants"]},"sameCategory":[{"id":"italianRestaurants_519a6524c076","slug":"farina-cucina-italiana-ornos-beach-519a","kind":"restaurant","name":"Farina Cucina Italiana Ornos Beach","lat":37.423083029478946,"lng":25.323628340986495,"url":"https://maps.app.goo.gl/M9VCoMv93LnDJZyTA?g_st=ipc","address":"Beach, Ornos 846 00","categoryIds":["italian"],"categories":["Italian Restaurants"]},{"id":"italianRestaurants_abc3cc5c720d","slug":"d-angelo-abc3","kind":"restaurant","name":"D'Angelo","lat":37.44362332101064,"lng":25.32719398144958,"url":"https://maps.app.goo.gl/AvAZtykcYFB85kTp6?g_st=ipc","address":"Axioti, Mikonos 846 00","categoryIds":["italian"],"categories":["Italian Restaurants"]},{"id":"italianRestaurants_3ea0826fab26","slug":"casa-di-giorgio-mykonos-3ea0","kind":"restaurant","name":"Casa di Giorgio Mykonos","lat":37.44560651190884,"lng":25.326934720051547,"url":"https://maps.app.goo.gl/Cf4S8nv5DHQYNzkR7?g_st=ipc","address":"Mitropoleos 1, Hora 846 00","categoryIds":["italian"],"categories":["Italian Restaurants"]},{"id":"italianRestaurants_2fd6901849b7","slug":"cardamomo-2fd6","kind":"restaurant","name":"Cardamomo","lat":37.4446572877169,"lng":25.396868169763824,"url":"https://maps.app.goo.gl/sh5TMZCTCw3tQKQP9?g_st=ipc","address":"Unnamed Road, Ano Mera 846 00","categoryIds":["italian"],"categories":["Italian Restaurants"]},{"id":"italianRestaurants_ef50c7962b4c","slug":"napule-tinos-restaurant-ef50","kind":"restaurant","name":"Napule Tinos Restaurant","lat":37.561247297622636,"lng":25.19153362351099,"url":"https://maps.app.goo.gl/KMmm7YcXtzQmk7Zh8?g_st=ipc","address":"Τριαντάρος 842 00","categoryIds":["italian","luxury-dining"],"categories":["Italian Restaurants","Luxury Dining"],"legacySlugs":["napule-tinos-restaurant-5194"]},{"id":"italianRestaurants_b7cf983e2771","slug":"casa-giacomo-paros-b7cf","kind":"restaurant","name":"Casa Giacomo Paros","lat":37.12454320720165,"lng":25.238458349168585,"url":"https://maps.app.goo.gl/Ciaf8V2SrHA91Eqw7?g_st=ipc","address":"Little Venice, Naousa 844 01","categoryIds":["italian"],"categories":["Italian Restaurants"]},{"id":"italianRestaurants_c3995e275001","slug":"amvix-c399","kind":"restaurant","name":"Amvix","lat":37.44099934175907,"lng":24.940807847227685,"url":"https://maps.app.goo.gl/pvyKHGGD2fbgASCE8?g_st=ipc","address":"Akti Papagoi 26, Ermoupoli 841 00","categoryIds":["italian"],"categories":["Italian Restaurants"]},{"id":"italianRestaurants_7d6f32d35713","slug":"dal-professore-naxos-7d6f","kind":"restaurant","name":"Dal Professore Naxos","lat":37.10347764120069,"lng":25.374650593867482,"url":"https://maps.app.goo.gl/GLP6dYmT8CK2v8Rk9?g_st=ipc","address":"Sea front - Naxos town Naxos Town, 843 00","categoryIds":["italian"],"categories":["Italian Restaurants"]},{"id":"italianRestaurants_81fb3a3e7792","slug":"etere-ristorante-spritzeria-81fb","kind":"restaurant","name":"ETERE Ristorante•Spritzeria","lat":37.10293986337665,"lng":25.375171669884853,"url":"https://maps.app.goo.gl/hwE3v2eAEfeWwtVD6?g_st=ipc","address":"Σχοινούσας, Kiprou &, Naxos 843 00","categoryIds":["italian"],"categories":["Italian Restaurants"]},{"id":"italianRestaurants_338afaa92d9f","slug":"caya-italian-cuisine-cocktail-bar-338a","kind":"restaurant","name":"Caya Italian Cuisine Cocktail Bar","lat":37.05775350559496,"lng":25.360162570769955,"url":"https://maps.app.goo.gl/aQBfn7JeavM87SvT6?g_st=ipc","address":"Πλάκα Ναξος Κυκλάδες, 843 00","categoryIds":["italian"],"categories":["Italian Restaurants"]},{"id":"italianRestaurants_aef2b7848975","slug":"impasto-aef2","kind":"restaurant","name":"Impasto","lat":37.081621983659346,"lng":25.14571923250388,"url":"https://maps.app.goo.gl/Hzvu5t3VhUBHB7JC7?g_st=ipc","address":"Paros 844 00","categoryIds":["italian"],"categories":["Italian Restaurants"]},{"id":"italianRestaurants_4f96313e6daa","slug":"mitos-arternative-bar-4f96","kind":"restaurant","name":"Mitos ARTernative BAR","lat":37.06317254380818,"lng":25.48274579484659,"url":"https://maps.app.goo.gl/jstAML7uYBqEdQYq6?g_st=ipc","address":"Χαλκείο 843 02","categoryIds":["italian"],"categories":["Italian Restaurants"]}],"nearby":[{"id":"greekRestaurants_d2f8ae2f57fa","slug":"lounda-pikantiki-gwnia-d2f8","kind":"restaurant","name":"Lounda Pikantiki Gwnia","lat":37.42680560196533,"lng":25.33370246443575,"url":"https://maps.app.goo.gl/QdG8cnBoWYdPGKcT8?g_st=ipc","address":"Unnamed Rd, Ψαρρού 846 00","categoryIds":["greek-restaurants"],"categories":["Greek Restaurants"],"distanceKm":0.4561618412580675},{"id":"greekRestaurants_65a0b2970a3d","slug":"apaggio-restaurant-65a0","kind":"restaurant","name":"Apaggio Restaurant","lat":37.420283656696064,"lng":25.32646761589959,"url":"https://maps.app.goo.gl/UwjfqnkpvGWAV4zJ7?g_st=ipc","address":"Beach, BEFORE SANTA MARINA ENTRANCE, Ορνός 846 00","categoryIds":["greek-restaurants"],"categories":["Greek Restaurants"],"distanceKm":0.7119222543716631},{"id":"greekRestaurants_b8d7854bf51f","slug":"nikos-gallop-restaurant-b8d7","kind":"restaurant","name":"Nikos Gallop Restaurant","lat":37.416901979165324,"lng":25.339315264425487,"url":"https://maps.app.goo.gl/naifPWfQpWokWye89?g_st=ipc","address":"Just between Platis Gialos and Psarou beaches On the way to Platys Gialos, Ψαρρού 846 00","categoryIds":["greek-restaurants"],"categories":["Greek Restaurants"],"distanceKm":0.8018181009867088},{"id":"italianRestaurants_519a6524c076","slug":"farina-cucina-italiana-ornos-beach-519a","kind":"restaurant","name":"Farina Cucina Italiana Ornos Beach","lat":37.423083029478946,"lng":25.323628340986495,"url":"https://maps.app.goo.gl/M9VCoMv93LnDJZyTA?g_st=ipc","address":"Beach, Ornos 846 00","categoryIds":["italian"],"categories":["Italian Restaurants"],"distanceKm":0.9106241235703407},{"id":"coffeeBrunchRestaurants_8a37a705164c","slug":"ola-mykonos-breakfast-tacos-cocktails-8a37","kind":"restaurant","name":"Ola Mykonos - Breakfast, Tacos, Cocktails","lat":37.42580212278426,"lng":25.322386656781635,"url":"https://maps.app.goo.gl/HfixfBMZYH8oTEGWA?g_st=ipc","address":"Korfos Beach, Mikonos 846 00","categoryIds":["coffee-brunch"],"categories":["Coffee & Brunch Spots"],"distanceKm":1.0758242645643334},{"id":"greekRestaurants_566686612459","slug":"to-apomero-5666","kind":"restaurant","name":"To Apomero","lat":37.42477406853952,"lng":25.32149373228756,"url":"https://maps.app.goo.gl/4yepbmXBXgqmqxi48?g_st=ipc","address":"Ορνός 846 00","categoryIds":["greek-restaurants"],"categories":["Greek Restaurants"],"distanceKm":1.1219466106080633},{"id":"greekRestaurants_2b565e597e47","slug":"ayli-toy-thodori-2b56","kind":"restaurant","name":"Αυλή του Θοδωρή","lat":37.414288033794946,"lng":25.342693930138903,"url":"https://maps.app.goo.gl/XiVRj8K4Pw27o6cv7?g_st=ipc","address":"Πλατύς Γιαλός 846 00","categoryIds":["greek-restaurants"],"categories":["Greek Restaurants"],"distanceKm":1.214710900870393},{"id":"coffeeBrunchRestaurants_0c2a8fb81888","slug":"the-morning-table-0c2a","kind":"restaurant","name":"The Morning Table","lat":37.43394266189418,"lng":25.331625555430822,"url":"https://maps.app.goo.gl/kkRCE3TrjrxBPfbB7?g_st=ipc","address":"Vrysi, Mikonos 846 00","categoryIds":["coffee-brunch"],"categories":["Coffee & Brunch Spots"],"distanceKm":1.2657808433918367},{"id":"greekRestaurants_4f8fc805eb7d","slug":"to-karteri-4f8f","kind":"restaurant","name":"Το καρτερι","lat":37.432738323612284,"lng":25.341244801500245,"url":"https://maps.app.goo.gl/ZPLYvNbeUn9uhSA56?g_st=ipc","address":"Προς Παρανταις, Μύκονος 846 00","categoryIds":["greek-restaurants"],"categories":["Greek Restaurants"],"distanceKm":1.2889575049963924},{"id":"asianRestaurants_5d69fac12c7f","slug":"tokyo-joe-mykonos-5d69","kind":"restaurant","name":"Tokyo Joe Mykonos","lat":37.43430209897853,"lng":25.33164889840815,"url":"https://maps.app.goo.gl/SbcxFuCJ6NAhCk248?g_st=ipc","address":"Ano Vrisi, My Mall, Mikonos 846 00","categoryIds":["asian","luxury-dining"],"categories":["Asian Restaurants","Luxury Dining"],"legacySlugs":["tokyo-joe-mykonos-5522"],"distanceKm":1.304924926401756},{"id":"greekRestaurants_5401b7812885","slug":"xarathymio-5401","kind":"restaurant","name":"Ξαραθυμιο","lat":37.43064695338044,"lng":25.34483466442765,"url":"https://maps.app.goo.gl/k93muyVGMB9vZMRS6?g_st=ipc","address":"Skalado 846 00","categoryIds":["greek-restaurants"],"categories":["Greek Restaurants"],"distanceKm":1.306429305936666},{"id":"coffeeBrunchRestaurants_7ef5924c8dc6","slug":"velanos-mykonos-brunch-breakfast-cocktails-7ef5","kind":"restaurant","name":"Velanos Mykonos - Brunch, Breakfast & Cocktails","lat":37.43406109514676,"lng":25.3414091685473,"url":"https://maps.app.goo.gl/8BRmDPmozseUfqLY6?g_st=ipc","address":"Skalado, Mikonos 846 00","categoryIds":["coffee-brunch"],"categories":["Coffee & Brunch Spots"],"distanceKm":1.4248230882948945},{"id":"coffeeBrunchRestaurants_305022a62a4f","slug":"to-davelaki-3050","kind":"restaurant","name":"To Davelaki","lat":37.43471134705592,"lng":25.340570140407053,"url":"https://maps.app.goo.gl/s3ATMeRgiCtC4BjXA?g_st=ic","address":"Unnamed Road, Mikonos 846 00","categoryIds":["coffee-brunch"],"categories":["Coffee & Brunch Spots"],"distanceKm":1.457922472138377},{"id":"greekRestaurants_d1b39b4f3e00","slug":"amethystos-mykonos-d1b3","kind":"restaurant","name":"Amethystos Mykonos","lat":37.43458136770975,"lng":25.342119704198275,"url":"https://maps.app.goo.gl/AKNrBroi1VZKtHvZ7?g_st=ipc","address":"Μύκονος 846 00","categoryIds":["greek-restaurants"],"categories":["Greek Restaurants"],"distanceKm":1.5054412729430706},{"id":"luxuryDiningRestaurants_0e975a4fcafc","slug":"baos-greek-restaurant-0e97","kind":"restaurant","name":"BAOS Greek Restaurant","lat":37.43694847921598,"lng":25.32914124723638,"url":"https://maps.app.goo.gl/BQon51NoPRn4CLnY6?g_st=ipc","address":"Myconian Korali Mykonos Town, Mikonos 846 00","categoryIds":["luxury-dining"],"categories":["Luxury Dining"],"distanceKm":1.6390269121258276},{"id":"municipalities_b456e42c7271","slug":"ormos-b456","kind":"municipality","name":"Όρμος","lat":37.4269,"lng":25.3528,"aliases":["Ορμος","Ornos Beach"],"region":"Κυκλάδες","name_en":"Ornos","region_en":"Cyclades","distanceKm":1.7303705539881924},{"id":"luxuryDiningRestaurants_137cd7d1e18b","slug":"yevo-by-bill-coo-mykonos-137c","kind":"restaurant","name":"YĒVO By Bill&Coo Mykonos","lat":37.43758072227673,"lng":25.32795511521471,"url":"https://maps.app.goo.gl/dgiE2BaNVt8Jhb1F6?g_st=ipc","address":"Μεγάλη Άμμος, Mikonos 846 00","categoryIds":["luxury-dining"],"categories":["Luxury Dining"],"distanceKm":1.7359540378735376},{"id":"mexicanRestaurants_9cdc9098224f","slug":"el-dorado-9cdc","kind":"restaurant","name":"El Dorado","lat":37.4384356377363,"lng":25.332482232008008,"url":"https://maps.app.goo.gl/Z4qdJprni1KMQm3YA?g_st=ipc","address":"Epar.Od. Mikonou, Mikonos 846 00","categoryIds":["mexican"],"categories":["Mexican Restaurants"],"distanceKm":1.7535843825401658},{"id":"coffeeBrunchRestaurants_ccfcae3739b1","slug":"the-liberty-breakfast-room-ccfc","kind":"restaurant","name":"The Liberty Breakfast Room","lat":37.44002249548534,"lng":25.33319976309242,"url":"https://maps.app.goo.gl/ytWHokwwmW4y1Baq5?g_st=ipc","address":"the liberty breakfast room, Mikonos 846 00","categoryIds":["coffee-brunch"],"categories":["Coffee & Brunch Spots"],"distanceKm":1.926450526647266},{"id":"fishTavernasRestaurants_05c6d38f3545","slug":"nikolas-tavern-mykonos-seafood-restaurant-05c6","kind":"restaurant","name":"Nikolas Tavern Mykonos - Seafood Restaurant","lat":37.409158532586275,"lng":25.34844810083572,"url":"https://maps.app.goo.gl/GfjsFWp6Rpr3hZyH8?g_st=ipc","address":"Paraga Mykonos, Mikonos 846 00","categoryIds":["fish-tavernas"],"categories":["Fish Tavernas"],"distanceKm":1.9783322636417817},{"id":"fishTavernasRestaurants_f0d4e1537e1b","slug":"hippie-fish-mykonos-f0d4","kind":"restaurant","name":"Hippie Fish Mykonos","lat":37.4216168444124,"lng":25.3115215810695,"url":"https://maps.app.goo.gl/P1ey2vdmerWsiMqXA?g_st=ipc","address":"Agios Ioannis, Mikonos 846 00","categoryIds":["fish-tavernas","luxury-dining"],"categories":["Fish Tavernas","Luxury Dining"],"legacySlugs":["hippie-fish-mykonos-d24a"],"distanceKm":1.9825171724500024},{"id":"coffeeBrunchRestaurants_f9e9f62cb460","slug":"el-burro-mykonos-f9e9","kind":"restaurant","name":"El Burro Mykonos","lat":37.44164494565894,"lng":25.3350374340187,"url":"https://maps.app.goo.gl/mFrsGY4rfvzHZgy28?g_st=ipc","address":"37°26'30.4\"N 25°20'06.2\"E, Mikonos 846 00","categoryIds":["coffee-brunch"],"categories":["Coffee & Brunch Spots"],"distanceKm":2.1080527161476996},{"id":"luxuryDiningRestaurants_1500d9d46225","slug":"scorpios-1500","kind":"restaurant","name":"Scorpios","lat":37.40690634816725,"lng":25.347629445529506,"url":"https://maps.app.goo.gl/BWoH4D79nkxuwHvt9?g_st=ipc","address":"Paraga, Mikonos 846 00","categoryIds":["luxury-dining"],"categories":["Luxury Dining"],"distanceKm":2.1332944514931342},{"id":"dessertsRestaurants_84cc29a238aa","slug":"kyklamino-patisserie-84cc","kind":"restaurant","name":"Kyklamino Patisserie","lat":37.44220457179905,"lng":25.335568445326103,"url":"https://maps.app.goo.gl/dBRJbrtLhCesFwGn6?g_st=ic","address":"Mykonos 846 00","categoryIds":["desserts"],"categories":["Dessert Shops"],"distanceKm":2.1728337496395325}],"sameRegion":[],"mentionedGuides":[{"slug":"choose-perfect-greek-island-el","title":"Πώς να Επιλέξετε το Ιδανικό Ελληνικό Νησί"},{"slug":"choose-perfect-greek-island","title":"How to Choose the Perfect Greek Island for Your Trip"},{"slug":"greece-weather-swimming-ferry-guide-el","title":"Πότε να Επισκεφτείτε την Ελλάδα: Καιρός & Κολύμπι"},{"slug":"greece-weather-swimming-ferry-guide","title":"When to Visit Greece: Weather, Swimming & Ferries"},{"slug":"greek-bakeries-brunch-coffee-guide-el","title":"Ελληνική Αρτοποιία, Brunch & Κουλτούρα Καφέ"},{"slug":"greek-bakeries-brunch-coffee-guide","title":"Greek Bakeries, Brunch & Coffee Culture"},{"slug":"tap-water-safe-greece-el","title":"Είναι Ασφαλές να Πίνετε Νερό Βρύσης στην Ελλάδα;"},{"slug":"tap-water-safe-greece","title":"Is Tap Water Safe to Drink in Greece?"}],"canonicalSlug":"sistina-mykonos-2629","isCanonicalEntity":true,"enrichment":{"summary_en":"Sistina Mykonos is a curated restaurant in Mikonos 846 00 in the Italian Restaurants collection. It is connected to 2 nearby Googlementor picks to help travelers build a stronger local route.","summary_el":"Sistina Mykonos είναι ένα επιλεγμένο σημείο φαγητού στην περιοχή Mikonos 846 00 και ανήκει στη συλλογή Italian Restaurants. Συνδέεται με 2 κοντινές προτάσεις του Googlementor για πιο ολοκληρωμένη εμπειρία.","vibe_tags":["curated"],"best_for":["first-time visitors","food lovers"],"visit_moments":["lunch stop","dinner stop"],"practical_note":"Address and direct map link are available for easy turn-by-turn access.","nearby_walkable_count":2,"nearby_count_2km":21,"confidence":0.9}},"__N_SSG":true}