{"pageProps":{"entity":{"id":"dessertsRestaurants_46c9cba5969e","slug":"sweet-nolan-46c9","kind":"restaurant","name":"Sweet Nolan","lat":37.9747984209274,"lng":23.73248311530336,"url":"https://maps.app.goo.gl/vVwFTAJ3a7QrKyTr5?g_st=ipc","address":"Απόλλωνος 6Β, Αθήνα 105 57","categoryIds":["desserts"],"categories":["Dessert Shops"]},"sameCategory":[{"id":"dessertsRestaurants_2434d906577a","slug":"le-greche-syntagma-2434","kind":"restaurant","name":"Le Greche Syntagma","lat":37.975295473634475,"lng":23.732572121627147,"url":"https://maps.app.goo.gl/8ERFwaLDZCRWvw329?g_st=ipc","address":"Μητροπόλεως 16, Αθήνα 105 63","categoryIds":["desserts"],"categories":["Dessert Shops"]},{"id":"dessertsRestaurants_fb018ad3c271","slug":"baklavas-fb01","kind":"restaurant","name":"Baklavas","lat":37.975429717960225,"lng":23.733177865867727,"url":"https://maps.app.goo.gl/JsVLmYGPmMaYJGiKA?g_st=ipc","address":"Νίκης 10, Αθήνα 105 63","categoryIds":["desserts"],"categories":["Dessert Shops"]},{"id":"dessertsRestaurants_dd2783c4061c","slug":"my-cookie-dough-athens-dd27","kind":"restaurant","name":"My Cookie Dough Athens","lat":37.97549732457017,"lng":23.731646460060947,"url":"https://maps.app.goo.gl/h3es1mjnAZfnhipp6?g_st=ipc","address":"Petraki 7, Athina 105 63","categoryIds":["desserts"],"categories":["Dessert Shops"]},{"id":"dessertsRestaurants_5b8f8c355ff9","slug":"smyrni-baklava-5b8f","kind":"restaurant","name":"Smyrni Baklava","lat":37.9752937454741,"lng":23.73138268254239,"url":"https://maps.app.goo.gl/gwLnHFtKf8mGiYH8A?g_st=ipc","address":"Μητροπόλεως 25, Αθήνα 105 57","categoryIds":["desserts"],"categories":["Dessert Shops"]},{"id":"dessertsRestaurants_ecf6d66518c8","slug":"oggi-officina-gelato-gusto-italiano-athens-ecf6","kind":"restaurant","name":"Oggi - Officina Gelato Gusto Italiano, Athens","lat":37.97609425961556,"lng":23.73264733165775,"url":"https://maps.app.goo.gl/tFchspxKZcFEKXjf6?g_st=ipc","address":"Βουλής 17, Αθήνα 105 63","categoryIds":["desserts"],"categories":["Dessert Shops"]},{"id":"dessertsRestaurants_9b5ef29493b0","slug":"fystiki-shop-downtown-9b5e","kind":"restaurant","name":"Fystiki Shop Downtown","lat":37.97606272763876,"lng":23.7332915007465,"url":"https://maps.app.goo.gl/kHKQgnoXfNFn8vtP9?g_st=ipc","address":"Ερμού &, Νίκης 4, Αθήνα 105 63","categoryIds":["desserts"],"categories":["Dessert Shops"]},{"id":"dessertsRestaurants_eb9f02ba5b47","slug":"choureal-choux-profiterole-eb9f","kind":"restaurant","name":"CHOUREAL - Choux & Profiterole","lat":37.97617972861017,"lng":23.73180056203846,"url":"https://maps.app.goo.gl/qEAK3Nkr3LyPuUwh9?g_st=ipc","address":"Διομείας 2 &, Ερμού 18, Αθήνα 105 63","categoryIds":["desserts"],"categories":["Dessert Shops"]},{"id":"dessertsRestaurants_c341ccbd87e0","slug":"ariston-lompotesis-c341","kind":"restaurant","name":"ΑΡΙΣΤΟΝ ΛΟΜΠΟΤΕΣΗΣ","lat":37.97670511785389,"lng":23.732649290748736,"url":"https://maps.app.goo.gl/GQVtxtBLY3rpmzsa9?g_st=ipc","address":"Βουλής 10, Αθήνα 105 62","categoryIds":["desserts","vegetarian"],"categories":["Dessert Shops","Vegetarian Friendly Restaurants"],"legacySlugs":["ariston-lompotesis-daef"]},{"id":"dessertsRestaurants_ce9de85fc0a1","slug":"aristokratikon-epich-ap-to-1928-syntagma-athina-ce9d","kind":"restaurant","name":"Αριστοκρατικόν (Επιχ. απ'το 1928) - Σύνταγμα, Αθήνα","lat":37.97685312862056,"lng":23.732864293474787,"url":"https://maps.app.goo.gl/ZpgyyzyeJjW4e7Y58?g_st=ipc","address":"Βουλής 7, Αθήνα 105 62","categoryIds":["desserts"],"categories":["Dessert Shops"]},{"id":"dessertsRestaurants_d2c71b210d1a","slug":"solo-gelato-d2c7","kind":"restaurant","name":"Solo Gelato","lat":37.972749067243114,"lng":23.730253715604512,"url":"https://maps.app.goo.gl/NjipC5csKbXMwq4j7?g_st=ipc","address":"Αδριανού 120, Αθήνα 105 58","categoryIds":["desserts"],"categories":["Dessert Shops"]},{"id":"dessertsRestaurants_db3d47fd588a","slug":"arte-athens-db3d","kind":"restaurant","name":"Arte Athens","lat":37.97243004672386,"lng":23.729479004279412,"url":"https://maps.app.goo.gl/Lqr3t1JFkHesFNnk6?g_st=ipc","address":"Τριπόδων 16, Αθήνα 105 58","categoryIds":["desserts"],"categories":["Dessert Shops"]},{"id":"dessertsRestaurants_1924a0d216d5","slug":"sol-bake-and-coffee-project-athens-1924","kind":"restaurant","name":"Sol Bake and Coffee Project - Athens","lat":37.978160024245575,"lng":23.730562902712155,"url":"https://maps.app.goo.gl/b6SrDJp3RTtqrXM58?g_st=ic","address":"Πραξιτέλους 11, Chavriou 9, Athina 105 62","categoryIds":["desserts"],"categories":["Dessert Shops"]}],"nearby":[{"id":"asianRestaurants_e28b11d8898b","slug":"nolan-e28b","kind":"restaurant","name":"Nolan","lat":37.97479795746223,"lng":23.732371775380916,"url":"https://maps.app.goo.gl/X3KiMCEXwDEoAj3N6?g_st=ipc","address":"Βουλής 31 - 33, Αθήνα 105 57","categoryIds":["asian","luxury-dining"],"categories":["Asian Restaurants","Luxury Dining"],"legacySlugs":["nolan-d22b"],"distanceKm":0.009759403291207785},{"id":"asianRestaurants_42df17dcd2e4","slug":"dosirak-42df","kind":"restaurant","name":"Dosirak","lat":37.97494107666411,"lng":23.732376863056064,"url":"https://maps.app.goo.gl/PwDtN3ePd5r7qvjc7?g_st=ipc","address":"Βουλής 33, Αθήνα 105 57","categoryIds":["asian"],"categories":["Asian Restaurants"],"distanceKm":0.018394553874014508},{"id":"italianRestaurants_4213a3098622","slug":"ami-italian-bistrot-4213","kind":"restaurant","name":"Ami Italian Bistrot","lat":37.97469248298705,"lng":23.732316050865755,"url":"https://maps.app.goo.gl/ddcDFfjhHBSTkLzH8?g_st=ipc","address":"Βουλής, Απόλλωνος &, Αθήνα 105 57","categoryIds":["italian"],"categories":["Italian Restaurants"],"distanceKm":0.018793630057199563},{"id":"asianRestaurants_7b8b9814562d","slug":"pink-flamingo-dim-sum-7b8b","kind":"restaurant","name":"Pink Flamingo Dim Sum","lat":37.97460809363569,"lng":23.732494338257986,"url":"https://maps.app.goo.gl/fYsHDCdPt7Ag7nwx7?g_st=ipc","address":"Σκούφου 2-4, Αθήνα 105 57","categoryIds":["asian"],"categories":["Asian Restaurants"],"distanceKm":0.02118627984503362},{"id":"italianRestaurants_8dc12f0e929e","slug":"ovio-8dc1","kind":"restaurant","name":"OVIO","lat":37.974772406489194,"lng":23.732726038133688,"url":"https://maps.app.goo.gl/YsVGa9MzZPoFLxFs9?g_st=ipc","address":"Απόλλωνος 4, Αθήνα 105 57","categoryIds":["italian"],"categories":["Italian Restaurants"],"distanceKm":0.02148848340069652},{"id":"italianRestaurants_ef8284fad678","slug":"v1935-roof-garden-ef82","kind":"restaurant","name":"V1935 Roof Garden","lat":37.974997891356715,"lng":23.732428069404467,"url":"https://maps.app.goo.gl/TKodgxdpAuijQZCk7?g_st=ipc","address":"Βουλής 29, Αθήνα 105 57","categoryIds":["italian"],"categories":["Italian Restaurants"],"distanceKm":0.022698826790847615},{"id":"burgersRestaurants_fed9fc98ba72","slug":"lobby-athens-fed9","kind":"restaurant","name":"Lobby Athens","lat":37.97480226330857,"lng":23.732216902854162,"url":"https://maps.app.goo.gl/McpvxRFgv3HSY4VF6?g_st=ipc","address":"Βουλής 30, Αθήνα 105 57","categoryIds":["burgers"],"categories":["Burger Spots"],"distanceKm":0.023338204026627903},{"id":"burgersRestaurants_49b08b8052e0","slug":"birdman-49b0","kind":"restaurant","name":"Birdman","lat":37.97462442043903,"lng":23.73232607660368,"url":"https://maps.app.goo.gl/hqjbsZtLtS6aPvv9A?g_st=ipc","address":"Βουλής 35, Αθήνα 105 57","categoryIds":["burgers"],"categories":["Burger Spots"],"distanceKm":0.023744828015197724},{"id":"asianRestaurants_47edca6d922f","slug":"gaku-47ed","kind":"restaurant","name":"GAKU","lat":37.974764541523264,"lng":23.73278280614978,"url":"https://maps.app.goo.gl/d2jzonLKf2Au2UP28?g_st=ipc","address":"Απόλλωνος 2, Αθήνα 105 57","categoryIds":["asian"],"categories":["Asian Restaurants"],"distanceKm":0.026537532575559426},{"id":"luxuryDiningRestaurants_737b98c16994","slug":"anthes-restaurant-737b","kind":"restaurant","name":"ANTHES RESTAURANT","lat":37.974547276465074,"lng":23.732673103940233,"url":"https://maps.app.goo.gl/RDyBCidSMuRkERcq8?g_st=ipc","address":"Σκούφου 3, Αθήνα 105 57","categoryIds":["luxury-dining"],"categories":["Luxury Dining"],"distanceKm":0.03251439860173186},{"id":"coffeeBrunchRestaurants_2fddcd2fe039","slug":"neropistolo-2fdd","kind":"restaurant","name":"Neropistolo","lat":37.974517291275795,"lng":23.7322749472112,"url":"https://maps.app.goo.gl/BtaYzYAqPmjvET4H6?g_st=ipc","address":"Βουλής 35, Αθήνα 105 57","categoryIds":["coffee-brunch"],"categories":["Coffee & Brunch Spots"],"distanceKm":0.03619581376530717},{"id":"asianRestaurants_0d95e4345c8a","slug":"sushimou-0d95","kind":"restaurant","name":"Sushimou","lat":37.97442757213257,"lng":23.73246192997683,"url":"https://maps.app.goo.gl/1y3Cs2ks6GF4C85F6?g_st=ipc","address":"Σκούφου 6, Αθήνα 105 57","categoryIds":["asian","luxury-dining"],"categories":["Asian Restaurants","Luxury Dining"],"legacySlugs":["sushimou-47da"],"distanceKm":0.041278294622860666},{"id":"asianRestaurants_d1a59d966352","slug":"east-pearl-chinese-restaurant-d1a5","kind":"restaurant","name":"East Pearl Chinese restaurant","lat":37.97475497132636,"lng":23.732999717791024,"url":"https://maps.app.goo.gl/X4tWaVESeHdhnYpi6?g_st=ipc","address":"Απόλλωνος 2, Αθήνα 105 57","categoryIds":["asian"],"categories":["Asian Restaurants"],"distanceKm":0.04553873471842802},{"id":"vegetarianRestaurants_b15388cdd5d4","slug":"wild-souls-athens-voulis-b153","kind":"restaurant","name":"Wild Souls Athens Voulis","lat":37.97449199299614,"lng":23.73213651821812,"url":"https://maps.app.goo.gl/ynTY6phLf8WCv9oj7?g_st=ipc","address":"Βουλής 36, Αθήνα 105 57","categoryIds":["vegetarian"],"categories":["Vegetarian Friendly Restaurants"],"distanceKm":0.04565027851037904},{"id":"mexicanRestaurants_33052426e7a2","slug":"mamacita-taqueria-y-cocteleria-3305","kind":"restaurant","name":"Mamacita - Taquería y Coctelería","lat":37.97469687554734,"lng":23.731910676858394,"url":"https://maps.app.goo.gl/KcBA2GUcjk1cY9FJ8?g_st=ipc","address":"Απόλλωνος 9Β, Αθήνα 105 57","categoryIds":["mexican"],"categories":["Mexican Restaurants"],"distanceKm":0.05143070687150095},{"id":"dessertsRestaurants_2434d906577a","slug":"le-greche-syntagma-2434","kind":"restaurant","name":"Le Greche Syntagma","lat":37.975295473634475,"lng":23.732572121627147,"url":"https://maps.app.goo.gl/8ERFwaLDZCRWvw329?g_st=ipc","address":"Μητροπόλεως 16, Αθήνα 105 63","categoryIds":["desserts"],"categories":["Dessert Shops"],"distanceKm":0.05581764602525826},{"id":"asianRestaurants_c79d456ae7d7","slug":"noodle-bar-c79d","kind":"restaurant","name":"Noodle Bar","lat":37.97469670323124,"lng":23.731836375056524,"url":"https://maps.app.goo.gl/2JAZWHPydSGiN1Vz5?g_st=ipc","address":"Απόλλωνος 11, Αθήνα 105 57","categoryIds":["asian"],"categories":["Asian Restaurants"],"distanceKm":0.05780601796387818},{"id":"luxuryDiningRestaurants_45e8a4dd5c78","slug":"metropolis-roof-garden-45e8","kind":"restaurant","name":"Metropolis Roof Garden","lat":37.97522262578899,"lng":23.732019777211896,"url":"https://maps.app.goo.gl/zUugGUWG4UDszZX58?g_st=ipc","address":"Μητροπόλεως 15, Αθήνα 105 57","categoryIds":["luxury-dining","rooftop-lounges"],"categories":["Luxury Dining","Rooftop Lounges"],"legacySlugs":["metropolis-roof-garden-f3d7"],"distanceKm":0.06224431987583096},{"id":"asianRestaurants_8d5a854c9f57","slug":"koi-sushi-bar-8d5a","kind":"restaurant","name":"Koi Sushi Bar","lat":37.9746059285853,"lng":23.73317074110448,"url":"https://maps.app.goo.gl/cap6URyugQKPXeA47?g_st=ipc","address":"Νίκης 15, Αθήνα 105 57","categoryIds":["asian"],"categories":["Asian Restaurants"],"distanceKm":0.06396022081887649},{"id":"coffeeBrunchRestaurants_f0eff25de691","slug":"amandine-s-bagels-f0ef","kind":"restaurant","name":"Amandine's Bagels","lat":37.97477039083452,"lng":23.73321799541619,"url":"https://maps.app.goo.gl/spidgemnNTyMgFML7?g_st=ipc","address":"Νίκης 13, Αθήνα 105 57","categoryIds":["coffee-brunch"],"categories":["Coffee & Brunch Spots"],"distanceKm":0.0644897479919256},{"id":"asianRestaurants_43504a2d050f","slug":"shiraki-athens-4350","kind":"restaurant","name":"Shiraki Athens","lat":37.97450335727445,"lng":23.733167658895514,"url":"https://maps.app.goo.gl/WStEy7p33ZAzDLCY7?g_st=ipc","address":"Νίκης 17, Αθήνα 105 57","categoryIds":["asian"],"categories":["Asian Restaurants"],"distanceKm":0.06838677430512487},{"id":"greekRestaurants_3e896dd5b050","slug":"spit-jack-3e89","kind":"restaurant","name":"Spit Jack","lat":37.97409123224814,"lng":23.732567622429254,"url":"https://maps.app.goo.gl/WP3HmHeYBBcXxVPM6","address":"Σκούφου 10, Αθήνα 105 57","categoryIds":["greek-restaurants"],"categories":["Greek Restaurants"],"distanceKm":0.07898390047356266},{"id":"dessertsRestaurants_fb018ad3c271","slug":"baklavas-fb01","kind":"restaurant","name":"Baklavas","lat":37.975429717960225,"lng":23.733177865867727,"url":"https://maps.app.goo.gl/JsVLmYGPmMaYJGiKA?g_st=ipc","address":"Νίκης 10, Αθήνα 105 63","categoryIds":["desserts"],"categories":["Dessert Shops"],"distanceKm":0.0929302074814195},{"id":"rooftopLoungesRestaurants_a01decd3b001","slug":"ergon-house-athens-a01d","kind":"restaurant","name":"ERGON House Athens","lat":37.975246808550054,"lng":23.73151614516128,"url":"https://maps.app.goo.gl/B5dVNDQK9SeSRhFZ9?g_st=ipc","address":"23, Μητροπόλεως Street, Αθήνα 105 57","categoryIds":["rooftop-lounges"],"categories":["Rooftop Lounges"],"distanceKm":0.0983345982013791}],"sameRegion":[],"mentionedGuides":[],"canonicalSlug":"sweet-nolan-46c9","isCanonicalEntity":true,"enrichment":{"summary_en":"Sweet Nolan is a curated restaurant in Αθήνα 105 57 in the Dessert Shops collection. It is connected to 276 nearby Googlementor picks to help travelers build a stronger local route.","summary_el":"Sweet Nolan είναι ένα επιλεγμένο σημείο φαγητού στην περιοχή Αθήνα 105 57 και ανήκει στη συλλογή Dessert Shops. Συνδέεται με 276 κοντινές προτάσεις του Googlementor για πιο ολοκληρωμένη εμπειρία.","vibe_tags":["curated","sweet-stop"],"best_for":["first-time visitors","food lovers"],"visit_moments":["afternoon break","after dinner"],"practical_note":"Address and direct map link are available for easy turn-by-turn access.","nearby_walkable_count":276,"nearby_count_2km":656,"confidence":0.98}},"__N_SSG":true}