{"pageProps":{"entity":{"id":"fishTavernasRestaurants_d5a2190de0c2","slug":"tama-d5a2","kind":"restaurant","name":"Táma","lat":37.651655752579366,"lng":25.051591259144875,"url":"https://maps.app.goo.gl/FhoWaSrsyrypuExG8?g_st=ipc","address":"Όρμος Πανόρμου 842 01","categoryIds":["fish-tavernas"],"categories":["Fish Tavernas"]},"sameCategory":[{"id":"fishTavernasRestaurants_5745f4ec9e6d","slug":"to-thalassaki-5745","kind":"restaurant","name":"To Θαλασσάκι","lat":37.615230690872465,"lng":25.0428843541274,"url":"https://maps.app.goo.gl/eqUQ8oiZuscvzKLaA?g_st=ipc","address":"bay, Isternia 842 01","categoryIds":["fish-tavernas"],"categories":["Fish Tavernas"]},{"id":"fishTavernasRestaurants_61c64ce0663b","slug":"lithodomi-61c6","kind":"restaurant","name":"Λιθοδομή","lat":37.7730077055442,"lng":24.95123511430265,"url":"https://maps.app.goo.gl/AdyzF8weXRZVC15f6?g_st=ipc","address":"Αλίκης Ψάλτη, Ormos Korthiou 845 02","categoryIds":["fish-tavernas"],"categories":["Fish Tavernas"]},{"id":"fishTavernasRestaurants_f065f7059030","slug":"binelikia-f065","kind":"restaurant","name":"Binelikia","lat":37.83942195557314,"lng":24.93605561916826,"url":"https://maps.app.goo.gl/g7MbV8Cu1pjFFz8b7?g_st=ipc","address":"Νειμποριό, Andros 845 00","categoryIds":["fish-tavernas"],"categories":["Fish Tavernas"]},{"id":"fishTavernasRestaurants_980522cd3e49","slug":"allou-yialou-9805","kind":"restaurant","name":"Allou Yialou","lat":37.446952094396515,"lng":24.900261999085988,"url":"https://maps.app.goo.gl/fZarxkpuFnFbzYFR6?g_st=ipc","address":"Κίνι 841 00","categoryIds":["fish-tavernas"],"categories":["Fish Tavernas"]},{"id":"fishTavernasRestaurants_bceb21ce5afb","slug":"bolas-restaurant-syros-bceb","kind":"restaurant","name":"Bolas Restaurant Syros","lat":37.390186602163425,"lng":24.945820061380417,"url":"https://maps.app.goo.gl/CV5VQnagTSebUic97?g_st=ipc","address":"Βάρη 841 00","categoryIds":["fish-tavernas"],"categories":["Fish Tavernas"]},{"id":"fishTavernasRestaurants_721ec670613c","slug":"ora-baresto-721e","kind":"restaurant","name":"ORA baresto","lat":37.398407848807196,"lng":24.87840275006321,"url":"https://maps.app.goo.gl/gop1o8sLeZBAttGy7?g_st=ipc","address":"Επαρχιακή Οδός Ερμούπολης-Φοίνικων,Φοίνικας 841 00 ΣΥΡΟΣ, 841 00","categoryIds":["fish-tavernas","greek-restaurants"],"categories":["Fish Tavernas","Greek Restaurants"],"legacySlugs":["ora-baresto-aeef"]},{"id":"fishTavernasRestaurants_4dd45c710873","slug":"stamatis-tavern-4dd4","kind":"restaurant","name":"Stamatis Tavern","lat":37.85607023280217,"lng":24.78575728988094,"url":"https://maps.app.goo.gl/mBX3JbJMAWJA4x3Y7?g_st=ipc","address":"Κυκλάδων Ανδρος, Mpatsi 845 03","categoryIds":["fish-tavernas"],"categories":["Fish Tavernas"]},{"id":"fishTavernasRestaurants_58477da61988","slug":"oti-kalo-5847","kind":"restaurant","name":"Oti Kalo","lat":37.8562893028016,"lng":24.785922766571392,"url":"https://maps.app.goo.gl/NHF5wztHFXbNzzkG6?g_st=ipc","address":"Μπατσί 845 01","categoryIds":["fish-tavernas"],"categories":["Fish Tavernas"]},{"id":"fishTavernasRestaurants_b2dc1ce51a26","slug":"mastello-b2dc","kind":"restaurant","name":"Mastello","lat":37.85819226338292,"lng":24.78588365168363,"url":"https://maps.app.goo.gl/6pEnXsNrPXAaNQPu8?g_st=ipc","address":"Μπατσί 845 01","categoryIds":["fish-tavernas"],"categories":["Fish Tavernas"]},{"id":"fishTavernasRestaurants_d5334aaf38d0","slug":"kiki-s-tavern-d533","kind":"restaurant","name":"Kiki's Tavern","lat":37.48580571700608,"lng":25.36037551259411,"url":"https://maps.app.goo.gl/zDFvBri1oSmdB6aV8?g_st=ipc","address":"Κυκλαδες μυκονος, Ag. Sostis 846 00","categoryIds":["fish-tavernas"],"categories":["Fish Tavernas"]},{"id":"fishTavernasRestaurants_27b9fb6e85c7","slug":"captain-s-food-for-sharing-27b9","kind":"restaurant","name":"Captain's - Food for Sharing","lat":37.44729761897664,"lng":25.32716222892849,"url":"https://maps.app.goo.gl/cVYzE7woRBCoPvRG9?g_st=ipc","address":"Mykonos Waterfront, Mikonos 846 00","categoryIds":["fish-tavernas"],"categories":["Fish Tavernas"]},{"id":"fishTavernasRestaurants_f9baec1ee464","slug":"kounelas-fish-tavern-f9ba","kind":"restaurant","name":"Kounelas Fish Tavern","lat":37.447078731895196,"lng":25.327109291093613,"url":"https://maps.app.goo.gl/zGu4QC3RAJ8qwFzE6?g_st=ipc","address":"ODOS SVORONOU, Mikonos 846 00","categoryIds":["fish-tavernas"],"categories":["Fish Tavernas"]}],"nearby":[{"id":"greekRestaurants_f1c703fa9088","slug":"sima-f1c7","kind":"restaurant","name":"Sima","lat":37.640391826641014,"lng":25.040013069732986,"url":"https://maps.app.goo.gl/3px2jqkoAcSm4AFa7?g_st=ipc","address":"Πύργος 842 01","categoryIds":["greek-restaurants"],"categories":["Greek Restaurants"],"distanceKm":1.6148970295384002},{"id":"dessertsRestaurants_757fe603b972","slug":"to-kentrikon-757f","kind":"restaurant","name":"Το Κεντρικόν","lat":37.63921354793122,"lng":25.04200584233484,"url":"https://maps.app.goo.gl/MoMdkmCiYwwuTbUi7?g_st=ipc","address":"Unnamed Road, Πύργος 842 01","categoryIds":["desserts"],"categories":["Dessert Shops"],"distanceKm":1.6206000131499925},{"id":"greekRestaurants_854af5844b5d","slug":"athmar-854a","kind":"restaurant","name":"Αθμάρ","lat":37.639145778049105,"lng":25.04198852214129,"url":"https://maps.app.goo.gl/89sj6fRtcg34nfx16?g_st=ipc","address":"Τήνου, Πύργος 842 01","categoryIds":["greek-restaurants"],"categories":["Greek Restaurants"],"distanceKm":1.627829678566308},{"id":"coffeeBrunchRestaurants_5f5634aa7ab6","slug":"mayou-all-day-bar-5f56","kind":"restaurant","name":"Mayou all day bar","lat":37.6225070567129,"lng":25.05248500203228,"url":"https://maps.app.goo.gl/MQWdjK1DGr9YXoey5?g_st=ipc","address":"Isternia, Tinos 842 01, Tinos Island 842 01","categoryIds":["coffee-brunch"],"categories":["Coffee & Brunch Spots"],"distanceKm":3.242142381069318},{"id":"coffeeBrunchRestaurants_4b0dd01f9ddd","slug":"exo-meria-4b0d","kind":"restaurant","name":"Exo meria","lat":37.621680604479764,"lng":25.051831582375698,"url":"https://maps.app.goo.gl/o27dRVLq4yNqsqfV6?g_st=ipc","address":"Isternia 842 01","categoryIds":["coffee-brunch"],"categories":["Coffee & Brunch Spots"],"distanceKm":3.333151571052868},{"id":"greekRestaurants_9bd6eb0516c5","slug":"foy-foy-9bd6","kind":"restaurant","name":"ΦΟΥ-ΦΟΥ","lat":37.62122057124332,"lng":25.052979875664423,"url":"https://maps.app.goo.gl/TPj9fHVZDWJCm6NZA?g_st=ipc","address":"Isternia, Tinos 842 01, Tinos Island 842 01 Υστερνια, 842 01","categoryIds":["greek-restaurants"],"categories":["Greek Restaurants"],"distanceKm":3.3864459861563203},{"id":"greekRestaurants_94cb9a9dd94a","slug":"stin-ammo-allios-94cb","kind":"restaurant","name":"Στην Άμμο...αλλιώς","lat":37.615358360450664,"lng":25.042685964832707,"url":"https://maps.app.goo.gl/3Pr5rMprS5Yppvz26?g_st=ipc","address":"Επαρχιακή οδός Τήνου, Όρμος Υστερνίων 842 00","categoryIds":["greek-restaurants"],"categories":["Greek Restaurants"],"distanceKm":4.111562179058662},{"id":"fishTavernasRestaurants_5745f4ec9e6d","slug":"to-thalassaki-5745","kind":"restaurant","name":"To Θαλασσάκι","lat":37.615230690872465,"lng":25.0428843541274,"url":"https://maps.app.goo.gl/eqUQ8oiZuscvzKLaA?g_st=ipc","address":"bay, Isternia 842 01","categoryIds":["fish-tavernas"],"categories":["Fish Tavernas"],"distanceKm":4.1222137272432695},{"id":"luxuryDiningRestaurants_1d0300f3d6a7","slug":"o-ntinos-1d03","kind":"restaurant","name":"O Ntinos","lat":37.59381409443961,"lng":25.069991170783855,"url":"https://maps.app.goo.gl/P7xp29Uhw71Tk9J3A?g_st=ipc","address":"Όρμος Γιαννάκη, Kardiani 842 01","categoryIds":["luxury-dining"],"categories":["Luxury Dining"],"distanceKm":6.632707270362302},{"id":"greekRestaurants_838d0d66a841","slug":"svoura-tinos-838d","kind":"restaurant","name":"Svoura Tinos","lat":37.601268553117535,"lng":25.144221464428426,"url":"https://maps.app.goo.gl/V4vVEqRbyhJ55CDHA?g_st=ipc","address":"Οδός Κώμης, Κώμη 842 00","categoryIds":["greek-restaurants"],"categories":["Greek Restaurants"],"distanceKm":9.89642451013001},{"id":"greekRestaurants_5f9836018bd2","slug":"majorana-tinos-5f98","kind":"restaurant","name":"Majorana Tinos","lat":37.60853974046837,"lng":25.163273293292903,"url":"https://maps.app.goo.gl/e55FM2zsVXQpSNvD6?g_st=ipc","address":"Οδός Αγάπης 1, Τήνος 842 00","categoryIds":["greek-restaurants"],"categories":["Greek Restaurants"],"distanceKm":10.941356518584909},{"id":"greekRestaurants_9fd04aa91df9","slug":"katoi-sto-smardakito-9fd0","kind":"restaurant","name":"Κατώι στο Σμαρδάκιτο","lat":37.58545068761989,"lng":25.14517970131365,"url":"https://maps.app.goo.gl/uYvTXyHmVcZNJNpY7?g_st=ipc","address":"Σμαρδάκιτο 842 00","categoryIds":["greek-restaurants"],"categories":["Greek Restaurants"],"distanceKm":11.05171464348682},{"id":"greekRestaurants_947625a45be1","slug":"choreytra-9476","kind":"restaurant","name":"Χορεύτρα","lat":37.57812719431085,"lng":25.148363122123474,"url":"https://maps.app.goo.gl/WmyveBjvkGgoho4z9?g_st=ipc","address":"Κάμπος 842 00","categoryIds":["greek-restaurants"],"categories":["Greek Restaurants"],"distanceKm":11.811072484841894},{"id":"coffeeBrunchRestaurants_75655a70677b","slug":"krok-mesie-all-day-bistrot-proino-brunch-sto-chorio-7565","kind":"restaurant","name":"Κροκ Μεσιέ | All day Bistrot {Πρωινό & Brunch στο χωριό}","lat":37.58939959185263,"lng":25.160526432646503,"url":"https://maps.app.goo.gl/PWyPVsJkGM6y8EdR9?g_st=ipc","address":"Epar.Od. Tripotamou-Kallonis, Krokos 842 00","categoryIds":["coffee-brunch"],"categories":["Coffee & Brunch Spots"],"distanceKm":11.831068505170519},{"id":"coffeeBrunchRestaurants_1dd5e3fc998c","slug":"kafe-nai-1dd5","kind":"restaurant","name":"καφέ-ναι","lat":37.59217889938765,"lng":25.17817299063689,"url":"https://maps.app.goo.gl/fceHF61HD8ctgCdK7?g_st=ipc","address":"Unnamed Road, Volakas 842 00","categoryIds":["coffee-brunch"],"categories":["Coffee & Brunch Spots"],"distanceKm":12.962452062345497},{"id":"greekRestaurants_172ea4764db5","slug":"taverna-kafe-glyka-to-agnanti-172e","kind":"restaurant","name":"Ταβερνα-καφε-γλυκα το Αγνάντι","lat":37.565898907413874,"lng":25.1560402932862,"url":"https://maps.app.goo.gl/8XiQyQLYGgA9F42f6?g_st=ipc","address":"Κτικαδος 38, Δήμος Εξωμβούργου 842 00","categoryIds":["greek-restaurants"],"categories":["Greek Restaurants"],"distanceKm":13.25078841783124},{"id":"coffeeBrunchRestaurants_d86c8a19693a","slug":"kloyki-klouki-d86c","kind":"restaurant","name":"Κλούκι (Klouki)","lat":37.58260089712488,"lng":25.191149960754956,"url":"https://maps.app.goo.gl/GBkSRUkYZhjgkkFo9?g_st=ipc","address":"Φαλατάδος 842 00","categoryIds":["coffee-brunch"],"categories":["Coffee & Brunch Spots"],"distanceKm":14.49329533927749},{"id":"greekRestaurants_edeac11ea4d1","slug":"amiseli-edea","kind":"restaurant","name":"Αμισέλι","lat":37.57655586774317,"lng":25.195728111727593,"url":"https://maps.app.goo.gl/CTunTWCctmqFu2mZ6?g_st=ipc","address":"Unnamed Road, Στενή 842 00","categoryIds":["greek-restaurants"],"categories":["Greek Restaurants"],"distanceKm":15.19601995717263},{"id":"greekRestaurants_9b03e2c7dda1","slug":"tereza-9b03","kind":"restaurant","name":"Τερέζα","lat":37.58336832133397,"lng":25.202195929124645,"url":"https://maps.app.goo.gl/zNss9ojqUKW1DC9s6?g_st=ipc","address":"Μυρσινη 842 00","categoryIds":["greek-restaurants"],"categories":["Greek Restaurants"],"distanceKm":15.284480366705374},{"id":"greekRestaurants_fa84c80207a5","slug":"cantina-analogue-bohemian-wine-gallery-tinos-fa84","kind":"restaurant","name":"Cantina Analogue Bohemian WIne Gallery Tinos","lat":37.538912232681554,"lng":25.16067525735608,"url":"https://maps.app.goo.gl/3WjrNZFhDCFeorz98?g_st=ipc","address":"Καρολου, Βιτάλη 5, Τήνος 842 00","categoryIds":["greek-restaurants"],"categories":["Greek Restaurants"],"distanceKm":15.796535857407672},{"id":"coffeeBrunchRestaurants_e5ec2340781f","slug":"cantina-analogue-bohemian-wine-gallery-tinos-e5ec","kind":"restaurant","name":"Cantina Analogue Bohemian WIne Gallery Tinos","lat":37.53889977873259,"lng":25.160674453389994,"url":"https://maps.app.goo.gl/zgVordiqFYChj8ee9?g_st=ipc","address":"Καρολου, Vitali 5, Tinos 842 00","categoryIds":["coffee-brunch"],"categories":["Coffee & Brunch Spots"],"distanceKm":15.797592299358067},{"id":"greekRestaurants_5411c28e3480","slug":"myrtilo-bistro-5411","kind":"restaurant","name":"Μύρτιλο bistro","lat":37.538868934363514,"lng":25.16069378342922,"url":"https://maps.app.goo.gl/skwxRn9YNPogPQ1XA?g_st=ipc","address":"Βιτάλη, Αφεντούλη και, Τήνος 842 00","categoryIds":["greek-restaurants"],"categories":["Greek Restaurants"],"distanceKm":15.801351644317426},{"id":"coffeeBrunchRestaurants_efaa1eb785fb","slug":"antilalos-efaa","kind":"restaurant","name":"Antilalos","lat":37.53878225540917,"lng":25.160792308573363,"url":"https://maps.app.goo.gl/JZWV3eGAAkm1yYKZ9?g_st=ipc","address":"Αφεντούλη, Paxamadi και, Tinos 842 00","categoryIds":["coffee-brunch"],"categories":["Coffee & Brunch Spots"],"distanceKm":15.814285405593957},{"id":"coffeeBrunchRestaurants_7f2ed8602049","slug":"moxa-espresso-bar-7f2e","kind":"restaurant","name":"Moxa Espresso Bar","lat":37.53892047512739,"lng":25.161704068402724,"url":"https://maps.app.goo.gl/WEWXxoC44GxvXT9t9?g_st=ipc","address":"ΝΙΚΗΦΟΡΟΥ ΛΥΤΡΑ 10, Tinos 842 00","categoryIds":["coffee-brunch"],"categories":["Coffee & Brunch Spots"],"distanceKm":15.851121614534465}],"sameRegion":[],"mentionedGuides":[],"canonicalSlug":"tama-d5a2","isCanonicalEntity":true,"enrichment":{"summary_en":"Táma is a curated restaurant in Greece in the Fish Tavernas collection. It is connected to 0 nearby Googlementor picks to help travelers build a stronger local route.","summary_el":"Táma είναι ένα επιλεγμένο σημείο φαγητού στην περιοχή Greece και ανήκει στη συλλογή Fish Tavernas. Συνδέεται με 0 κοντινές προτάσεις του Googlementor για πιο ολοκληρωμένη εμπειρία.","vibe_tags":["curated","seafood-local"],"best_for":["first-time visitors","food lovers"],"visit_moments":["lunch stop","dinner stop"],"practical_note":"Address and direct map link are available for easy turn-by-turn access.","nearby_walkable_count":0,"nearby_count_2km":3,"confidence":0.9}},"__N_SSG":true}