{"pageProps":{"entity":{"id":"burgersRestaurants_bebf6534ac83","slug":"tarantino-burgers-athens-bebf","kind":"restaurant","name":"Tarantino Burgers Athens","lat":37.96648556958662,"lng":23.727729975927073,"url":"https://maps.app.goo.gl/SzYTBZRaHtH1zEgv6?g_st=ipc","address":"Δημητρακοπούλου 17, Αθήνα 117 42","categoryIds":["burgers"],"categories":["Burger Spots"]},"sameCategory":[{"id":"burgersRestaurants_ad6cf86d44bd","slug":"sam-burgers-ad6c","kind":"restaurant","name":"Sam burgers","lat":37.96388468249238,"lng":23.72312062221316,"url":"https://maps.app.goo.gl/pYEUc4KHraPYUmvN8?g_st=ipc","address":"Δημητρακοπούλου 82, Αθήνα 117 41","categoryIds":["burgers"],"categories":["Burger Spots"]},{"id":"asianRestaurants_ddcb57380116","slug":"ekiben-kitchen-ddcb","kind":"restaurant","name":"EKIBEN KITCHEN","lat":37.97373780649657,"lng":23.73268249015655,"url":"https://maps.app.goo.gl/phQR869HE6dZNJGS9?g_st=ipc","address":"Σκούφου 15, Αθήνα 105 57","categoryIds":["asian","burgers"],"categories":["Asian Restaurants","Burger Spots"],"legacySlugs":["ekiben-kitchen-bf81"]},{"id":"burgersRestaurants_49b08b8052e0","slug":"birdman-49b0","kind":"restaurant","name":"Birdman","lat":37.97462442043903,"lng":23.73232607660368,"url":"https://maps.app.goo.gl/hqjbsZtLtS6aPvv9A?g_st=ipc","address":"Βουλής 35, Αθήνα 105 57","categoryIds":["burgers"],"categories":["Burger Spots"]},{"id":"burgersRestaurants_fed9fc98ba72","slug":"lobby-athens-fed9","kind":"restaurant","name":"Lobby Athens","lat":37.97480226330857,"lng":23.732216902854162,"url":"https://maps.app.goo.gl/McpvxRFgv3HSY4VF6?g_st=ipc","address":"Βουλής 30, Αθήνα 105 57","categoryIds":["burgers"],"categories":["Burger Spots"]},{"id":"burgersRestaurants_72777d81b2c1","slug":"cadillac-burgers-7277","kind":"restaurant","name":"Cadillac Burgers","lat":37.97549144814891,"lng":23.728731411277973,"url":"https://maps.app.goo.gl/tbzr2ePrf29seJBFA?g_st=ipc","address":"Μνησικλέους 6, Αθήνα 105 56","categoryIds":["burgers"],"categories":["Burger Spots"]},{"id":"burgersRestaurants_7c6e8e764472","slug":"the-smashers-athens-7c6e","kind":"restaurant","name":"The Smashers Athens","lat":37.97685470027012,"lng":23.728849657560023,"url":"https://maps.app.goo.gl/uKyi2SUBZv1EWPoV7?g_st=ic","address":"Kalamiotou 7, Athina 105 63","categoryIds":["burgers"],"categories":["Burger Spots"]},{"id":"burgersRestaurants_594f0da03951","slug":"the-smashers-athens-594f","kind":"restaurant","name":"The Smashers Athens","lat":37.976855263908405,"lng":23.728850035341498,"url":"https://maps.app.goo.gl/eZb9zRu5ZEKX8jLZ6?g_st=ipc","address":"Καλαμιώτου 7, Αθήνα 105 63","categoryIds":["burgers"],"categories":["Burger Spots"]},{"id":"burgersRestaurants_ca036ca42e3f","slug":"pax-burgers-ca03","kind":"restaurant","name":"Pax burgers","lat":37.97692157366875,"lng":23.727728305189554,"url":"https://maps.app.goo.gl/w3oRJbpwaMiNHFW39?g_st=ipc","address":"Αιόλου 34, Αθήνα 105 63","categoryIds":["burgers"],"categories":["Burger Spots"]},{"id":"burgersRestaurants_de31086328e0","slug":"balboa-athens-de31","kind":"restaurant","name":"Balboa Athens","lat":37.977044741999016,"lng":23.724391193177723,"url":"https://maps.app.goo.gl/xqbjAq65izWtnBT18?g_st=ipc","address":"Αρτέμιδος 1-3, Αθήνα 105 54","categoryIds":["burgers"],"categories":["Burger Spots"]},{"id":"burgersRestaurants_f300f2c4a7ef","slug":"starlight-burgers-f300","kind":"restaurant","name":"Starlight Burgers","lat":37.97768708628673,"lng":23.730973383072776,"url":"https://maps.app.goo.gl/tRpSe3harTyJVBVg7?g_st=ipc","address":"Πραξιτέλους 1, Αθήνα 105 62","categoryIds":["burgers"],"categories":["Burger Spots"]},{"id":"burgersRestaurants_0329702a3adc","slug":"hankypanky-0329","kind":"restaurant","name":"HankyPanky","lat":37.967400114692225,"lng":23.71303845092353,"url":"https://maps.app.goo.gl/nQP3ShaVnqxgTCSC7?g_st=ipc","address":"Δεινοχαρους 1, Αθήνα 118 52","categoryIds":["burgers"],"categories":["Burger Spots"]},{"id":"burgersRestaurants_82d2f41d9265","slug":"big-nick-82d2","kind":"restaurant","name":"Big Nick","lat":37.956445331565305,"lng":23.73566615673783,"url":"https://maps.app.goo.gl/j5eRwkA5Uf2bwVHs7?g_st=ipc","address":"Λεωφόρος Βουλιαγμένης 145, Αθήνα 116 31","categoryIds":["burgers","vegetarian"],"categories":["Burger Spots","Vegetarian Friendly Restaurants"],"legacySlugs":["big-nick-ce09"]}],"nearby":[{"id":"cheapEatsRestaurants_ea477a96a248","slug":"ta-soyvlakia-tis-petmeza-souvlakia-petmeza-ea47","kind":"restaurant","name":"Τα ΣΟΥΒΛΑΚΙΑ της Πετμεζά souvlakia petmeza","lat":37.96653318144558,"lng":23.72792783847805,"url":"https://maps.app.goo.gl/wJbToSNnsHXBEELJ7?g_st=ipc","address":"Πετμεζά 2, Αθήνα 117 42","categoryIds":["cheap-eats"],"categories":["Gyros & Cheap Eats"],"distanceKm":0.018135158215028205},{"id":"italianRestaurants_13c8863a9591","slug":"pizza-dough-13c8","kind":"restaurant","name":"Pizza Dough!","lat":37.96630825345609,"lng":23.72750504939054,"url":"https://maps.app.goo.gl/nNiwhy5xKwpgF7Lo6?g_st=ipc","address":"Δημητρακοπούλου 17, Αθήνα 117 42","categoryIds":["italian"],"categories":["Italian Restaurants"],"distanceKm":0.027884313247113855},{"id":"dessertsRestaurants_2a3970a71069","slug":"django-gelato-athens-2a39","kind":"restaurant","name":"Django Gelato Athens","lat":37.96685228149483,"lng":23.72787408682893,"url":"https://maps.app.goo.gl/uXMPHW7X8YEMKDvp9?g_st=ipc","address":"Βεΐκου 15, Αθήνα 117 42","categoryIds":["desserts"],"categories":["Dessert Shops"],"distanceKm":0.04268863337549713},{"id":"luxuryDiningRestaurants_3c6581cd9485","slug":"esthio-athens-3c65","kind":"restaurant","name":"Esthio Athens","lat":37.96676654589047,"lng":23.72827244889686,"url":"https://maps.app.goo.gl/Ldu5GaEmi8GWuxbX6?g_st=ipc","address":"Δημητρακοπούλου 7, Αθήνα 117 42","categoryIds":["luxury-dining"],"categories":["Luxury Dining"],"distanceKm":0.05689970066828488},{"id":"luxuryDiningRestaurants_08d018b1cd7a","slug":"manimani-08d0","kind":"restaurant","name":"ΜΑΝΗΜΑΝΗ","lat":37.96669521915854,"lng":23.72836820432756,"url":"https://maps.app.goo.gl/XJabCFiZNQjmGZzb7?g_st=ipc","address":"Φαλήρου 10, Αθήνα 117 42","categoryIds":["luxury-dining"],"categories":["Luxury Dining"],"distanceKm":0.06061121187218247},{"id":"cheapEatsRestaurants_7c127d112eef","slug":"dirty-manh-7c12","kind":"restaurant","name":"Dirty Manh","lat":37.96689597541608,"lng":23.728371721835774,"url":"https://maps.app.goo.gl/LaZcss8aznDJpxm89?g_st=ipc","address":"Νικ. Δημητρακοπούλου 5, Αθήνα 117 42","categoryIds":["cheap-eats"],"categories":["Gyros & Cheap Eats"],"distanceKm":0.07243907162083779},{"id":"rooftopLoungesRestaurants_0166d74152d9","slug":"180-west-rooftop-lounge-restaurant-0166","kind":"restaurant","name":"180º West Rooftop Lounge Restaurant","lat":37.965774750504295,"lng":23.727676619784248,"url":"https://maps.app.goo.gl/B2UsgvhxQkuJx2dU7?g_st=ipc","address":"Φαλήρου 37-39, Αθήνα 117 42","categoryIds":["rooftop-lounges"],"categories":["Rooftop Lounges"],"distanceKm":0.07917775280480616},{"id":"coffeeBrunchRestaurants_da9d2fc56763","slug":"acai-verao-athens-da9d","kind":"restaurant","name":"Açaí Verão Athens","lat":37.966845247384065,"lng":23.728622894774116,"url":"https://maps.app.goo.gl/zSWkUCcCMEwv3K5Y7?g_st=ipc","address":"Φαλήρου 6, Αθήνα 117 42","categoryIds":["coffee-brunch"],"categories":["Coffee & Brunch Spots"],"distanceKm":0.08790117782326833},{"id":"italianRestaurants_d5b2689c4a11","slug":"romatella-pinsa-romana-d5b2","kind":"restaurant","name":"Romatella - Pinsa Romana","lat":37.96690380968513,"lng":23.72869589039828,"url":"https://maps.app.goo.gl/qy2UDY83bx3RhcUU9?g_st=ipc","address":"Φαλήρου 4, Αθήνα 117 42","categoryIds":["italian"],"categories":["Italian Restaurants"],"distanceKm":0.09660540480860252},{"id":"greekRestaurants_fdc308cbed46","slug":"sfika-fdc3","kind":"restaurant","name":"Σφήκα","lat":37.966122619632145,"lng":23.726245016024656,"url":"https://maps.app.goo.gl/WDLKPoT2bayYqor96","address":"Στρ. Κοντούλη 15, Αθήνα 117 42","categoryIds":["greek-restaurants"],"categories":["Greek Restaurants"],"distanceKm":0.13628867148490187},{"id":"coffeeBrunchRestaurants_85c9b3242244","slug":"this-is-loco-85c9","kind":"restaurant","name":"This is Loco","lat":37.96542578565319,"lng":23.726906270555997,"url":"https://maps.app.goo.gl/DKCmfLqp6KdRCVPg6?g_st=ipc","address":"Φαλήρου 47, Αθήνα 117 42","categoryIds":["coffee-brunch","vegetarian"],"categories":["Coffee & Brunch Spots","Vegetarian Friendly Restaurants"],"legacySlugs":["this-is-loco-0b77"],"distanceKm":0.13820635809336168},{"id":"cheapEatsRestaurants_abe36348d52a","slug":"guarantee-abe3","kind":"restaurant","name":"Guarantee","lat":37.96613348579953,"lng":23.726193428667294,"url":"https://maps.app.goo.gl/k43yGuJ8dK72yJAh8?g_st=ipc","address":"Βεΐκου 41, Αθήνα 117 42","categoryIds":["cheap-eats"],"categories":["Gyros & Cheap Eats"],"distanceKm":0.1402725057255386},{"id":"greekRestaurants_104d52bd2241","slug":"mpalkoni-estiatorio-kai-mpar-104d","kind":"restaurant","name":"Μπαλκόνι Εστιατόριο και Μπαρ","lat":37.96744106512062,"lng":23.72879886025239,"url":"https://maps.app.goo.gl/7XXsfB27aRZAsikR7","address":"Βεΐκου 1, Αθήνα 117 42","categoryIds":["greek-restaurants"],"categories":["Greek Restaurants"],"distanceKm":0.14166195328769005},{"id":"asianRestaurants_be2d9e8cfa29","slug":"kuchisabishii-sakaba-be2d","kind":"restaurant","name":"Kuchisabishii Sakaba","lat":37.965507796335324,"lng":23.72667501899547,"url":"https://maps.app.goo.gl/mwPcNGYBVTJSy6C59?g_st=ic","address":"Falirou 36, Athina 117 42","categoryIds":["asian"],"categories":["Asian Restaurants"],"distanceKm":0.1427359140739274},{"id":"cheapEatsRestaurants_ccda7a47a1b9","slug":"falafel-bar-to-revithi-ccda","kind":"restaurant","name":"falafel bar ΤΟ ΡΕΒΙΘΙ","lat":37.96631483519238,"lng":23.7261110398094,"url":"https://maps.app.goo.gl/4FqJYg2raYZvXHja7?g_st=ipc","address":"Παρθενώνος 1, Αθήνα 117 42","categoryIds":["cheap-eats","vegetarian"],"categories":["Gyros & Cheap Eats","Vegetarian Friendly Restaurants"],"legacySlugs":["falafel-bar-to-revithi-dec0"],"distanceKm":0.14318485401779107},{"id":"coffeeBrunchRestaurants_a5c0f29b5820","slug":"tempo-social-club-a5c0","kind":"restaurant","name":"Tempo Social Club","lat":37.96527397578301,"lng":23.726786075207272,"url":"https://maps.app.goo.gl/uU1H3HFYf7VVqpjy9?g_st=ipc","address":"Φαλήρου 49, Αθήνα 117 42","categoryIds":["coffee-brunch"],"categories":["Coffee & Brunch Spots"],"distanceKm":0.15810489645352246},{"id":"dessertsRestaurants_44e6918dfa7f","slug":"alchimistis-cafe-patisserie-44e6","kind":"restaurant","name":"Αλχημιστής Cafe Patisserie","lat":37.96784501160447,"lng":23.7283241033881,"url":"https://maps.app.goo.gl/n2exdkXc6qfVR4fM9?g_st=ipc","address":"Χατζηχρήστου 8, Αθήνα 117 42","categoryIds":["desserts"],"categories":["Dessert Shops"],"distanceKm":0.15988385416962547},{"id":"coffeeBrunchRestaurants_60b919ea4202","slug":"artopoiotis-o-takis-60b9","kind":"restaurant","name":"Αρτοποιότης Ο Τάκης","lat":37.96774042832454,"lng":23.72678404932504,"url":"https://maps.app.goo.gl/kz81zzmehsyvYBbQ6?g_st=ipc","address":"Μισαραλιώτου 14, Αθήνα 117 42","categoryIds":["coffee-brunch"],"categories":["Coffee & Brunch Spots"],"distanceKm":0.1623137590276295},{"id":"coffeeBrunchRestaurants_3cb499b8df33","slug":"drupes-spritzeria-3cb4","kind":"restaurant","name":"Drupes Spritzeria","lat":37.96781101754338,"lng":23.726828197185508,"url":"https://maps.app.goo.gl/3UEtVFAU3pPvguxJA?g_st=ipc","address":"Ζήτρου 20, Αθήνα 117 42","categoryIds":["coffee-brunch"],"categories":["Coffee & Brunch Spots"],"distanceKm":0.16724519575238142},{"id":"vegetarianRestaurants_4db58e18de0e","slug":"peas-vegan-4db5","kind":"restaurant","name":"Peas Vegan","lat":37.965309081383936,"lng":23.72648212033699,"url":"https://maps.app.goo.gl/8AeCWeh7LczgaD87A?g_st=ipc","address":"Φαλήρου 40, Αθήνα 117 42","categoryIds":["vegetarian"],"categories":["Vegetarian Friendly Restaurants"],"distanceKm":0.17052926579905073},{"id":"cheapEatsRestaurants_d094097525b6","slug":"senor-picante-d094","kind":"restaurant","name":"Señor Picante","lat":37.965308606012925,"lng":23.726477821309263,"url":"https://maps.app.goo.gl/bZNApSKDTgmvuiXB7?g_st=ipc","address":"Φαλήρου 40, Αθήνα 117 42","categoryIds":["cheap-eats","mexican"],"categories":["Gyros & Cheap Eats","Mexican Restaurants"],"legacySlugs":["senor-picante-fbd3"],"distanceKm":0.1708117606465607},{"id":"greekRestaurants_2cc5d772f006","slug":"onos-taverna-2cc5","kind":"restaurant","name":"Onos Taverna","lat":37.96571079116367,"lng":23.725945276440267,"url":"https://maps.app.goo.gl/ur5XrAoMuE8FsR5c6","address":"Δράκου 14, Αθήνα 117 42","categoryIds":["greek-restaurants"],"categories":["Greek Restaurants"],"distanceKm":0.17860429313466017},{"id":"asianRestaurants_83a81f921b31","slug":"tuk-tuk-thai-street-food-83a8","kind":"restaurant","name":"TUK TUK THAI STREET FOOD","lat":37.96606521122011,"lng":23.725716482971748,"url":"https://maps.app.goo.gl/dLSj52rnQDPAbaGg8?g_st=ipc","address":"Βεΐκου 40, Αθήνα 117 42","categoryIds":["asian"],"categories":["Asian Restaurants"],"distanceKm":0.18259302166268818},{"id":"coffeeBrunchRestaurants_01aaff71bf45","slug":"pancake-cake-acropolis-01aa","kind":"restaurant","name":"Pancake & CAKE Acropolis","lat":37.967897348905204,"lng":23.726566946010575,"url":"https://maps.app.goo.gl/QuHwWVBbtZh2gYY18?g_st=ipc","address":"Καρυάτιδων 15, Αθήνα 117 42","categoryIds":["coffee-brunch"],"categories":["Coffee & Brunch Spots"],"distanceKm":0.18718462969552094}],"sameRegion":[],"mentionedGuides":[{"slug":"tap-water-safe-greece-el","title":"Είναι Ασφαλές να Πίνετε Νερό Βρύσης στην Ελλάδα;"},{"slug":"tap-water-safe-greece","title":"Is Tap Water Safe to Drink in Greece?"},{"slug":"traveling-to-greece-on-a-budget-el","title":"Ταξιδι στην Ελλαδα με μικρο budget"},{"slug":"traveling-to-greece-on-a-budget","title":"Traveling to Greece on a Budget"}],"canonicalSlug":"tarantino-burgers-athens-bebf","isCanonicalEntity":true,"enrichment":{"summary_en":"Tarantino Burgers Athens is a curated restaurant in Αθήνα 117 42 in the Burger Spots collection. It is connected to 106 nearby Googlementor picks to help travelers build a stronger local route.","summary_el":"Tarantino Burgers Athens είναι ένα επιλεγμένο σημείο φαγητού στην περιοχή Αθήνα 117 42 και ανήκει στη συλλογή Burger Spots. Συνδέεται με 106 κοντινές προτάσεις του Googlementor για πιο ολοκληρωμένη εμπειρία.","vibe_tags":["curated"],"best_for":["first-time visitors","food lovers"],"visit_moments":["lunch stop","dinner stop"],"practical_note":"Address and direct map link are available for easy turn-by-turn access.","nearby_walkable_count":106,"nearby_count_2km":585,"confidence":0.98}},"__N_SSG":true}