{"pageProps":{"entity":{"id":"coffeeBrunchRestaurants_26528fa68af9","slug":"the-brunchers-2652","kind":"restaurant","name":"The Brunchers","lat":37.97723167635048,"lng":23.724930062728706,"url":"https://maps.app.goo.gl/28Tan1nmqMaPBFMr7?g_st=ipc","address":"Αγ. Θέκλας 5, Αθήνα 105 54","categoryIds":["coffee-brunch","vegetarian"],"categories":["Coffee & Brunch Spots","Vegetarian Friendly Restaurants"],"legacySlugs":["the-brunchers-2110"]},"sameCategory":[{"id":"coffeeBrunchRestaurants_3bd143dc0b3c","slug":"anana-coffee-food-3bd1","kind":"restaurant","name":"Anana Coffee|Food","lat":37.9790791623964,"lng":23.72939339771832,"url":"https://maps.app.goo.gl/LVwtjjfHm1ZP7KNd9?g_st=ipc","address":"Πραξιτέλους 33, Αθήνα 105 60","categoryIds":["coffee-brunch","vegetarian"],"categories":["Coffee & Brunch Spots","Vegetarian Friendly Restaurants"],"legacySlugs":["anana-coffee-food-aa80"]},{"id":"coffeeBrunchRestaurants_72ee5296056d","slug":"holy-llama-72ee","kind":"restaurant","name":"Holy Llama","lat":37.97397500358649,"lng":23.73312528899751,"url":"https://maps.app.goo.gl/5KzgeBBfEf77x8sL7?g_st=ipc","address":"Nikis, Syntagma 23, Αθήνα 105 57","categoryIds":["coffee-brunch","vegetarian"],"categories":["Coffee & Brunch Spots","Vegetarian Friendly Restaurants"],"legacySlugs":["holy-llama-4c1a"]},{"id":"coffeeBrunchRestaurants_d047b317da2a","slug":"to-tsai-d047","kind":"restaurant","name":"To Tsai","lat":37.97897316301174,"lng":23.737126960431553,"url":"https://maps.app.goo.gl/xwzLF5n6xn8fr2tf8?g_st=ipc","address":"Αλ. Σούτσου 19, Αθήνα 106 71","categoryIds":["coffee-brunch","vegetarian"],"categories":["Coffee & Brunch Spots","Vegetarian Friendly Restaurants"],"legacySlugs":["to-tsai-23ba"]},{"id":"coffeeBrunchRestaurants_4c997e8e7df4","slug":"the-place-secret-yard-4c99","kind":"restaurant","name":"The Place Secret Yard","lat":37.979297007842895,"lng":23.7118945584477,"url":"https://maps.app.goo.gl/H2MApFAjiqUyTf7B8?g_st=ipc","address":"Τριπτολέμου 26, Αθήνα 118 54","categoryIds":["coffee-brunch","vegetarian"],"categories":["Coffee & Brunch Spots","Vegetarian Friendly Restaurants"],"legacySlugs":["the-place-secret-yard-0734"]},{"id":"coffeeBrunchRestaurants_85c9b3242244","slug":"this-is-loco-85c9","kind":"restaurant","name":"This is Loco","lat":37.96542578565319,"lng":23.726906270555997,"url":"https://maps.app.goo.gl/DKCmfLqp6KdRCVPg6?g_st=ipc","address":"Φαλήρου 47, Αθήνα 117 42","categoryIds":["coffee-brunch","vegetarian"],"categories":["Coffee & Brunch Spots","Vegetarian Friendly Restaurants"],"legacySlugs":["this-is-loco-0b77"]},{"id":"coffeeBrunchRestaurants_88ec9d6dfbbc","slug":"joshua-tree-cafe-88ec","kind":"restaurant","name":"Joshua Tree Cafe","lat":37.96618895456632,"lng":23.73475215870415,"url":"https://maps.app.goo.gl/hxko2CRaz8QbMJPc8?g_st=ipc","address":"Αναπαύσεως 13, Αθήνα 116 36","categoryIds":["coffee-brunch","vegetarian"],"categories":["Coffee & Brunch Spots","Vegetarian Friendly Restaurants"],"legacySlugs":["joshua-tree-cafe-e75c"]},{"id":"coffeeBrunchRestaurants_10b5704edcd7","slug":"karminio-all-day-eatery-10b5","kind":"restaurant","name":"KARMINIO - All Day Eatery","lat":37.963365261808825,"lng":23.721069408577183,"url":"https://maps.app.goo.gl/B47HWPSnhF6mtY1M8?g_st=ipc","address":"Βεΐκου 86, Αθήνα 117 41","categoryIds":["coffee-brunch","vegetarian"],"categories":["Coffee & Brunch Spots","Vegetarian Friendly Restaurants"],"legacySlugs":["karminio-all-day-eatery-44c1"]},{"id":"coffeeBrunchRestaurants_6a62e770d50a","slug":"mind-the-cup-6a62","kind":"restaurant","name":"Mind The Cup","lat":38.01157944836187,"lng":23.693274104432696,"url":"https://maps.app.goo.gl/ztF6fFTkc58DpW1r6?g_st=ipc","address":"Αιμιλίου Βεάκη 29, Περιστέρι 121 34","categoryIds":["coffee-brunch","vegetarian"],"categories":["Coffee & Brunch Spots","Vegetarian Friendly Restaurants"],"legacySlugs":["mind-the-cup-0167"]},{"id":"coffeeBrunchRestaurants_8ebbeeadfb00","slug":"jerry-s-8ebb","kind":"restaurant","name":"JERRY’S","lat":37.99081436071943,"lng":23.798622930452883,"url":"https://maps.app.goo.gl/s7TjtfQj1q9s9Tnk8?g_st=ipc","address":"Εθ. Αμύνης 27, Παπάγου 156 69","categoryIds":["coffee-brunch","vegetarian"],"categories":["Coffee & Brunch Spots","Vegetarian Friendly Restaurants"],"legacySlugs":["jerry-s-4010"]},{"id":"coffeeBrunchRestaurants_c2dcfed13dc1","slug":"to-vazaki-juice-bar-c2dc","kind":"restaurant","name":"Το Βαζάκι Juice Bar","lat":38.021003514175945,"lng":23.80272580711501,"url":"https://maps.app.goo.gl/nDbFuEsz56BPrtWV8?g_st=ipc","address":"Αριστοτέλους 33, Χαλάνδρι 152 34","categoryIds":["coffee-brunch","vegetarian"],"categories":["Coffee & Brunch Spots","Vegetarian Friendly Restaurants"],"legacySlugs":["to-vazaki-juice-bar-fee3"]},{"id":"coffeeBrunchRestaurants_cae5ad9a4492","slug":"join-juice-bars-cae5","kind":"restaurant","name":"JOIN juice bars","lat":40.555069982077164,"lng":22.99254169325442,"url":"https://maps.app.goo.gl/VvKcZzDAukezDVie8?g_st=ipc","address":"11ο χλμ εθνικής οδού, A/D Thessalonikis Neon Moudanion, Thessaloniki 570 01","categoryIds":["coffee-brunch","vegetarian"],"categories":["Coffee & Brunch Spots","Vegetarian Friendly Restaurants"],"legacySlugs":["join-juice-bars-7a1d"]},{"id":"coffeeBrunchRestaurants_b086083463ae","slug":"join-juice-bars-b086","kind":"restaurant","name":"JOIN juice bars","lat":40.60107511267006,"lng":22.949804539088774,"url":"https://maps.app.goo.gl/LQXcNjB3LwE4q56r7?g_st=ipc","address":"Marias Kallas 1, Thessaloniki 546 45","categoryIds":["coffee-brunch","vegetarian"],"categories":["Coffee & Brunch Spots","Vegetarian Friendly Restaurants"],"legacySlugs":["join-juice-bars-124c"]}],"nearby":[{"id":"italianRestaurants_f99f052e2cb0","slug":"tartufo-cucina-italiana-f99f","kind":"restaurant","name":"Tartufo Cucina Italiana","lat":37.97745304334609,"lng":23.72475266844782,"url":"https://maps.app.goo.gl/VGYffngsR22p4GZ36?g_st=ipc","address":"Αγ. Θέκλας 9, Αθήνα 105 54","categoryIds":["italian"],"categories":["Italian Restaurants"],"distanceKm":0.029114448843585317},{"id":"coffeeBrunchRestaurants_988f2cbbbd9c","slug":"liystor-988f","kind":"restaurant","name":"LIYSTOR","lat":37.97700032542266,"lng":23.724753676313323,"url":"https://maps.app.goo.gl/7douBXS6i4VTSVMM9?g_st=ipc","address":"Ερμού 92-94, Αθήνα 105 54","categoryIds":["coffee-brunch","rooftop-lounges"],"categories":["Coffee & Brunch Spots","Rooftop Lounges"],"legacySlugs":["liystor-484f"],"distanceKm":0.030013310769671855},{"id":"burgersRestaurants_de31086328e0","slug":"balboa-athens-de31","kind":"restaurant","name":"Balboa Athens","lat":37.977044741999016,"lng":23.724391193177723,"url":"https://maps.app.goo.gl/xqbjAq65izWtnBT18?g_st=ipc","address":"Αρτέμιδος 1-3, Αθήνα 105 54","categoryIds":["burgers"],"categories":["Burger Spots"],"distanceKm":0.05160352152277546},{"id":"dessertsRestaurants_ae317ae9a63f","slug":"plan-e-t-ice-cream-ae31","kind":"restaurant","name":"Plan(e)t Ice Cream","lat":37.9768796209685,"lng":23.725383311814642,"url":"https://maps.app.goo.gl/zzypW34gBH83e5G99?g_st=ipc","address":"Ερμού 86, Αθήνα 105 54","categoryIds":["desserts","vegetarian"],"categories":["Dessert Shops","Vegetarian Friendly Restaurants"],"legacySlugs":["plan-e-t-ice-cream-bddb"],"distanceKm":0.055773955838393924},{"id":"coffeeBrunchRestaurants_10001909d6f1","slug":"attic-urban-rooftop-1000","kind":"restaurant","name":"Attic Urban Rooftop","lat":37.97687145726863,"lng":23.725410732994586,"url":"https://maps.app.goo.gl/9Zyy977FxxHx9dgc9?g_st=ipc","address":"Ερμού 86, Αθήνα 105 54","categoryIds":["coffee-brunch","rooftop-lounges"],"categories":["Coffee & Brunch Spots","Rooftop Lounges"],"legacySlugs":["attic-urban-rooftop-7332"],"distanceKm":0.05813238543170398},{"id":"cheapEatsRestaurants_0f0b8dd68736","slug":"the-doc-s-burger-bar-0f0b","kind":"restaurant","name":"The Doc's Burger Bar","lat":37.97742334199844,"lng":23.725636669246807,"url":"https://maps.app.goo.gl/U7fwr2D5HgEHTzhH6?g_st=ipc","address":"Ανδρέα Μιαούλη 10, Αθήνα 105 54","categoryIds":["cheap-eats","vegetarian"],"categories":["Gyros & Cheap Eats","Vegetarian Friendly Restaurants"],"legacySlugs":["the-doc-s-burger-bar-089d"],"distanceKm":0.06549831610688077},{"id":"rooftopLoungesRestaurants_fd2aeb4fbf06","slug":"couleur-locale-fd2a","kind":"restaurant","name":"Couleur Locale","lat":37.97665657873508,"lng":23.724495249053955,"url":"https://maps.app.goo.gl/xcPngBCfpyfPpqpi9?g_st=ipc","address":"Νορμανού 3, Αθήνα 105 55","categoryIds":["rooftop-lounges"],"categories":["Rooftop Lounges"],"distanceKm":0.07444346925874627},{"id":"rooftopLoungesRestaurants_d2b2d3a1881c","slug":"luv-n-roll-house-tattoo-piercing-studio-athens-d2b2","kind":"restaurant","name":"LUV N ROLL HOUSE Tattoo & Piercing Studio | Athens","lat":37.977424235887426,"lng":23.72409772692034,"url":"https://maps.app.goo.gl/wef8tXnuzgY2o9iBA?g_st=ipc","address":"Καραϊσκάκη 14, Αθήνα 105 54","categoryIds":["rooftop-lounges"],"categories":["Rooftop Lounges"],"distanceKm":0.07603133652298905},{"id":"familyFriendly_e17e47d68ad1","slug":"little-kook-e17e","kind":"restaurant","name":"Little Kook","lat":37.9777197837275,"lng":23.724286649155946,"url":"https://maps.app.goo.gl/QNEYddbgdFKUSvNW9?g_st=ic","address":"Karaiskaki 17, Athina 105 54","categoryIds":["family-friendly"],"categories":["Kid Friendly Locations"],"distanceKm":0.07826991512565909},{"id":"dessertsRestaurants_31563f38c3c8","slug":"little-kook-3156","kind":"restaurant","name":"Little Kook","lat":37.977733085549225,"lng":23.724289592884226,"url":"https://maps.app.goo.gl/i8dJi89C6KdUv3Qy8?g_st=ipc","address":"Καραϊσκάκη, Αθήνα 105 54","categoryIds":["desserts"],"categories":["Dessert Shops"],"distanceKm":0.07911945125513566},{"id":"dessertsRestaurants_5f029576403e","slug":"mrsofty-5f02","kind":"restaurant","name":"MrSofty","lat":37.97794945664196,"lng":23.72507127899626,"url":"https://maps.app.goo.gl/qwbSWbdWTMN4EmVKA?g_st=ipc","address":"Miaouli 19, Athina 105 54","categoryIds":["desserts"],"categories":["Dessert Shops"],"distanceKm":0.0807675843455563},{"id":"rooftopLoungesRestaurants_18ce337fd426","slug":"a-for-athens-18ce","kind":"restaurant","name":"A for Athens","lat":37.97687634031922,"lng":23.725767271545557,"url":"https://maps.app.goo.gl/Vq5qVpsf9STrBATY9?g_st=ipc","address":"Μιαούλη 2-4, Αθήνα 105 54","categoryIds":["rooftop-lounges"],"categories":["Rooftop Lounges"],"distanceKm":0.08334273874203606},{"id":"dessertsRestaurants_259da585070b","slug":"loukoumadaki-athens-259d","kind":"restaurant","name":"Loukoumadaki Athens","lat":37.977901135383384,"lng":23.725373600096002,"url":"https://maps.app.goo.gl/qqDCoKK1WRYwRxk99?g_st=ipc","address":"Miaouli 18, Athina 105 54","categoryIds":["desserts"],"categories":["Dessert Shops"],"distanceKm":0.0839804360418255},{"id":"cheapEatsRestaurants_97e6c85445da","slug":"tsiken-the-van-97e6","kind":"restaurant","name":"ΤΣΙΚΕΝ The Van","lat":37.97797456722786,"lng":23.725133314287408,"url":"https://maps.app.goo.gl/QK18bYTh1b11fJt97?g_st=ipc","address":"Μιαούλη 19, Αθήνα 105 54","categoryIds":["cheap-eats"],"categories":["Gyros & Cheap Eats"],"distanceKm":0.08450486411875231},{"id":"coffeeBrunchRestaurants_06cd6550247a","slug":"to-koyloyri-toy-psyrri-06cd","kind":"restaurant","name":"Το Κουλούρι του Ψυρρή","lat":37.977887972011985,"lng":23.724432470303434,"url":"https://maps.app.goo.gl/mrSptKu5z8RBZP9j8?g_st=ipc","address":"Γεωργίου Καραϊσκάκη 23, Αθήνα 105 54","categoryIds":["coffee-brunch"],"categories":["Coffee & Brunch Spots"],"distanceKm":0.08501627744503935},{"id":"greekRestaurants_0c30703c94b5","slug":"krasopoylio-toy-kokkora-0c30","kind":"restaurant","name":"Κρασοπουλιο του Κοκκορα","lat":37.97774968772063,"lng":23.724156040305374,"url":"https://maps.app.goo.gl/FdPM4DDLKYaXnaei6","address":"Αισώπου 4, Αθήνα 105 54","categoryIds":["greek-restaurants"],"categories":["Greek Restaurants"],"distanceKm":0.08899683003020811},{"id":"greekRestaurants_e684531e1c90","slug":"to-kyklamino-e684","kind":"restaurant","name":"Το Κυκλάμινο","lat":37.976681511235476,"lng":23.724107441529995,"url":"https://maps.app.goo.gl/9UGJoEFr8WGupZtP9","address":"Πλ. Αβησσυνίας 3, Αθήνα 105 55","categoryIds":["greek-restaurants"],"categories":["Greek Restaurants"],"distanceKm":0.0945584210630298},{"id":"rooftopLoungesRestaurants_24e545264e5c","slug":"ms-24e5","kind":"restaurant","name":"MS","lat":37.97691417323162,"lng":23.726058429208038,"url":"https://maps.app.goo.gl/bs3sf3hsdSxC6Beo9?g_st=ipc","address":"Athinas 1 &, Ερμού, Αθήνα 105 54","categoryIds":["rooftop-lounges"],"categories":["Rooftop Lounges"],"distanceKm":0.10501398526130637},{"id":"rooftopLoungesRestaurants_9481fd0f2935","slug":"360-cocktail-bar-9481","kind":"restaurant","name":"360 Cocktail Bar","lat":37.97638780084513,"lng":23.72554423506802,"url":"https://maps.app.goo.gl/MDc3Ag3ciiiASdRN8?g_st=ipc","address":"Ηφαίστου 2, Αθήνα 105 55","categoryIds":["rooftop-lounges"],"categories":["Rooftop Lounges"],"distanceKm":0.10817987599508537},{"id":"coffeeBrunchRestaurants_8d3de33104cf","slug":"the-brunch-factory-8d3d","kind":"restaurant","name":"The Brunch Factory","lat":37.977341602927304,"lng":23.726205472467996,"url":"https://maps.app.goo.gl/CB8h73sPXUiPQmTu7?g_st=ipc","address":"Αθηνάς 11, Αθήνα 105 54","categoryIds":["coffee-brunch"],"categories":["Coffee & Brunch Spots"],"distanceKm":0.11245584611452382},{"id":"fishTavernasRestaurants_c043e36ec66a","slug":"nissos-seafood-tavern-c043","kind":"restaurant","name":"Nissos Seafood Tavern","lat":37.97768489940087,"lng":23.72367935167617,"url":"https://maps.app.goo.gl/zBgRFUhoxGYetbQc8?g_st=ipc","address":"Χριστοκοπίδου 1, Αθήνα 105 54","categoryIds":["fish-tavernas"],"categories":["Fish Tavernas"],"distanceKm":0.12065361053696144},{"id":"dessertsRestaurants_64c591cf617e","slug":"l-arte-del-gelato-64c5","kind":"restaurant","name":"L'Arte del Gelato","lat":37.97831483150659,"lng":23.72508265750619,"url":"https://maps.app.goo.gl/8FCA5DcN18fwe2916?g_st=ipc","address":"Μιαούλη 26, Αθήνα 105 54","categoryIds":["desserts"],"categories":["Dessert Shops"],"distanceKm":0.12118171025655952},{"id":"dessertsRestaurants_d00ebd9aea63","slug":"to-sermpetospito-tis-nansys-d00e","kind":"restaurant","name":"Το Σερμπετόσπιτο της Νάνσυς","lat":37.97833603994479,"lng":23.724854486877806,"url":"https://maps.app.goo.gl/uH3RaY6mJ3jPCHMHA?g_st=ipc","address":"Πλ. Ηρώων 1, Αθήνα 105 54","categoryIds":["desserts"],"categories":["Dessert Shops"],"distanceKm":0.12297816276690766},{"id":"mustSeeAttractions_241beda98c80","slug":"plateia-monastirakioy-241b","kind":"restaurant","name":"Πλατεία Μοναστηρακίου","lat":37.97640816584317,"lng":23.725886410870196,"url":"https://maps.app.goo.gl/BWatUxUvLvu5LHMP9?g_st=ipc","address":"Απόλλωνος 21, Αθήνα 105 57","categoryIds":["attractions"],"categories":["Must-See Attractions"],"distanceKm":0.12414357214257173}],"sameRegion":[],"mentionedGuides":[],"canonicalSlug":"the-brunchers-2652","isCanonicalEntity":false,"enrichment":{"summary_en":"The Brunchers is a curated restaurant in Αθήνα 105 54 in the Coffee & Brunch Spots collection. It is connected to 288 nearby Googlementor picks to help travelers build a stronger local route.","summary_el":"The Brunchers είναι ένα επιλεγμένο σημείο φαγητού στην περιοχή Αθήνα 105 54 και ανήκει στη συλλογή Coffee & Brunch Spots. Συνδέεται με 288 κοντινές προτάσεις του Googlementor για πιο ολοκληρωμένη εμπειρία.","vibe_tags":["curated","daytime-favorite"],"best_for":["first-time visitors","food lovers"],"visit_moments":["early morning","late brunch"],"practical_note":"Address and direct map link are available for easy turn-by-turn access.","nearby_walkable_count":288,"nearby_count_2km":623,"confidence":0.98}},"__N_SSG":true}