{"pageProps":{"entity":{"id":"greekRestaurants_91be864c5607","slug":"to-traino-91be","kind":"restaurant","name":"Το Τραίνο","lat":40.67703057575148,"lng":22.918208800232915,"url":"https://maps.app.goo.gl/vzgBa3uY1wT8n7z49?g_st=ipc","address":"Eth. Antistaseos 102, Evosmos 562 24","categoryIds":["greek-restaurants"],"categories":["Greek Restaurants"]},"sameCategory":[{"id":"greekRestaurants_335a73f8c28f","slug":"to-dilavo-335a","kind":"restaurant","name":"Το Δίλαβο","lat":40.67696648177201,"lng":22.91974503350985,"url":"https://maps.app.goo.gl/WbYog3HDi7k69z6Y6?g_st=ipc","address":"Αντώνη Τρίτση 98, Εύοσμος 562 24","categoryIds":["greek-restaurants"],"categories":["Greek Restaurants"]},{"id":"greekRestaurants_489dcbab3d02","slug":"troyfa-mezedopoleio-489d","kind":"restaurant","name":"Τρούφα Μεζεδοπωλείο","lat":40.673704664191845,"lng":22.915531200227242,"url":"https://maps.app.goo.gl/NQbg2QuYmJZjW8Ha6?g_st=ipc","address":"Olimpiados 101, Evosmos 562 24","categoryIds":["greek-restaurants"],"categories":["Greek Restaurants"]},{"id":"greekRestaurants_a8a1bbc57cf3","slug":"mezedopoleio-sto-dentro-a8a1","kind":"restaurant","name":"Μεζεδοπωλείο στο δέντρο","lat":40.673779680558496,"lng":22.92834851143696,"url":"https://maps.app.goo.gl/94LTg5t1pACd8qHWA?g_st=ipc","address":"Στρ. Μακρυγιάννη 39, Σταυρούπολη 564 31","categoryIds":["greek-restaurants"],"categories":["Greek Restaurants"]},{"id":"greekRestaurants_7f8b3d2ad28e","slug":"backxes-7f8b","kind":"restaurant","name":"Backξες","lat":40.66851175512014,"lng":22.912875049998018,"url":"https://maps.app.goo.gl/4QcvwjevNtMp66VDA?g_st=ipc","address":"Καρατασου, Τσάμη - Καρατάσου 7, Θεσσαλονίκη 562 24","categoryIds":["greek-restaurants"],"categories":["Greek Restaurants"]},{"id":"greekRestaurants_1519d05a3bce","slug":"mantemi-casual-dining-1519","kind":"restaurant","name":"ΜΑΝΤΕΜΙ | Casual Dining","lat":40.67409229961713,"lng":22.905893700060766,"url":"https://maps.app.goo.gl/A7GLofJnsBowRAkj8?g_st=ipc","address":"Meandrou 79, Evosmos 562 24","categoryIds":["greek-restaurants"],"categories":["Greek Restaurants"]},{"id":"greekRestaurants_726e02b8b685","slug":"anama-726e","kind":"restaurant","name":"Anama","lat":40.67309178488354,"lng":22.90614317972579,"url":"https://maps.app.goo.gl/Bt17EdhYtg5pRDnb8?g_st=ipc","address":"Κολοκοτρώνη 10, Εύοσμος 562 24","categoryIds":["greek-restaurants"],"categories":["Greek Restaurants"]},{"id":"greekRestaurants_b101b37c957d","slug":"ladokolla-apo-to-kordelio-sto-charmankioi-b101","kind":"restaurant","name":"Λαδόκολλα - Από το Κορδελιό στο Χαρμάνκιοϊ","lat":40.66651626452892,"lng":22.8973438821838,"url":"https://maps.app.goo.gl/CWnRci4QKtgu8y7y6?g_st=ipc","address":"Μεγ. Αλεξάνδρου 31, Ελευθέριο Κορδελιό 563 34","categoryIds":["greek-restaurants"],"categories":["Greek Restaurants"]},{"id":"greekRestaurants_35929975107f","slug":"tandur-meze-bar-3592","kind":"restaurant","name":"Tandur meze-bar","lat":40.65350641836204,"lng":22.93893939189117,"url":"https://maps.app.goo.gl/i8gDRLqa1MtexdZ17?g_st=ipc","address":"Αγίου Γεωργίου 42, Νεάπολη 567 27","categoryIds":["greek-restaurants"],"categories":["Greek Restaurants"]},{"id":"greekRestaurants_8b274eab2a6d","slug":"taverna-to-roloi-8b27","kind":"restaurant","name":"Ταβέρνα το Ρολόι","lat":40.652570939966324,"lng":22.941580979423406,"url":"https://maps.app.goo.gl/PNNn8uDapDZFBdjd6?g_st=ipc","address":"Ελ. Βενιζέλου 87, Νεάπολη 567 28","categoryIds":["greek-restaurants"],"categories":["Greek Restaurants"]},{"id":"greekRestaurants_8f48f269fd50","slug":"koru-inspired-cuisine-8f48","kind":"restaurant","name":"KORU INSPIRED CUISINE","lat":40.6419170569474,"lng":22.93912654198058,"url":"https://maps.app.goo.gl/z6JvmY8nTC7yzJmFA?g_st=ipc","address":"Ολύμπου 15, Θεσσαλονίκη 546 30","categoryIds":["greek-restaurants"],"categories":["Greek Restaurants"]},{"id":"greekRestaurants_7ff4b23f5102","slug":"extravaganza-7ff4","kind":"restaurant","name":"Extravaganza","lat":40.639336618089786,"lng":22.940241453783848,"url":"https://maps.app.goo.gl/j6N8yd7wQi8DJTxU8?g_st=ipc","address":"Επισκοπου Αμβροσιου 8, Θεσσαλονίκη 546 30","categoryIds":["greek-restaurants"],"categories":["Greek Restaurants"]},{"id":"greekRestaurants_776ec954209f","slug":"maestranza-skg-776e","kind":"restaurant","name":"Maestranza.skg","lat":40.6389335540748,"lng":22.939948700094217,"url":"https://maps.app.goo.gl/9dU4LoJrsfE8osv2A?g_st=ipc","address":"Ptolemeon 29Β, Thessaloniki 546 30","categoryIds":["greek-restaurants","luxury-dining"],"categories":["Greek Restaurants","Luxury Dining"],"legacySlugs":["maestranza-skg-4bd7"]}],"nearby":[{"id":"greekRestaurants_335a73f8c28f","slug":"to-dilavo-335a","kind":"restaurant","name":"Το Δίλαβο","lat":40.67696648177201,"lng":22.91974503350985,"url":"https://maps.app.goo.gl/WbYog3HDi7k69z6Y6?g_st=ipc","address":"Αντώνη Τρίτση 98, Εύοσμος 562 24","categoryIds":["greek-restaurants"],"categories":["Greek Restaurants"],"distanceKm":0.1297461244084301},{"id":"cheapEatsRestaurants_a08661b07d70","slug":"peter-steakhouse-a086","kind":"restaurant","name":"Peter Steakhouse","lat":40.67380649867122,"lng":22.919338610112415,"url":"https://maps.app.goo.gl/okGWtgt8ngD1WL4a9?g_st=ipc","address":"Protomagias 21, Evosmos 562 24","categoryIds":["cheap-eats"],"categories":["Gyros & Cheap Eats"],"distanceKm":0.3709461480594048},{"id":"greekRestaurants_489dcbab3d02","slug":"troyfa-mezedopoleio-489d","kind":"restaurant","name":"Τρούφα Μεζεδοπωλείο","lat":40.673704664191845,"lng":22.915531200227242,"url":"https://maps.app.goo.gl/NQbg2QuYmJZjW8Ha6?g_st=ipc","address":"Olimpiados 101, Evosmos 562 24","categoryIds":["greek-restaurants"],"categories":["Greek Restaurants"],"distanceKm":0.43331160582497624},{"id":"fishTavernasRestaurants_15430c4d106f","slug":"to-nydri-estiatorio-thalassinon-1543","kind":"restaurant","name":"Το Νυδρί - Εστιατόριο θαλασσινών","lat":40.67126625480558,"lng":22.91091682845982,"url":"https://maps.app.goo.gl/Gtf6Gmdcb6wNtEXw5?g_st=ipc","address":"Achilleos 34, Θεσσαλονίκη 562 24","categoryIds":["fish-tavernas"],"categories":["Fish Tavernas"],"distanceKm":0.8882599322454071},{"id":"greekRestaurants_a8a1bbc57cf3","slug":"mezedopoleio-sto-dentro-a8a1","kind":"restaurant","name":"Μεζεδοπωλείο στο δέντρο","lat":40.673779680558496,"lng":22.92834851143696,"url":"https://maps.app.goo.gl/94LTg5t1pACd8qHWA?g_st=ipc","address":"Στρ. Μακρυγιάννη 39, Σταυρούπολη 564 31","categoryIds":["greek-restaurants"],"categories":["Greek Restaurants"],"distanceKm":0.9283675693839339},{"id":"burgersRestaurants_d1dcd32d4d8e","slug":"stivos-burger-steak-d1dc","kind":"restaurant","name":"STIVOS BURGER & STEAK","lat":40.669593987579994,"lng":22.91138406394072,"url":"https://maps.app.goo.gl/7TUUVwTEcxqLX9347?g_st=ipc","address":"Ευαγγελισμού της Θεοτόκου 43, Evosmos 562 24","categoryIds":["burgers","cheap-eats"],"categories":["Burger Spots","Gyros & Cheap Eats"],"legacySlugs":["stivos-burger-steak-c884"],"distanceKm":1.0074975951176368},{"id":"familyFriendly_87307641acf6","slug":"r-mote-8730","kind":"restaurant","name":"R'MOTE","lat":40.68581196268978,"lng":22.922356233082034,"url":"https://maps.app.goo.gl/y5U3WvSQGqnkW6KY7?g_st=ipc","address":"Palaiokomis 22, Evosmos 562 24","categoryIds":["family-friendly"],"categories":["Kid Friendly Locations"],"distanceKm":1.03718682040168},{"id":"greekRestaurants_7f8b3d2ad28e","slug":"backxes-7f8b","kind":"restaurant","name":"Backξες","lat":40.66851175512014,"lng":22.912875049998018,"url":"https://maps.app.goo.gl/4QcvwjevNtMp66VDA?g_st=ipc","address":"Καρατασου, Τσάμη - Καρατάσου 7, Θεσσαλονίκη 562 24","categoryIds":["greek-restaurants"],"categories":["Greek Restaurants"],"distanceKm":1.048628735272883},{"id":"burgersRestaurants_8809fdd68e04","slug":"jokerman-8809","kind":"restaurant","name":"JOKERMAN","lat":40.668414646990946,"lng":22.912364509174097,"url":"https://maps.app.goo.gl/Mz4wckU7VyfPoiNe7?g_st=ipc","address":"Meg. Alexandrou 87, Evosmos 562 24","categoryIds":["burgers"],"categories":["Burger Spots"],"distanceKm":1.0773974719286779},{"id":"greekRestaurants_1519d05a3bce","slug":"mantemi-casual-dining-1519","kind":"restaurant","name":"ΜΑΝΤΕΜΙ | Casual Dining","lat":40.67409229961713,"lng":22.905893700060766,"url":"https://maps.app.goo.gl/A7GLofJnsBowRAkj8?g_st=ipc","address":"Meandrou 79, Evosmos 562 24","categoryIds":["greek-restaurants"],"categories":["Greek Restaurants"],"distanceKm":1.0887321294328995},{"id":"greekRestaurants_726e02b8b685","slug":"anama-726e","kind":"restaurant","name":"Anama","lat":40.67309178488354,"lng":22.90614317972579,"url":"https://maps.app.goo.gl/Bt17EdhYtg5pRDnb8?g_st=ipc","address":"Κολοκοτρώνη 10, Εύοσμος 562 24","categoryIds":["greek-restaurants"],"categories":["Greek Restaurants"],"distanceKm":1.1077768488268545},{"id":"cheapEatsRestaurants_12d4af48cdfc","slug":"kotopoyla-deras-12d4","kind":"restaurant","name":"Κοτόπουλα Δέρας","lat":40.6664983188531,"lng":22.919495227155743,"url":"https://maps.app.goo.gl/zrQxzEjiyGHcJGXt5?g_st=ipc","address":"Karaoli ke Dimitriou 154, Evosmos 562 24","categoryIds":["cheap-eats"],"categories":["Gyros & Cheap Eats"],"distanceKm":1.176148121747149},{"id":"cheapEatsRestaurants_f921d077e63d","slug":"psitopoleio-nikos-f921","kind":"restaurant","name":"Ψητοπωλείο \"ΝΙΚΟΣ\"","lat":40.66963563529277,"lng":22.908013940571315,"url":"https://maps.app.goo.gl/LAQoYu8du3ZFbwSR7?g_st=ipc","address":"Meg. Alexandrou 56, Evosmos 562 24","categoryIds":["cheap-eats"],"categories":["Gyros & Cheap Eats"],"distanceKm":1.1896898069700417},{"id":"coffeeBrunchRestaurants_5f036d7db680","slug":"model-urban-style-bar-5f03","kind":"restaurant","name":"Model Urban Style Bar","lat":40.66742278574293,"lng":22.91124275092617,"url":"https://maps.app.goo.gl/kRz7a3AxwDHMinRU6?g_st=ipc","address":"P. Mela 26, Evosmos 562 24","categoryIds":["coffee-brunch"],"categories":["Coffee & Brunch Spots"],"distanceKm":1.2192155861503602},{"id":"burgersRestaurants_e6cca423021b","slug":"rookie-skg-e6cc","kind":"restaurant","name":"Rookie.skg","lat":40.66725084444489,"lng":22.911546340289146,"url":"https://maps.app.goo.gl/UbXbrxK1VEFkvDdp7?g_st=ipc","address":"P. Mela 28, Evosmos 562 24","categoryIds":["burgers","cheap-eats"],"categories":["Burger Spots","Gyros & Cheap Eats"],"legacySlugs":["rookie-skg-91f7"],"distanceKm":1.2240409280578188},{"id":"cheapEatsRestaurants_9aa1dc025a0d","slug":"psitopoleia-eyosmos-ano-kato-9aa1","kind":"restaurant","name":"ΨΗΤΟΠΩΛΕΙΑ ΕΥΟΣΜΟΣ- ΑΝΩ ΚΑΤΩ","lat":40.66706897454817,"lng":22.912010033587894,"url":"https://maps.app.goo.gl/Keom9mTvrZ5H3Nat7?g_st=ipc","address":"Tzavella 2, Evosmos 562 24","categoryIds":["cheap-eats"],"categories":["Gyros & Cheap Eats"],"distanceKm":1.224847880554776},{"id":"italianRestaurants_5c52a29bf906","slug":"raffaele-pizza-pasta-5c52","kind":"restaurant","name":"Raffaele Pizza & Pasta","lat":40.66835766189394,"lng":22.909237229764354,"url":"https://maps.app.goo.gl/aQ6nFJz5CrVrnaNv6","address":"P. Mela 8, Evosmos 562 24","categoryIds":["italian"],"categories":["Italian Restaurants"],"distanceKm":1.22576900837621},{"id":"cheapEatsRestaurants_da038af38ca1","slug":"devido-da03","kind":"restaurant","name":"Devido","lat":40.66696798830783,"lng":22.91206522121093,"url":"https://maps.app.goo.gl/ghxqsvRTJj4mWN988?g_st=ipc","address":"Karaoli ke Dimitriou 89, Evosmos 562 24","categoryIds":["cheap-eats"],"categories":["Gyros & Cheap Eats"],"distanceKm":1.2330493733911043},{"id":"cheapEatsRestaurants_547f03a545e5","slug":"crats-fried-chicken-eyosmoy-547f","kind":"restaurant","name":"Crats Fried Chicken Ευόσμου","lat":40.66578126903803,"lng":22.911725635585793,"url":"https://maps.app.goo.gl/BYpMVurWN1yMNmFh8?g_st=ipc","address":"Aristotélous 67, Evosmos 562 24","categoryIds":["cheap-eats"],"categories":["Gyros & Cheap Eats"],"distanceKm":1.3651456153317796},{"id":"burgersRestaurants_535690910e30","slug":"broz-skg-burger-house-5356","kind":"restaurant","name":"Broz.Skg burger house","lat":40.664244931546285,"lng":22.911627282487927,"url":"https://maps.app.goo.gl/ka8qRW51kJox7mce6?g_st=ipc","address":"Aristotélous 39, Evosmos 562 24","categoryIds":["burgers"],"categories":["Burger Spots"],"distanceKm":1.5262146607496538},{"id":"cheapEatsRestaurants_78b831279473","slug":"steakhouse-makis-78b8","kind":"restaurant","name":"Steakhouse MAKIS","lat":40.663898455247235,"lng":22.911569590344406,"url":"https://maps.app.goo.gl/ATqXPJfCjdXR8wes9?g_st=ipc","address":"Aristotélous 35, Evosmos 562 24","categoryIds":["cheap-eats"],"categories":["Gyros & Cheap Eats"],"distanceKm":1.5639015981466995},{"id":"coffeeBrunchRestaurants_6fcd59193f91","slug":"zeo-artopoiia-zeo-bakers-6fcd","kind":"restaurant","name":"ΖΕΩ ΑΡΤΟΠΟΙΙΑ-ZEO BAKERS","lat":40.69174182669169,"lng":22.913440204115485,"url":"https://maps.app.goo.gl/8h5SFGtMUr8hFemr9?g_st=ipc","address":"Ilioupoleos 2, Oreokastro 570 13","categoryIds":["coffee-brunch"],"categories":["Coffee & Brunch Spots"],"distanceKm":1.6845094294234744},{"id":"municipalities_9d384c0445ca","slug":"stayroypoli-9d38","kind":"municipality","name":"Σταυρούπολη","lat":40.6667,"lng":22.9333,"region":"Δυτική Θεσσαλονίκη","name_en":"Stavroupoli","region_en":"West Thessaloniki","distanceKm":1.7144636114367393},{"id":"italianRestaurants_767d6c96919e","slug":"funghi-pizza-pasta-767d","kind":"restaurant","name":"Funghi Pizza & Pasta","lat":40.6605072820276,"lng":22.9274131044966,"url":"https://maps.app.goo.gl/SJNcMHpxLNtQxnKLA?g_st=ipc","address":"Iatrou Gogousi 25, κέντρο 564 30","categoryIds":["italian"],"categories":["Italian Restaurants"],"distanceKm":1.9945740335314615}],"sameRegion":[],"mentionedGuides":[],"canonicalSlug":"to-traino-91be","isCanonicalEntity":true,"enrichment":{"summary_en":"Το Τραίνο is a curated restaurant in Evosmos 562 24 in the Greek Restaurants collection. It is connected to 3 nearby Googlementor picks to help travelers build a stronger local route.","summary_el":"Το Τραίνο είναι ένα επιλεγμένο σημείο φαγητού στην περιοχή Evosmos 562 24 και ανήκει στη συλλογή Greek Restaurants. Συνδέεται με 3 κοντινές προτάσεις του Googlementor για πιο ολοκληρωμένη εμπειρία.","vibe_tags":["curated"],"best_for":["first-time visitors","food lovers"],"visit_moments":["lunch stop","dinner stop"],"practical_note":"Address and direct map link are available for easy turn-by-turn access.","nearby_walkable_count":3,"nearby_count_2km":24,"confidence":0.9}},"__N_SSG":true}