{"pageProps":{"entity":{"id":"coffeeBrunchRestaurants_bcfaf36dacbe","slug":"tyropites-o-mitsos-bcfa","kind":"restaurant","name":"Τυρόπιτες ο Μήτσος","lat":37.95255129753746,"lng":23.705922909041465,"url":"https://maps.app.goo.gl/SR156bdeLaJYk1WY6?g_st=ipc","address":"Συνταγματάρχου Δαβάκη 32A, Καλλιθέα 176 72","categoryIds":["coffee-brunch"],"categories":["Coffee & Brunch Spots"]},"sameCategory":[{"id":"coffeeBrunchRestaurants_897460bbed61","slug":"sovolos-zacharoplasteio-foyrnos-8974","kind":"restaurant","name":"Sovolos - Ζαχαροπλαστείο - Φούρνος","lat":37.95381653096959,"lng":23.704528203629867,"url":"https://maps.app.goo.gl/wLU7EVqzFWR8dPoq6?g_st=ipc","address":"Συνταγματάρχου Δαβάκη 52, Καλλιθέα 176 72","categoryIds":["coffee-brunch"],"categories":["Coffee & Brunch Spots"]},{"id":"coffeeBrunchRestaurants_2d5ab042fd9b","slug":"acera-the-brunch-project-2d5a","kind":"restaurant","name":"Acera The Brunch Project","lat":37.95687155697196,"lng":23.702731169430688,"url":"https://maps.app.goo.gl/evNfcdJQ34R2FXQR8?g_st=ipc","address":"Μαντζαγριωτάκη 105, Καλλιθέα 176 76","categoryIds":["coffee-brunch"],"categories":["Coffee & Brunch Spots"]},{"id":"coffeeBrunchRestaurants_45cff5aaefe1","slug":"peggy-sue-45cf","kind":"restaurant","name":"Peggy Sue","lat":37.9539520452851,"lng":23.715104827553436,"url":"https://maps.app.goo.gl/jJoRB32pj6dGvy9h9?g_st=ipc","address":"Σπαθαρη 2, Νέα Σμύρνη 171 21","categoryIds":["coffee-brunch"],"categories":["Coffee & Brunch Spots"]},{"id":"coffeeBrunchRestaurants_01d039eed44f","slug":"flaked-croissanterie-nea-smyrni-01d0","kind":"restaurant","name":"Flaked Croissanterie Nea Smyrni","lat":37.94664941791958,"lng":23.71226377005945,"url":"https://maps.app.goo.gl/XhDMxWuwRuMVcghH9?g_st=ipc","address":"2ας Μαΐου 10, Νέα Σμύρνη 171 21","categoryIds":["coffee-brunch"],"categories":["Coffee & Brunch Spots"]},{"id":"coffeeBrunchRestaurants_2673b2efe834","slug":"fred-2673","kind":"restaurant","name":"Fred","lat":37.94562369764514,"lng":23.71066649818301,"url":"https://maps.app.goo.gl/HMmCPXK9BhvDtR538?g_st=ipc","address":"Κων/νου Παλαιολόγου 24, Νέα Σμύρνη 171 21","categoryIds":["coffee-brunch"],"categories":["Coffee & Brunch Spots"]},{"id":"coffeeBrunchRestaurants_bcef1a0d2ebe","slug":"aroma-plateias-bcef","kind":"restaurant","name":"Άρωμα πλατείας","lat":37.947245777072794,"lng":23.713361220767048,"url":"https://maps.app.goo.gl/6mPMQRmSeP8pK4Cu6?g_st=ipc","address":"25ης Μαρτίου 19, Νέα Σμύρνη 171 21","categoryIds":["coffee-brunch"],"categories":["Coffee & Brunch Spots"]},{"id":"coffeeBrunchRestaurants_0aaa1d7425c8","slug":"o-nikos-0aaa","kind":"restaurant","name":"\"ο Νίκος\"","lat":37.94446727754758,"lng":23.71036042368455,"url":"https://maps.app.goo.gl/Hjscsj6jJP8Ehtjz8?g_st=ipc","address":"Κων/νου Παλαιολόγου 36, Νέα Σμύρνη 171 22","categoryIds":["coffee-brunch"],"categories":["Coffee & Brunch Spots"]},{"id":"coffeeBrunchRestaurants_7990f39b9894","slug":"32-avenue-7990","kind":"restaurant","name":"32 Avenue","lat":37.946383947038974,"lng":23.714065407386308,"url":"https://maps.app.goo.gl/miSnLuSyrb5xJ1dB9?g_st=ipc","address":"2ας Μαΐου 32, Νέα Σμύρνη 171 21","categoryIds":["coffee-brunch"],"categories":["Coffee & Brunch Spots"]},{"id":"coffeeBrunchRestaurants_e8ba4bec6d9a","slug":"zatopek-book-cafe-e8ba","kind":"restaurant","name":"Zatopek book cafe","lat":37.95902409225205,"lng":23.698098106664805,"url":"https://maps.app.goo.gl/2WQxsGPEDfG7d62UA?g_st=ipc","address":"Π. Τσαλδάρη 209, Καλλιθέα 176 76","categoryIds":["coffee-brunch"],"categories":["Coffee & Brunch Spots"]},{"id":"coffeeBrunchRestaurants_85d40f2fead5","slug":"koyl-athens-koul-athens-85d4","kind":"restaurant","name":"Κούλ Άθενς (Koul Athens)","lat":37.962653742021914,"lng":23.705449559299996,"url":"https://maps.app.goo.gl/nrAGHFNRzBKSDpfL9?g_st=ipc","address":"P. Tsaldari 129, Kallithea 176 76","categoryIds":["coffee-brunch"],"categories":["Coffee & Brunch Spots"]},{"id":"coffeeBrunchRestaurants_3ad613746740","slug":"lalos-3ad6","kind":"restaurant","name":"Lalos","lat":37.95653694094431,"lng":23.71832970107999,"url":"https://maps.app.goo.gl/EWRQ18pu1HkgSHMM9?g_st=ipc","address":"Ευρυδάμαντος 19, Αθήνα 117 45","categoryIds":["coffee-brunch"],"categories":["Coffee & Brunch Spots"]},{"id":"coffeeBrunchRestaurants_0f49d35a64cc","slug":"naif-0f49","kind":"restaurant","name":"Naif","lat":37.95731969922388,"lng":23.71935175462416,"url":"https://maps.app.goo.gl/5eapXgYffcfJThv49?g_st=ipc","address":"Ευρυδάμαντος 15, Αθήνα 117 45","categoryIds":["coffee-brunch"],"categories":["Coffee & Brunch Spots"]}],"nearby":[{"id":"coffeeBrunchRestaurants_897460bbed61","slug":"sovolos-zacharoplasteio-foyrnos-8974","kind":"restaurant","name":"Sovolos - Ζαχαροπλαστείο - Φούρνος","lat":37.95381653096959,"lng":23.704528203629867,"url":"https://maps.app.goo.gl/wLU7EVqzFWR8dPoq6?g_st=ipc","address":"Συνταγματάρχου Δαβάκη 52, Καλλιθέα 176 72","categoryIds":["coffee-brunch"],"categories":["Coffee & Brunch Spots"],"distanceKm":0.18640504514853828},{"id":"dessertsRestaurants_6903e2ef4276","slug":"la-maison-fine-pastry-6903","kind":"restaurant","name":"La Maison - Fine Pastry","lat":37.951479018771344,"lng":23.703684961330683,"url":"https://maps.app.goo.gl/Hwbaz4KzQVAzGaRA8?g_st=ipc","address":"Δημοσθένους 149, Καλλιθέα 176 73","categoryIds":["desserts"],"categories":["Dessert Shops"],"distanceKm":0.22960817566805883},{"id":"cheapEatsRestaurants_a367fef323c7","slug":"oi-rosides-soyvlaki-piroski-a367","kind":"restaurant","name":"Οι ρωσίδες Σουβλάκι-Πιροσκί","lat":37.95374548604023,"lng":23.701395628014694,"url":"https://maps.app.goo.gl/Ebo7K4NsszKopesC7?g_st=ipc","address":"Αναγνωσταρά 16, Καλλιθέα 176 73","categoryIds":["cheap-eats"],"categories":["Gyros & Cheap Eats"],"distanceKm":0.41856775453213574},{"id":"greekRestaurants_d2cc3fcfc069","slug":"ramona-taverna-kallithea-d2cc","kind":"restaurant","name":"Ραμόνα Ταβέρνα Καλλιθέα","lat":37.9556758154796,"lng":23.70860659191753,"url":"https://maps.app.goo.gl/RDXvdLT2Zy9wH87X9","address":"Μίνωος 11-13, Καλλιθέα 176 72","categoryIds":["greek-restaurants"],"categories":["Greek Restaurants"],"distanceKm":0.41961117417643834},{"id":"coffeeBrunchRestaurants_2d5ab042fd9b","slug":"acera-the-brunch-project-2d5a","kind":"restaurant","name":"Acera The Brunch Project","lat":37.95687155697196,"lng":23.702731169430688,"url":"https://maps.app.goo.gl/evNfcdJQ34R2FXQR8?g_st=ipc","address":"Μαντζαγριωτάκη 105, Καλλιθέα 176 76","categoryIds":["coffee-brunch"],"categories":["Coffee & Brunch Spots"],"distanceKm":0.555955814370447},{"id":"cheapEatsRestaurants_4c857b269660","slug":"soyvlakia-kalamakia-panostimo-4c85","kind":"restaurant","name":"Σουβλακια καλαμάκια πανοστιμο","lat":37.95437724216138,"lng":23.71201791711626,"url":"https://maps.app.goo.gl/wSd2i93DKt8GM9aEA?g_st=ipc","address":"Δοϊράνης 35, Καλλιθέα 176 72","categoryIds":["cheap-eats"],"categories":["Gyros & Cheap Eats"],"distanceKm":0.5716706159160471},{"id":"dessertsRestaurants_0bd680afbb5e","slug":"zacharoplasteio-profiterol-dimopoylos-kallithea-0bd6","kind":"restaurant","name":"Ζαχαροπλαστείο Προφιτερόλ Δημόπουλος Καλλιθέα","lat":37.95693778495156,"lng":23.709710879410338,"url":"https://maps.app.goo.gl/t1RvynY9vJegnu6i6?g_st=ipc","address":"Αγ. Πάντων 46, Καλλιθέα 176 71","categoryIds":["desserts"],"categories":["Dessert Shops"],"distanceKm":0.5900906475224045},{"id":"cheapEatsRestaurants_d3888472f0b3","slug":"crepa-holic-kallithea-d388","kind":"restaurant","name":"Crepa Holic Kallithea","lat":37.95367992559356,"lng":23.699030666898533,"url":"https://maps.app.goo.gl/bLUgt75SSMUYsoXCA?g_st=ipc","address":"Λεωφ. Ελ. Βενιζέλου 185, Καλλιθέα 176 73","categoryIds":["cheap-eats"],"categories":["Gyros & Cheap Eats"],"distanceKm":0.6171971439436469},{"id":"municipalities_ddfd3c80db9c","slug":"kallithea-ddfd","kind":"municipality","name":"Καλλιθέα","lat":37.9503,"lng":23.6985,"aliases":["Kallithea","Kalithea","Καλλιθεα"],"region":"Νότια Προάστια","name_en":"Kallithea","region_en":"Southern Suburbs","distanceKm":0.6973291080714263},{"id":"cheapEatsRestaurants_94dff4f67b62","slug":"to-soyvlaki-tis-charokopoy-94df","kind":"restaurant","name":"Το Σουβλάκι Της Χαροκόπου","lat":37.95770921844376,"lng":23.710571236714188,"url":"https://maps.app.goo.gl/Rh99dawd3iLza1Vz7?g_st=ipc","address":"Χαροκόπου 46, Καλλιθέα 176 71","categoryIds":["cheap-eats"],"categories":["Gyros & Cheap Eats"],"distanceKm":0.7035892297349826},{"id":"mexicanRestaurants_ec31cb806a86","slug":"dos-banditos-ec31","kind":"restaurant","name":"Dos Banditos","lat":37.957023186399105,"lng":23.71172894880883,"url":"https://maps.app.goo.gl/A9S8uhRtFHyQhuDh6?g_st=ipc","address":"Δημοσθένους 31, Καλλιθέα 176 71","categoryIds":["mexican"],"categories":["Mexican Restaurants"],"distanceKm":0.7116149530934308},{"id":"cheapEatsRestaurants_59ab2f655733","slug":"rosiko-pantopoleio-astana-59ab","kind":"restaurant","name":"Ρώσικο παντοπωλείο «Αστάνα»","lat":37.94852960059528,"lng":23.699447152301282,"url":"https://maps.app.goo.gl/Wayix2624vmNqYTT7?g_st=ipc","address":"Δημοσθένους 207, Καλλιθέα 176 73","categoryIds":["cheap-eats"],"categories":["Gyros & Cheap Eats"],"distanceKm":0.7227621037403759},{"id":"dessertsRestaurants_8de488078304","slug":"crepa-crepa-8de4","kind":"restaurant","name":"Crepa crepa","lat":37.94728978565515,"lng":23.712096506964457,"url":"https://maps.app.goo.gl/vmeSVgQbRFAe8fe19?g_st=ipc","address":"Ειρήνης 2, Νέα Σμύρνη 171 21","categoryIds":["desserts"],"categories":["Dessert Shops"],"distanceKm":0.7970644506474884},{"id":"cheapEatsRestaurants_fb98feb8ab24","slug":"soyvlakia-o-leyteris-fb98","kind":"restaurant","name":"Σουβλάκια ο Λευτέρης","lat":37.947152588163014,"lng":23.712051232496496,"url":"https://maps.app.goo.gl/MTQDk9is4pkL1vPt9?g_st=ipc","address":"Ειρήνης 2, Νέα Σμύρνη 171 21","categoryIds":["cheap-eats"],"categories":["Gyros & Cheap Eats"],"distanceKm":0.8056759319675757},{"id":"greekRestaurants_6497d4b8be55","slug":"o-mitos-kritiko-rakadiko-mezedopoleio-6497","kind":"restaurant","name":"Ο Μίτος (Κρητικό Ρακάδικο-Μεζεδοπωλείο)","lat":37.95902391394004,"lng":23.710171017106486,"url":"https://maps.app.goo.gl/fWEdbaEvd9cA8Enr9","address":"Αριστείδου 62, Καλλιθέα 176 71","categoryIds":["greek-restaurants"],"categories":["Greek Restaurants"],"distanceKm":0.8103844429954822},{"id":"coffeeBrunchRestaurants_45cff5aaefe1","slug":"peggy-sue-45cf","kind":"restaurant","name":"Peggy Sue","lat":37.9539520452851,"lng":23.715104827553436,"url":"https://maps.app.goo.gl/jJoRB32pj6dGvy9h9?g_st=ipc","address":"Σπαθαρη 2, Νέα Σμύρνη 171 21","categoryIds":["coffee-brunch"],"categories":["Coffee & Brunch Spots"],"distanceKm":0.819986773843935},{"id":"vegetarianRestaurants_de7324c496a6","slug":"fakafel-de73","kind":"restaurant","name":"Φakafel","lat":37.945977379116876,"lng":23.71063148252821,"url":"https://maps.app.goo.gl/r5AXr2ToKxBqZpAv9?g_st=ipc","address":"Φakafel","categoryIds":["vegetarian"],"categories":["Vegetarian Friendly Restaurants"],"distanceKm":0.8395221741031025},{"id":"coffeeBrunchRestaurants_01d039eed44f","slug":"flaked-croissanterie-nea-smyrni-01d0","kind":"restaurant","name":"Flaked Croissanterie Nea Smyrni","lat":37.94664941791958,"lng":23.71226377005945,"url":"https://maps.app.goo.gl/XhDMxWuwRuMVcghH9?g_st=ipc","address":"2ας Μαΐου 10, Νέα Σμύρνη 171 21","categoryIds":["coffee-brunch"],"categories":["Coffee & Brunch Spots"],"distanceKm":0.8601139246463885},{"id":"dessertsRestaurants_90551d221579","slug":"zuccherino-9055","kind":"restaurant","name":"Zuccherino","lat":37.94670677191045,"lng":23.712370393556583,"url":"https://maps.app.goo.gl/AvtpV9edEhsRgr9r5?g_st=ipc","address":"2ας Μαΐου 12, Νέα Σμύρνη 171 21","categoryIds":["desserts"],"categories":["Dessert Shops"],"distanceKm":0.8613646932976001},{"id":"coffeeBrunchRestaurants_2673b2efe834","slug":"fred-2673","kind":"restaurant","name":"Fred","lat":37.94562369764514,"lng":23.71066649818301,"url":"https://maps.app.goo.gl/HMmCPXK9BhvDtR538?g_st=ipc","address":"Κων/νου Παλαιολόγου 24, Νέα Σμύρνη 171 21","categoryIds":["coffee-brunch"],"categories":["Coffee & Brunch Spots"],"distanceKm":0.8754344524879611},{"id":"coffeeBrunchRestaurants_bcef1a0d2ebe","slug":"aroma-plateias-bcef","kind":"restaurant","name":"Άρωμα πλατείας","lat":37.947245777072794,"lng":23.713361220767048,"url":"https://maps.app.goo.gl/6mPMQRmSeP8pK4Cu6?g_st=ipc","address":"25ης Μαρτίου 19, Νέα Σμύρνη 171 21","categoryIds":["coffee-brunch"],"categories":["Coffee & Brunch Spots"],"distanceKm":0.879440859844885},{"id":"italianRestaurants_20d0a7e98724","slug":"dei-fratelli-ristorante-italiano-20d0","kind":"restaurant","name":"Dei Fratelli - Ristorante Italiano","lat":37.954535351071335,"lng":23.71576098163187,"url":"https://maps.app.goo.gl/hbqzvikXoNEXvdgj7?g_st=ipc","address":"ΚΡΑΤΗΤΟΣ 10 &, Σπαθαρη, Νέα Σμύρνη 171 21","categoryIds":["italian"],"categories":["Italian Restaurants"],"distanceKm":0.8903510752340066},{"id":"dessertsRestaurants_aa7ff0f772d7","slug":"galaktopoleio-stamoy-aa7f","kind":"restaurant","name":"Γαλακτοπωλείο ΣΤΑΜΟΥ","lat":37.952436676546995,"lng":23.695715045897042,"url":"https://maps.app.goo.gl/rD5jojpe8yMT5k159?g_st=ipc","address":"Λεωφ. Ελ. Βενιζέλου 210, Καλλιθέα 176 75","categoryIds":["desserts"],"categories":["Dessert Shops"],"distanceKm":0.8951113771182359},{"id":"italianRestaurants_3441b54b92cd","slug":"vissente-italian-comfort-food-3441","kind":"restaurant","name":"Vissente - Italian comfort food","lat":37.94750349815223,"lng":23.714501612675416,"url":"https://maps.app.goo.gl/UadeCSeXLWu8p8wK6?g_st=ipc","address":"Πλ. Αθανασίου Καρύλλου 9, Νέα Σμύρνη 171 21","categoryIds":["italian"],"categories":["Italian Restaurants"],"distanceKm":0.938538161668502}],"sameRegion":[],"mentionedGuides":[],"canonicalSlug":"tyropites-o-mitsos-bcfa","isCanonicalEntity":true,"enrichment":{"summary_en":"Τυρόπιτες ο Μήτσος is a curated restaurant in Καλλιθέα 176 72 in the Coffee & Brunch Spots collection. It is connected to 13 nearby Googlementor picks to help travelers build a stronger local route.","summary_el":"Τυρόπιτες ο Μήτσος είναι ένα επιλεγμένο σημείο φαγητού στην περιοχή Καλλιθέα 176 72 και ανήκει στη συλλογή Coffee & Brunch Spots. Συνδέεται με 13 κοντινές προτάσεις του Googlementor για πιο ολοκληρωμένη εμπειρία.","vibe_tags":["curated","daytime-favorite"],"best_for":["first-time visitors","food lovers"],"visit_moments":["early morning","late brunch"],"practical_note":"Address and direct map link are available for easy turn-by-turn access.","nearby_walkable_count":13,"nearby_count_2km":102,"confidence":0.98}},"__N_SSG":true}