{"pageProps":{"entity":{"id":"greekRestaurants_5401b7812885","slug":"xarathymio-5401","kind":"restaurant","name":"Ξαραθυμιο","lat":37.43064695338044,"lng":25.34483466442765,"url":"https://maps.app.goo.gl/k93muyVGMB9vZMRS6?g_st=ipc","address":"Skalado 846 00","categoryIds":["greek-restaurants"],"categories":["Greek Restaurants"]},"sameCategory":[{"id":"greekRestaurants_4f8fc805eb7d","slug":"to-karteri-4f8f","kind":"restaurant","name":"Το καρτερι","lat":37.432738323612284,"lng":25.341244801500245,"url":"https://maps.app.goo.gl/ZPLYvNbeUn9uhSA56?g_st=ipc","address":"Προς Παρανταις, Μύκονος 846 00","categoryIds":["greek-restaurants"],"categories":["Greek Restaurants"]},{"id":"greekRestaurants_d1b39b4f3e00","slug":"amethystos-mykonos-d1b3","kind":"restaurant","name":"Amethystos Mykonos","lat":37.43458136770975,"lng":25.342119704198275,"url":"https://maps.app.goo.gl/AKNrBroi1VZKtHvZ7?g_st=ipc","address":"Μύκονος 846 00","categoryIds":["greek-restaurants"],"categories":["Greek Restaurants"]},{"id":"greekRestaurants_d2f8ae2f57fa","slug":"lounda-pikantiki-gwnia-d2f8","kind":"restaurant","name":"Lounda Pikantiki Gwnia","lat":37.42680560196533,"lng":25.33370246443575,"url":"https://maps.app.goo.gl/QdG8cnBoWYdPGKcT8?g_st=ipc","address":"Unnamed Rd, Ψαρρού 846 00","categoryIds":["greek-restaurants"],"categories":["Greek Restaurants"]},{"id":"greekRestaurants_b8d7854bf51f","slug":"nikos-gallop-restaurant-b8d7","kind":"restaurant","name":"Nikos Gallop Restaurant","lat":37.416901979165324,"lng":25.339315264425487,"url":"https://maps.app.goo.gl/naifPWfQpWokWye89?g_st=ipc","address":"Just between Platis Gialos and Psarou beaches On the way to Platys Gialos, Ψαρρού 846 00","categoryIds":["greek-restaurants"],"categories":["Greek Restaurants"]},{"id":"greekRestaurants_e4bc58632d82","slug":"i-mortissa-e4bc","kind":"restaurant","name":"Η Μόρτισσα","lat":37.445499840376385,"lng":25.33915107946274,"url":"https://maps.app.goo.gl/N1vfxuYLu3Ld3pfT6?g_st=ipc","address":"Αγιου Γεωργίου Αργύραινα, Μύκονος 846 00","categoryIds":["greek-restaurants"],"categories":["Greek Restaurants"]},{"id":"greekRestaurants_2b565e597e47","slug":"ayli-toy-thodori-2b56","kind":"restaurant","name":"Αυλή του Θοδωρή","lat":37.414288033794946,"lng":25.342693930138903,"url":"https://maps.app.goo.gl/XiVRj8K4Pw27o6cv7?g_st=ipc","address":"Πλατύς Γιαλός 846 00","categoryIds":["greek-restaurants"],"categories":["Greek Restaurants"]},{"id":"greekRestaurants_72c19d32a8b6","slug":"local-bbq-souvlaki-mykonos-delivery-72c1","kind":"restaurant","name":"Local BBQ & Souvlaki Mykonos - Delivery","lat":37.44672138479704,"lng":25.33835911787914,"url":"https://maps.app.goo.gl/smobAtRLSyc56rHg8?g_st=ipc","address":"Argyraina, Επαρ.Οδ. Μυκόνου-'Ανω Μεριάς 1422, Μύκονος 846 00","categoryIds":["greek-restaurants"],"categories":["Greek Restaurants"]},{"id":"greekRestaurants_65a0b2970a3d","slug":"apaggio-restaurant-65a0","kind":"restaurant","name":"Apaggio Restaurant","lat":37.420283656696064,"lng":25.32646761589959,"url":"https://maps.app.goo.gl/UwjfqnkpvGWAV4zJ7?g_st=ipc","address":"Beach, BEFORE SANTA MARINA ENTRANCE, Ορνός 846 00","categoryIds":["greek-restaurants"],"categories":["Greek Restaurants"]},{"id":"greekRestaurants_566686612459","slug":"to-apomero-5666","kind":"restaurant","name":"To Apomero","lat":37.42477406853952,"lng":25.32149373228756,"url":"https://maps.app.goo.gl/4yepbmXBXgqmqxi48?g_st=ipc","address":"Ορνός 846 00","categoryIds":["greek-restaurants"],"categories":["Greek Restaurants"]},{"id":"greekRestaurants_e3103759958a","slug":"amades-mykonos-e310","kind":"restaurant","name":"Αμάδες Μύκονος","lat":37.44719522572323,"lng":25.32858432213716,"url":"https://maps.app.goo.gl/cASBbZQCjQukNFg88?g_st=ipc","address":"Καμπάνη 2, Μύκονος 846 00","categoryIds":["greek-restaurants"],"categories":["Greek Restaurants"]},{"id":"greekRestaurants_aef3c7ab6fff","slug":"raya-restaurant-aef3","kind":"restaurant","name":"Raya Restaurant","lat":37.447203705932054,"lng":25.32781079619138,"url":"https://maps.app.goo.gl/o2CmGDpmsR1Y7FaG8?g_st=ipc","address":"Akti Kampani, Mykonos,Kyklades, Greece, Mikonos","categoryIds":["greek-restaurants"],"categories":["Greek Restaurants"]},{"id":"greekRestaurants_38ad3b7a8b6d","slug":"oti-apomeine-38ad","kind":"restaurant","name":"Οτι Απόμεινε","lat":37.44787622617612,"lng":25.39114702118571,"url":"https://maps.app.goo.gl/FKEVGaJFP958nDfq6?g_st=ipc","address":"Άνω Μερά 846 00","categoryIds":["greek-restaurants"],"categories":["Greek Restaurants"]}],"nearby":[{"id":"greekRestaurants_4f8fc805eb7d","slug":"to-karteri-4f8f","kind":"restaurant","name":"Το καρτερι","lat":37.432738323612284,"lng":25.341244801500245,"url":"https://maps.app.goo.gl/ZPLYvNbeUn9uhSA56?g_st=ipc","address":"Προς Παρανταις, Μύκονος 846 00","categoryIds":["greek-restaurants"],"categories":["Greek Restaurants"],"distanceKm":0.3931324657881502},{"id":"coffeeBrunchRestaurants_7ef5924c8dc6","slug":"velanos-mykonos-brunch-breakfast-cocktails-7ef5","kind":"restaurant","name":"Velanos Mykonos - Brunch, Breakfast & Cocktails","lat":37.43406109514676,"lng":25.3414091685473,"url":"https://maps.app.goo.gl/8BRmDPmozseUfqLY6?g_st=ipc","address":"Skalado, Mikonos 846 00","categoryIds":["coffee-brunch"],"categories":["Coffee & Brunch Spots"],"distanceKm":0.48539160357539535},{"id":"greekRestaurants_d1b39b4f3e00","slug":"amethystos-mykonos-d1b3","kind":"restaurant","name":"Amethystos Mykonos","lat":37.43458136770975,"lng":25.342119704198275,"url":"https://maps.app.goo.gl/AKNrBroi1VZKtHvZ7?g_st=ipc","address":"Μύκονος 846 00","categoryIds":["greek-restaurants"],"categories":["Greek Restaurants"],"distanceKm":0.498859781893209},{"id":"coffeeBrunchRestaurants_305022a62a4f","slug":"to-davelaki-3050","kind":"restaurant","name":"To Davelaki","lat":37.43471134705592,"lng":25.340570140407053,"url":"https://maps.app.goo.gl/s3ATMeRgiCtC4BjXA?g_st=ic","address":"Unnamed Road, Mikonos 846 00","categoryIds":["coffee-brunch"],"categories":["Coffee & Brunch Spots"],"distanceKm":0.5882461227551994},{"id":"municipalities_b456e42c7271","slug":"ormos-b456","kind":"municipality","name":"Όρμος","lat":37.4269,"lng":25.3528,"aliases":["Ορμος","Ornos Beach"],"region":"Κυκλάδες","name_en":"Ornos","region_en":"Cyclades","distanceKm":0.817488397193512},{"id":"greekRestaurants_d2f8ae2f57fa","slug":"lounda-pikantiki-gwnia-d2f8","kind":"restaurant","name":"Lounda Pikantiki Gwnia","lat":37.42680560196533,"lng":25.33370246443575,"url":"https://maps.app.goo.gl/QdG8cnBoWYdPGKcT8?g_st=ipc","address":"Unnamed Rd, Ψαρρού 846 00","categoryIds":["greek-restaurants"],"categories":["Greek Restaurants"],"distanceKm":1.0717769969058775},{"id":"coffeeBrunchRestaurants_0c2a8fb81888","slug":"the-morning-table-0c2a","kind":"restaurant","name":"The Morning Table","lat":37.43394266189418,"lng":25.331625555430822,"url":"https://maps.app.goo.gl/kkRCE3TrjrxBPfbB7?g_st=ipc","address":"Vrysi, Mikonos 846 00","categoryIds":["coffee-brunch"],"categories":["Coffee & Brunch Spots"],"distanceKm":1.2225401134109193},{"id":"asianRestaurants_5d69fac12c7f","slug":"tokyo-joe-mykonos-5d69","kind":"restaurant","name":"Tokyo Joe Mykonos","lat":37.43430209897853,"lng":25.33164889840815,"url":"https://maps.app.goo.gl/SbcxFuCJ6NAhCk248?g_st=ipc","address":"Ano Vrisi, My Mall, Mikonos 846 00","categoryIds":["asian","luxury-dining"],"categories":["Asian Restaurants","Luxury Dining"],"legacySlugs":["tokyo-joe-mykonos-5522"],"distanceKm":1.2331606396380808},{"id":"italianRestaurants_26298b2afd51","slug":"sistina-mykonos-2629","kind":"restaurant","name":"Sistina Mykonos","lat":37.42270720054724,"lng":25.33392940009779,"url":"https://maps.app.goo.gl/jbVQZaFoXT3nCmEQ6?g_st=ipc","address":"Platis Gialos, Mikonos 846 00","categoryIds":["italian"],"categories":["Italian Restaurants"],"distanceKm":1.306429305936666},{"id":"mexicanRestaurants_9cdc9098224f","slug":"el-dorado-9cdc","kind":"restaurant","name":"El Dorado","lat":37.4384356377363,"lng":25.332482232008008,"url":"https://maps.app.goo.gl/Z4qdJprni1KMQm3YA?g_st=ipc","address":"Epar.Od. Mikonou, Mikonos 846 00","categoryIds":["mexican"],"categories":["Mexican Restaurants"],"distanceKm":1.3926864530695784},{"id":"coffeeBrunchRestaurants_ccfcae3739b1","slug":"the-liberty-breakfast-room-ccfc","kind":"restaurant","name":"The Liberty Breakfast Room","lat":37.44002249548534,"lng":25.33319976309242,"url":"https://maps.app.goo.gl/ytWHokwwmW4y1Baq5?g_st=ipc","address":"the liberty breakfast room, Mikonos 846 00","categoryIds":["coffee-brunch"],"categories":["Coffee & Brunch Spots"],"distanceKm":1.4636060377380307},{"id":"coffeeBrunchRestaurants_f9e9f62cb460","slug":"el-burro-mykonos-f9e9","kind":"restaurant","name":"El Burro Mykonos","lat":37.44164494565894,"lng":25.3350374340187,"url":"https://maps.app.goo.gl/mFrsGY4rfvzHZgy28?g_st=ipc","address":"37°26'30.4\"N 25°20'06.2\"E, Mikonos 846 00","categoryIds":["coffee-brunch"],"categories":["Coffee & Brunch Spots"],"distanceKm":1.4979300421769568},{"id":"dessertsRestaurants_84cc29a238aa","slug":"kyklamino-patisserie-84cc","kind":"restaurant","name":"Kyklamino Patisserie","lat":37.44220457179905,"lng":25.335568445326103,"url":"https://maps.app.goo.gl/dBRJbrtLhCesFwGn6?g_st=ic","address":"Mykonos 846 00","categoryIds":["desserts"],"categories":["Dessert Shops"],"distanceKm":1.5234655156991266},{"id":"luxuryDiningRestaurants_0e975a4fcafc","slug":"baos-greek-restaurant-0e97","kind":"restaurant","name":"BAOS Greek Restaurant","lat":37.43694847921598,"lng":25.32914124723638,"url":"https://maps.app.goo.gl/BQon51NoPRn4CLnY6?g_st=ipc","address":"Myconian Korali Mykonos Town, Mikonos 846 00","categoryIds":["luxury-dining"],"categories":["Luxury Dining"],"distanceKm":1.5527410784138285},{"id":"greekRestaurants_b8d7854bf51f","slug":"nikos-gallop-restaurant-b8d7","kind":"restaurant","name":"Nikos Gallop Restaurant","lat":37.416901979165324,"lng":25.339315264425487,"url":"https://maps.app.goo.gl/naifPWfQpWokWye89?g_st=ipc","address":"Just between Platis Gialos and Psarou beaches On the way to Platys Gialos, Ψαρρού 846 00","categoryIds":["greek-restaurants"],"categories":["Greek Restaurants"],"distanceKm":1.604206553349499},{"id":"luxuryDiningRestaurants_137cd7d1e18b","slug":"yevo-by-bill-coo-mykonos-137c","kind":"restaurant","name":"YĒVO By Bill&Coo Mykonos","lat":37.43758072227673,"lng":25.32795511521471,"url":"https://maps.app.goo.gl/dgiE2BaNVt8Jhb1F6?g_st=ipc","address":"Μεγάλη Άμμος, Mikonos 846 00","categoryIds":["luxury-dining"],"categories":["Luxury Dining"],"distanceKm":1.677991392880474},{"id":"greekRestaurants_e4bc58632d82","slug":"i-mortissa-e4bc","kind":"restaurant","name":"Η Μόρτισσα","lat":37.445499840376385,"lng":25.33915107946274,"url":"https://maps.app.goo.gl/N1vfxuYLu3Ld3pfT6?g_st=ipc","address":"Αγιου Γεωργίου Αργύραινα, Μύκονος 846 00","categoryIds":["greek-restaurants"],"categories":["Greek Restaurants"],"distanceKm":1.7261158798879377},{"id":"greekRestaurants_2b565e597e47","slug":"ayli-toy-thodori-2b56","kind":"restaurant","name":"Αυλή του Θοδωρή","lat":37.414288033794946,"lng":25.342693930138903,"url":"https://maps.app.goo.gl/XiVRj8K4Pw27o6cv7?g_st=ipc","address":"Πλατύς Γιαλός 846 00","categoryIds":["greek-restaurants"],"categories":["Greek Restaurants"],"distanceKm":1.8288258355505784},{"id":"greekRestaurants_72c19d32a8b6","slug":"local-bbq-souvlaki-mykonos-delivery-72c1","kind":"restaurant","name":"Local BBQ & Souvlaki Mykonos - Delivery","lat":37.44672138479704,"lng":25.33835911787914,"url":"https://maps.app.goo.gl/smobAtRLSyc56rHg8?g_st=ipc","address":"Argyraina, Επαρ.Οδ. Μυκόνου-'Ανω Μεριάς 1422, Μύκονος 846 00","categoryIds":["greek-restaurants"],"categories":["Greek Restaurants"],"distanceKm":1.876605124716959},{"id":"mexicanRestaurants_c15838bdee62","slug":"azul-condesa-mykonos-c158","kind":"restaurant","name":"Azul Condesa Mykonos","lat":37.445318743092045,"lng":25.33424731325651,"url":"https://maps.app.goo.gl/PtCSKGqYbgCdSXyz5?g_st=ipc","address":"Πετειναρος, Μύκονος 846 00","categoryIds":["mexican"],"categories":["Mexican Restaurants"],"distanceKm":1.8802478426814093},{"id":"luxuryDiningRestaurants_ed9cd1741842","slug":"matsuhisa-mykonos-ed9c","kind":"restaurant","name":"Matsuhisa Mykonos","lat":37.44329085125445,"lng":25.330097754352987,"url":"https://maps.app.goo.gl/WTcgX6M9Jp2R7YGdA?g_st=ipc","address":"Belvedere Hotel School of Fine Arts District, Agiou Ioannou 1, Mikonos 846 00","categoryIds":["luxury-dining"],"categories":["Luxury Dining"],"distanceKm":1.915626964376999},{"id":"greekRestaurants_65a0b2970a3d","slug":"apaggio-restaurant-65a0","kind":"restaurant","name":"Apaggio Restaurant","lat":37.420283656696064,"lng":25.32646761589959,"url":"https://maps.app.goo.gl/UwjfqnkpvGWAV4zJ7?g_st=ipc","address":"Beach, BEFORE SANTA MARINA ENTRANCE, Ορνός 846 00","categoryIds":["greek-restaurants"],"categories":["Greek Restaurants"],"distanceKm":1.989587686589254},{"id":"asianRestaurants_db50748440dc","slug":"bambao-mykonos-db50","kind":"restaurant","name":"Bambao Mykonos","lat":37.44323173271624,"lng":25.328446119011353,"url":"https://maps.app.goo.gl/5qdrvDCYUmZRn2Jf6?g_st=ipc","address":"Fabrika, Mikonos 846 00","categoryIds":["asian"],"categories":["Asian Restaurants"],"distanceKm":2.012940575091316},{"id":"italianRestaurants_519a6524c076","slug":"farina-cucina-italiana-ornos-beach-519a","kind":"restaurant","name":"Farina Cucina Italiana Ornos Beach","lat":37.423083029478946,"lng":25.323628340986495,"url":"https://maps.app.goo.gl/M9VCoMv93LnDJZyTA?g_st=ipc","address":"Beach, Ornos 846 00","categoryIds":["italian"],"categories":["Italian Restaurants"],"distanceKm":2.052797532318025}],"sameRegion":[],"mentionedGuides":[],"canonicalSlug":"xarathymio-5401","isCanonicalEntity":true,"enrichment":{"summary_en":"Ξαραθυμιο is a curated restaurant in Greece in the Greek Restaurants collection. It is connected to 4 nearby Googlementor picks to help travelers build a stronger local route.","summary_el":"Ξαραθυμιο είναι ένα επιλεγμένο σημείο φαγητού στην περιοχή Greece και ανήκει στη συλλογή Greek Restaurants. Συνδέεται με 4 κοντινές προτάσεις του Googlementor για πιο ολοκληρωμένη εμπειρία.","vibe_tags":["curated"],"best_for":["first-time visitors","food lovers"],"visit_moments":["lunch stop","dinner stop"],"practical_note":"Address and direct map link are available for easy turn-by-turn access.","nearby_walkable_count":4,"nearby_count_2km":22,"confidence":0.98}},"__N_SSG":true}