{"pageProps":{"entity":{"id":"dessertsRestaurants_953419857ace","slug":"zacharoplasteia-konstantinidis-9534","kind":"restaurant","name":"Ζαχαροπλαστεία ΚΩΝΣΤΑΝΤΙΝΙΔΗΣ","lat":38.04797259669027,"lng":23.808277250620737,"url":"https://maps.app.goo.gl/gRUZcBRcbiTVtWhq7?g_st=ipc","address":"Λεωφ. Κηφισίας 86, Μαρούσι 151 25","categoryIds":["desserts"],"categories":["Dessert Shops"]},"sameCategory":[{"id":"dessertsRestaurants_f3991d5c3e79","slug":"smyrni-baklava-f399","kind":"restaurant","name":"Smyrni Baklava","lat":38.05518643071446,"lng":23.80748099367396,"url":"https://maps.app.goo.gl/FMXAiNt1SKKDggh88?g_st=ipc","address":"Βασ. Σοφίας 55, Μαρούσι 151 24","categoryIds":["desserts"],"categories":["Dessert Shops"]},{"id":"dessertsRestaurants_01f94a155dc7","slug":"cinnabon-01f9","kind":"restaurant","name":"Cinnabon","lat":38.04451091204427,"lng":23.790126921989934,"url":"https://maps.app.goo.gl/vor1PCh85rY2x8xr5?g_st=ipc","address":"Andrea Papandreou 35 Loc. 215, 2nd floor, The Mall Athens, Μαρούσι 151 22","categoryIds":["desserts"],"categories":["Dessert Shops"]},{"id":"dessertsRestaurants_11d8eb3a5116","slug":"solo-gelato-pefki-11d8","kind":"restaurant","name":"Solo Gelato Pefki","lat":38.058776038280556,"lng":23.79284350703131,"url":"https://maps.app.goo.gl/SjAsiViMGast8vsf9?g_st=ipc","address":"Σοφούλη 3, Πεύκη 151 21","categoryIds":["desserts"],"categories":["Dessert Shops"]},{"id":"dessertsRestaurants_86ff71ff4014","slug":"galaktopoleio-stamoy-chalandri-attikis-86ff","kind":"restaurant","name":"Γαλακτοπωλείο ΣΤΑΜΟΥ, Χαλάνδρι Αττικής","lat":38.03271950189133,"lng":23.82056453380515,"url":"https://maps.app.goo.gl/rfjXhvBFEFZmw45z9?g_st=ipc","address":"Λεωφ. Πεντέλης 139, Χαλάνδρι 152 43","categoryIds":["desserts"],"categories":["Dessert Shops"]},{"id":"dessertsRestaurants_6ff752e919a0","slug":"nana-gioti-6ff7","kind":"restaurant","name":"Nana Gioti","lat":38.03608519844928,"lng":23.825679872970344,"url":"https://maps.app.goo.gl/AeWy5Es4sYdLyFSs7?g_st=ic","address":"Leof. Pentelis 24, Vrilissia 152 35","categoryIds":["desserts"],"categories":["Dessert Shops"]},{"id":"dessertsRestaurants_40ab106f41d5","slug":"la-fete-du-chocolat-40ab","kind":"restaurant","name":"La fete du chocolat","lat":38.03120511173637,"lng":23.818970445559835,"url":"https://maps.app.goo.gl/4agqQggB3EisbRqZ6?g_st=ipc","address":"Λεωφ. Πεντέλης 118, Χαλάνδρι 152 34","categoryIds":["desserts"],"categories":["Dessert Shops"]},{"id":"dessertsRestaurants_8ce39ac32801","slug":"cinnabon-halandri-8ce3","kind":"restaurant","name":"Cinnabon Halandri","lat":38.0300758962987,"lng":23.793141060079883,"url":"https://maps.app.goo.gl/n8CZv8iLgAB4Xf2E9?g_st=ipc","address":"Μαραθώνος 4, Χαλάνδρι 152 33","categoryIds":["desserts"],"categories":["Dessert Shops"]},{"id":"dessertsRestaurants_4f529b02c261","slug":"zacharoplasteia-konstantinidis-4f52","kind":"restaurant","name":"ΖΑΧΑΡΟΠΛΑΣΤΕΙΑ ΚΩΝΣΤΑΝΤΙΝΙΔΗΣ","lat":38.02641289961005,"lng":23.811254354041353,"url":"https://maps.app.goo.gl/eFBXtmFxkCpQxQLK7?g_st=ipc","address":"Λεωφ. Πεντέλης 72, Αθήνα 115 24","categoryIds":["desserts"],"categories":["Dessert Shops"]},{"id":"dessertsRestaurants_2866616f6c72","slug":"passarella-chalandri-2866","kind":"restaurant","name":"Passarella - Χαλάνδρι","lat":38.02448370470044,"lng":23.80670910273873,"url":"https://maps.app.goo.gl/dryCvKG6qyofyvsP9?g_st=ipc","address":"Λεωφ. Πεντέλης 42 &, Ευριπίδου, Χαλάνδρι 152 34","categoryIds":["desserts"],"categories":["Dessert Shops"]},{"id":"dessertsRestaurants_133f25aa5736","slug":"lartecono-davinci-gelato-kifisia-133f","kind":"restaurant","name":"Lartecono Davinci Gelato (Kifisia)","lat":38.07209287623985,"lng":23.81427887695815,"url":"https://maps.app.goo.gl/TQ8GkG92N85onsZr9?g_st=ipc","address":"Κασσαβέτη 19, Κηφισιά 145 62","categoryIds":["desserts"],"categories":["Dessert Shops"]},{"id":"dessertsRestaurants_f6573343ee76","slug":"varsos-kifisias-f657","kind":"restaurant","name":"Βάρσος Κηφισιάς","lat":38.072362535009226,"lng":23.812748821182716,"url":"https://maps.app.goo.gl/e8AJnfXdPPGoGzkUA?g_st=ipc","address":"Κασσαβέτη 5, Κηφισιά 145 62","categoryIds":["desserts"],"categories":["Dessert Shops"]},{"id":"dessertsRestaurants_2b678632636d","slug":"gelateria-giovanni-2b67","kind":"restaurant","name":"Gelateria Giovanni","lat":38.05439248631055,"lng":23.83864189197517,"url":"https://maps.app.goo.gl/vHiSCvP87r2bMcgL7?g_st=ipc","address":"Μπουμπουλίνας 1, Μελίσσια 151 27","categoryIds":["desserts"],"categories":["Dessert Shops"]}],"nearby":[{"id":"cheapEatsRestaurants_843263490ea4","slug":"jackaroo-8432","kind":"restaurant","name":"Jackaroo","lat":38.04618103563096,"lng":23.807668129553196,"url":"https://maps.app.goo.gl/PgrDAEWAFbwF6go48?g_st=ipc","address":"Leof. Kifisias 70, Marousi 151 25","categoryIds":["cheap-eats"],"categories":["Gyros & Cheap Eats"],"distanceKm":0.20622955150925806},{"id":"greekRestaurants_b3a06913c0a6","slug":"striggla-b3a0","kind":"restaurant","name":"Striggla","lat":38.046725624480935,"lng":23.806442690864635,"url":"https://maps.app.goo.gl/zrq9BbB4MU8m8xEA7","address":"Αγίου Κωνσταντίνου 56, Μαρούσι 151 24","categoryIds":["greek-restaurants"],"categories":["Greek Restaurants"],"distanceKm":0.2122091153177832},{"id":"luxuryDiningRestaurants_33b374a8814d","slug":"burntbone-33b3","kind":"restaurant","name":"BurntBone","lat":38.04658414578802,"lng":23.806088897851588,"url":"https://maps.app.goo.gl/iFowB3Xks7e5KZr67?g_st=ipc","address":"Αγίου Κωνσταντίνου 50, Μαρούσι 151 24","categoryIds":["luxury-dining"],"categories":["Luxury Dining"],"distanceKm":0.24608201548493247},{"id":"asianRestaurants_a10e769c77cd","slug":"shisan-sushi-bar-a10e","kind":"restaurant","name":"Shisan Sushi Bar","lat":38.04672189810274,"lng":23.805795459456142,"url":"https://maps.app.goo.gl/7Qc86HdEYaZECDNi6?g_st=ipc","address":"Αγίου Κωνσταντίνου 48, Μαρούσι 151 24","categoryIds":["asian"],"categories":["Asian Restaurants"],"distanceKm":0.2580101924399272},{"id":"fishTavernasRestaurants_b5ecf6b7087f","slug":"psaromania-b5ec","kind":"restaurant","name":"Ψαρομανία","lat":38.048408639606166,"lng":23.81356249118105,"url":"https://maps.app.goo.gl/h2KMfix1JBmXpQQB9?g_st=ipc","address":"Δάφνης 57, Μαρούσι 151 25","categoryIds":["fish-tavernas"],"categories":["Fish Tavernas"],"distanceKm":0.46533596551648176},{"id":"municipalities_cb47d94cb6da","slug":"maroysi-cb47","kind":"municipality","name":"Μαρούσι","lat":38.0543,"lng":23.808,"aliases":["Marousi","Maroussi","Μαρουσι","Αμαρουσιο","Αμαρούσιο","Marusi","Amarousion"],"region":"Βόρεια Προάστια","name_en":"Marousi","region_en":"Northern Suburbs","distanceKm":0.7039938472747711},{"id":"italianRestaurants_c5639b50090e","slug":"the-italians-c563","kind":"restaurant","name":"The italians","lat":38.05489203613415,"lng":23.80737502626759,"url":"https://maps.app.goo.gl/JMrxX5Rq7Q7HgR487?g_st=ipc","address":"Βασ. Σοφίας 47, Μαρούσι 151 24","categoryIds":["italian"],"categories":["Italian Restaurants"],"distanceKm":0.7734516456725724},{"id":"dessertsRestaurants_f3991d5c3e79","slug":"smyrni-baklava-f399","kind":"restaurant","name":"Smyrni Baklava","lat":38.05518643071446,"lng":23.80748099367396,"url":"https://maps.app.goo.gl/FMXAiNt1SKKDggh88?g_st=ipc","address":"Βασ. Σοφίας 55, Μαρούσι 151 24","categoryIds":["desserts"],"categories":["Dessert Shops"],"distanceKm":0.8051660819993071},{"id":"burgersRestaurants_264306258d6e","slug":"busty-s-burger-2643","kind":"restaurant","name":"Busty's Burger","lat":38.05283037769694,"lng":23.815776704443905,"url":"https://maps.app.goo.gl/ZPYfcdYHMWXyKwF16?g_st=ipc","address":"Οδός Πεντέλης, Μαρούσι 151 26","categoryIds":["burgers"],"categories":["Burger Spots"],"distanceKm":0.8502885418383707},{"id":"cheapEatsRestaurants_484ec346fe11","slug":"souzi-tros-street-food-484e","kind":"restaurant","name":"SOUZI TROS street food","lat":38.0550996125921,"lng":23.804743752516742,"url":"https://maps.app.goo.gl/Q2YtxKh8LosNGyHJ6?g_st=ipc","address":"Σπύρου Λέκκα 9, Μαρούσι 151 24","categoryIds":["cheap-eats"],"categories":["Gyros & Cheap Eats"],"distanceKm":0.8507431608784897},{"id":"cheapEatsRestaurants_8e2845b1b79c","slug":"to-elliniko-soyvlaki-8e28","kind":"restaurant","name":"Το Ελληνικό Σουβλάκι","lat":38.055611201936195,"lng":23.805858315965597,"url":"https://maps.app.goo.gl/GjgUbFCMPcughxPW6?g_st=ipc","address":"Διονύσου 19, Μαρούσι 151 24","categoryIds":["cheap-eats"],"categories":["Gyros & Cheap Eats"],"distanceKm":0.8753841446587917},{"id":"coffeeBrunchRestaurants_7046edfbce5c","slug":"janet-craig-7046","kind":"restaurant","name":"Janet Craig","lat":38.05641063632366,"lng":23.806182036715274,"url":"https://maps.app.goo.gl/o5wNnYy8d5rdfCBx5?g_st=ipc","address":"28ης Οκτωβρίου 5, Μαρούσι 151 24","categoryIds":["coffee-brunch"],"categories":["Coffee & Brunch Spots"],"distanceKm":0.9560345645593474},{"id":"burgersRestaurants_3d23e4017c79","slug":"f-smashing-marousi-delivery-take-away-only-3d23","kind":"restaurant","name":"F* Smashing Marousi (Delivery & Take away Only!)","lat":38.05659414043942,"lng":23.807978426457023,"url":"https://maps.app.goo.gl/YDf78cc6DThEFAdSA?g_st=ipc","address":"Π. Κυριακού 18, Μαρούσι 151 24","categoryIds":["burgers"],"categories":["Burger Spots"],"distanceKm":0.9590289220775619},{"id":"burgersRestaurants_6d610eb79dbd","slug":"taz-smash-burger-6d61","kind":"restaurant","name":"Taz Smash Burger","lat":38.05644521597169,"lng":23.804667787562405,"url":"https://maps.app.goo.gl/tj3ojXGmrnTvMA9c7?g_st=ipc","address":"Περικλέους 2, Μαρούσι 151 22","categoryIds":["burgers"],"categories":["Burger Spots"],"distanceKm":0.9937105192064122},{"id":"familyFriendly_a0024b80ee95","slug":"block-games-a002","kind":"restaurant","name":"Block Games","lat":38.05634420757886,"lng":23.803830698656842,"url":"https://maps.app.goo.gl/KumHXE484XwJxn489?g_st=ipc","address":"Περικλέους 1, Μαρούσι 151 22","categoryIds":["family-friendly"],"categories":["Kid Friendly Locations"],"distanceKm":1.009022315961097},{"id":"asianRestaurants_02d0f232a272","slug":"new-great-wall-marousi-02d0","kind":"restaurant","name":"New Great Wall Marousi","lat":38.05713122309269,"lng":23.805863056780513,"url":"https://maps.app.goo.gl/UXfhhMjtr2rYJfNW7?g_st=ipc","address":"Βασ. Αμαλίας 1, Μαρούσι 151 22","categoryIds":["asian"],"categories":["Asian Restaurants"],"distanceKm":1.0401001063191821},{"id":"burgersRestaurants_ceb67d2517dd","slug":"godgilla-umami-street-food-ceb6","kind":"restaurant","name":"Godgilla umami street food","lat":38.056565975998105,"lng":23.814008768575892,"url":"https://maps.app.goo.gl/WyovvCKHo17WtrPb8?g_st=ipc","address":"Γεωρ. Κοτζιά 2, Μαρούσι 151 26","categoryIds":["burgers","cheap-eats"],"categories":["Burger Spots","Gyros & Cheap Eats"],"legacySlugs":["godgilla-umami-street-food-784d"],"distanceKm":1.0793117970256265},{"id":"coffeeBrunchRestaurants_b9882b026b76","slug":"montakioy-maroysi-b988","kind":"restaurant","name":"ΜΟΝΤΑΚΙΟΥ ΜΑΡΟΥΣΙ","lat":38.03797108447277,"lng":23.80161359245891,"url":"https://maps.app.goo.gl/P3WZt5PaHNoTambf6?g_st=ipc","address":"Ρωμανού Μελωδού 1, Μαρούσι 151 25","categoryIds":["coffee-brunch"],"categories":["Coffee & Brunch Spots"],"distanceKm":1.2559184543888773},{"id":"burgersRestaurants_11e6ae00efca","slug":"melt-burgers-11e6","kind":"restaurant","name":"Melt Burgers","lat":38.037895872437886,"lng":23.799602975307902,"url":"https://maps.app.goo.gl/17z1ma6NXSDvgsM2A?g_st=ipc","address":"Λεωφ. Κηφισίας 59, Μαρούσι 151 24","categoryIds":["burgers"],"categories":["Burger Spots"],"distanceKm":1.3536978787348823},{"id":"cheapEatsRestaurants_28c94df5ce5f","slug":"krepilateion-28c9","kind":"restaurant","name":"ΚΡΕΠΗΛΑΤΕΙΟΝ","lat":38.037837677741585,"lng":23.799467140725334,"url":"https://maps.app.goo.gl/CSqgCp2SZrPwcWdC6?g_st=ipc","address":"Λεωφ. Κηφισίας 59, Μαρούσι 151 25","categoryIds":["cheap-eats"],"categories":["Gyros & Cheap Eats"],"distanceKm":1.3657432567182513},{"id":"familyFriendly_d45bb5296460","slug":"maroussi-tennis-club-d45b","kind":"restaurant","name":"Maroussi Tennis Club","lat":38.04651986209008,"lng":23.825630520397997,"url":"https://maps.app.goo.gl/pF3h6gGnqMiku8Wg9?g_st=ic","address":"Sismanogliou 74, Marousi 151 26","categoryIds":["family-friendly"],"categories":["Kid Friendly Locations"],"distanceKm":1.5281238657871363},{"id":"cheapEatsRestaurants_5a1b3de4b0cd","slug":"ta-soyvlakia-tis-giagias-5a1b","kind":"restaurant","name":"Τα σουβλάκια της γιαγιάς","lat":38.04199101993577,"lng":23.824597588199378,"url":"https://maps.app.goo.gl/K9azEutYtVeRFeTB9?g_st=ipc","address":"Κυπρίων Αγωνιστών 50, Μαρούσι 151 26","categoryIds":["cheap-eats"],"categories":["Gyros & Cheap Eats"],"distanceKm":1.5763479813140486},{"id":"mexicanRestaurants_e68c0563bcc0","slug":"ancho-mexican-grill-e68c","kind":"restaurant","name":"Ancho Mexican Grill","lat":38.04461245221765,"lng":23.790240662976885,"url":"https://maps.app.goo.gl/VDFRPLTGKi6Cxw6b9?g_st=ipc","address":"Ανδρέα Παπανδρέου 35, Μαρούσι 151 22","categoryIds":["mexican"],"categories":["Mexican Restaurants"],"distanceKm":1.623010090388408},{"id":"dessertsRestaurants_01f94a155dc7","slug":"cinnabon-01f9","kind":"restaurant","name":"Cinnabon","lat":38.04451091204427,"lng":23.790126921989934,"url":"https://maps.app.goo.gl/vor1PCh85rY2x8xr5?g_st=ipc","address":"Andrea Papandreou 35 Loc. 215, 2nd floor, The Mall Athens, Μαρούσι 151 22","categoryIds":["desserts"],"categories":["Dessert Shops"],"distanceKm":1.6353260004567751}],"sameRegion":[],"mentionedGuides":[],"canonicalSlug":"zacharoplasteia-konstantinidis-9534","isCanonicalEntity":true,"enrichment":{"summary_en":"Ζαχαροπλαστεία ΚΩΝΣΤΑΝΤΙΝΙΔΗΣ is a curated restaurant in Μαρούσι 151 25 in the Dessert Shops collection. It is connected to 7 nearby Googlementor picks to help travelers build a stronger local route.","summary_el":"Ζαχαροπλαστεία ΚΩΝΣΤΑΝΤΙΝΙΔΗΣ είναι ένα επιλεγμένο σημείο φαγητού στην περιοχή Μαρούσι 151 25 και ανήκει στη συλλογή Dessert Shops. Συνδέεται με 7 κοντινές προτάσεις του Googlementor για πιο ολοκληρωμένη εμπειρία.","vibe_tags":["curated","sweet-stop"],"best_for":["first-time visitors","food lovers"],"visit_moments":["afternoon break","after dinner"],"practical_note":"Address and direct map link are available for easy turn-by-turn access.","nearby_walkable_count":7,"nearby_count_2km":37,"confidence":0.98}},"__N_SSG":true}