{"pageProps":{"entity":{"id":"coffeeBrunchRestaurants_818fcc5b16a1","slug":"zappa-athens-at-aigli-818f","kind":"restaurant","name":"Zappa Athens at Aigli","lat":37.97088612834781,"lng":23.737468844228125,"url":"https://maps.app.goo.gl/mA58YYFj25woNwrd6?g_st=ic","address":"Zappeion Garden, Athina 105 57","categoryIds":["coffee-brunch"],"categories":["Coffee & Brunch Spots"]},"sameCategory":[{"id":"coffeeBrunchRestaurants_d264f60c48b5","slug":"kekkos-traditional-cafe-pastry-d264","kind":"restaurant","name":"Κekkos Traditional Cafe & Pastry","lat":37.97039127677511,"lng":23.74203472592943,"url":"https://maps.app.goo.gl/2kmhegcNKQWPm1QD6?g_st=ipc","address":"Ερατοσθένους 7, Αθήνα 116 35","categoryIds":["coffee-brunch"],"categories":["Coffee & Brunch Spots"]},{"id":"coffeeBrunchRestaurants_1e75db395902","slug":"to-loyvro-1e75","kind":"restaurant","name":"Το Λούβρο","lat":37.970011751193255,"lng":23.742186500606625,"url":"https://maps.app.goo.gl/YkKoXGLhpNyAx3V76?g_st=ipc","address":"Ερατοσθένους 6, Αθήνα 116 35","categoryIds":["coffee-brunch"],"categories":["Coffee & Brunch Spots"]},{"id":"coffeeBrunchRestaurants_b00f4e81c5ad","slug":"4m-rule-of-4m-b00f","kind":"restaurant","name":"4m (Rule of 4m)","lat":37.9710035656136,"lng":23.742348180047202,"url":"https://maps.app.goo.gl/iznGffRGqEfUmUVL9?g_st=ipc","address":"Αγίου Σπυρίδωνος 5, Αθήνα 116 35","categoryIds":["coffee-brunch"],"categories":["Coffee & Brunch Spots"]},{"id":"coffeeBrunchRestaurants_72ee5296056d","slug":"holy-llama-72ee","kind":"restaurant","name":"Holy Llama","lat":37.97397500358649,"lng":23.73312528899751,"url":"https://maps.app.goo.gl/5KzgeBBfEf77x8sL7?g_st=ipc","address":"Nikis, Syntagma 23, Αθήνα 105 57","categoryIds":["coffee-brunch","vegetarian"],"categories":["Coffee & Brunch Spots","Vegetarian Friendly Restaurants"],"legacySlugs":["holy-llama-4c1a"]},{"id":"coffeeBrunchRestaurants_ca5c6fd3b033","slug":"plakaki-cafe-ca5c","kind":"restaurant","name":"Plakaki Cafe","lat":37.97168034602651,"lng":23.731177071228885,"url":"https://maps.app.goo.gl/fCZvCfcqYbM4mrRz8?g_st=ic","address":"Pl. Filomousou Eterias 2, Athina 105 58","categoryIds":["coffee-brunch"],"categories":["Coffee & Brunch Spots"]},{"id":"coffeeBrunchRestaurants_6b3f7db90a24","slug":"nonnas-athens-6b3f","kind":"restaurant","name":"Nonnas Athens","lat":37.971651792837406,"lng":23.731123841030353,"url":"https://maps.app.goo.gl/5RFfLvtqnpk2BDQp8?g_st=ipc","address":"Pl. Filomousou Eterias 3, Athina 105 58","categoryIds":["coffee-brunch"],"categories":["Coffee & Brunch Spots"]},{"id":"coffeeBrunchRestaurants_f0eff25de691","slug":"amandine-s-bagels-f0ef","kind":"restaurant","name":"Amandine's Bagels","lat":37.97477039083452,"lng":23.73321799541619,"url":"https://maps.app.goo.gl/spidgemnNTyMgFML7?g_st=ipc","address":"Νίκης 13, Αθήνα 105 57","categoryIds":["coffee-brunch"],"categories":["Coffee & Brunch Spots"]},{"id":"coffeeBrunchRestaurants_88ec9d6dfbbc","slug":"joshua-tree-cafe-88ec","kind":"restaurant","name":"Joshua Tree Cafe","lat":37.96618895456632,"lng":23.73475215870415,"url":"https://maps.app.goo.gl/hxko2CRaz8QbMJPc8?g_st=ipc","address":"Αναπαύσεως 13, Αθήνα 116 36","categoryIds":["coffee-brunch","vegetarian"],"categories":["Coffee & Brunch Spots","Vegetarian Friendly Restaurants"],"legacySlugs":["joshua-tree-cafe-e75c"]},{"id":"coffeeBrunchRestaurants_2fddcd2fe039","slug":"neropistolo-2fdd","kind":"restaurant","name":"Neropistolo","lat":37.974517291275795,"lng":23.7322749472112,"url":"https://maps.app.goo.gl/BtaYzYAqPmjvET4H6?g_st=ipc","address":"Βουλής 35, Αθήνα 105 57","categoryIds":["coffee-brunch"],"categories":["Coffee & Brunch Spots"]},{"id":"coffeeBrunchRestaurants_baef4762247d","slug":"chelsea-hotel-baef","kind":"restaurant","name":"Chelsea Hotel","lat":37.96781479364914,"lng":23.743723733421092,"url":"https://maps.app.goo.gl/biMezA2mUN6mNc886?g_st=ipc","address":"Αρχιμήδους, Πρόκλου και, Αθήνα 116 35","categoryIds":["coffee-brunch"],"categories":["Coffee & Brunch Spots"]},{"id":"coffeeBrunchRestaurants_512abfbcd215","slug":"monokeros-bakery-512a","kind":"restaurant","name":"Monokeros Bakery","lat":37.96998792256903,"lng":23.745206716967704,"url":"https://maps.app.goo.gl/vPfqSycBZPnB31CG6?g_st=ipc","address":"Φαίδρου 4, Αθήνα 116 35","categoryIds":["coffee-brunch"],"categories":["Coffee & Brunch Spots"]},{"id":"coffeeBrunchRestaurants_a3e6dda2655d","slug":"tazza-caffe-a3e6","kind":"restaurant","name":"Tazza caffe","lat":37.975499371808404,"lng":23.73172660898901,"url":"https://maps.app.goo.gl/uGLfA2cFXs7RueeS6?g_st=ipc","address":"Πετράκη 5, Αθήνα 105 63","categoryIds":["coffee-brunch"],"categories":["Coffee & Brunch Spots"]}],"nearby":[{"id":"familyFriendly_5af727c12cd9","slug":"zappeion-gardens-playground-5af7","kind":"restaurant","name":"Zappeion Gardens Playground","lat":37.97014491296032,"lng":23.73740955062274,"url":"https://maps.app.goo.gl/PMwTfrNSvfQFtkeg9?g_st=ic","address":"Leof. Vasilissis Olgas 1, Athina 105 57","categoryIds":["family-friendly"],"categories":["Kid Friendly Locations"],"distanceKm":0.0825831131696028},{"id":"mustSeeAttractions_a63ab05582ba","slug":"zappeio-megaro-a63a","kind":"restaurant","name":"Ζάππειο Μέγαρο","lat":37.971521700592604,"lng":23.73672254708253,"url":"https://maps.app.goo.gl/Hb78YQFedU1ZBjDY7?g_st=ipc","address":"Λεωφ. Βασιλίσσης Όλγας, Αθήνα 105 57","categoryIds":["attractions"],"categories":["Must-See Attractions"],"distanceKm":0.09630236287264525},{"id":"mustSeeAttractions_ad424ca48b94","slug":"kipoi-zappeioy-ad42","kind":"restaurant","name":"Κήποι Ζαππείου","lat":37.97023042997274,"lng":23.73586719386634,"url":"https://maps.app.goo.gl/5RjMWARRwZPM2Kdw6?g_st=ipc","address":"Λεωφ. Βασιλίσσης Όλγας 1, Αθήνα 105 57","categoryIds":["attractions"],"categories":["Must-See Attractions"],"distanceKm":0.1582003455007357},{"id":"familyFriendly_dbcc9f7f5af0","slug":"athens-national-garden-playground-dbcc","kind":"restaurant","name":"Athens National Garden Playground","lat":37.97207516278518,"lng":23.738684774717846,"url":"https://maps.app.goo.gl/KzRKoHWJqHBNs7oL8?g_st=ic","address":"Irodou Attikou 21, Athina 105 57","categoryIds":["family-friendly"],"categories":["Kid Friendly Locations"],"distanceKm":0.16982634576533087},{"id":"familyFriendly_97da3f56afb5","slug":"ethnikos-kipos-97da","kind":"restaurant","name":"Εθνικός Κήπος","lat":37.97258568206085,"lng":23.73743382176546,"url":"https://maps.app.goo.gl/MCnnH77ndto6n5WT8?g_st=ipc","address":"Αθήνα 105 57","categoryIds":["family-friendly","attractions"],"categories":["Kid Friendly Locations","Must-See Attractions"],"legacySlugs":["ethnikos-kipos-9c8c"],"distanceKm":0.18900668397526624},{"id":"mustSeeAttractions_7df9738c0c83","slug":"romaika-loytra-zappeioy-7df9","kind":"restaurant","name":"Ρωμαϊκά Λουτρά Ζαππείου","lat":37.97157046328902,"lng":23.73377918203135,"url":"https://maps.app.goo.gl/umvyXLD9iKw3FVBTA?g_st=ipc","address":"Λεωφ. Βασιλίσσης Αμαλίας 405, Αθήνα 105 57","categoryIds":["attractions"],"categories":["Must-See Attractions"],"distanceKm":0.3322564139530407},{"id":"mustSeeAttractions_67d5b49dcf96","slug":"votaniko-moyseio-ethnikoy-kipoy-67d5","kind":"restaurant","name":"Βοτανικό Μουσείο Εθνικού Κήπου","lat":37.97408914636613,"lng":23.7389299048779,"url":"https://maps.app.goo.gl/jXVzy7hmkNKGbif26?g_st=ipc","address":"Λεωφ. Βασιλίσσης Σοφίας, Αθήνα 105 57","categoryIds":["attractions"],"categories":["Must-See Attractions"],"distanceKm":0.3784857599486137},{"id":"burgersRestaurants_7a76471a6430","slug":"nob-burger-7a76","kind":"restaurant","name":"nob.burger","lat":37.97058357459842,"lng":23.741857084173848,"url":"https://maps.app.goo.gl/7ty7gMmfJYVeTM5H9?g_st=ipc","address":"Ερατοσθένους 3, Αθήνα 116 35","categoryIds":["burgers"],"categories":["Burger Spots"],"distanceKm":0.3861316266627685},{"id":"coffeeBrunchRestaurants_d264f60c48b5","slug":"kekkos-traditional-cafe-pastry-d264","kind":"restaurant","name":"Κekkos Traditional Cafe & Pastry","lat":37.97039127677511,"lng":23.74203472592943,"url":"https://maps.app.goo.gl/2kmhegcNKQWPm1QD6?g_st=ipc","address":"Ερατοσθένους 7, Αθήνα 116 35","categoryIds":["coffee-brunch"],"categories":["Coffee & Brunch Spots"],"distanceKm":0.40400020899272965},{"id":"cheapEatsRestaurants_62f01dc2ec9e","slug":"iliada-62f0","kind":"restaurant","name":"ILIADA","lat":37.97276950938018,"lng":23.73338516103142,"url":"https://maps.app.goo.gl/zskFwnAEHYv2rZ486?g_st=ipc","address":"Κυδαθηναίων 1 - 3, Αθήνα 105 57","categoryIds":["cheap-eats"],"categories":["Gyros & Cheap Eats"],"distanceKm":0.4147215251852725},{"id":"italianRestaurants_67b7b653e959","slug":"cupola-67b7","kind":"restaurant","name":"Cupola","lat":37.97044661658537,"lng":23.742232273257617,"url":"https://maps.app.goo.gl/mFVjH2gTLzicYaVJA?g_st=ipc","address":"Ευφοριωνος 13, Αθήνα 116 35","categoryIds":["italian"],"categories":["Italian Restaurants"],"distanceKm":0.42040217702752014},{"id":"mustSeeAttractions_a7a2908a9221","slug":"naos-toy-olympioy-dios-a7a2","kind":"restaurant","name":"Ναός του Ολυμπίου Διός","lat":37.96929966455042,"lng":23.733099967898216,"url":"https://maps.app.goo.gl/MRiS2rx9HUUxeppD6?g_st=ipc","address":"Αθήνα 105 57","categoryIds":["attractions"],"categories":["Must-See Attractions"],"distanceKm":0.42164530770177355},{"id":"coffeeBrunchRestaurants_1e75db395902","slug":"to-loyvro-1e75","kind":"restaurant","name":"Το Λούβρο","lat":37.970011751193255,"lng":23.742186500606625,"url":"https://maps.app.goo.gl/YkKoXGLhpNyAx3V76?g_st=ipc","address":"Ερατοσθένους 6, Αθήνα 116 35","categoryIds":["coffee-brunch"],"categories":["Coffee & Brunch Spots"],"distanceKm":0.42481633903425325},{"id":"mustSeeAttractions_3fcc6eb77276","slug":"panathinaiko-stadio-3fcc","kind":"restaurant","name":"Παναθηναϊκό Στάδιο","lat":37.96833218533537,"lng":23.741113035876687,"url":"https://maps.app.goo.gl/EoVCRRTzjoVCkEm18?g_st=ipc","address":"Λεωφ. Βασιλέως Κωνσταντίνου, Αθήνα 116 35","categoryIds":["attractions"],"categories":["Must-See Attractions"],"distanceKm":0.4274270301946987},{"id":"coffeeBrunchRestaurants_b00f4e81c5ad","slug":"4m-rule-of-4m-b00f","kind":"restaurant","name":"4m (Rule of 4m)","lat":37.9710035656136,"lng":23.742348180047202,"url":"https://maps.app.goo.gl/iznGffRGqEfUmUVL9?g_st=ipc","address":"Αγίου Σπυρίδωνος 5, Αθήνα 116 35","categoryIds":["coffee-brunch"],"categories":["Coffee & Brunch Spots"],"distanceKm":0.42790968874138496},{"id":"luxuryDiningRestaurants_ea67b94ccce5","slug":"art-lounge-rooftop-ea67","kind":"restaurant","name":"Art Lounge Rooftop","lat":37.97343240978713,"lng":23.73349750420062,"url":"https://maps.app.goo.gl/ou4XFAAMpTQ3uTaeA?g_st=ipc","address":"Ναυάρχου Νικοδήμου 1, Αθήνα 105 57","categoryIds":["luxury-dining","rooftop-lounges"],"categories":["Luxury Dining","Rooftop Lounges"],"legacySlugs":["art-lounge-rooftop-f22b"],"distanceKm":0.44871659218767984},{"id":"monasteriesChurches_70c088ccf077","slug":"ieros-naos-agias-foteinis-ilisoy-70c0","kind":"restaurant","name":"Ιερός Ναός Αγίας Φωτεινής Ιλισού","lat":37.96759253152895,"lng":23.734352593011444,"url":"https://maps.app.goo.gl/jdAdCNX9K2HoSujs9?g_st=ipc","address":"Αρδηττού 3, Αθήνα 105 57","categoryIds":["monasteries-churches"],"categories":["Monasteries & Spiritual Sites"],"distanceKm":0.45688807709851353},{"id":"vegetarianRestaurants_6bddca4a5310","slug":"the-room-mets-6bdd","kind":"restaurant","name":"THE ROOM METS","lat":37.96677955241959,"lng":23.737885963446566,"url":"https://maps.app.goo.gl/stBGTxofrCxpCP4q7?g_st=ipc","address":"Μαρκ. Μουσούρου 22, Αθήνα 116 36","categoryIds":["vegetarian"],"categories":["Vegetarian Friendly Restaurants"],"distanceKm":0.4580920283034142},{"id":"italianRestaurants_a85b9e4df417","slug":"brigante-syntagma-a85b","kind":"restaurant","name":"Brigante (Σύνταγμα)","lat":37.97426577787846,"lng":23.734179177201504,"url":"https://maps.app.goo.gl/RmErpGj8TndJSV9v7?g_st=ipc","address":"Ξενοφώντος 6, Αθήνα 105 57","categoryIds":["italian"],"categories":["Italian Restaurants"],"distanceKm":0.4736830689320715},{"id":"asianRestaurants_50c893ba0bac","slug":"ikura-sushi-korean-food-50c8","kind":"restaurant","name":"IKURA Sushi - Korean food","lat":37.97430159758245,"lng":23.73415791767136,"url":"https://maps.app.goo.gl/rG3Ram1UiVYEUuFt9?g_st=ipc","address":"Φιλελλήνων 7, Αθήνα 105 57","categoryIds":["asian"],"categories":["Asian Restaurants"],"distanceKm":0.4779783072085046},{"id":"cheapEatsRestaurants_a8812958586b","slug":"soyvlaki-o-kostas-1950-syntagma-a881","kind":"restaurant","name":"Σουβλάκι Ο Κώστας 1950 συνταγμα","lat":37.97431166724141,"lng":23.734074792444165,"url":"https://maps.app.goo.gl/FGrKA3NWxxuCNCKSA?g_st=ipc","address":"Φιλελλήνων 7, Αθήνα 105 57","categoryIds":["cheap-eats"],"categories":["Gyros & Cheap Eats"],"distanceKm":0.4833191513843247},{"id":"luxuryDiningRestaurants_bbd06feb8236","slug":"okio-restaurant-fine-dining-athens-bbd0","kind":"restaurant","name":"Okio Restaurant Fine Dining Athens","lat":37.973490463159685,"lng":23.733043418426053,"url":"https://maps.app.goo.gl/Z185a4BudLXiNxEu8?g_st=ipc","address":"Nikis 33 &, Ναυάρχου Νικοδήμου 3, Αθήνα 105 57","categoryIds":["luxury-dining"],"categories":["Luxury Dining"],"distanceKm":0.48408665343742524},{"id":"luxuryDiningRestaurants_165813797a98","slug":"aneton-1658","kind":"restaurant","name":"ΑΝΕΤΟΝ","lat":37.973499757295556,"lng":23.733045100192022,"url":"https://maps.app.goo.gl/tZNVrAuGYm6zBKgh9?g_st=ipc","address":"Ναυάρχου Νικοδήμου 3, Αθήνα 105 57","categoryIds":["luxury-dining"],"categories":["Luxury Dining"],"distanceKm":0.4845876036495514},{"id":"mustSeeAttractions_a3aa8075d8fc","slug":"arch-of-hadrian-a3aa","kind":"restaurant","name":"Arch of Hadrian","lat":37.970210610652515,"lng":23.73198089152641,"url":"https://maps.app.goo.gl/XDM6bEzic8EMa3FX7?g_st=ipc","address":"Leof. Vasilisis Amalias 50, Athina 105 58","categoryIds":["attractions"],"categories":["Must-See Attractions"],"distanceKm":0.4868917501204617}],"sameRegion":[],"mentionedGuides":[{"slug":"tap-water-safe-greece-el","title":"Είναι Ασφαλές να Πίνετε Νερό Βρύσης στην Ελλάδα;"},{"slug":"tap-water-safe-greece","title":"Is Tap Water Safe to Drink in Greece?"},{"slug":"traveling-to-greece-on-a-budget-el","title":"Ταξιδι στην Ελλαδα με μικρο budget"},{"slug":"traveling-to-greece-on-a-budget","title":"Traveling to Greece on a Budget"}],"canonicalSlug":"zappa-athens-at-aigli-818f","isCanonicalEntity":true,"enrichment":{"summary_en":"Zappa Athens at Aigli is a curated restaurant in Athina 105 57 in the Coffee & Brunch Spots collection. It is connected to 153 nearby Googlementor picks to help travelers build a stronger local route.","summary_el":"Zappa Athens at Aigli είναι ένα επιλεγμένο σημείο φαγητού στην περιοχή Athina 105 57 και ανήκει στη συλλογή Coffee & Brunch Spots. Συνδέεται με 153 κοντινές προτάσεις του Googlementor για πιο ολοκληρωμένη εμπειρία.","vibe_tags":["curated","daytime-favorite"],"best_for":["first-time visitors","food lovers"],"visit_moments":["early morning","late brunch"],"practical_note":"Address and direct map link are available for easy turn-by-turn access.","nearby_walkable_count":153,"nearby_count_2km":619,"confidence":0.98}},"__N_SSG":true}