{"pageProps":{"entity":{"id":"greekRestaurants_2c46fb9be459","slug":"basegrill-2c46","kind":"restaurant","name":"Basegrill","lat":37.860629906056765,"lng":23.752227328267114,"url":"https://maps.app.goo.gl/Mg499qYpRgDUfYMg9","address":"Ζησιμοπούλου 5, Γλυφάδα 166 74","categoryIds":["greek-restaurants","luxury-dining"],"categories":["Greek Restaurants","Luxury Dining"],"legacySlugs":["basegrill-e825"]},"sameCategory":[{"id":"greekRestaurants_9a0e0e6e3a9d","slug":"feedel-urban-gastronomy-9a0e","kind":"restaurant","name":"Feedέλ Urban Gastronomy","lat":37.976600766846424,"lng":23.729911306320325,"url":"https://maps.app.goo.gl/Uppwoqd1GbSaLvCe7","address":"Κτενά 1, Αθήνα 105 63","categoryIds":["greek-restaurants","luxury-dining"],"categories":["Greek Restaurants","Luxury Dining"],"legacySlugs":["feedel-urban-gastronomy-858d"]},{"id":"greekRestaurants_be06a546e935","slug":"giantes-be06","kind":"restaurant","name":"Γιάντες","lat":37.98561482975353,"lng":23.735926375159003,"url":"https://maps.app.goo.gl/LuGL5j7KgtCFWxmA8","address":"Βαλτετσίου 44, Αθήνα 106 81","categoryIds":["greek-restaurants","luxury-dining"],"categories":["Greek Restaurants","Luxury Dining"],"legacySlugs":["giantes-2f3a"]},{"id":"greekRestaurants_8f61506d1171","slug":"basegrill-athens-8f61","kind":"restaurant","name":"Basegrill Athens","lat":38.01200938597209,"lng":23.7082215195935,"url":"https://maps.app.goo.gl/4HcYYs1yQVdq1giy8","address":"Λεωφ. Κωνσταντινουπόλεως 64, Περιστέρι 121 33","categoryIds":["greek-restaurants","luxury-dining"],"categories":["Greek Restaurants","Luxury Dining"],"legacySlugs":["basegrill-athens-1a54"]},{"id":"greekRestaurants_776ec954209f","slug":"maestranza-skg-776e","kind":"restaurant","name":"Maestranza.skg","lat":40.6389335540748,"lng":22.939948700094217,"url":"https://maps.app.goo.gl/9dU4LoJrsfE8osv2A?g_st=ipc","address":"Ptolemeon 29Β, Thessaloniki 546 30","categoryIds":["greek-restaurants","luxury-dining"],"categories":["Greek Restaurants","Luxury Dining"],"legacySlugs":["maestranza-skg-4bd7"]},{"id":"greekRestaurants_f2b28136b406","slug":"ethos-athens-f2b2","kind":"restaurant","name":"Ethos Athens","lat":37.86060943582202,"lng":23.752891201537246,"url":"https://maps.app.goo.gl/xMQQbpjUHPQdMrpg6?g_st=ipc","address":"Zisimopoulou 10, Glifada 166 74","categoryIds":["greek-restaurants"],"categories":["Greek Restaurants"]},{"id":"greekRestaurants_0d2e578d4137","slug":"sasmos-kritiko-estiatorio-0d2e","kind":"restaurant","name":"Σασμός Κρητικό Εστιατόριο","lat":37.86096099153773,"lng":23.750381646450872,"url":"https://maps.app.goo.gl/hFF1UKLboDX66HUH8","address":"Γρ. Λαμπράκη 1-3, Γλυφάδα 166 75","categoryIds":["greek-restaurants"],"categories":["Greek Restaurants"]},{"id":"coffeeBrunchRestaurants_f000d793a460","slug":"bungalow7-athens-f000","kind":"restaurant","name":"Bungalow7 Athens","lat":37.858739347203105,"lng":23.751507417801406,"url":"https://maps.app.goo.gl/46sTr1wF8Q2Bajpu7?g_st=ipc","address":"Λεωφ. Ποσειδώνος 110, Γλυφάδα 166 75","categoryIds":["coffee-brunch","luxury-dining"],"categories":["Coffee & Brunch Spots","Luxury Dining"],"legacySlugs":["bungalow7-athens-3c7a"]},{"id":"luxuryDiningRestaurants_7d36e4ca660e","slug":"ark-7d36","kind":"restaurant","name":"Ark","lat":37.85971913916164,"lng":23.74981043696894,"url":"https://maps.app.goo.gl/Dx4oajrWFGZwwetZ9?g_st=ipc","address":"Γρ. Λαμπράκη 2, Γλυφάδα 166 74","categoryIds":["luxury-dining"],"categories":["Luxury Dining"]},{"id":"greekRestaurants_fd7a28a0649b","slug":"pasiphae-fd7a","kind":"restaurant","name":"PASIPHAE","lat":37.85781169380274,"lng":23.753685400099858,"url":"https://maps.app.goo.gl/w2UaAYT95xemDfAx9?g_st=ipc","address":"Lazaraki 63, Glifada 166 74","categoryIds":["greek-restaurants"],"categories":["Greek Restaurants"]},{"id":"greekRestaurants_b6c15b677224","slug":"to-drami-b6c1","kind":"restaurant","name":"To Drami","lat":37.86297028796149,"lng":23.75634712220573,"url":"https://maps.app.goo.gl/HFhEeo24Fzrwgfb98?g_st=ipc","address":"Laodikis 22, Glifada 166 74","categoryIds":["greek-restaurants"],"categories":["Greek Restaurants"]},{"id":"luxuryDiningRestaurants_72f0c7381e5c","slug":"caretta-athens-72f0","kind":"restaurant","name":"Caretta Athens","lat":37.8628471518072,"lng":23.74485660521178,"url":"https://maps.app.goo.gl/Uw1vLRNczCvaVvgf8?g_st=ipc","address":"Διαδόχου Παύλου 46, Γλυφάδα 166 75","categoryIds":["luxury-dining"],"categories":["Luxury Dining"]},{"id":"luxuryDiningRestaurants_0dbacc69dd52","slug":"feedel-asador-0dba","kind":"restaurant","name":"FEEDEL ASADOR","lat":37.86621086434499,"lng":23.74871853137983,"url":"https://maps.app.goo.gl/axUbgwvJZkdNUx4n8?g_st=ipc","address":"Ν Ζερβα 24 Και, Κύπρου, Γλυφάδα 166 75","categoryIds":["luxury-dining"],"categories":["Luxury Dining"]}],"nearby":[{"id":"greekRestaurants_f2b28136b406","slug":"ethos-athens-f2b2","kind":"restaurant","name":"Ethos Athens","lat":37.86060943582202,"lng":23.752891201537246,"url":"https://maps.app.goo.gl/xMQQbpjUHPQdMrpg6?g_st=ipc","address":"Zisimopoulou 10, Glifada 166 74","categoryIds":["greek-restaurants"],"categories":["Greek Restaurants"],"distanceKm":0.0583252512401413},{"id":"coffeeBrunchRestaurants_bf37b14fbfdf","slug":"kool-food-and-coffee-bf37","kind":"restaurant","name":"KOOL Food and Coffee","lat":37.8617153280559,"lng":23.75264950039194,"url":"https://maps.app.goo.gl/zAtPpG6k1DNtijDy5?g_st=ipc","address":"Leof. Dimarchou Aggelou Metaxa 22, Glifada 166 74","categoryIds":["coffee-brunch"],"categories":["Coffee & Brunch Spots"],"distanceKm":0.12625561435202295},{"id":"dessertsRestaurants_cdd2ff99e09f","slug":"choureal-choux-profiterole-cdd2","kind":"restaurant","name":"Choureal - Choux & Profiterole","lat":37.86175419711277,"lng":23.7510964996929,"url":"https://maps.app.goo.gl/jqVCKVDpx8nte58k7?g_st=ipc","address":"Lazaraki 39, Glifada 166 75","categoryIds":["desserts"],"categories":["Dessert Shops"],"distanceKm":0.15963745687135805},{"id":"greekRestaurants_0d2e578d4137","slug":"sasmos-kritiko-estiatorio-0d2e","kind":"restaurant","name":"Σασμός Κρητικό Εστιατόριο","lat":37.86096099153773,"lng":23.750381646450872,"url":"https://maps.app.goo.gl/hFF1UKLboDX66HUH8","address":"Γρ. Λαμπράκη 1-3, Γλυφάδα 166 75","categoryIds":["greek-restaurants"],"categories":["Greek Restaurants"],"distanceKm":0.16616006624760246},{"id":"italianRestaurants_19fa39b4b310","slug":"cicchetti-prosciutteria-spritzeria-19fa","kind":"restaurant","name":"Cicchetti Prosciutteria & Spritzeria","lat":37.859684523196464,"lng":23.75386502955931,"url":"https://maps.app.goo.gl/3jMcfyGkfYbxGbps9","address":"Fivis 11, Glifada 166 74","categoryIds":["italian"],"categories":["Italian Restaurants"],"distanceKm":0.1781047889799625},{"id":"coffeeBrunchRestaurants_3b6eb83fd8ab","slug":"angelina-le-petit-paris-depuis-2012-3b6e","kind":"restaurant","name":"Angelina Le Petit Paris- Depuis 2012","lat":37.859847959328306,"lng":23.754133995266965,"url":"https://maps.app.goo.gl/HLP4ksmAZgKQH5e59?g_st=ipc","address":"Λεωφ. Δημάρχου Αγγέλου Μεταξά 38, Γλυφάδα 166 74","categoryIds":["coffee-brunch"],"categories":["Coffee & Brunch Spots"],"distanceKm":0.18862108433303654},{"id":"dessertsRestaurants_18a065b2a830","slug":"despina-patisserie-18a0","kind":"restaurant","name":"Despina Patisserie","lat":37.861200491297915,"lng":23.749911676405425,"url":"https://maps.app.goo.gl/2bahw7piY4dbXkYo7?g_st=ipc","address":"Leof. Poseidonos 83, Glifada 166 75","categoryIds":["desserts"],"categories":["Dessert Shops"],"distanceKm":0.21295886136828485},{"id":"rooftopLoungesRestaurants_3fcd2594d1cf","slug":"asteria-rooftop-3fcd","kind":"restaurant","name":"Asteria Rooftop","lat":37.85949154574065,"lng":23.750248190887866,"url":"https://maps.app.goo.gl/yT2duNTycA4x2XMj8?g_st=ipc","address":"Αστέρας, Λεωφ. Ποσειδώνος 110, Γλυφάδα 166 75","categoryIds":["rooftop-lounges"],"categories":["Rooftop Lounges"],"distanceKm":0.21496702254901995},{"id":"coffeeBrunchRestaurants_f000d793a460","slug":"bungalow7-athens-f000","kind":"restaurant","name":"Bungalow7 Athens","lat":37.858739347203105,"lng":23.751507417801406,"url":"https://maps.app.goo.gl/46sTr1wF8Q2Bajpu7?g_st=ipc","address":"Λεωφ. Ποσειδώνος 110, Γλυφάδα 166 75","categoryIds":["coffee-brunch","luxury-dining"],"categories":["Coffee & Brunch Spots","Luxury Dining"],"legacySlugs":["bungalow7-athens-3c7a"],"distanceKm":0.219515504602747},{"id":"luxuryDiningRestaurants_7d36e4ca660e","slug":"ark-7d36","kind":"restaurant","name":"Ark","lat":37.85971913916164,"lng":23.74981043696894,"url":"https://maps.app.goo.gl/Dx4oajrWFGZwwetZ9?g_st=ipc","address":"Γρ. Λαμπράκη 2, Γλυφάδα 166 74","categoryIds":["luxury-dining"],"categories":["Luxury Dining"],"distanceKm":0.23510768824735181},{"id":"coffeeBrunchRestaurants_03882dd46eb2","slug":"paul-glyfada-0388","kind":"restaurant","name":"PAUL Γλυφάδα","lat":37.86192343683842,"lng":23.754387329250314,"url":"https://maps.app.goo.gl/yKiejsAj4L7LG4cJ7?g_st=ipc","address":"Κύπρου 70, Γλυφάδα 166 74","categoryIds":["coffee-brunch"],"categories":["Coffee & Brunch Spots"],"distanceKm":0.23800218760524247},{"id":"dessertsRestaurants_2ea0c1d8df4a","slug":"routina-glyfada-2ea0","kind":"restaurant","name":"Routina Glyfada","lat":37.86189651923641,"lng":23.7499341335772,"url":"https://maps.app.goo.gl/sSMfazw5iP79eG8K7?g_st=ipc","address":"Δούσμανη 8, Γλυφάδα 166 75","categoryIds":["desserts"],"categories":["Dessert Shops"],"distanceKm":0.24569122648374703},{"id":"mexicanRestaurants_41b2ba4d071f","slug":"el-catrin-41b2","kind":"restaurant","name":"El Catrin","lat":37.85991051831941,"lng":23.75494123731321,"url":"https://maps.app.goo.gl/tAYLNiXMfX7MbEnT9?g_st=ipc","address":"Φοίβης 15, Γλυφάδα 166 74","categoryIds":["mexican"],"categories":["Mexican Restaurants"],"distanceKm":0.2513227155303638},{"id":"coffeeBrunchRestaurants_645a2c954fa3","slug":"wynwood-eat-sip-gather-the-miami-style-645a","kind":"restaurant","name":"Wynwood - Eat Sip & Gather the Miami Style","lat":37.85990914525332,"lng":23.75494068810683,"url":"https://maps.app.goo.gl/YQMJ5PpN4Cvem9qf6?g_st=ipc","address":"Φοίβης 15, Γλυφάδα 166 74","categoryIds":["coffee-brunch"],"categories":["Coffee & Brunch Spots"],"distanceKm":0.2513256565855784},{"id":"dessertsRestaurants_cd41f487bdde","slug":"l-arte-del-gelato-cd41","kind":"restaurant","name":"L'arte del Gelato","lat":37.86184048032113,"lng":23.755183232681343,"url":"https://maps.app.goo.gl/JTFmtLwXRBHhcLCs8?g_st=ipc","address":"Αρτέμιδος 1, Γλυφάδα 166 74","categoryIds":["desserts"],"categories":["Dessert Shops"],"distanceKm":0.29233009129667925},{"id":"coffeeBrunchRestaurants_1534d718f542","slug":"su-casa-1534","kind":"restaurant","name":"Su Casa","lat":37.8602791456983,"lng":23.75556920044941,"url":"https://maps.app.goo.gl/LzYwvbcwMZCWEetj9?g_st=ipc","address":"Pl. Nimfon, Glifada 166 74","categoryIds":["coffee-brunch"],"categories":["Coffee & Brunch Spots"],"distanceKm":0.2959617306212714},{"id":"dessertsRestaurants_ba7be89e8ea8","slug":"iceroll-ba7b","kind":"restaurant","name":"IceRoll","lat":37.86208515594954,"lng":23.755076469134906,"url":"https://maps.app.goo.gl/w1pmpophQeL2Fp7M9?g_st=ipc","address":"Γιαννιτσοπούλου 2, Γλυφάδα 166 74","categoryIds":["desserts"],"categories":["Dessert Shops"],"distanceKm":0.29790104102812565},{"id":"dessertsRestaurants_2849c272c636","slug":"bufala-gelato-glyfada-2849","kind":"restaurant","name":"Bufala Gelato (Γλυφάδα)","lat":37.86176317702974,"lng":23.755337811216418,"url":"https://maps.app.goo.gl/51dbhckNQVJ8yNh37?g_st=ipc","address":"Αρτέμιδος 1, Γλυφάδα 166 74","categoryIds":["desserts"],"categories":["Dessert Shops"],"distanceKm":0.3007384652706},{"id":"mexicanRestaurants_4df313ff7b2b","slug":"ancho-mexican-grill-4df3","kind":"restaurant","name":"Ancho Mexican Grill","lat":37.862745862193556,"lng":23.754877099753806,"url":"https://maps.app.goo.gl/LepDURte7YPh6NZL8?g_st=ipc","address":"Γιαννιτσοπούλου 3, Γλυφάδα 166 74","categoryIds":["mexican"],"categories":["Mexican Restaurants"],"distanceKm":0.33086148189089293},{"id":"fishTavernasRestaurants_a989c7b64d77","slug":"mparmpoynaki-glyfada-a989","kind":"restaurant","name":"Μπαρμπουνάκι Γλυφάδα","lat":37.85833613514832,"lng":23.75466359649667,"url":"https://maps.app.goo.gl/KZucjQ49PpF8K1GL7?g_st=ipc","address":"Λεωφ. Δημάρχου Αγγέλου Μεταξά 48, Γλυφάδα 166 74","categoryIds":["fish-tavernas"],"categories":["Fish Tavernas"],"distanceKm":0.3328640842870384},{"id":"greekRestaurants_fd7a28a0649b","slug":"pasiphae-fd7a","kind":"restaurant","name":"PASIPHAE","lat":37.85781169380274,"lng":23.753685400099858,"url":"https://maps.app.goo.gl/w2UaAYT95xemDfAx9?g_st=ipc","address":"Lazaraki 63, Glifada 166 74","categoryIds":["greek-restaurants"],"categories":["Greek Restaurants"],"distanceKm":0.3385065087604593},{"id":"coffeeBrunchRestaurants_2219681181b1","slug":"moyzilo-cheiropoiites-pites-2219","kind":"restaurant","name":"Μουζίλο Χειροποίητες Πίτες","lat":37.863579478184825,"lng":23.751077862250096,"url":"https://maps.app.goo.gl/BjHAhdumoxMHfZrP7?g_st=ipc","address":"Δούσμανη 13, Γλυφάδα 166 75","categoryIds":["coffee-brunch"],"categories":["Coffee & Brunch Spots"],"distanceKm":0.34314973705035134},{"id":"coffeeBrunchRestaurants_798042ad21e8","slug":"opus-inner-pleasure-7980","kind":"restaurant","name":"OPUS Inner Pleasure","lat":37.85815683883427,"lng":23.754579101528986,"url":"https://maps.app.goo.gl/s6FvEiAwBwBVBs2t9?g_st=ipc","address":"Πανδώρας 9, Γλυφάδα 166 74","categoryIds":["coffee-brunch"],"categories":["Coffee & Brunch Spots"],"distanceKm":0.3438721259816454},{"id":"burgersRestaurants_01217d39d9c7","slug":"queen-burger-0121","kind":"restaurant","name":"Queen Burger","lat":37.8629143636926,"lng":23.754961929770175,"url":"https://maps.app.goo.gl/cTKmuer8pw34Mj4m6","address":"Giannitsopoulou 3, Glifada 166 74","categoryIds":["burgers"],"categories":["Burger Spots"],"distanceKm":0.3495098235798587}],"sameRegion":[],"mentionedGuides":[],"canonicalSlug":"basegrill-2c46","isCanonicalEntity":false,"enrichment":{"summary_en":"Basegrill is a curated restaurant in Γλυφάδα 166 74 in the Greek Restaurants collection. It is connected to 44 nearby Googlementor picks to help travelers build a stronger local route.","summary_el":"Basegrill είναι ένα επιλεγμένο σημείο φαγητού στην περιοχή Γλυφάδα 166 74 και ανήκει στη συλλογή Greek Restaurants. Συνδέεται με 44 κοντινές προτάσεις του Googlementor για πιο ολοκληρωμένη εμπειρία.","vibe_tags":["curated","premium-dining"],"best_for":["first-time visitors","food lovers","special occasions"],"visit_moments":["lunch stop","dinner stop"],"practical_note":"Address and direct map link are available for easy turn-by-turn access.","nearby_walkable_count":44,"nearby_count_2km":60,"confidence":0.98}},"__N_SSG":true}