{"pageProps":{"entity":{"id":"fishTavernasRestaurants_7b6b6c02756b","slug":"blue-sea-restaurant-7b6b","kind":"restaurant","name":"Blue Sea Restaurant","lat":38.06482061618168,"lng":20.749944356791246,"url":"https://maps.app.goo.gl/w2imtD4bnSK6jDox6?g_st=ipc","address":"Κάτω Κατελειός 280 86","categoryIds":["fish-tavernas"],"categories":["Fish Tavernas"]},"sameCategory":[{"id":"fishTavernasRestaurants_aba93243463b","slug":"sunrise-fish-restaurant-aba9","kind":"restaurant","name":"Sunrise fish restaurant","lat":38.069862361650536,"lng":20.798458806990475,"url":"https://maps.app.goo.gl/zpgr1Pu7huw8UAn16?g_st=ipc","address":"Sunrise, Skala 280 86","categoryIds":["fish-tavernas"],"categories":["Fish Tavernas"]},{"id":"fishTavernasRestaurants_2ef1060ceab9","slug":"kalyva-tou-psara-2ef1","kind":"restaurant","name":"Kalyva tou Psara","lat":38.30990002692816,"lng":20.4759773849458,"url":"https://maps.app.goo.gl/usLMqjcjtFy6fTWd6?g_st=ipc","address":"Unnamed Rd, Zola 281 00","categoryIds":["fish-tavernas"],"categories":["Fish Tavernas"]},{"id":"fishTavernasRestaurants_1a19623dc76c","slug":"keri-lighthouse-restaurant-1a19","kind":"restaurant","name":"Keri Lighthouse Restaurant","lat":37.6544155286365,"lng":20.810506312482314,"url":"https://maps.app.goo.gl/5DwsHksg1ZHKzA62A?g_st=ipc","address":"Φάρος κεριού, Keri 290 92","categoryIds":["fish-tavernas"],"categories":["Fish Tavernas"]},{"id":"fishTavernasRestaurants_deef9d161177","slug":"tavern-zolithros-deef","kind":"restaurant","name":"Tavern Zolithros","lat":38.63883302731558,"lng":20.699578514278645,"url":"https://maps.app.goo.gl/tsdwoX24ZG7uLKB6A?g_st=ipc","address":"Epar.Od. Porou, Lefkada 311 00","categoryIds":["fish-tavernas"],"categories":["Fish Tavernas"]},{"id":"fishTavernasRestaurants_da16f2b84772","slug":"errikos-fish-tavern-da16","kind":"restaurant","name":"Errikos Fish Tavern","lat":38.66357210962554,"lng":20.783477705259653,"url":"https://maps.app.goo.gl/Exf4TBgcUy5RfeRQA?g_st=ipc","address":"Meganisi 310 83","categoryIds":["fish-tavernas"],"categories":["Fish Tavernas"]},{"id":"fishTavernasRestaurants_8c846286bb7f","slug":"hippocampus-restaurant-8c84","kind":"restaurant","name":"Hippocampus Restaurant","lat":38.68645020644706,"lng":20.712029545342183,"url":"https://maps.app.goo.gl/dycgkVizrbH5BJsH7?g_st=ipc","address":"Γενί 311 00","categoryIds":["fish-tavernas"],"categories":["Fish Tavernas"]},{"id":"fishTavernasRestaurants_1f52f6889767","slug":"ta-kanioria-tavern-1f52","kind":"restaurant","name":"Ta Kanioria Tavern","lat":38.79179727346099,"lng":20.720165771019264,"url":"https://maps.app.goo.gl/EbWqYiGwVkKbLu5h6?g_st=ipc","address":"Λυγιά 311 00","categoryIds":["fish-tavernas"],"categories":["Fish Tavernas"]},{"id":"fishTavernasRestaurants_b598193b21ce","slug":"gia-psaraki-b598","kind":"restaurant","name":"για ψαράκι","lat":38.16996316334188,"lng":21.67408353856444,"url":"https://maps.app.goo.gl/Mp22UWxr4LuQZaQa6?g_st=ipc","address":"Stavropoulou 101, Monodendri 250 02","categoryIds":["fish-tavernas"],"categories":["Fish Tavernas"]},{"id":"fishTavernasRestaurants_701e88cdc0f1","slug":"moyrtas-psarotaverna-701e","kind":"restaurant","name":"Μουρτάς Ψαροταβέρνα","lat":38.19791064176577,"lng":21.696505177930376,"url":"https://maps.app.goo.gl/SyckXnzEqa1w9FPR9?g_st=ipc","address":"Palea EO Patras Pyrgou 35-45, Paralia 265 00","categoryIds":["fish-tavernas"],"categories":["Fish Tavernas"]},{"id":"fishTavernasRestaurants_7810838c2d0c","slug":"psaropoula-7810","kind":"restaurant","name":"Psaropoúla","lat":38.82126467879608,"lng":20.655911390455394,"url":"https://maps.app.goo.gl/64Q772kGwY6K6Mps8?g_st=ipc","address":"Τσουκαλαδες, Tsoukalades Λευκαδα, Lefkada 311 00","categoryIds":["fish-tavernas"],"categories":["Fish Tavernas"]},{"id":"fishTavernasRestaurants_8e7680f38e05","slug":"esperos-ichthys-psarotaverna-8e76","kind":"restaurant","name":"Έσπερος ΙΧΘΥΣ Ψαροταβέρνα","lat":38.13318899935724,"lng":22.423103842089304,"url":"https://maps.app.goo.gl/vF6q9SxKr2jVHXpy7?g_st=ipc","address":"Derveni 200 09","categoryIds":["fish-tavernas"],"categories":["Fish Tavernas"]},{"id":"fishTavernasRestaurants_60db33e5dbf6","slug":"ionion-fish-restaurant-60db","kind":"restaurant","name":"Ionion Fish Restaurant","lat":39.39885130705451,"lng":20.25621796602664,"url":"https://maps.app.goo.gl/UjAp1padEHJ7Q3nQ7?g_st=ipc","address":"Mega Ammos, Sivota 461 00","categoryIds":["fish-tavernas"],"categories":["Fish Tavernas"]}],"nearby":[{"id":"fishTavernasRestaurants_aba93243463b","slug":"sunrise-fish-restaurant-aba9","kind":"restaurant","name":"Sunrise fish restaurant","lat":38.069862361650536,"lng":20.798458806990475,"url":"https://maps.app.goo.gl/zpgr1Pu7huw8UAn16?g_st=ipc","address":"Sunrise, Skala 280 86","categoryIds":["fish-tavernas"],"categories":["Fish Tavernas"],"distanceKm":4.283906501867364},{"id":"greekRestaurants_c713b6900534","slug":"mikelatos-restaurant-c713","kind":"restaurant","name":"Mikelatos Restaurant","lat":38.07400478265195,"lng":20.79838946434788,"url":"https://maps.app.goo.gl/ds2jewM3NunSWLKo6?g_st=ipc","address":"Central pedestrian road of Skala, Σκάλα 280 86","categoryIds":["greek-restaurants"],"categories":["Greek Restaurants"],"distanceKm":4.362102218151736},{"id":"coffeeBrunchRestaurants_f69353dde3df","slug":"ammos-beach-bar-restaurant-kefalonia-f693","kind":"restaurant","name":"Ammos Beach Bar & Restaurant | Kefalonia","lat":38.08122535953636,"lng":20.800056619766497,"url":"https://maps.app.goo.gl/SxeeHeaBpXq8VgZe8?g_st=ipc","address":"Κεφαλληνίας, Skala 281 00","categoryIds":["coffee-brunch"],"categories":["Coffee & Brunch Spots"],"distanceKm":4.75075734852173},{"id":"coffeeBrunchRestaurants_b203c212827d","slug":"remetzo-kafe-b203","kind":"restaurant","name":"Ρεμετζο καφέ","lat":38.14775445639953,"lng":20.7788036615171,"url":"https://maps.app.goo.gl/DJjkbdzn9Sg4yrHY7?g_st=ipc","address":"Metaxa, Kefalonia 280 82","categoryIds":["coffee-brunch"],"categories":["Coffee & Brunch Spots"],"distanceKm":9.561273428405508},{"id":"greekRestaurants_ff8ef7b622ff","slug":"sunset-restaurant-ff8e","kind":"restaurant","name":"Sunset Restaurant","lat":38.147065849821686,"lng":20.783912907033883,"url":"https://maps.app.goo.gl/8Z2amJ2HCnAWKU728?g_st=ipc","address":"Πόρος 280 86","categoryIds":["greek-restaurants"],"categories":["Greek Restaurants"],"distanceKm":9.616085863047298},{"id":"mustSeeAttractions_20af350a9d06","slug":"blue-caves-zakynthos-20af","kind":"restaurant","name":"Blue Caves Zakynthos","lat":37.93034342843555,"lng":20.705251154680667,"url":"https://maps.app.goo.gl/aFhekQczUnCUCkXt7?g_st=ipc","address":"Porthmos Zakinthou","categoryIds":["attractions"],"categories":["Must-See Attractions"],"distanceKm":15.457515750228039},{"id":"greekRestaurants_fef489007c02","slug":"anna-s-tavern-xasteria-fef4","kind":"restaurant","name":"Anna's Tavern (Xasteria)","lat":38.11938430612937,"lng":20.562853128007966,"url":"https://maps.app.goo.gl/k6iUiCZV7gkf1jreA?g_st=ipc","address":"Κεραμειές 281 00","categoryIds":["greek-restaurants"],"categories":["Greek Restaurants"],"distanceKm":17.46084062268197},{"id":"wineriesVineyards_76d903b57c64","slug":"orealios-gaea-vine-growers-of-robola-76d9","kind":"restaurant","name":"Orealios Gaea - Vine Growers of Robola","lat":38.16303564266763,"lng":20.590291534978753,"url":"https://maps.app.goo.gl/nZzm6EuiZsKmkSxr7?g_st=ipc","address":"Valsamata 281 00","categoryIds":["wineries-vineyards"],"categories":["Wineries & Vineyards"],"distanceKm":17.7301567808349},{"id":"greekRestaurants_d9a082ec8fd8","slug":"mpotsolos-d9a0","kind":"restaurant","name":"Mpotsolos","lat":38.170637722639974,"lng":20.58441082443811,"url":"https://maps.app.goo.gl/Eit7JoAgmh3wrcFz6?g_st=ipc","address":"Αγίου Γερασίμου, Αργοστόλι 281 00","categoryIds":["greek-restaurants"],"categories":["Greek Restaurants"],"distanceKm":18.658810744944606},{"id":"greekRestaurants_b66963231ac9","slug":"olive-lounge-restaurant-bar-b669","kind":"restaurant","name":"Olive Lounge Restaurant & Bar","lat":38.13804007743401,"lng":20.556990158259417,"url":"https://maps.app.goo.gl/M3Twb4o792PcM5jR7?g_st=ipc","address":"Unnamed Road, Κάστρο 281 00","categoryIds":["greek-restaurants"],"categories":["Greek Restaurants"],"distanceKm":18.744275286429502},{"id":"greekRestaurants_70a7d97aa28c","slug":"il-borgo-restaurant-70a7","kind":"restaurant","name":"Il Borgo Restaurant","lat":38.138324170776656,"lng":20.555664585879075,"url":"https://maps.app.goo.gl/QVAWEX3QcThcLdsE7?g_st=ipc","address":"Κάστρο Αγίου Γεωργίου, Τραυλιάτα 281 00","categoryIds":["greek-restaurants"],"categories":["Greek Restaurants"],"distanceKm":18.862455969665536},{"id":"greekRestaurants_a4e07eddd13d","slug":"avithos-preview-taverna-a4e0","kind":"restaurant","name":"Avithos Preview Taverna","lat":38.10278400760593,"lng":20.538006715167594,"url":"https://maps.app.goo.gl/frNsRJR8RcKVup5j6?g_st=ipc","address":"Avithos Beach, Kalligata 281 00","categoryIds":["greek-restaurants"],"categories":["Greek Restaurants"],"distanceKm":19.023592521963064},{"id":"greekRestaurants_543e8b3ae4ad","slug":"chersonas-543e","kind":"restaurant","name":"Χερσώνας","lat":38.157317085301656,"lng":20.558923068182263,"url":"https://maps.app.goo.gl/D6QaW5icgiUCH7qn7?g_st=ipc","address":"Τρωιανάτα 281 00","categoryIds":["greek-restaurants"],"categories":["Greek Restaurants"],"distanceKm":19.623694582054533},{"id":"municipalities_b8a2e587a20e","slug":"kefalonia-b8a2","kind":"municipality","name":"Κεφαλονιά","lat":38.175,"lng":20.569,"region":"Ιόνιο","name_en":"Kefalonia","region_en":"Ionian Islands","distanceKm":20.016244382868944},{"id":"greekRestaurants_e335ec23f4b7","slug":"esperides-restaurant-e335","kind":"restaurant","name":"Esperides Restaurant","lat":38.11149781925104,"lng":20.52872285695272,"url":"https://maps.app.goo.gl/1uN9PKhytg7Xeum9A?g_st=ipc","address":"Σβορωνάτα 281 00","categoryIds":["greek-restaurants"],"categories":["Greek Restaurants"],"distanceKm":20.04435544085865},{"id":"coffeeBrunchRestaurants_caa1d894f98a","slug":"kafepoleion-caa1","kind":"restaurant","name":"Kafepoleion","lat":38.14255916452544,"lng":20.54310186456745,"url":"https://maps.app.goo.gl/YKFX8hPovFNGt9pDA?g_st=ipc","address":"Κοκύλια, Kefalonia 281 00","categoryIds":["coffee-brunch"],"categories":["Coffee & Brunch Spots"],"distanceKm":20.056796323478498},{"id":"mustSeeAttractions_5b0540533ca6","slug":"melissani-cave-5b05","kind":"restaurant","name":"Melissani Cave","lat":38.25698727901152,"lng":20.6235483284677,"url":"https://maps.app.goo.gl/DamgwWTndmBhKj5W9?g_st=ipc","address":"Σάμη 280 80","categoryIds":["attractions"],"categories":["Must-See Attractions"],"distanceKm":24.05639475926623},{"id":"greekRestaurants_039c6865507c","slug":"taverna-to-poyrnari-039c","kind":"restaurant","name":"Ταβέρνα Το Πουρνάρι","lat":37.845018124044586,"lng":20.69557997574229,"url":"https://maps.app.goo.gl/KraNs6fJrs6US1EV7?g_st=ipc","address":"Ορθονιές 290 91","categoryIds":["greek-restaurants"],"categories":["Greek Restaurants"],"distanceKm":24.901364956338217},{"id":"mustSeeAttractions_08514e911c7d","slug":"navagio-0851","kind":"restaurant","name":"Navagio","lat":37.85945060305929,"lng":20.624902110473712,"url":"https://maps.app.goo.gl/7zGrDtLoU6SSdcuS9?g_st=ipc","address":"Elatia 290 91","categoryIds":["attractions"],"categories":["Must-See Attractions"],"distanceKm":25.33095354408502},{"id":"coffeeBrunchRestaurants_febf410e8642","slug":"costa-costa-beach-bar-febf","kind":"restaurant","name":"Costa Costa Beach Bar","lat":38.15380761963389,"lng":20.4824739703724,"url":"https://maps.app.goo.gl/TgFrHfc8nxYVBh9z7?g_st=ipc","address":"Lassi, Argostoli 281 00","categoryIds":["coffee-brunch"],"categories":["Coffee & Brunch Spots"],"distanceKm":25.407476364344454},{"id":"coffeeBrunchRestaurants_9057c09060eb","slug":"espresso-house-9057","kind":"restaurant","name":"Espresso house","lat":38.17163745193254,"lng":20.492476064422643,"url":"https://maps.app.goo.gl/yzerSoB1WzcjYnKq5?g_st=ipc","address":"Devosetou 15, Argostoli 281 00","categoryIds":["coffee-brunch"],"categories":["Coffee & Brunch Spots"],"distanceKm":25.463501212922733},{"id":"cheapEatsRestaurants_2a50f6b61745","slug":"opsarion-fish-bar-2a50","kind":"restaurant","name":"Οψάριον fish bar","lat":38.17459374377572,"lng":20.491243945671638,"url":"https://maps.app.goo.gl/KSYp7smPeLPMNF7y6?g_st=ipc","address":"Drakopoulou 2, Argostoli 281 00","categoryIds":["cheap-eats"],"categories":["Gyros & Cheap Eats"],"distanceKm":25.712899241217176},{"id":"greekRestaurants_f94267b89fc5","slug":"ionio-f942","kind":"restaurant","name":"ΙΟΝΙΟ","lat":38.16468754960506,"lng":20.482617252800203,"url":"https://maps.app.goo.gl/NTkDnVRWMVWvLbLv7?g_st=ipc","address":"Αργοστόλι 281 00","categoryIds":["greek-restaurants"],"categories":["Greek Restaurants"],"distanceKm":25.88970634074671},{"id":"dessertsRestaurants_1e491648e63f","slug":"gelato-fresco-italiano-1e49","kind":"restaurant","name":"Gelato fresco italiano","lat":38.17749874571835,"lng":20.48897656776002,"url":"https://maps.app.goo.gl/AFtw3E5Sssatu2m37?g_st=ipc","address":"Ρόκκου, Vergoti 4, Argostoli 281 00","categoryIds":["desserts"],"categories":["Dessert Shops"],"distanceKm":26.04111208736865}],"sameRegion":[],"mentionedGuides":[],"canonicalSlug":"blue-sea-restaurant-7b6b","isCanonicalEntity":true,"enrichment":{"summary_en":"Blue Sea Restaurant is a curated restaurant in Greece in the Fish Tavernas collection. It is connected to 0 nearby Googlementor picks to help travelers build a stronger local route.","summary_el":"Blue Sea Restaurant είναι ένα επιλεγμένο σημείο φαγητού στην περιοχή Greece και ανήκει στη συλλογή Fish Tavernas. Συνδέεται με 0 κοντινές προτάσεις του Googlementor για πιο ολοκληρωμένη εμπειρία.","vibe_tags":["curated","seafood-local"],"best_for":["first-time visitors","food lovers"],"visit_moments":["lunch stop","dinner stop"],"practical_note":"Address and direct map link are available for easy turn-by-turn access.","nearby_walkable_count":0,"nearby_count_2km":0,"confidence":0.9}},"__N_SSG":true}