{"pageProps":{"entity":{"id":"municipalities_ebc0891e3ed9","slug":"elafonisi-ebc0","kind":"municipality","name":"Ελαφονήσι","lat":35.2722,"lng":23.542,"region":"Κρήτη","name_en":"Elafonisi","region_en":"Crete"},"sameCategory":[],"nearby":[{"id":"municipalities_c3a3f80c3d67","slug":"kandanos-selinoy-c3a3","kind":"municipality","name":"Κάνδανος - Σελίνου","lat":35.277,"lng":23.687,"region":"Δυτική Κρήτη","name_en":"Kandanos - Selino","region_en":"West Crete","distanceKm":13.173746595971336},{"id":"vegetarianRestaurants_17922606ce48","slug":"thirdeye-1792","kind":"restaurant","name":"ThirdEye","lat":35.23035637395369,"lng":23.680431168077206,"url":"https://maps.app.goo.gl/3unNAK47vshJHbgj7?g_st=ipc","address":"Griechenland, Epar.Od. Strovlon-Paleochoras 28, Paleochora 730 01","categoryIds":["vegetarian"],"categories":["Vegetarian Friendly Restaurants"],"distanceKm":13.40370718316292},{"id":"municipalities_0ffa5a36fefc","slug":"palaiochora-0ffa","kind":"municipality","name":"Παλαιοχώρα","lat":35.2308,"lng":23.6839,"aliases":["Παλαιοχωρα","Paleohora"],"region":"Δυτική Κρήτη","name_en":"Paleochora","region_en":"West Crete","distanceKm":13.682835826039803},{"id":"greekRestaurants_5434fa5002e6","slug":"tavern-restaurant-hotel-arxontas-koutsomatados-5434","kind":"restaurant","name":"Tavern Restaurant Hotel Arxontas Koutsomatados","lat":35.40554475283456,"lng":23.68281950120623,"url":"https://maps.app.goo.gl/tgscAf7VVnueaRex6?g_st=ipc","address":"Κουτσοματαδος 734 00","categoryIds":["greek-restaurants"],"categories":["Greek Restaurants"],"distanceKm":19.57048983619457},{"id":"municipalities_4e60225f7fa0","slug":"falasarna-4e60","kind":"municipality","name":"Φαλάσαρνα","lat":35.49,"lng":23.588,"region":"Κρήτη","name_en":"Falasarna","region_en":"Crete","distanceKm":24.574691542451188},{"id":"municipalities_62af137be2d2","slug":"kissamos-62af","kind":"municipality","name":"Κίσσαμος","lat":35.493,"lng":23.653,"region":"Δυτική Κρήτη","name_en":"Kissamos","region_en":"West Crete","distanceKm":26.53406160830042},{"id":"greekRestaurants_dd95a846bd00","slug":"taverna-gramvoysa-dd95","kind":"restaurant","name":"Ταβέρνα Γραμβούσα","lat":35.51332300936157,"lng":23.608418720167336,"url":"https://maps.app.goo.gl/zB6hp23GajJ65U8F9?g_st=ipc","address":"Εμμανουήλ Δεικτάκη 1, Καλυβιανή 734 00","categoryIds":["greek-restaurants"],"categories":["Greek Restaurants"],"distanceKm":27.479308864617884},{"id":"wineriesVineyards_1e78873b8ebe","slug":"pnevmatikaki-s-a-1e78","kind":"restaurant","name":"PNEVMATIKAKI S.A.","lat":35.49514634531768,"lng":23.71327829803601,"url":"https://maps.app.goo.gl/osNQqbqujG8u5Npj7?g_st=ipc","address":"Drapanias 734 00","categoryIds":["wineries-vineyards"],"categories":["Wineries & Vineyards"],"distanceKm":29.251850846583114},{"id":"wineriesVineyards_30791389b0f6","slug":"anoskeli-winery-3079","kind":"restaurant","name":"Anoskeli Winery","lat":35.460142479001455,"lng":23.77578731455054,"url":"https://maps.app.goo.gl/PgqU5uYf8bg9kRur9?g_st=ipc","address":"Ανώσκελη 730 02","categoryIds":["wineries-vineyards"],"categories":["Wineries & Vineyards"],"distanceKm":29.767933029721664},{"id":"municipalities_d3b3bd48a579","slug":"agia-marina-d3b3","kind":"municipality","name":"Αγία Μαρίνα","lat":35.515,"lng":23.915,"region":"Κρήτη","name_en":"Agia Marina","region_en":"Crete","distanceKm":43.267259395429576},{"id":"municipalities_cb8d047a94ef","slug":"plakias-cb8d","kind":"municipality","name":"Πλακιάς","lat":35.176,"lng":24.3935,"region":"Κρήτη","name_en":"Plakias","region_en":"Crete","distanceKm":78.08227223483131},{"id":"municipalities_5f283b2642e4","slug":"mpali-5f28","kind":"municipality","name":"Μπαλί","lat":35.4124,"lng":24.786,"region":"Κρήτη","name_en":"Bali","region_en":"Crete","distanceKm":113.90545559885138},{"id":"municipalities_a0cd23d8e321","slug":"matala-a0cd","kind":"municipality","name":"Μάταλα","lat":34.9953,"lng":24.7496,"region":"Κρήτη","name_en":"Matala","region_en":"Crete","distanceKm":114.04869570907199},{"id":"municipalities_847eab0fe55c","slug":"stalida-847e","kind":"municipality","name":"Σταλίδα","lat":35.2932,"lng":25.4426,"region":"Κρήτη","name_en":"Stalida","region_en":"Crete","distanceKm":172.53016055662297},{"id":"municipalities_0abaeb44cae9","slug":"malia-0aba","kind":"municipality","name":"Μάλια","lat":35.283,"lng":25.462,"region":"Κρήτη","name_en":"Malia","region_en":"Crete","distanceKm":174.29032496414058},{"id":"municipalities_43ae67a78abe","slug":"agios-georgios-lasithioy-43ae","kind":"municipality","name":"Άγιος Γεώργιος Λασιθίου","lat":35.207,"lng":25.511,"region":"Κρήτη","name_en":"Agios Georgios Lasithiou","region_en":"Crete","distanceKm":178.96468519164978}],"sameRegion":[{"id":"municipalities_0abaeb44cae9","slug":"malia-0aba","kind":"municipality","name":"Μάλια","lat":35.283,"lng":25.462,"region":"Κρήτη","name_en":"Malia","region_en":"Crete"},{"id":"municipalities_43ae67a78abe","slug":"agios-georgios-lasithioy-43ae","kind":"municipality","name":"Άγιος Γεώργιος Λασιθίου","lat":35.207,"lng":25.511,"region":"Κρήτη","name_en":"Agios Georgios Lasithiou","region_en":"Crete"},{"id":"municipalities_4e60225f7fa0","slug":"falasarna-4e60","kind":"municipality","name":"Φαλάσαρνα","lat":35.49,"lng":23.588,"region":"Κρήτη","name_en":"Falasarna","region_en":"Crete"},{"id":"municipalities_5f283b2642e4","slug":"mpali-5f28","kind":"municipality","name":"Μπαλί","lat":35.4124,"lng":24.786,"region":"Κρήτη","name_en":"Bali","region_en":"Crete"},{"id":"municipalities_847eab0fe55c","slug":"stalida-847e","kind":"municipality","name":"Σταλίδα","lat":35.2932,"lng":25.4426,"region":"Κρήτη","name_en":"Stalida","region_en":"Crete"},{"id":"municipalities_a0cd23d8e321","slug":"matala-a0cd","kind":"municipality","name":"Μάταλα","lat":34.9953,"lng":24.7496,"region":"Κρήτη","name_en":"Matala","region_en":"Crete"},{"id":"municipalities_cb8d047a94ef","slug":"plakias-cb8d","kind":"municipality","name":"Πλακιάς","lat":35.176,"lng":24.3935,"region":"Κρήτη","name_en":"Plakias","region_en":"Crete"},{"id":"municipalities_d3b3bd48a579","slug":"agia-marina-d3b3","kind":"municipality","name":"Αγία Μαρίνα","lat":35.515,"lng":23.915,"region":"Κρήτη","name_en":"Agia Marina","region_en":"Crete"}],"mentionedGuides":[],"canonicalSlug":"elafonisi-ebc0","isCanonicalEntity":true,"enrichment":{"summary_en":"Ελαφονήσι is a curated neighborhood area in Κρήτη. It is connected to 0 nearby Googlementor picks to help travelers build a stronger local route.","summary_el":"Ελαφονήσι είναι ένα επιλεγμένο σημείο ενδιαφέροντος στην περιοχή Κρήτη. Συνδέεται με 0 κοντινές προτάσεις του Googlementor για πιο ολοκληρωμένη εμπειρία.","vibe_tags":["local-neighborhood","base-for-exploring"],"best_for":["first-time visitors","walk-and-explore days","return visitors"],"visit_moments":["late morning walks","sunset exploration"],"practical_note":"0 curated places are within walkable distance from this area center.","nearby_walkable_count":0,"nearby_count_2km":0,"confidence":0.55}},"__N_SSG":true}