{"pageProps":{"entity":{"id":"cheapEatsRestaurants_f4243fccdc09","slug":"i-thraka-f424","kind":"restaurant","name":"Η Θράκα","lat":37.96908730439045,"lng":23.752466160817594,"url":"https://maps.app.goo.gl/P6rYV5DBevfNLik18?g_st=ipc","address":"Υμηττού 58, Αθήνα 116 34","categoryIds":["cheap-eats"],"categories":["Gyros & Cheap Eats"]},"sameCategory":[{"id":"cheapEatsRestaurants_bf6249591df7","slug":"taverna-psistaria-mandrakis-bf62","kind":"restaurant","name":"Ταβέρνα - Ψησταριά Μανδράκης","lat":37.96926409248282,"lng":23.754508850206804,"url":"https://maps.app.goo.gl/oqmBo1caT2qX5wtB9?g_st=ipc","address":"Λεωφ. Εθ. Αντιστάσεως 11, Καισαριανή 161 21","categoryIds":["cheap-eats"],"categories":["Gyros & Cheap Eats"]},{"id":"cheapEatsRestaurants_72bd27acb0a5","slug":"alexandrino-kempap-pagkrati-72bd","kind":"restaurant","name":"Αλεξανδρινό Κεμπάπ - Παγκράτι","lat":37.9678577883098,"lng":23.74996983153058,"url":"https://maps.app.goo.gl/kBQE51oPhVR5sCDu5?g_st=ipc","address":"Υμηττού 90 &, Ιφικράτους, Αθήνα 116 34","categoryIds":["cheap-eats"],"categories":["Gyros & Cheap Eats"]},{"id":"burgersRestaurants_333f3b6e6592","slug":"chicken-queen-333f","kind":"restaurant","name":"Chicken Queen","lat":37.96764787341708,"lng":23.749271201498335,"url":"https://maps.app.goo.gl/y9qpEuxuYdxvEzYY9?g_st=ipc","address":"Ευτυχίδου 47, Αθήνα 116 34","categoryIds":["burgers","cheap-eats"],"categories":["Burger Spots","Gyros & Cheap Eats"],"legacySlugs":["chicken-queen-b3b7"]},{"id":"cheapEatsRestaurants_f61ee90e96c0","slug":"mikra-asia-kebap-pagrati-f61e","kind":"restaurant","name":"Mikra Asia kebap Pagrati","lat":37.96824148094212,"lng":23.7487971975962,"url":"https://maps.app.goo.gl/4TKpFuTdcwscVBCg8?g_st=ipc","address":"Πλ. Μεσολογγίου 2-4, Αθήνα 116 34","categoryIds":["cheap-eats"],"categories":["Gyros & Cheap Eats"]},{"id":"cheapEatsRestaurants_c3e978d4eac2","slug":"5f-c3e9","kind":"restaurant","name":"5Φ","lat":37.97277642269308,"lng":23.753966804299914,"url":"https://maps.app.goo.gl/Jtpipww8tzt83Z1fA?g_st=ipc","address":"Diocharous 31 &, Κλεισούρας, Αθήνα 161 21","categoryIds":["cheap-eats","greek-restaurants"],"categories":["Gyros & Cheap Eats","Greek Restaurants"],"legacySlugs":["5f-7edc"]},{"id":"cheapEatsRestaurants_eaa51e908f69","slug":"to-pikantiko-eaa5","kind":"restaurant","name":"Το Πικάντικο","lat":37.967862602711925,"lng":23.74738582728181,"url":"https://maps.app.goo.gl/s2djMEVxUXSybams9?g_st=ipc","address":"Ευτυχίδου 23, Αθήνα 116 34","categoryIds":["cheap-eats"],"categories":["Gyros & Cheap Eats"]},{"id":"cheapEatsRestaurants_ba468327c890","slug":"pita-pan-ba46","kind":"restaurant","name":"Πίτα Παν","lat":37.973982654052946,"lng":23.750253307976614,"url":"https://maps.app.goo.gl/WYXA6LyZWmcPcu219?g_st=ipc","address":"Ιοφώντος 33, Αθήνα 116 34","categoryIds":["cheap-eats"],"categories":["Gyros & Cheap Eats"]},{"id":"cheapEatsRestaurants_78307b191873","slug":"piggy-popoylo-7830","kind":"restaurant","name":"Piggy - Πόπουλο","lat":37.97132961125026,"lng":23.74642727932896,"url":"https://maps.app.goo.gl/cPZpCzgEKX45Ej6G8?g_st=ipc","address":"Αρχελάου 16, Αθήνα 116 35","categoryIds":["cheap-eats"],"categories":["Gyros & Cheap Eats"]},{"id":"cheapEatsRestaurants_56207a3913eb","slug":"elvis-soyvlakia-5620","kind":"restaurant","name":"Ελβις Σουβλακια","lat":37.96785045064934,"lng":23.7436306831368,"url":"https://maps.app.goo.gl/umPfqHULRVG9njbt5?g_st=ipc","address":"Αρχιμήδους 1-5, Αθήνα 116 35","categoryIds":["cheap-eats"],"categories":["Gyros & Cheap Eats"]},{"id":"cheapEatsRestaurants_a825d27fc97c","slug":"i-pita-toy-karafla-a825","kind":"restaurant","name":"Η ΠΙΤΑ ΤΟΥ ΚΑΡΑΦΛΑ","lat":37.96232693388551,"lng":23.744677303486494,"url":"https://maps.app.goo.gl/sAGKAGj6UyDLWwiq7?g_st=ipc","address":"Φιλολάου 142, Αθήνα 116 32","categoryIds":["cheap-eats"],"categories":["Gyros & Cheap Eats"]},{"id":"cheapEatsRestaurants_61f60bc4ea81","slug":"beeftekopolis-61f6","kind":"restaurant","name":"Beeftekopolis","lat":37.97774283666473,"lng":23.746360813383102,"url":"https://maps.app.goo.gl/j2KRM4BYgZPKkWer5?g_st=ipc","address":"Marasli 23, Athina 106 76","categoryIds":["cheap-eats"],"categories":["Gyros & Cheap Eats"]},{"id":"cheapEatsRestaurants_acd6f4163dcb","slug":"ta-psita-tis-pareas-acd6","kind":"restaurant","name":"Τα ψητά της παρέας","lat":37.97804935076976,"lng":23.76224805570561,"url":"https://maps.app.goo.gl/Kxmp13A9x2etHv317?g_st=ipc","address":"Ούλωφ Πάλμε 25, Ζωγράφου 157 71","categoryIds":["cheap-eats"],"categories":["Gyros & Cheap Eats"]}],"nearby":[{"id":"cheapEatsRestaurants_bf6249591df7","slug":"taverna-psistaria-mandrakis-bf62","kind":"restaurant","name":"Ταβέρνα - Ψησταριά Μανδράκης","lat":37.96926409248282,"lng":23.754508850206804,"url":"https://maps.app.goo.gl/oqmBo1caT2qX5wtB9?g_st=ipc","address":"Λεωφ. Εθ. Αντιστάσεως 11, Καισαριανή 161 21","categoryIds":["cheap-eats"],"categories":["Gyros & Cheap Eats"],"distanceKm":0.18013718961575778},{"id":"asianRestaurants_de634fe107b8","slug":"sushi-j-de63","kind":"restaurant","name":"SUSHI J","lat":37.967626679750225,"lng":23.75054798444388,"url":"https://maps.app.goo.gl/5moDtNiYaQjm8UsX9?g_st=ipc","address":"Υμηττού 101, Αθήνα 116 33","categoryIds":["asian"],"categories":["Asian Restaurants"],"distanceKm":0.2337781725626057},{"id":"cheapEatsRestaurants_72bd27acb0a5","slug":"alexandrino-kempap-pagkrati-72bd","kind":"restaurant","name":"Αλεξανδρινό Κεμπάπ - Παγκράτι","lat":37.9678577883098,"lng":23.74996983153058,"url":"https://maps.app.goo.gl/kBQE51oPhVR5sCDu5?g_st=ipc","address":"Υμηττού 90 &, Ιφικράτους, Αθήνα 116 34","categoryIds":["cheap-eats"],"categories":["Gyros & Cheap Eats"],"distanceKm":0.2580262385767211},{"id":"burgersRestaurants_333f3b6e6592","slug":"chicken-queen-333f","kind":"restaurant","name":"Chicken Queen","lat":37.96764787341708,"lng":23.749271201498335,"url":"https://maps.app.goo.gl/y9qpEuxuYdxvEzYY9?g_st=ipc","address":"Ευτυχίδου 47, Αθήνα 116 34","categoryIds":["burgers","cheap-eats"],"categories":["Burger Spots","Gyros & Cheap Eats"],"legacySlugs":["chicken-queen-b3b7"],"distanceKm":0.32258130087252046},{"id":"vegetarianRestaurants_26aa685f16e1","slug":"fresh-patisserie-26aa","kind":"restaurant","name":"Fresh Patisserie","lat":37.96747222997714,"lng":23.749300179574934,"url":"https://maps.app.goo.gl/M6kixY8DuERoUL8U8?g_st=ipc","address":"Ευτυχίδου 48, Αθήνα 116 34","categoryIds":["vegetarian"],"categories":["Vegetarian Friendly Restaurants"],"distanceKm":0.33056910932660627},{"id":"cheapEatsRestaurants_f61ee90e96c0","slug":"mikra-asia-kebap-pagrati-f61e","kind":"restaurant","name":"Mikra Asia kebap Pagrati","lat":37.96824148094212,"lng":23.7487971975962,"url":"https://maps.app.goo.gl/4TKpFuTdcwscVBCg8?g_st=ipc","address":"Πλ. Μεσολογγίου 2-4, Αθήνα 116 34","categoryIds":["cheap-eats"],"categories":["Gyros & Cheap Eats"],"distanceKm":0.3350916970235636},{"id":"dessertsRestaurants_055560d21207","slug":"zacharoplasteio-lido-0555","kind":"restaurant","name":"Ζαχαροπλαστείο Lido","lat":37.96582623086202,"lng":23.750235658736546,"url":"https://maps.app.goo.gl/6RDutorGFGKRD3ru9?g_st=ipc","address":"Χρεμωνίδου 35, Αθήνα 116 33","categoryIds":["desserts"],"categories":["Dessert Shops"],"distanceKm":0.4119724672815568},{"id":"dessertsRestaurants_0ee58cfa385e","slug":"antonis-selekos-conceptual-desserts-0ee5","kind":"restaurant","name":"Antonis Selekos Conceptual Desserts","lat":37.9704115845213,"lng":23.747853371766638,"url":"https://maps.app.goo.gl/63mGgggS1JuTSJJf6?g_st=ipc","address":"Εριφύλης 2, Αθήνα 116 34","categoryIds":["desserts"],"categories":["Dessert Shops"],"distanceKm":0.4303303114715837},{"id":"cheapEatsRestaurants_c3e978d4eac2","slug":"5f-c3e9","kind":"restaurant","name":"5Φ","lat":37.97277642269308,"lng":23.753966804299914,"url":"https://maps.app.goo.gl/Jtpipww8tzt83Z1fA?g_st=ipc","address":"Diocharous 31 &, Κλεισούρας, Αθήνα 161 21","categoryIds":["cheap-eats","greek-restaurants"],"categories":["Gyros & Cheap Eats","Greek Restaurants"],"legacySlugs":["5f-7edc"],"distanceKm":0.4307861860471957},{"id":"coffeeBrunchRestaurants_6e5370c63d00","slug":"moden-6e53","kind":"restaurant","name":"Moden","lat":37.971223973274974,"lng":23.748242971172175,"url":"https://maps.app.goo.gl/LCSd8nHPjaUEMAGx8?g_st=ipc","address":"Αμασείας 6 &, Πρατίνου 53, Αθήνα 116 34","categoryIds":["coffee-brunch"],"categories":["Coffee & Brunch Spots"],"distanceKm":0.439879748657901},{"id":"luxuryDiningRestaurants_5f111a9bb710","slug":"seeds-restaurant-5f11","kind":"restaurant","name":"Seeds Restaurant","lat":37.97301735223458,"lng":23.75389127288081,"url":"https://maps.app.goo.gl/dJm31W4p6fxcPwDr7?g_st=ipc","address":"Oumplianis 14, Diocharous 27, & 161 21","categoryIds":["luxury-dining"],"categories":["Luxury Dining"],"distanceKm":0.4545058955712901},{"id":"italianRestaurants_98c72b583c4b","slug":"nonna-edda-98c7","kind":"restaurant","name":"Nonna Edda","lat":37.968437805608076,"lng":23.757681215549333,"url":"https://maps.app.goo.gl/QWSrhfiNkAJznHfQA?g_st=ipc","address":"Λεωφ. Εθ. Αντιστάσεως 62, Καισαριανή 161 21","categoryIds":["italian"],"categories":["Italian Restaurants"],"distanceKm":0.46282184376800184},{"id":"cheapEatsRestaurants_eaa51e908f69","slug":"to-pikantiko-eaa5","kind":"restaurant","name":"Το Πικάντικο","lat":37.967862602711925,"lng":23.74738582728181,"url":"https://maps.app.goo.gl/s2djMEVxUXSybams9?g_st=ipc","address":"Ευτυχίδου 23, Αθήνα 116 34","categoryIds":["cheap-eats"],"categories":["Gyros & Cheap Eats"],"distanceKm":0.4657002613292228},{"id":"dessertsRestaurants_7eaf4eddf047","slug":"loukoumania-pagrati-loykoymades-7eaf","kind":"restaurant","name":"Loukoumania Pagrati - Λουκουμάδες","lat":37.96735501275489,"lng":23.74736088525619,"url":"https://maps.app.goo.gl/T1YQTDedH6uY5vzR7?g_st=ipc","address":"Φρύνης 4, Αθήνα 116 34","categoryIds":["desserts"],"categories":["Dessert Shops"],"distanceKm":0.4872252227087107},{"id":"italianRestaurants_13c0dc268b15","slug":"lost-athens-13c0","kind":"restaurant","name":"Lost Athens","lat":37.970670759829304,"lng":23.746680147108094,"url":"https://maps.app.goo.gl/Y9CFJNjG4R2hx4hB6?g_st=ipc","address":"Αρχελάου 7, Αθήνα 116 35","categoryIds":["italian"],"categories":["Italian Restaurants"],"distanceKm":0.5368873851256448},{"id":"dessertsRestaurants_713ba3364411","slug":"galaktopoleio-stamoy-713b","kind":"restaurant","name":"Γαλακτοπωλείο ΣΤΑΜΟΥ","lat":37.967778119825944,"lng":23.746488114142206,"url":"https://maps.app.goo.gl/PA8d53NRErbRQVzk6?g_st=ipc","address":"Ευτυχίδου 28-30, Αθήνα 116 35","categoryIds":["desserts"],"categories":["Dessert Shops"],"distanceKm":0.5438827203430684},{"id":"vegetarianRestaurants_273e01494cb2","slug":"groceristas-273e","kind":"restaurant","name":"Groceristas","lat":37.97253235052261,"lng":23.747890805995713,"url":"https://maps.app.goo.gl/s2jj4xW4U6Pk7W3N9?g_st=ipc","address":"Σπύρου Μερκούρη 50, Αθήνα 116 34","categoryIds":["vegetarian"],"categories":["Vegetarian Friendly Restaurants"],"distanceKm":0.5546142406213169},{"id":"mexicanRestaurants_246d0cbd5711","slug":"kaisaras-mpar-kaisaras-bar-246d","kind":"restaurant","name":"Καίσαρας Μπαρ - Kaisaras Bar","lat":37.96879437306453,"lng":23.758782238098565,"url":"https://maps.app.goo.gl/dNnjqQMeoX6QVGm38?g_st=ipc","address":"Πλατεία Παναγιώτη Μακρή 7-9, Καισαριανή 161 21","categoryIds":["mexican"],"categories":["Mexican Restaurants"],"distanceKm":0.5546239729167437},{"id":"burgersRestaurants_7ee34e05dcb7","slug":"x11-burgers-7ee3","kind":"restaurant","name":"X11 Burgers","lat":37.97115113774925,"lng":23.746564304670212,"url":"https://maps.app.goo.gl/kMJu1ePUZJzGwAJdA?g_st=ipc","address":"Αρχελάου 14, Αθήνα 116 35","categoryIds":["burgers"],"categories":["Burger Spots"],"distanceKm":0.5659623518004786},{"id":"burgersRestaurants_a48e075150a2","slug":"greasy-spoon-athens-a48e","kind":"restaurant","name":"Greasy Spoon Athens","lat":37.971165228067136,"lng":23.74653583168114,"url":"https://maps.app.goo.gl/jy3gfbvNXVipSkrJA?g_st=ic","address":"Archelaou 14, Athina 116 35","categoryIds":["burgers"],"categories":["Burger Spots"],"distanceKm":0.5688792683565975},{"id":"coffeeBrunchRestaurants_fe6dc1179f31","slug":"the-roosters-ilisia-fe6d","kind":"restaurant","name":"The Roosters Ilisia","lat":37.97416538642229,"lng":23.75106552061932,"url":"https://maps.app.goo.gl/owWsQcbJ7FzLk2VC9?g_st=ipc","address":"Ίωνος Δραγούμη 58, Αθήνα 115 28","categoryIds":["coffee-brunch"],"categories":["Coffee & Brunch Spots"],"distanceKm":0.5778505864898592},{"id":"cheapEatsRestaurants_ba468327c890","slug":"pita-pan-ba46","kind":"restaurant","name":"Πίτα Παν","lat":37.973982654052946,"lng":23.750253307976614,"url":"https://maps.app.goo.gl/WYXA6LyZWmcPcu219?g_st=ipc","address":"Ιοφώντος 33, Αθήνα 116 34","categoryIds":["cheap-eats"],"categories":["Gyros & Cheap Eats"],"distanceKm":0.5778658047235637},{"id":"burgersRestaurants_2488bfd093b0","slug":"raw-street-burger-2488","kind":"restaurant","name":"RAW Street Burger","lat":37.96608078812892,"lng":23.747084457131937,"url":"https://maps.app.goo.gl/WsNpm6Ti1nzJiYwd7?g_st=ipc","address":"Υμηττού 130, Αθήνα 116 34","categoryIds":["burgers"],"categories":["Burger Spots"],"distanceKm":0.5782110978330475},{"id":"greekRestaurants_d05f0b437e54","slug":"osonoypo-d05f","kind":"restaurant","name":"Οσονούπω","lat":37.968722862920075,"lng":23.75908756393202,"url":"https://maps.app.goo.gl/HBqT7hbWLLfdjPem9","address":"Πλ. Αναγεννήσεως 2, Καισαριανή 161 21","categoryIds":["greek-restaurants"],"categories":["Greek Restaurants"],"distanceKm":0.5818447016238438}],"sameRegion":[],"mentionedGuides":[],"canonicalSlug":"i-thraka-f424","isCanonicalEntity":true,"enrichment":{"summary_en":"Η Θράκα is a curated restaurant in Αθήνα 116 34 in the Gyros & Cheap Eats collection. It is connected to 44 nearby Googlementor picks to help travelers build a stronger local route.","summary_el":"Η Θράκα είναι ένα επιλεγμένο σημείο φαγητού στην περιοχή Αθήνα 116 34 και ανήκει στη συλλογή Gyros & Cheap Eats. Συνδέεται με 44 κοντινές προτάσεις του Googlementor για πιο ολοκληρωμένη εμπειρία.","vibe_tags":["curated","budget-friendly"],"best_for":["first-time visitors","food lovers","budget travelers"],"visit_moments":["lunch stop","dinner stop"],"practical_note":"Address and direct map link are available for easy turn-by-turn access.","nearby_walkable_count":44,"nearby_count_2km":288,"confidence":0.98}},"__N_SSG":true}