{"pageProps":{"entity":{"id":"municipalities_61eaea5bd3d9","slug":"ilisia-61ea","kind":"municipality","name":"Ιλίσια","lat":37.9789,"lng":23.7572,"region":"Κέντρο Αθήνας","name_en":"Ilisia","region_en":"Athens Center"},"sameCategory":[],"nearby":[{"id":"coffeeBrunchRestaurants_3c4532938684","slug":"tromero-paidi-3c45","kind":"restaurant","name":"Τρομερό παιδί","lat":37.979193977677895,"lng":23.756620823918542,"url":"https://maps.app.goo.gl/LhCE2aHEwVVToKhc6?g_st=ipc","address":"Παπαδιαμαντοπούλου 30, Αθήνα 115 28","categoryIds":["coffee-brunch"],"categories":["Coffee & Brunch Spots"],"distanceKm":0.06037793348345973},{"id":"coffeeBrunchRestaurants_0854c47f51bb","slug":"lot-51-0854","kind":"restaurant","name":"LOT 51","lat":37.97889236924369,"lng":23.75608261699221,"url":"https://maps.app.goo.gl/XPiz8gPX1disrJLV9?g_st=ipc","address":"Παπαδιαμαντοπούλου 24Β, Αθήνα 115 28","categoryIds":["coffee-brunch"],"categories":["Coffee & Brunch Spots"],"distanceKm":0.09794006965063749},{"id":"burgersRestaurants_01b4e6c2697b","slug":"smashtag-01b4","kind":"restaurant","name":"SmashTag","lat":37.97799517923772,"lng":23.75631086140523,"url":"https://maps.app.goo.gl/Yu7VLwDA42Wp7pZo8","address":"Michalakopoulou 68, Athina 115 28","categoryIds":["burgers"],"categories":["Burger Spots"],"distanceKm":0.12726358398755874},{"id":"greekRestaurants_f2230e55c586","slug":"o-platanos-f223","kind":"restaurant","name":"Ο Πλάτανος","lat":37.98012652047389,"lng":23.757043689219586,"url":"https://maps.app.goo.gl/GVj14ysF6cMr9ZoA6","address":"Σεβαστείας 6, Αθήνα 115 28","categoryIds":["greek-restaurants"],"categories":["Greek Restaurants"],"distanceKm":0.13706924797767062},{"id":"greekRestaurants_eb74ce369d8c","slug":"skalakia-eb74","kind":"restaurant","name":"Σκαλάκια","lat":37.97743768834,"lng":23.756590141442583,"url":"https://maps.app.goo.gl/awU151ZstgomSVZZ8","address":"Διονυσίου Αιγινήτου 32, Αθήνα 115 28","categoryIds":["greek-restaurants"],"categories":["Greek Restaurants"],"distanceKm":0.17116238021370078},{"id":"mustSeeAttractions_48ddcd3e9742","slug":"megaro-moysikis-athinon-48dd","kind":"restaurant","name":"Μέγαρο Μουσικής Αθηνών","lat":37.98113320826234,"lng":23.754226747419665,"url":"https://maps.app.goo.gl/fcKT8gTb8XfWLvDa7?g_st=ipc","address":"Βασιλίσσης Σοφίας, Πέτρου Κόκκαλη &, Αθήνα","categoryIds":["attractions"],"categories":["Must-See Attractions"],"distanceKm":0.3599633917069715},{"id":"asianRestaurants_11e9b056b89d","slug":"bulacan-halo-halo-11e9","kind":"restaurant","name":"Bulacan Halo-Halo","lat":37.98164028909841,"lng":23.759642721567413,"url":"https://maps.app.goo.gl/XM8Buphrtabi3YYC9?g_st=ipc","address":"Μιχαλακοπούλου 105, Αθήνα 115 27","categoryIds":["asian"],"categories":["Asian Restaurants"],"distanceKm":0.3724014657133708},{"id":"dessertsRestaurants_bfef81917506","slug":"grigoris-terkenlis-bfef","kind":"restaurant","name":"Γρηγόρης - Τερκενλής","lat":37.97862799242535,"lng":23.752935643354185,"url":"https://maps.app.goo.gl/4h9LfxEi587omUSM9?g_st=ipc","address":"Βασ. Σοφίας 64, Αθήνα 115 28","categoryIds":["desserts"],"categories":["Dessert Shops"],"distanceKm":0.37498482525216587},{"id":"cheapEatsRestaurants_2d35d62e4881","slug":"kantina-mavili-2d35","kind":"restaurant","name":"Καντίνα Μαβίλη","lat":37.98253879036559,"lng":23.7560791108495,"url":"https://maps.app.goo.gl/tXjW7wXH83v15nHX8?g_st=ipc","address":"Δημ. Σούτσου 3, Αθήνα 115 21","categoryIds":["cheap-eats"],"categories":["Gyros & Cheap Eats"],"distanceKm":0.4163708273054251},{"id":"cheapEatsRestaurants_acd6f4163dcb","slug":"ta-psita-tis-pareas-acd6","kind":"restaurant","name":"Τα ψητά της παρέας","lat":37.97804935076976,"lng":23.76224805570561,"url":"https://maps.app.goo.gl/Kxmp13A9x2etHv317?g_st=ipc","address":"Ούλωφ Πάλμε 25, Ζωγράφου 157 71","categoryIds":["cheap-eats"],"categories":["Gyros & Cheap Eats"],"distanceKm":0.4524521064902466},{"id":"luxuryDiningRestaurants_27502c55cce5","slug":"fuga-restaurant-bar-2750","kind":"restaurant","name":"Fuga restaurant & Bar","lat":37.98215631508218,"lng":23.753698661211164,"url":"https://maps.app.goo.gl/3rzbE1xBxdLWH9Fm7?g_st=ipc","address":"Πέτρου Κόκκαλη 1, Αθήνα 115 21","categoryIds":["luxury-dining"],"categories":["Luxury Dining"],"distanceKm":0.4746372369927614},{"id":"greekRestaurants_90f9e65f33cf","slug":"alsos-mezedopoleio-90f9","kind":"restaurant","name":"Αλσος μεζεδοπωλείο","lat":37.97542863089566,"lng":23.76053636122563,"url":"https://maps.app.goo.gl/LFkoegopciPhWfk59","address":"Ούλωφ Πάλμε 1, Ζωγράφου 115 28","categoryIds":["greek-restaurants"],"categories":["Greek Restaurants"],"distanceKm":0.48426398034244444},{"id":"luxuryDiningRestaurants_9eaec42e6069","slug":"hytra-restaurant-bar-9eae","kind":"restaurant","name":"Hytra Restaurant & Bar","lat":37.98167691309065,"lng":23.75272858120184,"url":"https://maps.app.goo.gl/VKy2rrBX11ogrt618?g_st=ipc","address":"1, Πέτρου Κόκκαλη STR, Αθήνα 115 21","categoryIds":["luxury-dining","rooftop-lounges"],"categories":["Luxury Dining","Rooftop Lounges"],"legacySlugs":["hytra-restaurant-bar-8f5c"],"distanceKm":0.4989314746177567},{"id":"luxuryDiningRestaurants_0dfbfc3ae821","slug":"cookoovaya-0dfb","kind":"restaurant","name":"Cookoovaya","lat":37.976921193543475,"lng":23.751481425496852,"url":"https://maps.app.goo.gl/eVWjuM8b4LpyY8yk7?g_st=ipc","address":"Χατζηγιάννη Μέξη 2a, Αθήνα 115 28","categoryIds":["luxury-dining"],"categories":["Luxury Dining"],"distanceKm":0.5473979595376125},{"id":"coffeeBrunchRestaurants_fbed74066d32","slug":"gran-caffe-italiano-fbed","kind":"restaurant","name":"Gran Caffè Italiano","lat":37.97787235686609,"lng":23.750751437299407,"url":"https://maps.app.goo.gl/6qkVJ1W6HAGxTfVV8?g_st=ipc","address":"Μονής Πετράκη 3, & Υψηλάντου 44, Αθήνα 115 21","categoryIds":["coffee-brunch"],"categories":["Coffee & Brunch Spots"],"distanceKm":0.5766428409290322},{"id":"burgersRestaurants_bfe01035e2db","slug":"agora-select-bfe0","kind":"restaurant","name":"Agora Select","lat":37.97626574663726,"lng":23.751456733864202,"url":"https://maps.app.goo.gl/GxR6tX8MHegtVPLA7?g_st=ipc","address":"Χατζηγιάννη Μέξη 8 και, Κων/νου Βεντήρη 9, Αθήνα 115 28","categoryIds":["burgers","greek-restaurants"],"categories":["Burger Spots","Greek Restaurants"],"legacySlugs":["agora-select-aecd"],"distanceKm":0.5824138729260815},{"id":"luxuryDiningRestaurants_fd7f4b7743de","slug":"ox-athens-fd7f","kind":"restaurant","name":"Ox Athens","lat":37.975866043758764,"lng":23.75171237040956,"url":"https://maps.app.goo.gl/Em7n6W5HcPciEXPN7?g_st=ipc","address":"Χατζηγιάννη Μέξη 9, Αθήνα 115 28","categoryIds":["luxury-dining"],"categories":["Luxury Dining"],"distanceKm":0.5875059498814481},{"id":"luxuryDiningRestaurants_64a18bdb8e32","slug":"simul-64a1","kind":"restaurant","name":"Simul","lat":37.97792157218587,"lng":23.750427343616465,"url":"https://maps.app.goo.gl/mzwKBdesag7itwYi6?g_st=ipc","address":"Υψηλάντου 63, Αθήνα 115 21","categoryIds":["luxury-dining"],"categories":["Luxury Dining"],"distanceKm":0.6035013787030983},{"id":"greekRestaurants_f3fc125c2d89","slug":"psistaria-to-agrinio-f3fc","kind":"restaurant","name":"Ψησταριά Το Αγρίνιο","lat":37.98365341957495,"lng":23.761708124944604,"url":"https://maps.app.goo.gl/C245RwiHHTqtJUfs8","address":"Σινώπης 18, Αθήνα 115 27","categoryIds":["greek-restaurants"],"categories":["Greek Restaurants"],"distanceKm":0.6599149451817594},{"id":"asianRestaurants_473a72132f5a","slug":"noodle-bar-zografou-473a","kind":"restaurant","name":"Noodle Bar Zografou","lat":37.98033900085368,"lng":23.7645797480279,"url":"https://maps.app.goo.gl/mX2bUrDUmSpXcEdF7","address":"Geor. Papandreou 31, Zografou 157 73","categoryIds":["asian"],"categories":["Asian Restaurants"],"distanceKm":0.6663116437966439},{"id":"luxuryDiningRestaurants_5f111a9bb710","slug":"seeds-restaurant-5f11","kind":"restaurant","name":"Seeds Restaurant","lat":37.97301735223458,"lng":23.75389127288081,"url":"https://maps.app.goo.gl/dJm31W4p6fxcPwDr7?g_st=ipc","address":"Oumplianis 14, Diocharous 27, & 161 21","categoryIds":["luxury-dining"],"categories":["Luxury Dining"],"distanceKm":0.7155294618187565},{"id":"luxuryDiningRestaurants_b76457bf515f","slug":"vezene-athens-b764","kind":"restaurant","name":"Vezené Athens","lat":37.97470285308878,"lng":23.751002243210046,"url":"https://maps.app.goo.gl/u2HXnXpcXqTUxdbF6?g_st=ipc","address":"Βρασίδα 11, Αθήνα 115 28","categoryIds":["luxury-dining"],"categories":["Luxury Dining"],"distanceKm":0.7161816611451574},{"id":"cheapEatsRestaurants_c3e978d4eac2","slug":"5f-c3e9","kind":"restaurant","name":"5Φ","lat":37.97277642269308,"lng":23.753966804299914,"url":"https://maps.app.goo.gl/Jtpipww8tzt83Z1fA?g_st=ipc","address":"Diocharous 31 &, Κλεισούρας, Αθήνα 161 21","categoryIds":["cheap-eats","greek-restaurants"],"categories":["Gyros & Cheap Eats","Greek Restaurants"],"legacySlugs":["5f-7edc"],"distanceKm":0.737531103777815},{"id":"coffeeBrunchRestaurants_fe6dc1179f31","slug":"the-roosters-ilisia-fe6d","kind":"restaurant","name":"The Roosters Ilisia","lat":37.97416538642229,"lng":23.75106552061932,"url":"https://maps.app.goo.gl/owWsQcbJ7FzLk2VC9?g_st=ipc","address":"Ίωνος Δραγούμη 58, Αθήνα 115 28","categoryIds":["coffee-brunch"],"categories":["Coffee & Brunch Spots"],"distanceKm":0.7525146623539609}],"sameRegion":[{"id":"municipalities_0889636ab7df","slug":"petralona-0889","kind":"municipality","name":"Πετράλωνα","lat":37.9656,"lng":23.7108,"region":"Κέντρο Αθήνας","name_en":"Petralona","region_en":"Athens Center"},{"id":"municipalities_0cae2c00b932","slug":"kolonaki-0cae","kind":"municipality","name":"Κολωνάκι","lat":37.9769,"lng":23.7436,"aliases":["Kolonaki"],"region":"Κέντρο Αθήνας","name_en":"Kolonaki","region_en":"Athens Center"},{"id":"municipalities_0eb5ad956816","slug":"neos-kosmos-0eb5","kind":"municipality","name":"Νέος Κόσμος","lat":37.9563,"lng":23.7289,"region":"Κέντρο Αθήνας","name_en":"Neos Kosmos","region_en":"Athens Center"},{"id":"municipalities_0fd1d03201a0","slug":"mets-0fd1","kind":"municipality","name":"Μετς","lat":37.9685,"lng":23.7453,"region":"Κέντρο Αθήνας","name_en":"Mets","region_en":"Athens Center"},{"id":"municipalities_1760d194c086","slug":"ampelokipoi-1760","kind":"municipality","name":"Αμπελόκηποι","lat":38.002,"lng":23.753,"aliases":["Ampelopoi","Ampelokipoi","Ampelokipi","Αμπελοκηποι","Αμπελοκηπι"],"region":"Κέντρο Αθήνας","name_en":"Ambelokipi","region_en":"Athens Center"},{"id":"municipalities_23828bbce235","slug":"patisia-2382","kind":"municipality","name":"Πατήσια","lat":38.0167,"lng":23.7333,"aliases":["Πατησια","Patissia"],"region":"Κέντρο Αθήνας","name_en":"Patisia","region_en":"Athens Center"},{"id":"municipalities_2bcfcb8b899f","slug":"psyrri-2bcf","kind":"municipality","name":"Ψυρρή","lat":37.9761,"lng":23.7246,"aliases":["Psirri","Psyrri"],"region":"Κέντρο Αθήνας","name_en":"Psyrri","region_en":"Athens Center"},{"id":"municipalities_2dbf77b73060","slug":"royf-2dbf","kind":"municipality","name":"Ρουφ","lat":37.9767,"lng":23.7074,"region":"Κέντρο Αθήνας","name_en":"Rouf","region_en":"Athens Center"},{"id":"municipalities_2f324ee27306","slug":"exarcheia-2f32","kind":"municipality","name":"Εξάρχεια","lat":37.984,"lng":23.7365,"aliases":["Exarchia","Eksarheia","Εξαρχεια","Εξαρχειά","Exarxia","Eksarchia"],"region":"Κέντρο Αθήνας","name_en":"Exarcheia","region_en":"Athens Center"},{"id":"municipalities_2ffafd41aa54","slug":"votanikos-2ffa","kind":"municipality","name":"Βοτανικός","lat":37.9813,"lng":23.6984,"region":"Κέντρο Αθήνας","name_en":"Votanikos","region_en":"Athens Center"},{"id":"municipalities_4149fa79e27b","slug":"akropoli-4149","kind":"municipality","name":"Ακρόπολη","lat":37.9715,"lng":23.7257,"region":"Κέντρο Αθήνας","name_en":"Acropolis","region_en":"Athens Center"},{"id":"municipalities_5bc013791cf8","slug":"plaka-5bc0","kind":"municipality","name":"Πλάκα","lat":37.9726,"lng":23.7297,"region":"Κέντρο Αθήνας","name_en":"Plaka","region_en":"Athens Center"},{"id":"municipalities_616efd2a0d9b","slug":"koykaki-616e","kind":"municipality","name":"Κουκάκι","lat":37.9647,"lng":23.7264,"aliases":["Kukaki"],"region":"Κέντρο Αθήνας","name_en":"Koukaki","region_en":"Athens Center"},{"id":"municipalities_75ddb64a42fd","slug":"gyzi-75dd","kind":"municipality","name":"Γύζη","lat":37.9933,"lng":23.7439,"aliases":["Γυζη","Gizi"],"region":"Κέντρο Αθήνας","name_en":"Gyzi","region_en":"Athens Center"},{"id":"municipalities_7e1691d5f08d","slug":"metaxoyrgeio-7e16","kind":"municipality","name":"Μεταξουργείο","lat":37.9843,"lng":23.7219,"region":"Κέντρο Αθήνας","name_en":"Metaxourgeio","region_en":"Athens Center"},{"id":"municipalities_80c55a9453fa","slug":"ano-petralona-80c5","kind":"municipality","name":"Άνω Πετράλωνα","lat":37.9689,"lng":23.7139,"aliases":["Ανω Πετραλωνα"],"region":"Κέντρο Αθήνας","name_en":"Ano Petralona","region_en":"Athens Center"}],"mentionedGuides":[],"canonicalSlug":"ilisia-61ea","isCanonicalEntity":true,"enrichment":{"summary_en":"Ιλίσια is a curated neighborhood area in Κέντρο Αθήνας. It is connected to 26 nearby Googlementor picks to help travelers build a stronger local route.","summary_el":"Ιλίσια είναι ένα επιλεγμένο σημείο ενδιαφέροντος στην περιοχή Κέντρο Αθήνας. Συνδέεται με 26 κοντινές προτάσεις του Googlementor για πιο ολοκληρωμένη εμπειρία.","vibe_tags":["local-neighborhood","base-for-exploring"],"best_for":["first-time visitors","walk-and-explore days","return visitors"],"visit_moments":["late morning walks","sunset exploration"],"practical_note":"26 curated places are within walkable distance from this area center.","nearby_walkable_count":26,"nearby_count_2km":222,"confidence":0.6}},"__N_SSG":true}