{"pageProps":{"entity":{"id":"municipalities_4a175944114f","slug":"kamari-4a17","kind":"municipality","name":"Καμάρι","lat":36.3711,"lng":25.4804,"region":"Σαντορίνη","name_en":"Kamari","region_en":"Santorini"},"sameCategory":[],"nearby":[{"id":"fishTavernasRestaurants_df6d0cb0c542","slug":"fratzeskos-tavern-df6d","kind":"restaurant","name":"Fratzeskos tavern","lat":36.35690375814628,"lng":25.475715801192347,"url":"https://maps.app.goo.gl/jm2dpd1gs6ZU1Gb48?g_st=ipc","address":"Perissa 847 03","categoryIds":["fish-tavernas"],"categories":["Fish Tavernas"],"distanceKm":1.6333224395175552},{"id":"wineriesVineyards_2027b94783da","slug":"estate-argyros-2027","kind":"restaurant","name":"Estate Argyros","lat":36.3830947529534,"lng":25.464730249935148,"url":"https://maps.app.goo.gl/9Lgq7u7XqsKL7QdL8?g_st=ipc","address":"Episkopi Gonias 847 00","categoryIds":["wineries-vineyards"],"categories":["Wineries & Vineyards"],"distanceKm":1.9356945351360402},{"id":"municipalities_1eedf0b4b9bd","slug":"perissa-1eed","kind":"municipality","name":"Περίσσα","lat":36.3536,"lng":25.4739,"region":"Σαντορίνη","name_en":"Perissa","region_en":"Santorini","distanceKm":2.031091376191616},{"id":"wineriesVineyards_6d919bba0952","slug":"canava-roussos-6d91","kind":"restaurant","name":"Canava Roussos","lat":36.38413007796539,"lng":25.46332243806347,"url":"https://maps.app.goo.gl/yATMtq83jmsb3HWJ9?g_st=ipc","address":"Episkopi Gonias 847 00","categoryIds":["wineries-vineyards"],"categories":["Wineries & Vineyards"],"distanceKm":2.106355762890665},{"id":"wineriesVineyards_28e385a5b348","slug":"gaia-winery-santorini-28e3","kind":"restaurant","name":"Gaia Winery Santorini","lat":36.391347708444265,"lng":25.485792242462427,"url":"https://maps.app.goo.gl/MLYCkmtcnHSNEbdT6?g_st=ipc","address":"Θέση Βραχειές, Έξω Γωνιά, Perivolia 847 00","categoryIds":["wineries-vineyards"],"categories":["Wineries & Vineyards"],"distanceKm":2.302610360621019},{"id":"wineriesVineyards_8ab3932f0db2","slug":"artemis-karamolegos-8ab3","kind":"restaurant","name":"Artemis Karamolegos","lat":36.38835128439954,"lng":25.46365749287468,"url":"https://maps.app.goo.gl/6kQf3bRiieM4P2Es8?g_st=ipc","address":"Έξω Γωνιά 847 00","categoryIds":["wineries-vineyards"],"categories":["Wineries & Vineyards"],"distanceKm":2.4343881573820556},{"id":"wineriesVineyards_19f34df9ea94","slug":"art-space-art-gallery-winery-museum-19f3","kind":"restaurant","name":"Art Space Art Gallery - Winery - Museum","lat":36.385965387765225,"lng":25.460385388763417,"url":"https://maps.app.goo.gl/21dhPUgPmbLqpjpb9?g_st=ipc","address":"Έξω Γωνιά 847 00","categoryIds":["wineries-vineyards"],"categories":["Wineries & Vineyards"],"distanceKm":2.437791212612675},{"id":"greekRestaurants_75e240e1e1c8","slug":"metaxy-mas-75e2","kind":"restaurant","name":"Μεταξύ Μας","lat":36.388052739264,"lng":25.45733589994344,"url":"https://maps.app.goo.gl/ncT3pVMegecbmYeZ8?g_st=ipc","address":"Έξω Γωνιά 847 00","categoryIds":["greek-restaurants"],"categories":["Greek Restaurants"],"distanceKm":2.795848638501954},{"id":"municipalities_5b32b43e93f7","slug":"santorini-5b32","kind":"municipality","name":"Σαντορίνη","lat":36.3932,"lng":25.4615,"aliases":["Thira","Thera","Santorin","Σαντορίνα","Σαντορινη","Θήρα","Θηρα"],"region":"Κυκλάδες","name_en":"Santorini","region_en":"Cyclades","distanceKm":2.9835408354897437},{"id":"wineriesVineyards_ddfea8113f2e","slug":"cave-wine-museum-winery-koutsogiannopoulos-santorini-yposkafo-moyseio-oinoy-oinopoieio-koytsogiannopoylos-georgios-ddfe","kind":"restaurant","name":"Cave Wine Museum - Winery Koutsogiannopoulos Santorini (Υπόσκαφο Μουσείο Οίνου - Οινοποιείο Κουτσογιαννόπουλος Γεώργιος)","lat":36.39672195171486,"lng":25.460144574368652,"url":"https://maps.app.goo.gl/aGUb6MruiHYUGV8m8?g_st=ipc","address":"Βόθωνας, Βοθωνας 847 00","categoryIds":["wineries-vineyards"],"categories":["Wineries & Vineyards"],"distanceKm":3.377100792026661},{"id":"wineriesVineyards_c14f70416a30","slug":"hatzidakis-winery-c14f","kind":"restaurant","name":"Hatzidakis Winery","lat":36.371163398793655,"lng":25.439369057100784,"url":"https://maps.app.goo.gl/kvS8SgMB33y9p72M7?g_st=ipc","address":"Kallisti, Pyrgos, Thira, 84701, Santorini 847 00","categoryIds":["wineries-vineyards"],"categories":["Wineries & Vineyards"],"distanceKm":3.6736441719957416},{"id":"fishTavernasRestaurants_f99700801233","slug":"the-nets-f997","kind":"restaurant","name":"Τhe Nets","lat":36.340213032449526,"lng":25.45472858487458,"url":"https://maps.app.goo.gl/RiiBmieqG8r1Dh4o9?g_st=ipc","address":"Perivolos Beach, Santorini 847 00","categoryIds":["fish-tavernas"],"categories":["Fish Tavernas"],"distanceKm":4.1328652011704525},{"id":"wineriesVineyards_0d0a1ba0c3f9","slug":"santo-wines-0d0a","kind":"restaurant","name":"Santo Wines","lat":36.38756634157811,"lng":25.436746775584044,"url":"https://maps.app.goo.gl/BfpzWvX44GGmmqF99?g_st=ipc","address":"Πύργος Καλλίστης 847 00","categoryIds":["wineries-vineyards"],"categories":["Wineries & Vineyards"],"distanceKm":4.315667104913428},{"id":"wineriesVineyards_95bc9b62cb5b","slug":"gavalas-winery-95bc","kind":"restaurant","name":"Gavalas Winery","lat":36.37555701249798,"lng":25.430540537475494,"url":"https://maps.app.goo.gl/HU6QyLSjJ1YzxuXn8?g_st=ipc","address":"Megalochori 847 00","categoryIds":["wineries-vineyards"],"categories":["Wineries & Vineyards"],"distanceKm":4.491385005754456},{"id":"wineriesVineyards_a511a6e649e6","slug":"venetsanos-winery-a511","kind":"restaurant","name":"Venetsanos Winery","lat":36.38233875963969,"lng":25.43152035534749,"url":"https://maps.app.goo.gl/ptjxxz2nqAmMqrjo9?g_st=ipc","address":"Caldera Megalochori, Santorini Island 847 00","categoryIds":["wineries-vineyards"],"categories":["Wineries & Vineyards"],"distanceKm":4.550987759131854},{"id":"greekRestaurants_d26a24d58941","slug":"taverva-skaramagas-d26a","kind":"restaurant","name":"Taverva Skaramagas","lat":36.412079815836925,"lng":25.481638821541313,"url":"https://maps.app.goo.gl/zYEpZfjMiTY39WHB8?g_st=ipc","address":"Μονόλιθος 847 00","categoryIds":["greek-restaurants"],"categories":["Greek Restaurants"],"distanceKm":4.558096607623954},{"id":"wineriesVineyards_240cb6f5f493","slug":"boutari-winery-santorini-240c","kind":"restaurant","name":"Boutari Winery Santorini","lat":36.370584852516764,"lng":25.424958035575884,"url":"https://maps.app.goo.gl/5hnUYLAqB6RjWasSA?g_st=ipc","address":"Μεγαλοχώρι, Μεγαλοχώρι, Σαντορίνη 847 00","categoryIds":["wineries-vineyards"],"categories":["Wineries & Vineyards"],"distanceKm":4.964253235027455},{"id":"fishTavernasRestaurants_dac8860b7404","slug":"to-psaraki-dac8","kind":"restaurant","name":"To Psaraki","lat":36.33792749755298,"lng":25.43489591016144,"url":"https://maps.app.goo.gl/WeAqEXpj73UsAVaH8?g_st=ipc","address":"Marina, Vlichada 847 00","categoryIds":["fish-tavernas"],"categories":["Fish Tavernas"],"distanceKm":5.496501039344404},{"id":"municipalities_d0dfb358cefd","slug":"fira-d0df","kind":"municipality","name":"Φηρά","lat":36.4167,"lng":25.4326,"region":"Σαντορίνη","name_en":"Fira","region_en":"Santorini","distanceKm":6.634373266703833},{"id":"fishTavernasRestaurants_3a6d2de72ff3","slug":"yalos-3a6d","kind":"restaurant","name":"Yalos","lat":36.429358736881454,"lng":25.45892129944303,"url":"https://maps.app.goo.gl/LaFf3b4PU7b9Fdin8?g_st=ipc","address":"Έξω Γιαλός Θήρας 847 00","categoryIds":["fish-tavernas"],"categories":["Fish Tavernas"],"distanceKm":6.757281981213878},{"id":"coffeeBrunchRestaurants_2e5d658747f2","slug":"svoronos-bakery-2e5d","kind":"restaurant","name":"Svoronos Bakery","lat":36.419048608663665,"lng":25.432096523213673,"url":"https://maps.app.goo.gl/UiCZYg6Gt2wABcPE8?g_st=ipc","address":"Greece, 25is Martiou, Thira 847 00","categoryIds":["coffee-brunch"],"categories":["Coffee & Brunch Spots"],"distanceKm":6.864294548405561},{"id":"fishTavernasRestaurants_2d350f785ac9","slug":"triana-tavern-2d35","kind":"restaurant","name":"Triana Tavern","lat":36.42013344956067,"lng":25.432032180485958,"url":"https://maps.app.goo.gl/FwBmnh2RPeVaK64U6?g_st=ipc","address":"25is Martiou 405, Thira 847 00","categoryIds":["fish-tavernas"],"categories":["Fish Tavernas"],"distanceKm":6.961965195609092},{"id":"luxuryDiningRestaurants_a54c6ec9f1fa","slug":"selene-restaurant-a54c","kind":"restaurant","name":"Selene Restaurant","lat":36.4214954695669,"lng":25.43077555199888,"url":"https://maps.app.goo.gl/WMAKe6khJLqtbDgo7?g_st=ipc","address":"Old catholic monastery, Thira 847 00","categoryIds":["luxury-dining"],"categories":["Luxury Dining"],"distanceKm":7.150491930163129},{"id":"mustSeeAttractions_fcaf48a77b52","slug":"akrotiri-fcaf","kind":"restaurant","name":"Akrotiri","lat":36.351796236748676,"lng":25.403447201033227,"url":"https://maps.app.goo.gl/wBKcGui1HWeMLpjPA?g_st=ipc","address":"Fira 847 00","categoryIds":["attractions"],"categories":["Must-See Attractions"],"distanceKm":7.217278185923232}],"sameRegion":[{"id":"municipalities_1eedf0b4b9bd","slug":"perissa-1eed","kind":"municipality","name":"Περίσσα","lat":36.3536,"lng":25.4739,"region":"Σαντορίνη","name_en":"Perissa","region_en":"Santorini"},{"id":"municipalities_55c07bf61bfe","slug":"oia-55c0","kind":"municipality","name":"Οία","lat":36.461,"lng":25.375,"region":"Σαντορίνη","name_en":"Oia","region_en":"Santorini"},{"id":"municipalities_a8cf7f89f0ad","slug":"imerovigli-a8cf","kind":"municipality","name":"Ημεροβίγλι","lat":36.4352,"lng":25.4235,"region":"Σαντορίνη","name_en":"Imerovigli","region_en":"Santorini"},{"id":"municipalities_d0dfb358cefd","slug":"fira-d0df","kind":"municipality","name":"Φηρά","lat":36.4167,"lng":25.4326,"region":"Σαντορίνη","name_en":"Fira","region_en":"Santorini"}],"mentionedGuides":[],"canonicalSlug":"kamari-4a17","isCanonicalEntity":true,"enrichment":{"summary_en":"Καμάρι is a curated neighborhood area in Σαντορίνη. It is connected to 0 nearby Googlementor picks to help travelers build a stronger local route.","summary_el":"Καμάρι είναι ένα επιλεγμένο σημείο ενδιαφέροντος στην περιοχή Σαντορίνη. Συνδέεται με 0 κοντινές προτάσεις του Googlementor για πιο ολοκληρωμένη εμπειρία.","vibe_tags":["local-neighborhood","base-for-exploring"],"best_for":["first-time visitors","walk-and-explore days","return visitors"],"visit_moments":["late morning walks","sunset exploration"],"practical_note":"0 curated places are within walkable distance from this area center.","nearby_walkable_count":0,"nearby_count_2km":2,"confidence":0.55}},"__N_SSG":true}