{"pageProps":{"entity":{"id":"fishTavernasRestaurants_a8b54e1ce79d","slug":"kempaptzidiko-machalas-a8b5","kind":"restaurant","name":"ΚΕΜΠΑΠΤΖΙΔΙΚΟ ΜΑΧΑΛΑΣ","lat":37.97098229288963,"lng":23.644519445693433,"url":"https://maps.app.goo.gl/ynWdVgiTz6C4H7y9A?g_st=ipc","address":"Π. Τσαλδάρη, 241-243, Νίκαια 184 50","categoryIds":["fish-tavernas"],"categories":["Fish Tavernas"]},"sameCategory":[{"id":"fishTavernasRestaurants_ae0677e73373","slug":"zarkadoylas-ta-kavoyrakia-ae06","kind":"restaurant","name":"ΖΑΡΚΑΔΟΥΛΑΣ - ΤΑ ΚΑΒΟΥΡΑΚΙΑ","lat":37.966878654895595,"lng":23.649066817348377,"url":"https://maps.app.goo.gl/NBfwV1GcmoeRk6M28?g_st=ipc","address":"Βιθυνίας 32, Νίκαια 184 50","categoryIds":["fish-tavernas"],"categories":["Fish Tavernas"]},{"id":"fishTavernasRestaurants_8d6cb659e1a2","slug":"psarokokkalo-tis-annas-8d6c","kind":"restaurant","name":"ΨΑΡΟΚΟΚΚΑΛΟ ΤΗΣ ΑΝΝΑΣ","lat":37.969120176200505,"lng":23.623070103225206,"url":"https://maps.app.goo.gl/Fqinu6WnUcLK6Pe87?g_st=ipc","address":"Τσακάλωφ, Βίκτωρος Ουγκώ και, Κερατσίνι 187 57","categoryIds":["fish-tavernas"],"categories":["Fish Tavernas"]},{"id":"fishTavernasRestaurants_cfbde0cf6e1b","slug":"psaraki-meze-cfbd","kind":"restaurant","name":"Ψαράκι μεζέ","lat":37.954110812866894,"lng":23.653950848247767,"url":"https://maps.app.goo.gl/xP92x5imjgkE5bYk8?g_st=ipc","address":"Αραχώβης 21, Πειραιάς 185 40","categoryIds":["fish-tavernas"],"categories":["Fish Tavernas"]},{"id":"fishTavernasRestaurants_0d1e86dc9c98","slug":"psarotaverna-o-vasilis-0d1e","kind":"restaurant","name":"ΨΑΡΟΤΑΒΕΡΝΑ \"Ο ΒΑΣΙΛΗΣ\"","lat":37.963242750995164,"lng":23.620073628540776,"url":"https://maps.app.goo.gl/aW7neYrejPJDa4ZB6?g_st=ipc","address":"Κουντουριώτου 12, Κερατσίνι 187 56","categoryIds":["fish-tavernas"],"categories":["Fish Tavernas"]},{"id":"fishTavernasRestaurants_ce3d409f9fbd","slug":"e-g-taxideyontas-ce3d","kind":"restaurant","name":"Ε/Γ Ταξιδεύοντας","lat":37.953699461411354,"lng":23.621203196911647,"url":"https://maps.app.goo.gl/sYJ5yzi7qXwu1PYh8?g_st=ipc","address":"Πλάτωνος 72, Κερατσίνι 187 55","categoryIds":["fish-tavernas"],"categories":["Fish Tavernas"]},{"id":"fishTavernasRestaurants_3d632b6f2123","slug":"oinomageireio-o-vasilis-3d63","kind":"restaurant","name":"ΟΙΝΟΜΑΓΕΙΡΕΙΟ Ο ΒΑΣΙΛΗΣ","lat":37.95641057665237,"lng":23.61228914458667,"url":"https://maps.app.goo.gl/a3BE4Jby4PK3CikYA?g_st=ipc","address":"Ιχθυόσκαλα, Κερατσίνι 187 55","categoryIds":["fish-tavernas"],"categories":["Fish Tavernas"]},{"id":"fishTavernasRestaurants_948960a20968","slug":"piscis-mikrolimano-9489","kind":"restaurant","name":"PISCIS (Mikrolimano)","lat":37.938490522505944,"lng":23.659032074228165,"url":"https://maps.app.goo.gl/MsZEdpRYJ8p1nqmj9?g_st=ipc","address":"Ακτή Κουμουνδούρου 30, Πειραιάς 185 33","categoryIds":["fish-tavernas"],"categories":["Fish Tavernas"]},{"id":"fishTavernasRestaurants_2686f1888d4d","slug":"jimmy-s-fish-2686","kind":"restaurant","name":"Jimmy's Fish","lat":37.937411300998484,"lng":23.658441347658343,"url":"https://maps.app.goo.gl/14E3gTprwmDfYzgz9?g_st=ipc","address":"Ακτή Κουμουνδούρου 52, Πειραιάς 185 33","categoryIds":["fish-tavernas"],"categories":["Fish Tavernas"]},{"id":"fishTavernasRestaurants_159bf25520a5","slug":"varoulko-seaside-restaurant-159b","kind":"restaurant","name":"Varoulko Seaside Restaurant","lat":37.93728962950612,"lng":23.658502308499486,"url":"https://maps.app.goo.gl/hXejEzhnCFuwNgQb8?g_st=ipc","address":"Ακτή Κουμουνδούρου 54, Πειραιάς 185 33","categoryIds":["fish-tavernas","luxury-dining"],"categories":["Fish Tavernas","Luxury Dining"],"legacySlugs":["varoulko-seaside-restaurant-e7d4"]},{"id":"fishTavernasRestaurants_8bbe1388dc43","slug":"to-yperokeanion-8bbe","kind":"restaurant","name":"Το Υπερωκεάνιον","lat":37.937027133979264,"lng":23.630306101455314,"url":"https://maps.app.goo.gl/8UkxMc6urxkVhCf28?g_st=ipc","address":"Μαρίας Χατζηκυριάκου 48, Πειραιάς 185 38","categoryIds":["fish-tavernas"],"categories":["Fish Tavernas"]},{"id":"fishTavernasRestaurants_b66c76146a47","slug":"psarotaverna-o-giannis-b66c","kind":"restaurant","name":"Ψαροταβέρνα Ο Γιάννης","lat":37.93499994150365,"lng":23.63212553676847,"url":"https://maps.app.goo.gl/eNuQNp1jpPTuF4Zp6?g_st=ipc","address":"Λεωφ. Χατζηκυριάκου 107, Πειραιάς 185 39","categoryIds":["fish-tavernas"],"categories":["Fish Tavernas"]},{"id":"fishTavernasRestaurants_8f0cb7564598","slug":"margaro-8f0c","kind":"restaurant","name":"Μαργαρώ","lat":37.934632942041354,"lng":23.629156640005732,"url":"https://maps.app.goo.gl/ZboR52iNUWtrrWe79?g_st=ipc","address":"Λεωφ. Χατζηκυριάκου 126, Πειραιάς 185 38","categoryIds":["fish-tavernas"],"categories":["Fish Tavernas"]}],"nearby":[{"id":"cheapEatsRestaurants_93e5a087f2a2","slug":"soyvlakia-o-mpilis-93e5","kind":"restaurant","name":"Σουβλάκια \"ο ΜΠΙΛΗΣ\"","lat":37.97112327966262,"lng":23.64443348855245,"url":"https://maps.app.goo.gl/pWZio4wYos7hfNkq6?g_st=ipc","address":"Προύσης 22, Νίκαια 184 53","categoryIds":["cheap-eats"],"categories":["Gyros & Cheap Eats"],"distanceKm":0.01739372392540156},{"id":"cheapEatsRestaurants_3d78bb5a465c","slug":"makis-psitopoleio-soyvlatzidiko-3d78","kind":"restaurant","name":"\"Μάκης\" Ψητοπωλείο-Σουβλατζίδικο","lat":37.97402598918491,"lng":23.643093504500488,"url":"https://maps.app.goo.gl/43quDvAwPQhkbk6t5?g_st=ipc","address":"Π. Τσαλδάρη 262, Νίκαια 184 53","categoryIds":["cheap-eats"],"categories":["Gyros & Cheap Eats"],"distanceKm":0.36078665209621685},{"id":"italianRestaurants_deede59c2ee6","slug":"la-greca-nikaia-deed","kind":"restaurant","name":"La Greca Νίκαια","lat":37.96989287630008,"lng":23.649375358414368,"url":"https://maps.app.goo.gl/TRUJmqRbfNqYTojR9?g_st=ipc","address":"Ανακρέοντος 5, Νίκαια 184 53","categoryIds":["italian"],"categories":["Italian Restaurants"],"distanceKm":0.4425616991559427},{"id":"municipalities_40326566c574","slug":"nikaia-4032","kind":"municipality","name":"Νίκαια","lat":37.9667,"lng":23.6472,"aliases":["Nikaia","Nikea"],"region":"Δυτικά Προάστια","name_en":"Nikaia","region_en":"Western Suburbs","distanceKm":0.5309910929063195},{"id":"coffeeBrunchRestaurants_267612a1ea40","slug":"tolis-sweet-s-n-eats-2676","kind":"restaurant","name":"Τόλης sweet's n' eats","lat":37.97589864090017,"lng":23.642161221415883,"url":"https://maps.app.goo.gl/Q5js7BApZATn8jx1A?g_st=ipc","address":"Πλ. Δημοκρατίας, Νίκαια 184 51","categoryIds":["coffee-brunch"],"categories":["Coffee & Brunch Spots"],"distanceKm":0.5844484078026764},{"id":"asianRestaurants_cb2b61b87e3c","slug":"toukta-thai-food-cb2b","kind":"restaurant","name":"Toukta Thai food","lat":37.96875566688742,"lng":23.650805513802922,"url":"https://maps.app.goo.gl/U33KjMR5URvuLe1m6?g_st=ipc","address":"Ιωνίας 3, Νίκαια 184 50","categoryIds":["asian"],"categories":["Asian Restaurants"],"distanceKm":0.6040973792641107},{"id":"fishTavernasRestaurants_ae0677e73373","slug":"zarkadoylas-ta-kavoyrakia-ae06","kind":"restaurant","name":"ΖΑΡΚΑΔΟΥΛΑΣ - ΤΑ ΚΑΒΟΥΡΑΚΙΑ","lat":37.966878654895595,"lng":23.649066817348377,"url":"https://maps.app.goo.gl/NBfwV1GcmoeRk6M28?g_st=ipc","address":"Βιθυνίας 32, Νίκαια 184 50","categoryIds":["fish-tavernas"],"categories":["Fish Tavernas"],"distanceKm":0.6058982851395426},{"id":"cheapEatsRestaurants_e1efa6cc4eb9","slug":"kebab-hub-e1ef","kind":"restaurant","name":"KEBAB HUB","lat":37.96544893408382,"lng":23.64762675898248,"url":"https://maps.app.goo.gl/1jU1MDHhWUfkjuNTA?g_st=ipc","address":"Εφέσου 49, Νίκαια 184 50","categoryIds":["cheap-eats"],"categories":["Gyros & Cheap Eats"],"distanceKm":0.672879814824597},{"id":"cheapEatsRestaurants_9166d63b45f7","slug":"enty-9166","kind":"restaurant","name":"ΕΝΤΥ","lat":37.96700050503918,"lng":23.65031239624474,"url":"https://maps.app.goo.gl/TJbtwJ75EUsRPcRt8?g_st=ipc","address":"Δημ. Καρακουλουξή 4, Νίκαια 184 54","categoryIds":["cheap-eats"],"categories":["Gyros & Cheap Eats"],"distanceKm":0.673722282266893},{"id":"dessertsRestaurants_fc8742eefd51","slug":"loukoumothers-korydallos-fc87","kind":"restaurant","name":"Loukoumothers Korydallos","lat":37.97603620585146,"lng":23.64943855450405,"url":"https://maps.app.goo.gl/vMqPzYGSApLyRm1NA?g_st=ipc","address":"Ταξιαρχών &, Καψάλη 12, Κορυδαλλός 181 20","categoryIds":["desserts"],"categories":["Dessert Shops"],"distanceKm":0.7083271712604293},{"id":"burgersRestaurants_c5b9db65b8f8","slug":"ala-burger-c5b9","kind":"restaurant","name":"Ala Burger","lat":37.976136624110225,"lng":23.64953319647224,"url":"https://maps.app.goo.gl/magEHZdr4AeKTeT69?g_st=ipc","address":"Ταξιαρχών 14, Κορυδαλλός 181 20","categoryIds":["burgers"],"categories":["Burger Spots"],"distanceKm":0.7222357686837179},{"id":"cheapEatsRestaurants_1416b33a5bdb","slug":"dealers-real-street-food-1416","kind":"restaurant","name":"Dealers Real Street Food","lat":37.97630275309409,"lng":23.649623466165345,"url":"https://maps.app.goo.gl/6hPX1uNfh9QEYJND7?g_st=ipc","address":"Ταξιαρχών 18, Κορυδαλλός 181 20","categoryIds":["cheap-eats"],"categories":["Gyros & Cheap Eats"],"distanceKm":0.7417259454091925},{"id":"cheapEatsRestaurants_a7b0441198ed","slug":"kempaptzidikon-aivali-nikaia-a7b0","kind":"restaurant","name":"Κεμπαπτζίδικον Αϊβαλί Νίκαια","lat":37.97771284812105,"lng":23.63690051700111,"url":"https://maps.app.goo.gl/v85fF9CDnUXK4e4e6?g_st=ipc","address":"Ελλησπόντου 43, Νίκαια 184 51","categoryIds":["cheap-eats"],"categories":["Gyros & Cheap Eats"],"distanceKm":1.0030446531065367},{"id":"cheapEatsRestaurants_91979e529e27","slug":"aganaktisi-9197","kind":"restaurant","name":"Αγανάκτηση","lat":37.978045238767244,"lng":23.651711441065746,"url":"https://maps.app.goo.gl/eNiYkaAyndviywoc9?g_st=ipc","address":"Σερρών 44 &, Ταξιαρχών, Κορυδαλλός 181 20","categoryIds":["cheap-eats"],"categories":["Gyros & Cheap Eats"],"distanceKm":1.0070762249978829},{"id":"dessertsRestaurants_1148b5deca52","slug":"galaktopoleio-stamoy-1148","kind":"restaurant","name":"Γαλακτοπωλείο ΣΤΑΜΟΥ","lat":37.9652037202668,"lng":23.635596413779496,"url":"https://maps.app.goo.gl/rrTmftHWRasbJb7aA?g_st=ipc","address":"Πέτρου Ράλλη 438, Νίκαια 184 51","categoryIds":["desserts"],"categories":["Dessert Shops"],"distanceKm":1.012277828189394},{"id":"cheapEatsRestaurants_e6d18e573896","slug":"to-kochyli-afoi-rekka-e6d1","kind":"restaurant","name":"ΤΟ ΚΟΧΥΛΙ (Αφοί Ρέκκα)","lat":37.97958803504725,"lng":23.650262049500654,"url":"https://maps.app.goo.gl/dW3a2SovSeGnxXCRA?g_st=ipc","address":"Κορυδαλλός 181 20","categoryIds":["cheap-eats"],"categories":["Gyros & Cheap Eats"],"distanceKm":1.0812260852394853},{"id":"asianRestaurants_50f99f81698e","slug":"shisan-sushi-bar-50f9","kind":"restaurant","name":"Shisan Sushi Bar","lat":37.975094554437,"lng":23.656036676629217,"url":"https://maps.app.goo.gl/76f6tSxZ2NXCApc48?g_st=ipc","address":"Πλ. Παγκόσμιας Ειρήνης 4, Κορυδαλλός 181 20","categoryIds":["asian"],"categories":["Asian Restaurants"],"distanceKm":1.1082716204090877},{"id":"cheapEatsRestaurants_2f84b1901b79","slug":"soyvlakia-o-serkos-2f84","kind":"restaurant","name":"Σουβλάκια ο Σέρκος","lat":37.96321249323642,"lng":23.6546161405587,"url":"https://maps.app.goo.gl/g55ZF34fH7dzCpi29?g_st=ipc","address":"Ίωνος Δραγούμη 39-41, Πειραιάς 185 42","categoryIds":["cheap-eats"],"categories":["Gyros & Cheap Eats"],"distanceKm":1.2368622926166597},{"id":"greekRestaurants_a448ec3cfffd","slug":"to-koytoyki-toy-antoni-a448","kind":"restaurant","name":"Το κουτούκι του Αντώνη","lat":37.9618540673877,"lng":23.656289861821378,"url":"https://maps.app.goo.gl/SJ9Ya21w7zZToFhx8","address":"Αργυροκάστρου 26, Πειραιάς 185 42","categoryIds":["greek-restaurants"],"categories":["Greek Restaurants"],"distanceKm":1.4473841811281942},{"id":"municipalities_08be13136639","slug":"korydallos-08be","kind":"municipality","name":"Κορυδαλλός","lat":37.9844,"lng":23.6476,"aliases":["Koridallos"],"region":"Δυτικά Προάστια","name_en":"Korydallos","region_en":"Western Suburbs","distanceKm":1.516216334463102},{"id":"dessertsRestaurants_3dbefba5d853","slug":"galaktopoleio-stamoy-3dbe","kind":"restaurant","name":"Γαλακτοπωλείο ΣΤΑΜΟΥ","lat":37.98009558422181,"lng":23.657555522495652,"url":"https://maps.app.goo.gl/39ZNM4A7nfLV7BTBA?g_st=ipc","address":"Γρ. Λαμπράκη 120, Κορυδαλλός 181 21","categoryIds":["desserts"],"categories":["Dessert Shops"],"distanceKm":1.5272538566882312},{"id":"greekRestaurants_71ccb1aa4b83","slug":"taverna-o-vasilis-71cc","kind":"restaurant","name":"Ταβέρνα Ο Βασίλης","lat":37.983639078803165,"lng":23.65172200450781,"url":"https://maps.app.goo.gl/P3D4J5ff2iNtoGc99","address":"Κολοκοτρώνη 160, Κορυδαλλός 181 21","categoryIds":["greek-restaurants"],"categories":["Greek Restaurants"],"distanceKm":1.5424770913512413},{"id":"cheapEatsRestaurants_0e387e0faffb","slug":"panagiotis-apo-to-1970-0e38","kind":"restaurant","name":"ΠΑΝΑΓΙΩΤΗΣ από το 1970","lat":37.979572870802095,"lng":23.658766060140504,"url":"https://maps.app.goo.gl/cGoUBmVXHRpFeeeR6?g_st=ipc","address":"Γρ. Λαμπράκη 104, Κορυδαλλός 181 21","categoryIds":["cheap-eats"],"categories":["Gyros & Cheap Eats"],"distanceKm":1.572207276156893},{"id":"dessertsRestaurants_2ce344200b32","slug":"artozacharoplasteia-gavriilidis-2ce3","kind":"restaurant","name":"Αρτοζαχαροπλαστεία Γαβριηλίδης","lat":37.964134303993816,"lng":23.626317751280503,"url":"https://maps.app.goo.gl/JyTzpkU2ifwrGv839?g_st=ipc","address":"Λεωφ. Σαλαμίνος 71, Κερατσίνι 187 56","categoryIds":["desserts"],"categories":["Dessert Shops"],"distanceKm":1.7679725676471278}],"sameRegion":[],"mentionedGuides":[],"canonicalSlug":"kempaptzidiko-machalas-a8b5","isCanonicalEntity":true,"enrichment":{"summary_en":"ΚΕΜΠΑΠΤΖΙΔΙΚΟ ΜΑΧΑΛΑΣ is a curated restaurant in Νίκαια 184 50 in the Fish Tavernas collection. It is connected to 12 nearby Googlementor picks to help travelers build a stronger local route.","summary_el":"ΚΕΜΠΑΠΤΖΙΔΙΚΟ ΜΑΧΑΛΑΣ είναι ένα επιλεγμένο σημείο φαγητού στην περιοχή Νίκαια 184 50 και ανήκει στη συλλογή Fish Tavernas. Συνδέεται με 12 κοντινές προτάσεις του Googlementor για πιο ολοκληρωμένη εμπειρία.","vibe_tags":["curated","seafood-local"],"best_for":["first-time visitors","food lovers"],"visit_moments":["lunch stop","dinner stop"],"practical_note":"Address and direct map link are available for easy turn-by-turn access.","nearby_walkable_count":12,"nearby_count_2km":28,"confidence":0.98}},"__N_SSG":true}