{"pageProps":{"entity":{"id":"municipalities_138c7310c224","slug":"lykovrysi-138c","kind":"municipality","name":"Λυκόβρυση","lat":38.065,"lng":23.788,"aliases":["Likovrysi","Likovrissi"],"region":"Βόρεια Προάστια","name_en":"Lykovrysi","region_en":"Northern Suburbs"},"sameCategory":[],"nearby":[{"id":"cheapEatsRestaurants_dac5582833c7","slug":"taliban-street-food-dac5","kind":"restaurant","name":"Taliban Street Food","lat":38.06195061055415,"lng":23.783033784917546,"url":"https://maps.app.goo.gl/4yeaKT2EdHHJPxdj7?g_st=ipc","address":"Λεωφ. Αμαρουσίου 29, Λυκόβρυση 141 23","categoryIds":["cheap-eats"],"categories":["Gyros & Cheap Eats"],"distanceKm":0.5513653817091455},{"id":"dessertsRestaurants_91ba7ff0c788","slug":"galaktopoleio-stamoy-91ba","kind":"restaurant","name":"Γαλακτοπωλείο ΣΤΑΜΟΥ","lat":38.06327717225913,"lng":23.780942994591154,"url":"https://maps.app.goo.gl/rMwhBDoVuWArY4T36?g_st=ipc","address":"Λεωφ. Αμαρουσίου 29, Λυκόβρυση 141 23","categoryIds":["desserts"],"categories":["Dessert Shops"],"distanceKm":0.64683251470561},{"id":"municipalities_3dd9311bd3cf","slug":"peyki-3dd9","kind":"municipality","name":"Πεύκη","lat":38.06,"lng":23.792,"aliases":["Pefki","Pefkakia","Πευκη","Peuki","Pefka"],"region":"Βόρεια Προάστια","name_en":"Pefki","region_en":"Northern Suburbs","distanceKm":0.6570710946656705},{"id":"familyFriendly_814843d50658","slug":"k9-arena-8148","kind":"restaurant","name":"K9 Arena","lat":38.07105818937244,"lng":23.783776935008227,"url":"https://maps.app.goo.gl/x9xASynDZReucwX5A?g_st=ipc","address":"Χαλκίδος 15, Λυκόβρυση 141 23","categoryIds":["family-friendly"],"categories":["Kid Friendly Locations"],"distanceKm":0.7684164509524973},{"id":"dessertsRestaurants_11d8eb3a5116","slug":"solo-gelato-pefki-11d8","kind":"restaurant","name":"Solo Gelato Pefki","lat":38.058776038280556,"lng":23.79284350703131,"url":"https://maps.app.goo.gl/SjAsiViMGast8vsf9?g_st=ipc","address":"Σοφούλη 3, Πεύκη 151 21","categoryIds":["desserts"],"categories":["Dessert Shops"],"distanceKm":0.8116511914092567},{"id":"italianRestaurants_602b491bd8e4","slug":"puff-daddy-pizzeria-602b","kind":"restaurant","name":"Puff Daddy Pizzeria","lat":38.06473867888921,"lng":23.799010812565253,"url":"https://maps.app.goo.gl/kgXB1etikXQDGo7k6?g_st=ipc","address":"Σκρα 16, Πεύκη 151 21","categoryIds":["italian"],"categories":["Italian Restaurants"],"distanceKm":0.964382028350301},{"id":"coffeeBrunchRestaurants_37b671b3632a","slug":"alepou-37b6","kind":"restaurant","name":"Alepou","lat":38.060273733807854,"lng":23.79751630322254,"url":"https://maps.app.goo.gl/heYFVvSaJ4P8dDiS6?g_st=ipc","address":"Βαρβαρεσου, Πεύκη 151 21","categoryIds":["coffee-brunch"],"categories":["Coffee & Brunch Spots"],"distanceKm":0.9850373451947657},{"id":"greekRestaurants_cd7bd8c142b3","slug":"ta-peyka-cd7b","kind":"restaurant","name":"Τα Πεύκα","lat":38.060680665394344,"lng":23.798177860938093,"url":"https://maps.app.goo.gl/47TqLWgDNWfa9U2QA","address":"Χαϊμαντά Δημητρίου 34, Μαρούσι 151 22","categoryIds":["greek-restaurants"],"categories":["Greek Restaurants"],"distanceKm":1.0122465437007215},{"id":"dessertsRestaurants_35fad49944d3","slug":"oikogeneia-stayrati-35fa","kind":"restaurant","name":"Οικογένεια Σταυράτη","lat":38.064333617477246,"lng":23.775971928887216,"url":"https://maps.app.goo.gl/nFJr46bSggFggK8U6?g_st=ipc","address":"Λεωφ. Ηρακλείου 531, Ηράκλειο 141 22","categoryIds":["desserts"],"categories":["Dessert Shops"],"distanceKm":1.0556070968155644},{"id":"familyFriendly_dcb80555b0c4","slug":"hakuna-matata-family-park-dcb8","kind":"restaurant","name":"Hakuna Matata Family Park","lat":38.07414614693604,"lng":23.79446488393812,"url":"https://maps.app.goo.gl/wTSkxqJ3qSwLG4aJA?g_st=ipc","address":"Αχαρνών 53, Κηφισιά 145 61","categoryIds":["family-friendly"],"categories":["Kid Friendly Locations"],"distanceKm":1.1638642751087518},{"id":"cheapEatsRestaurants_a0695ebe74bb","slug":"to-teleion-a069","kind":"restaurant","name":"Το Τέλειον","lat":38.05891347949006,"lng":23.77665689156842,"url":"https://maps.app.goo.gl/Q3YXwLTyLfeVdVYX6?g_st=ipc","address":"Λεωφ. Πλαπούτα 20, Ηράκλειο 141 22","categoryIds":["cheap-eats"],"categories":["Gyros & Cheap Eats"],"distanceKm":1.2017662690361672},{"id":"monasteriesChurches_5170cd1cd8e1","slug":"monastiri-agias-eirinis-chrysovalantoy-5170","kind":"restaurant","name":"Μοναστήρι Αγίας Ειρήνης Χρυσοβαλάντου","lat":38.0757087984453,"lng":23.784060169292047,"url":"https://maps.app.goo.gl/Kmbb6BYr6fSV4pFRA?g_st=ipc","address":"Δημητσάνας 1, Λυκόβρυση 141 23","categoryIds":["monasteries-churches"],"categories":["Monasteries & Spiritual Sites"],"distanceKm":1.2397041812954177},{"id":"greekRestaurants_1ff9a64c2696","slug":"kempaptzidikon-mparmpalias-maroysi-1ff9","kind":"restaurant","name":"Κεμπαπτζιδικον Μπαρμπαλιάς Μαρούσι","lat":38.05149931311812,"lng":23.790028540438847,"url":"https://maps.app.goo.gl/NL3SuAhkVPXxocnF9","address":"Βύρωνος 19, Μαρούσι 151 22","categoryIds":["greek-restaurants"],"categories":["Greek Restaurants"],"distanceKm":1.5116774449984467},{"id":"cheapEatsRestaurants_f41f24c34bd1","slug":"o-christaras-f41f","kind":"restaurant","name":"Ο Χρηστάρας","lat":38.06513658858884,"lng":23.770452923606605,"url":"https://maps.app.goo.gl/73hetj8YZUmHBV4M7?g_st=ipc","address":"κ, Δεξαμενής, Θεοτοκοπούλου και, Μεταμόρφωση 144 52","categoryIds":["cheap-eats"],"categories":["Gyros & Cheap Eats"],"distanceKm":1.536233813993725},{"id":"cheapEatsRestaurants_f527d097e08b","slug":"mpampis-soyvlatzidiko-f527","kind":"restaurant","name":"Μπάμπης (Σουβλατζίδικο)","lat":38.07798891290964,"lng":23.794191207475013,"url":"https://maps.app.goo.gl/FPtnwFuAA6xGZThWA?g_st=ipc","address":"Γεωρ. Λύρα 5, Κηφισιά 145 64","categoryIds":["cheap-eats"],"categories":["Gyros & Cheap Eats"],"distanceKm":1.542636836325162},{"id":"familyFriendly_afe86b0c0ea7","slug":"game-project-afe8","kind":"restaurant","name":"GAME Project","lat":38.057383703991036,"lng":23.772780317559956,"url":"https://maps.app.goo.gl/XsjBK4zMnNMj3Syf6?g_st=ipc","address":"204, ELeftheriou Venizelou Str N, Αθήνα 141 22","categoryIds":["family-friendly"],"categories":["Kid Friendly Locations"],"distanceKm":1.5788366580108286},{"id":"familyFriendly_a0024b80ee95","slug":"block-games-a002","kind":"restaurant","name":"Block Games","lat":38.05634420757886,"lng":23.803830698656842,"url":"https://maps.app.goo.gl/KumHXE484XwJxn489?g_st=ipc","address":"Περικλέους 1, Μαρούσι 151 22","categoryIds":["family-friendly"],"categories":["Kid Friendly Locations"],"distanceKm":1.6873984317250283},{"id":"burgersRestaurants_6d610eb79dbd","slug":"taz-smash-burger-6d61","kind":"restaurant","name":"Taz Smash Burger","lat":38.05644521597169,"lng":23.804667787562405,"url":"https://maps.app.goo.gl/tj3ojXGmrnTvMA9c7?g_st=ipc","address":"Περικλέους 2, Μαρούσι 151 22","categoryIds":["burgers"],"categories":["Burger Spots"],"distanceKm":1.7419348827840755},{"id":"fishTavernasRestaurants_2930f14bae6f","slug":"psariston-2930","kind":"restaurant","name":"Ψάριστον","lat":38.05007046502227,"lng":23.781403693268317,"url":"https://maps.app.goo.gl/4KPzMCG1HKq5Gpdw6?g_st=ipc","address":"Καλαβρύτων 16, Ηράκλειο 141 21, 141 21","categoryIds":["fish-tavernas"],"categories":["Fish Tavernas"],"distanceKm":1.7576798512648772},{"id":"asianRestaurants_02d0f232a272","slug":"new-great-wall-marousi-02d0","kind":"restaurant","name":"New Great Wall Marousi","lat":38.05713122309269,"lng":23.805863056780513,"url":"https://maps.app.goo.gl/UXfhhMjtr2rYJfNW7?g_st=ipc","address":"Βασ. Αμαλίας 1, Μαρούσι 151 22","categoryIds":["asian"],"categories":["Asian Restaurants"],"distanceKm":1.7920305664996574},{"id":"cheapEatsRestaurants_484ec346fe11","slug":"souzi-tros-street-food-484e","kind":"restaurant","name":"SOUZI TROS street food","lat":38.0550996125921,"lng":23.804743752516742,"url":"https://maps.app.goo.gl/Q2YtxKh8LosNGyHJ6?g_st=ipc","address":"Σπύρου Λέκκα 9, Μαρούσι 151 24","categoryIds":["cheap-eats"],"categories":["Gyros & Cheap Eats"],"distanceKm":1.8332698912253171},{"id":"coffeeBrunchRestaurants_7046edfbce5c","slug":"janet-craig-7046","kind":"restaurant","name":"Janet Craig","lat":38.05641063632366,"lng":23.806182036715274,"url":"https://maps.app.goo.gl/o5wNnYy8d5rdfCBx5?g_st=ipc","address":"28ης Οκτωβρίου 5, Μαρούσι 151 24","categoryIds":["coffee-brunch"],"categories":["Coffee & Brunch Spots"],"distanceKm":1.8563842424153043},{"id":"cheapEatsRestaurants_8e2845b1b79c","slug":"to-elliniko-soyvlaki-8e28","kind":"restaurant","name":"Το Ελληνικό Σουβλάκι","lat":38.055611201936195,"lng":23.805858315965597,"url":"https://maps.app.goo.gl/GjgUbFCMPcughxPW6?g_st=ipc","address":"Διονύσου 19, Μαρούσι 151 24","categoryIds":["cheap-eats"],"categories":["Gyros & Cheap Eats"],"distanceKm":1.8800173948924164},{"id":"burgersRestaurants_3d23e4017c79","slug":"f-smashing-marousi-delivery-take-away-only-3d23","kind":"restaurant","name":"F* Smashing Marousi (Delivery & Take away Only!)","lat":38.05659414043942,"lng":23.807978426457023,"url":"https://maps.app.goo.gl/YDf78cc6DThEFAdSA?g_st=ipc","address":"Π. Κυριακού 18, Μαρούσι 151 24","categoryIds":["burgers"],"categories":["Burger Spots"],"distanceKm":1.983189592710707}],"sameRegion":[{"id":"municipalities_1017b19e3550","slug":"nea-filadelfeia-1017","kind":"municipality","name":"Νέα Φιλαδέλφεια","lat":38.0333,"lng":23.7333,"region":"Βόρεια Προάστια","name_en":"Nea Filadelfeia","region_en":"Northern Suburbs"},{"id":"municipalities_10b34011c7ab","slug":"stamata-10b3","kind":"municipality","name":"Σταμάτα","lat":38.108,"lng":23.8669,"region":"Βόρεια Προάστια","name_en":"Stamata","region_en":"North Suburbs"},{"id":"municipalities_21a4cf6d5b03","slug":"nea-erythraia-21a4","kind":"municipality","name":"Νέα Ερυθραία","lat":38.1025,"lng":23.817,"region":"Βόρεια Προάστια","name_en":"Nea Erythraia","region_en":"Northern Suburbs"},{"id":"municipalities_261961302eff","slug":"papagoy-cholargos-2619","kind":"municipality","name":"Παπάγου - Χολαργός","lat":38,"lng":23.8,"region":"Βόρεια Προάστια","name_en":"Papagou - Cholargos","region_en":"Northern Suburbs"},{"id":"municipalities_3dd9311bd3cf","slug":"peyki-3dd9","kind":"municipality","name":"Πεύκη","lat":38.06,"lng":23.792,"aliases":["Pefki","Pefkakia","Πευκη","Peuki","Pefka"],"region":"Βόρεια Προάστια","name_en":"Pefki","region_en":"Northern Suburbs"},{"id":"municipalities_3f6a045ce221","slug":"agia-paraskeyi-3f6a","kind":"municipality","name":"Αγία Παρασκευή","lat":38.0216,"lng":23.827,"region":"Βόρεια Προάστια","name_en":"Agia Paraskevi","region_en":"Northern Suburbs"},{"id":"municipalities_4d3a6952ff1a","slug":"psychiko-4d3a","kind":"municipality","name":"Ψυχικό","lat":38.021,"lng":23.765,"aliases":["Psychiko","Psychicon","Ψυχικο","Psihiko","Psyxiko","Psixiko","Psychico"],"region":"Βόρεια Προάστια","name_en":"Psychiko","region_en":"Northern Suburbs"},{"id":"municipalities_51534bbed11a","slug":"ekali-5153","kind":"municipality","name":"Εκάλη","lat":38.1177,"lng":23.8368,"region":"Βόρεια Προάστια","name_en":"Ekali","region_en":"North Suburbs"},{"id":"municipalities_5c4c490c8c5a","slug":"galatsi-5c4c","kind":"municipality","name":"Γαλάτσι","lat":38.0167,"lng":23.75,"aliases":["Galatsi","Galatsia","Γαλατσι","Galatsion"],"region":"Βόρεια Προάστια","name_en":"Galatsi","region_en":"Northern Suburbs"},{"id":"municipalities_6dce5446e51c","slug":"filothei-6dce","kind":"municipality","name":"Φιλοθέη","lat":38.024,"lng":23.766,"aliases":["Filothei","Filothee","Φιλοθεη","Philothei"],"region":"Βόρεια Προάστια","name_en":"Filothei","region_en":"Northern Suburbs"},{"id":"municipalities_797866e61212","slug":"melissia-7978","kind":"municipality","name":"Μελίσσια","lat":38.05,"lng":23.8333,"aliases":["Melissia","Melissa","Μελισσια"],"region":"Βόρεια Προάστια","name_en":"Melissia","region_en":"Northern Suburbs"},{"id":"municipalities_9db4da788e71","slug":"rodopoli-9db4","kind":"municipality","name":"Ροδόπολη","lat":38.1307,"lng":23.8504,"region":"Βόρεια Προάστια","name_en":"Rodopoli","region_en":"North Suburbs"},{"id":"municipalities_a312b31dd129","slug":"nea-ionia-a312","kind":"municipality","name":"Νέα Ιωνία","lat":38.0357,"lng":23.7573,"aliases":["Nea Ionia","Νεα Ιωνια"],"region":"Βόρεια Προάστια","name_en":"Nea Ionia","region_en":"Northern Suburbs"},{"id":"municipalities_b9a5c4b0e427","slug":"dionysos-b9a5","kind":"municipality","name":"Διόνυσος","lat":38.106,"lng":23.8583,"region":"Βόρεια Προάστια","name_en":"Dionysos","region_en":"North Suburbs"},{"id":"municipalities_cb47d94cb6da","slug":"maroysi-cb47","kind":"municipality","name":"Μαρούσι","lat":38.0543,"lng":23.808,"aliases":["Marousi","Maroussi","Μαρουσι","Αμαρουσιο","Αμαρούσιο","Marusi","Amarousion"],"region":"Βόρεια Προάστια","name_en":"Marousi","region_en":"Northern Suburbs"},{"id":"municipalities_d9eb5d0054e1","slug":"chalandri-d9eb","kind":"municipality","name":"Χαλάνδρι","lat":38.0232,"lng":23.8007,"aliases":["Chalandr","Halandri","Khalandri","Halandra","Khalandra","Χαλάνδρα","Χαλάνδρη","Χαλανδρι","Xalandri","Xalandr"],"region":"Βόρεια Προάστια","name_en":"Chalandri","region_en":"Northern Suburbs"}],"mentionedGuides":[],"canonicalSlug":"lykovrysi-138c","isCanonicalEntity":true,"enrichment":{"summary_en":"Λυκόβρυση is a curated neighborhood area in Βόρεια Προάστια. It is connected to 4 nearby Googlementor picks to help travelers build a stronger local route.","summary_el":"Λυκόβρυση είναι ένα επιλεγμένο σημείο ενδιαφέροντος στην περιοχή Βόρεια Προάστια. Συνδέεται με 4 κοντινές προτάσεις του Googlementor για πιο ολοκληρωμένη εμπειρία.","vibe_tags":["local-neighborhood","base-for-exploring"],"best_for":["first-time visitors","walk-and-explore days","return visitors"],"visit_moments":["late morning walks","sunset exploration"],"practical_note":"4 curated places are within walkable distance from this area center.","nearby_walkable_count":4,"nearby_count_2km":24,"confidence":0.6}},"__N_SSG":true}