{"pageProps":{"entity":{"id":"greekRestaurants_c4daeb8f4d66","slug":"malanos-c4da","kind":"restaurant","name":"Μαλανος","lat":38.0129537569984,"lng":23.7103246194612,"url":"https://maps.app.goo.gl/RHBwmAA2mvG3Eie58","address":"Ιωλκού 2, Περιστέρι 121 33","categoryIds":["greek-restaurants"],"categories":["Greek Restaurants"]},"sameCategory":[{"id":"greekRestaurants_8f61506d1171","slug":"basegrill-athens-8f61","kind":"restaurant","name":"Basegrill Athens","lat":38.01200938597209,"lng":23.7082215195935,"url":"https://maps.app.goo.gl/4HcYYs1yQVdq1giy8","address":"Λεωφ. Κωνσταντινουπόλεως 64, Περιστέρι 121 33","categoryIds":["greek-restaurants","luxury-dining"],"categories":["Greek Restaurants","Luxury Dining"],"legacySlugs":["basegrill-athens-1a54"]},{"id":"greekRestaurants_9c5c07b28afc","slug":"schinos-mpistro-9c5c","kind":"restaurant","name":"Σχίνος Μπιστρό","lat":38.01228323858559,"lng":23.703471319893453,"url":"https://maps.app.goo.gl/VEoaxecqRaF6Y2in8","address":"Μεγ. Αλεξάνδρου 88, Περιστέρι 121 32","categoryIds":["greek-restaurants"],"categories":["Greek Restaurants"]},{"id":"greekRestaurants_d28823b9eec2","slug":"myrtia-peristeri-d288","kind":"restaurant","name":"Μυρτιά - Περιστέρι","lat":38.00643775276086,"lng":23.706964574646523,"url":"https://maps.app.goo.gl/ZmkpQ1J6yj1b1iUX6","address":"Αγίας Παρασκευής 24, Περιστέρι 121 32","categoryIds":["greek-restaurants"],"categories":["Greek Restaurants"]},{"id":"greekRestaurants_66d5a57225f6","slug":"taverna-o-karagkiozis-66d5","kind":"restaurant","name":"Ταβέρνα Ο Καραγκιόζης","lat":38.01836729151931,"lng":23.702104419170855,"url":"https://maps.app.goo.gl/zhCvjvwCT9rbixAE6","address":"Τρώων 9, Bournazi 121 33","categoryIds":["greek-restaurants"],"categories":["Greek Restaurants"]},{"id":"greekRestaurants_cf4d36c85e78","slug":"paradosiaki-taverna-o-spanos-cf4d","kind":"restaurant","name":"Παραδοσιακή Ταβέρνα ο Σπανός","lat":38.01128559769368,"lng":23.722291820236695,"url":"https://maps.app.goo.gl/M1LDEQBwqFbK8g7Y6","address":"Αριστείδου Οικονόμου 12, Αθήνα 104 45","categoryIds":["greek-restaurants"],"categories":["Greek Restaurants"]},{"id":"greekRestaurants_d84b869185a4","slug":"rigalos-psistaria-provato-sta-karvoyna-d84b","kind":"restaurant","name":"Ρηγάλος Ψησταριά - Πρόβατο στα κάρβουνα","lat":38.02876561192483,"lng":23.709228688807336,"url":"https://maps.app.goo.gl/KcrSRWtpYRZVpLT68","address":"Πάριδος 32, Ίλιον 131 22","categoryIds":["greek-restaurants"],"categories":["Greek Restaurants"]},{"id":"greekRestaurants_6208e477b281","slug":"pappu-athens-6208","kind":"restaurant","name":"Pāppu Athens","lat":38.01046990272616,"lng":23.68965527636987,"url":"https://maps.app.goo.gl/QKrjcz5bwnJE9QXA6","address":"Μεσολογγίου 100, Περιστέρι 121 31","categoryIds":["greek-restaurants"],"categories":["Greek Restaurants"]},{"id":"burgersRestaurants_61f30a1a8896","slug":"arch-beer-house-61f3","kind":"restaurant","name":"Arch Beer House","lat":38.013998175642,"lng":23.688328178434592,"url":"https://maps.app.goo.gl/ESAdNAhkQW7WvLqWA?g_st=ipc","address":"Εθ. Αντιστάσεως 91, Περιστέρι 121 34","categoryIds":["burgers","greek-restaurants"],"categories":["Burger Spots","Greek Restaurants"],"legacySlugs":["arch-beer-house-8940"]},{"id":"greekRestaurants_ca3f37d54af0","slug":"to-kastro-mezedopoleio-ca3f","kind":"restaurant","name":"Το Κάστρο - Μεζεδοπωλείο","lat":38.029707505192306,"lng":23.701561203164797,"url":"https://maps.app.goo.gl/ntunDXdn4W56VrG16","address":"Πολυτέκνων 80, Ίλιον 131 21","categoryIds":["greek-restaurants"],"categories":["Greek Restaurants"]},{"id":"greekRestaurants_e84451b3cebc","slug":"taverna-psistaria-o-thomas-apo-to-1980-e844","kind":"restaurant","name":"Ταβέρνα - Ψησταριά ο Θωμάς απο το 1980","lat":38.015942140522725,"lng":23.686390666199237,"url":"https://maps.app.goo.gl/ZYNUbquE3yHM5E837","address":"Χαλκοκονδύλη 39, Περιστέρι 121 35","categoryIds":["greek-restaurants"],"categories":["Greek Restaurants"]},{"id":"greekRestaurants_7620f2ece9a6","slug":"mpompyras-7620","kind":"restaurant","name":"Μπόμπυρας","lat":38.00484148971816,"lng":23.732856919000913,"url":"https://maps.app.goo.gl/9Ay3zpP2cfdFbPpw8","address":"Ευπαλίνου 21, Αθήνα 112 53","categoryIds":["greek-restaurants"],"categories":["Greek Restaurants"]},{"id":"greekRestaurants_2f6996caca4e","slug":"spyros-antonis-2f69","kind":"restaurant","name":"Σπύρος-Αντώνης","lat":38.01866922800358,"lng":23.738404062129728,"url":"https://maps.app.goo.gl/9kB2f5FdE7NhgyEF7","address":"Γαβριηλίδου 24, Αθήνα 111 41","categoryIds":["greek-restaurants"],"categories":["Greek Restaurants"]}],"nearby":[{"id":"greekRestaurants_8f61506d1171","slug":"basegrill-athens-8f61","kind":"restaurant","name":"Basegrill Athens","lat":38.01200938597209,"lng":23.7082215195935,"url":"https://maps.app.goo.gl/4HcYYs1yQVdq1giy8","address":"Λεωφ. Κωνσταντινουπόλεως 64, Περιστέρι 121 33","categoryIds":["greek-restaurants","luxury-dining"],"categories":["Greek Restaurants","Luxury Dining"],"legacySlugs":["basegrill-athens-1a54"],"distanceKm":0.21207149307365633},{"id":"burgersRestaurants_7bcb47e330c5","slug":"tryfonas-kempaptzidikon-hamburgerie-7bcb","kind":"restaurant","name":"Τρύφωνας Κεμπαπτζίδικoν - Hamburgerie","lat":38.0125506362582,"lng":23.70608974489792,"url":"https://maps.app.goo.gl/cE9CbEn5LYoZ6WKj7?g_st=ipc","address":"Παρασκευοπούλου 51, Περιστέρι 121 34","categoryIds":["burgers","cheap-eats"],"categories":["Burger Spots","Gyros & Cheap Eats"],"legacySlugs":["tryfonas-kempaptzidikon-hamburgerie-390d"],"distanceKm":0.37370508498798566},{"id":"cheapEatsRestaurants_27095ef62808","slug":"jackaroo-2709","kind":"restaurant","name":"Jackaroo","lat":38.0124039916799,"lng":23.705649430022987,"url":"https://maps.app.goo.gl/ZVfeByxQrS6SFYyH6?g_st=ipc","address":"Παρασκευοπούλου 45, Περιστέρι 121 35","categoryIds":["cheap-eats"],"categories":["Gyros & Cheap Eats"],"distanceKm":0.4141191981758306},{"id":"greekRestaurants_9c5c07b28afc","slug":"schinos-mpistro-9c5c","kind":"restaurant","name":"Σχίνος Μπιστρό","lat":38.01228323858559,"lng":23.703471319893453,"url":"https://maps.app.goo.gl/VEoaxecqRaF6Y2in8","address":"Μεγ. Αλεξάνδρου 88, Περιστέρι 121 32","categoryIds":["greek-restaurants"],"categories":["Greek Restaurants"],"distanceKm":0.6050135734330016},{"id":"municipalities_6d3b56c27da3","slug":"peristeri-6d3b","kind":"municipality","name":"Περιστέρι","lat":38.015,"lng":23.7035,"aliases":["Peristeria"],"region":"Δυτικά Προάστια","name_en":"Peristeri","region_en":"Western Suburbs","distanceKm":0.6397102127634167},{"id":"greekRestaurants_d28823b9eec2","slug":"myrtia-peristeri-d288","kind":"restaurant","name":"Μυρτιά - Περιστέρι","lat":38.00643775276086,"lng":23.706964574646523,"url":"https://maps.app.goo.gl/ZmkpQ1J6yj1b1iUX6","address":"Αγίας Παρασκευής 24, Περιστέρι 121 32","categoryIds":["greek-restaurants"],"categories":["Greek Restaurants"],"distanceKm":0.782065192234044},{"id":"cheapEatsRestaurants_093f463c1994","slug":"krepes-gorillas-093f","kind":"restaurant","name":"Κρέπες Gorillas","lat":38.011039639297316,"lng":23.701212318200714,"url":"https://maps.app.goo.gl/Us2VxvnWiFa4zh7E6?g_st=ipc","address":"Παρασκευοπούλου 14, Περιστέρι 121 32","categoryIds":["cheap-eats"],"categories":["Gyros & Cheap Eats"],"distanceKm":0.8262005201925696},{"id":"municipalities_843525938864","slug":"sepolia-8435","kind":"municipality","name":"Σεπόλια","lat":38.0056,"lng":23.7139,"aliases":["Σεπολια"],"region":"Κέντρο Αθήνας","name_en":"Sepolia","region_en":"Athens Center","distanceKm":0.8756464018603551},{"id":"greekRestaurants_66d5a57225f6","slug":"taverna-o-karagkiozis-66d5","kind":"restaurant","name":"Ταβέρνα Ο Καραγκιόζης","lat":38.01836729151931,"lng":23.702104419170855,"url":"https://maps.app.goo.gl/zhCvjvwCT9rbixAE6","address":"Τρώων 9, Bournazi 121 33","categoryIds":["greek-restaurants"],"categories":["Greek Restaurants"],"distanceKm":0.9385788255595754},{"id":"cheapEatsRestaurants_e43c2854d472","slug":"armeniko-kempap-to-rodi-the-pomegranate-armenian-kebab-e43c","kind":"restaurant","name":"Αρμένικο Κεμπάπ Το Ρόδι - The pomegranate Armenian kebab","lat":38.00448088015914,"lng":23.715736478884928,"url":"https://maps.app.goo.gl/sFPUNxMQJRmui3Sh7?g_st=ipc","address":"Κρέοντος 163, Αθήνα 104 43","categoryIds":["cheap-eats"],"categories":["Gyros & Cheap Eats"],"distanceKm":1.0547245305689879},{"id":"greekRestaurants_cf4d36c85e78","slug":"paradosiaki-taverna-o-spanos-cf4d","kind":"restaurant","name":"Παραδοσιακή Ταβέρνα ο Σπανός","lat":38.01128559769368,"lng":23.722291820236695,"url":"https://maps.app.goo.gl/M1LDEQBwqFbK8g7Y6","address":"Αριστείδου Οικονόμου 12, Αθήνα 104 45","categoryIds":["greek-restaurants"],"categories":["Greek Restaurants"],"distanceKm":1.064708670461983},{"id":"dessertsRestaurants_dee89939fc01","slug":"fatto-a-mano-dee8","kind":"restaurant","name":"Fatto a mano","lat":38.01285925597916,"lng":23.69800274614105,"url":"https://maps.app.goo.gl/pLS84iDcmv72Qzqa6?g_st=ipc","address":"Κώστα Βάρναλη 21, Περιστέρι 121 34","categoryIds":["desserts"],"categories":["Dessert Shops"],"distanceKm":1.0795381150893502},{"id":"luxuryDiningRestaurants_0fe20ce95de7","slug":"travolta-athens-0fe2","kind":"restaurant","name":"Travolta Athens","lat":38.005280171628534,"lng":23.702492953168832,"url":"https://maps.app.goo.gl/SyrzTdSeaJcSZMj28?g_st=ipc","address":"Αγίου Παύλου 33, Περιστέρι 121 32","categoryIds":["luxury-dining"],"categories":["Luxury Dining"],"distanceKm":1.0949232921987748},{"id":"coffeeBrunchRestaurants_311880d8c64b","slug":"the-roosters-3118","kind":"restaurant","name":"The Roosters","lat":38.01136673827295,"lng":23.697881523081808,"url":"https://maps.app.goo.gl/4RrZxNGRywBkjvdY7?g_st=ipc","address":"25ης Μαρτίου 7, Περιστέρι 121 32","categoryIds":["coffee-brunch"],"categories":["Coffee & Brunch Spots"],"distanceKm":1.1043090997507943},{"id":"cheapEatsRestaurants_bcddf7ad717f","slug":"wolfie-s-west-side-bcdd","kind":"restaurant","name":"Wolfie’s West Side","lat":38.01077144638466,"lng":23.697740028763043,"url":"https://maps.app.goo.gl/LdnLWyeBqVd2Tcme7?g_st=ipc","address":"Kosta Varnali 6, Peristeri 121 32","categoryIds":["cheap-eats"],"categories":["Gyros & Cheap Eats"],"distanceKm":1.1289075081171114},{"id":"cheapEatsRestaurants_e8ef6d026703","slug":"i-vromiara-the-gourmet-street-food-peristeri-e8ef","kind":"restaurant","name":"Η Βρωμιάρα - The Gourmet Street Food Περιστέρι","lat":38.0121286185235,"lng":23.696851045660715,"url":"https://maps.app.goo.gl/zuoR5Z99oiyHXZs26?g_st=ipc","address":"Λεωφ. Παναγή Τσαλδάρη 16, Περιστέρι 121 34","categoryIds":["cheap-eats"],"categories":["Gyros & Cheap Eats"],"distanceKm":1.1839508306657283},{"id":"coffeeBrunchRestaurants_1af20f440d3d","slug":"farin-moya-farin-moua-1af2","kind":"restaurant","name":"Φαρίν Μουά (Farin Moua)","lat":38.01222147430599,"lng":23.696769307184784,"url":"https://maps.app.goo.gl/JTr1zxCGMeDfbPnm6?g_st=ipc","address":"Ερυθραίας 2, Περιστέρι 121 34","categoryIds":["coffee-brunch"],"categories":["Coffee & Brunch Spots"],"distanceKm":1.190338763675684},{"id":"dessertsRestaurants_d015844307c4","slug":"melissa-define-pastry-d015","kind":"restaurant","name":"Melissa Define Pastry","lat":38.005374786794874,"lng":23.70042813616108,"url":"https://maps.app.goo.gl/2dgPEnwHsxFhZdUv8?g_st=ipc","address":"Εθνάρχου Μακαρίου 43, Περιστέρι 121 31","categoryIds":["desserts"],"categories":["Dessert Shops"],"distanceKm":1.209127828012696},{"id":"dessertsRestaurants_96d806e54fdc","slug":"zacharoplasteia-konstantinidis-96d8","kind":"restaurant","name":"ΖΑΧΑΡΟΠΛΑΣΤΕΙΑ ΚΩΝΣΤΑΝΤΙΝΙΔΗΣ","lat":38.00389002360962,"lng":23.70225603913556,"url":"https://maps.app.goo.gl/41mNPJi23HwsoihK8?g_st=ipc","address":"Εθνάρχου Μακαρίου 17, Περιστέρι 121 31","categoryIds":["desserts"],"categories":["Dessert Shops"],"distanceKm":1.2310426924888005},{"id":"cheapEatsRestaurants_aa9fa501d8da","slug":"billy-s-sandwich-peristeri-billy-s-kantina-aa9f","kind":"restaurant","name":"Billy's sandwich Peristeri (Billy’s Kantina)","lat":38.00300791270127,"lng":23.702770148654015,"url":"https://maps.app.goo.gl/kQSFCYCMduFPwVhw9?g_st=ipc","address":"Π. Μελά 11, Περιστέρι 121 31","categoryIds":["cheap-eats"],"categories":["Gyros & Cheap Eats"],"distanceKm":1.288855998127448},{"id":"asianRestaurants_0fe2688bf847","slug":"shisan-sushi-bar-0fe2","kind":"restaurant","name":"Shisan Sushi Bar","lat":38.01157900293343,"lng":23.695417186581494,"url":"https://maps.app.goo.gl/W1ubxVBTLcx41Yqd8?g_st=ipc","address":"Αιμιλίου Βεάκη 36, Περιστέρι 121 34","categoryIds":["asian"],"categories":["Asian Restaurants"],"distanceKm":1.314928311852968},{"id":"cheapEatsRestaurants_d184e5cf8bc9","slug":"psitopoleio-o-spyros-soyvlakia-d184","kind":"restaurant","name":"Ψητοπωλείο ο Σπύρος Σουβλάκια","lat":38.01699116177091,"lng":23.725453216560837,"url":"https://maps.app.goo.gl/jiHHELBpUtGUfeV87?g_st=ipc","address":"Βικέλα 33, Αθήνα 111 45","categoryIds":["cheap-eats"],"categories":["Gyros & Cheap Eats"],"distanceKm":1.3993107107209408},{"id":"cheapEatsRestaurants_89bd0bf927d5","slug":"soyvlakia-gkoymas-89bd","kind":"restaurant","name":"Σουβλάκια Γκούμας","lat":38.023248902145305,"lng":23.69985643748309,"url":"https://maps.app.goo.gl/cMeAjTZUY1MyiZmPA?g_st=ipc","address":"Μαυρομιχάλη 3, Ίλιον 131 21","categoryIds":["cheap-eats"],"categories":["Gyros & Cheap Eats"],"distanceKm":1.4667747973366494},{"id":"cheapEatsRestaurants_64ecfbc2f3f4","slug":"mayro-alati-64ec","kind":"restaurant","name":"Μαύρο Αλάτι","lat":38.011756038342455,"lng":23.693312637532987,"url":"https://maps.app.goo.gl/WBopamZ7xeysedvt5?g_st=ipc","address":"Αιμιλίου Βεάκη 44, Περιστέρι 121 34","categoryIds":["cheap-eats"],"categories":["Gyros & Cheap Eats"],"distanceKm":1.496324919428742}],"sameRegion":[],"mentionedGuides":[],"canonicalSlug":"malanos-c4da","isCanonicalEntity":true,"enrichment":{"summary_en":"Μαλανος is a curated restaurant in Περιστέρι 121 33 in the Greek Restaurants collection. It is connected to 6 nearby Googlementor picks to help travelers build a stronger local route.","summary_el":"Μαλανος είναι ένα επιλεγμένο σημείο φαγητού στην περιοχή Περιστέρι 121 33 και ανήκει στη συλλογή Greek Restaurants. Συνδέεται με 6 κοντινές προτάσεις του Googlementor για πιο ολοκληρωμένη εμπειρία.","vibe_tags":["curated"],"best_for":["first-time visitors","food lovers"],"visit_moments":["lunch stop","dinner stop"],"practical_note":"Address and direct map link are available for easy turn-by-turn access.","nearby_walkable_count":6,"nearby_count_2km":48,"confidence":0.98}},"__N_SSG":true}