{"pageProps":{"entity":{"id":"wineriesVineyards_69d625490caa","slug":"oinopoieia-papantoni-69d6","kind":"restaurant","name":"Οινοποιεία Παπαντώνη","lat":37.62151973903064,"lng":22.717966668919065,"url":"https://maps.app.goo.gl/8MoiYv6j31NHuYmD9?g_st=ipc","address":"Κανάρη 47, Άργος 212 00","categoryIds":["wineries-vineyards"],"categories":["Wineries & Vineyards"]},"sameCategory":[{"id":"wineriesVineyards_011f8d812c25","slug":"domaine-skouras-ktima-skoyra-o-a-e-011f","kind":"restaurant","name":"DOMAINE SKOURAS / ΚΤΗΜΑ ΣΚΟΥΡΑ Ο.Α.Ε.","lat":37.689635245473845,"lng":22.65473621335941,"url":"https://maps.app.goo.gl/xuRduiD32C9WJMTL8?g_st=ipc","address":"Argous - Sternas Rd (10th Km), Malandreni, Άργος 212 00","categoryIds":["wineries-vineyards"],"categories":["Wineries & Vineyards"]},{"id":"wineriesVineyards_88afc94904f1","slug":"karamitsos-winery-88af","kind":"restaurant","name":"Karamitsos Winery","lat":37.8058034996967,"lng":22.666146923082234,"url":"https://maps.app.goo.gl/97nmfFmuN9mMotwW7?g_st=ipc","address":"Θέση Μπογάζι, Νεμέα 205 00","categoryIds":["wineries-vineyards"],"categories":["Wineries & Vineyards"]},{"id":"wineriesVineyards_b1e6778656c1","slug":"ktima-bairaktaris-b1e6","kind":"restaurant","name":"Ktima Bairaktaris","lat":37.809706199473894,"lng":22.66496992803815,"url":"https://maps.app.goo.gl/DHUmZNYmY1jciDqK9?g_st=ipc","address":"Ελ. Βενιζέλου 83, Νεμέα 205 00","categoryIds":["wineries-vineyards"],"categories":["Wineries & Vineyards"]},{"id":"wineriesVineyards_02d00923574f","slug":"lafazanis-winery-02d0","kind":"restaurant","name":"Lafazanis Winery","lat":37.81366330913366,"lng":22.765441857507405,"url":"https://maps.app.goo.gl/A2t4w3k9kTA2cB6j9?g_st=ipc","address":"Θέση Κεφαλάρι, Αρχαίες Κλεωνές 205 00","categoryIds":["wineries-vineyards"],"categories":["Wineries & Vineyards"]},{"id":"wineriesVineyards_239a4e029aee","slug":"venikos-wine-window-wine-tours-tastings-239a","kind":"restaurant","name":"Venikos Wine Window, Wine Tours & Tastings","lat":37.821663923892565,"lng":22.663321715457876,"url":"https://maps.app.goo.gl/ZMmJXxpaMciuZeCj6?g_st=ipc","address":"Plateia Iroon 3, Νεμέα 205 00","categoryIds":["wineries-vineyards"],"categories":["Wineries & Vineyards"]},{"id":"wineriesVineyards_44279fa455a5","slug":"gaia-winery-nemea-4427","kind":"restaurant","name":"Gaia Winery Nemea","lat":37.85612300690931,"lng":22.670580052988402,"url":"https://maps.app.goo.gl/ZgmCy9JQ7Vrkbz1r9?g_st=ipc","address":"Κούτσι 205 00","categoryIds":["wineries-vineyards"],"categories":["Wineries & Vineyards"]},{"id":"wineriesVineyards_b00a536153f6","slug":"semeli-estate-ktima-semeli-b00a","kind":"restaurant","name":"Semeli Estate | Κτήμα Σεμέλη","lat":37.87119800007677,"lng":22.67941642720224,"url":"https://maps.app.goo.gl/zETqXnjPfU3pMwmA8?g_st=ipc","address":"Επαρ.Οδ. Κιάτου - Νεμέας, Κούτσι 205 00","categoryIds":["wineries-vineyards"],"categories":["Wineries & Vineyards"]},{"id":"wineriesVineyards_b3c21913429a","slug":"oinopoieio-troypi-troupis-winery-b3c2","kind":"restaurant","name":"Οινοποιείο Τρουπή - Troupis Winery","lat":37.578821168768364,"lng":22.391134196287375,"url":"https://maps.app.goo.gl/y97jAfhSNsjXAtQt7?g_st=ipc","address":"Μηλιά, Μηλιά Τριπόλεως 221 00","categoryIds":["wineries-vineyards"],"categories":["Wineries & Vineyards"]},{"id":"wineriesVineyards_2941ab0a3cb2","slug":"ktima-spyropoylos-2941","kind":"restaurant","name":"Κτήμα Σπυρόπουλος","lat":37.63241805452202,"lng":22.386158704913175,"url":"https://maps.app.goo.gl/yaMLQMfuQx4GhqbF7?g_st=ipc","address":"Μαντινεία 221 00","categoryIds":["wineries-vineyards"],"categories":["Wineries & Vineyards"]},{"id":"wineriesVineyards_c0074db8c133","slug":"ktima-tselepoy-c007","kind":"restaurant","name":"Κτήμα Τσέλεπου","lat":37.42938401315253,"lng":22.489743084074338,"url":"https://maps.app.goo.gl/q5QDiSUHfETbAsfo9?g_st=ipc","address":"14th klm. Tripolis - Kastri Road, Rizes, Arcadia 220 12","categoryIds":["wineries-vineyards"],"categories":["Wineries & Vineyards"]},{"id":"wineriesVineyards_542024b64466","slug":"ktima-papargyrioy-5420","kind":"restaurant","name":"Κτήμα Παπαργυρίου","lat":38.018936342010846,"lng":22.689015035366058,"url":"https://maps.app.goo.gl/CGseBU489tpRFbra7?g_st=ipc","address":"Lalioti Corinthias, Κιάτο 202 00","categoryIds":["wineries-vineyards"],"categories":["Wineries & Vineyards"]},{"id":"wineriesVineyards_f80526daec5c","slug":"oinopoieio-tetramythos-f805","kind":"restaurant","name":"Οινοποιείο Τετράμυθος","lat":38.13861434975287,"lng":22.235631269922283,"url":"https://maps.app.goo.gl/n9FxLvDHw2tR949F6?g_st=ipc","address":"8ο ΧΛΜ ΕΠΑΡΧΙΑΚΗΣ ΟΔΟΥ, Επαρ.Οδ. Πούντας - Καλαβρύτων, Άνω Διακοπτό 250 03","categoryIds":["wineries-vineyards"],"categories":["Wineries & Vineyards"]}],"nearby":[{"id":"municipalities_c660ac4fbaed","slug":"argos-c660","kind":"municipality","name":"Άργος","lat":37.6333,"lng":22.7333,"aliases":["Argos","Argos city","Άργη","Αργε","Αργος"],"region":"Αργολίδα","name_en":"Argos","region_en":"Argolis","distanceKm":1.881299762037282},{"id":"mustSeeAttractions_280c2fbdfcc2","slug":"tiryntha-280c","kind":"restaurant","name":"Τίρυνθα","lat":37.596581091934894,"lng":22.800009234306064,"url":"https://maps.app.goo.gl/qq546eKqcWFHVGyWA?g_st=ipc","address":"Tirintha 211 00","categoryIds":["attractions"],"categories":["Must-See Attractions"],"distanceKm":7.740715966224911},{"id":"luxuryDiningRestaurants_23db0e41115a","slug":"valaora-resto-nafplio-23db","kind":"restaurant","name":"Valaora Resto Nafplio","lat":37.56519719151896,"lng":22.793079460983854,"url":"https://maps.app.goo.gl/9jUDwjniZiSHynrk9?g_st=ipc","address":"Mpanieres, Boumpoulinas, Nafplio 211 00","categoryIds":["luxury-dining"],"categories":["Luxury Dining"],"distanceKm":9.111493150945194},{"id":"dessertsRestaurants_b80c1e7de6b5","slug":"antica-gelateria-di-roma-b80c","kind":"restaurant","name":"Antica Gelateria di Roma","lat":37.566618037126396,"lng":22.79578874005151,"url":"https://maps.app.goo.gl/VdKWZXmCT7JTwu2Z8?g_st=ipc","address":"3 Pharmakopoulou and Komninou, Ναύπλιο 211 00","categoryIds":["desserts"],"categories":["Dessert Shops"],"distanceKm":9.18046229543818},{"id":"mustSeeAttractions_c7dd65dae274","slug":"kastro-akronayplias-c7dd","kind":"restaurant","name":"Κάστρο Ακροναυπλίας","lat":37.56407670573787,"lng":22.793195253729316,"url":"https://maps.app.goo.gl/DkbZi8R48n8E7Qu76?g_st=ipc","address":"Άγγελου Τερζάκη 25, Ναύπλιο 211 00","categoryIds":["attractions"],"categories":["Must-See Attractions"],"distanceKm":9.20495617483671},{"id":"greekRestaurants_742eabdb9109","slug":"to-teloneio-742e","kind":"restaurant","name":"Το Τελωνείο","lat":37.56743155679151,"lng":22.79708632929498,"url":"https://maps.app.goo.gl/nh7yb45ifREfXwro7?g_st=ipc","address":"Ακτής Μιαούλη 83, Ναύπλιο 211 00","categoryIds":["greek-restaurants"],"categories":["Greek Restaurants"],"distanceKm":9.206785059546865},{"id":"italianRestaurants_62cf2e5c270d","slug":"la-gratella-62cf","kind":"restaurant","name":"La Gratella","lat":37.56708420040735,"lng":22.796775177187325,"url":"https://maps.app.goo.gl/wA9xzqnbmvvq1Bqo8?g_st=ipc","address":"Vasilissis Olgas, Nafplio 211 00","categoryIds":["italian"],"categories":["Italian Restaurants"],"distanceKm":9.211392882243807},{"id":"italianRestaurants_0d133bb8af27","slug":"itria-cucina-italiana-restaurant-0d13","kind":"restaurant","name":"ITRIA Cucina Italiana Restaurant","lat":37.567386909343334,"lng":22.797290266729004,"url":"https://maps.app.goo.gl/HHmGQxRgnuihmTyY7?g_st=ipc","address":"Boumpoulinas 81, Nafplio 211 00","categoryIds":["italian"],"categories":["Italian Restaurants"],"distanceKm":9.223637484331459},{"id":"luxuryDiningRestaurants_e6807e074ed0","slug":"wild-duck-e680","kind":"restaurant","name":"Wild Duck","lat":37.56734308437463,"lng":22.797850601824372,"url":"https://maps.app.goo.gl/3WVLVVZ3Za8oDxQz6?g_st=ipc","address":"Boumpoulinas 67, Nafplio 211 00","categoryIds":["luxury-dining"],"categories":["Luxury Dining"],"distanceKm":9.264269937398364},{"id":"wineriesVineyards_011f8d812c25","slug":"domaine-skouras-ktima-skoyra-o-a-e-011f","kind":"restaurant","name":"DOMAINE SKOURAS / ΚΤΗΜΑ ΣΚΟΥΡΑ Ο.Α.Ε.","lat":37.689635245473845,"lng":22.65473621335941,"url":"https://maps.app.goo.gl/xuRduiD32C9WJMTL8?g_st=ipc","address":"Argous - Sternas Rd (10th Km), Malandreni, Άργος 212 00","categoryIds":["wineries-vineyards"],"categories":["Wineries & Vineyards"],"distanceKm":9.399532617240965},{"id":"italianRestaurants_74b63c612882","slug":"il-porto-74b6","kind":"restaurant","name":"Il Porto","lat":37.56732416244355,"lng":22.800888651268885,"url":"https://maps.app.goo.gl/vWaWFumGBn6ey64P6?g_st=ipc","address":"Μπουμπουλίνας 43, Ναύπλιο 211 00","categoryIds":["italian"],"categories":["Italian Restaurants"],"distanceKm":9.470559884348456},{"id":"cheapEatsRestaurants_2ea89cfd165d","slug":"stavropoulos-meat-grill-nafplio-2ea8","kind":"restaurant","name":"Stavropoulos Meat & Grill Nafplio","lat":37.56729472413989,"lng":22.801012947686594,"url":"https://maps.app.goo.gl/iaJ7WLVkfAWX8uMY7?g_st=ipc","address":"Μπουμπουλίνας 43, Ναύπλιο 211 00","categoryIds":["cheap-eats"],"categories":["Gyros & Cheap Eats"],"distanceKm":9.481092984805048},{"id":"cheapEatsRestaurants_af2ed2b481d6","slug":"trendy-grill-limani-nayplioy-af2e","kind":"restaurant","name":"Trendy Grill Λιμάνι Ναυπλίου","lat":37.56727361524451,"lng":22.801083825814366,"url":"https://maps.app.goo.gl/9EusCQot9r26ZXTs5?g_st=ipc","address":"Μπουμπουλίνας 41, Ναύπλιο 211 00","categoryIds":["cheap-eats"],"categories":["Gyros & Cheap Eats"],"distanceKm":9.48740596965608},{"id":"municipalities_6a56a10792f1","slug":"nayplio-6a56","kind":"municipality","name":"Ναύπλιο","lat":37.567,"lng":22.801,"aliases":["Nafplio","Nauplia","Ναυπλία","Ναυπλίων","Ναυπλιο","Ναυπλια"],"region":"Αργολίδα","name_en":"Nafplio","region_en":"Argolis","distanceKm":9.501100801462476},{"id":"greekRestaurants_7230005d3481","slug":"skarpeta-skarpeta-7230","kind":"restaurant","name":"Σκαρπέτα | Skarpeta","lat":37.56454091062987,"lng":22.80102416836778,"url":"https://maps.app.goo.gl/y1tbJ7Ka9yN8RJXn7?g_st=ipc","address":"Πάρκο, Σταϊκοπούλου, Ναύπλιο 211 00","categoryIds":["greek-restaurants"],"categories":["Greek Restaurants"],"distanceKm":9.679563683218753},{"id":"coffeeBrunchRestaurants_4eafd9c8fe54","slug":"ar-ko-4eaf","kind":"restaurant","name":"Ar&Ko","lat":37.565832099209665,"lng":22.80288803557191,"url":"https://maps.app.goo.gl/VsqimzGRSLvrL3FN7?g_st=ipc","address":"Πάρκο Κολοκοτρώνη, Vasileos Pavlou, Nafplio 211 00","categoryIds":["coffee-brunch"],"categories":["Coffee & Brunch Spots"],"distanceKm":9.712093597270792},{"id":"rooftopLoungesRestaurants_3af9241259c9","slug":"liberty-view-of-nafplio-3af9","kind":"restaurant","name":"Liberty View Of Nafplio","lat":37.56620313105519,"lng":22.806200235013893,"url":"https://maps.app.goo.gl/rQCJ25nGMgqPtznc9?g_st=ipc","address":"Σιδηράς Μεραρχίας 39, Ναύπλιο 211 00","categoryIds":["rooftop-lounges"],"categories":["Rooftop Lounges"],"distanceKm":9.912986560712046},{"id":"coffeeBrunchRestaurants_1d9f7f941901","slug":"liberty-view-of-nafplio-1d9f","kind":"restaurant","name":"Liberty View Of Nafplio","lat":37.56620305969031,"lng":22.806201213990434,"url":"https://maps.app.goo.gl/ZB4UYRxyx55zXBkS9?g_st=ipc","address":"Sidiras Merarchias 39, Nafplio 211 00","categoryIds":["coffee-brunch"],"categories":["Coffee & Brunch Spots"],"distanceKm":9.913059128757416},{"id":"greekRestaurants_0e937f9c9d72","slug":"pidalio-restaurant-0e93","kind":"restaurant","name":"Πηδάλιο -Restaurant","lat":37.56488349870354,"lng":22.8061371647206,"url":"https://maps.app.goo.gl/gpipbAd1f2YeqATv9?g_st=ipc","address":"25ης Μαρτίου 5, Ναύπλιο 211 00","categoryIds":["greek-restaurants"],"categories":["Greek Restaurants"],"distanceKm":10.000433362204813},{"id":"mustSeeAttractions_17b8ded02742","slug":"froyrio-palamidioy-17b8","kind":"restaurant","name":"Φρούριο Παλαμηδίου","lat":37.562018953170636,"lng":22.803816386211206,"url":"https://maps.app.goo.gl/JVvCKFqv1vyzhKAP7?g_st=ipc","address":"Παλαμηδίου, Ναύπλιο 211 00","categoryIds":["attractions"],"categories":["Must-See Attractions"],"distanceKm":10.049334885015657},{"id":"mustSeeAttractions_6da28e1f03a6","slug":"mykines-6da2","kind":"restaurant","name":"Μυκήνες","lat":37.719549554552074,"lng":22.745771038100788,"url":"https://maps.app.goo.gl/wvmKvmFpppdNJFd78?g_st=ipc","address":"Μυκήνες 212 00","categoryIds":["attractions"],"categories":["Must-See Attractions"],"distanceKm":11.171745931671998},{"id":"greekRestaurants_22138bcb321f","slug":"taverna-kokoromytis-2213","kind":"restaurant","name":"Ταβέρνα Κοκορομύτης","lat":37.57233337813603,"lng":22.83006926532932,"url":"https://maps.app.goo.gl/BSHNHo6Xw2QuP8Kw5?g_st=ipc","address":"Μουσών, Άρια 211 00","categoryIds":["greek-restaurants"],"categories":["Greek Restaurants"],"distanceKm":11.289727754236313},{"id":"mustSeeAttractions_fdd5af362f6e","slug":"archaiologikoy-choroy-mykinon-fdd5","kind":"restaurant","name":"Αρχαιολογικού Χώρου Μυκηνών","lat":37.73086788150969,"lng":22.75613319936325,"url":"https://maps.app.goo.gl/BqhWK8uyZVNjhnRG8?g_st=ipc","address":"Μυκήνες 212 00","categoryIds":["attractions"],"categories":["Must-See Attractions"],"distanceKm":12.614394666452982},{"id":"greekRestaurants_730d57299d9e","slug":"t-alonia-paradosiaki-elliniki-taverna-730d","kind":"restaurant","name":"«Τ' ΑΛΩΝΙΑ» Παραδοσιακή Ελληνική Ταβέρνα","lat":37.5821792332292,"lng":22.878688681857938,"url":"https://maps.app.goo.gl/NA8tRJoQnezLcqzT6?g_st=ipc","address":"Γεωρ. Γεννηματά 8, Πυργιώτικα 211 00","categoryIds":["greek-restaurants"],"categories":["Greek Restaurants"],"distanceKm":14.819379739664772}],"sameRegion":[],"mentionedGuides":[],"canonicalSlug":"oinopoieia-papantoni-69d6","isCanonicalEntity":true,"enrichment":{"summary_en":"Οινοποιεία Παπαντώνη is a curated restaurant in Άργος 212 00 in the Wineries & Vineyards collection. It is connected to 0 nearby Googlementor picks to help travelers build a stronger local route.","summary_el":"Οινοποιεία Παπαντώνη είναι ένα επιλεγμένο σημείο φαγητού στην περιοχή Άργος 212 00 και ανήκει στη συλλογή Wineries & Vineyards. Συνδέεται με 0 κοντινές προτάσεις του Googlementor για πιο ολοκληρωμένη εμπειρία.","vibe_tags":["curated","wine-moment"],"best_for":["first-time visitors","food lovers"],"visit_moments":["lunch stop","dinner stop"],"practical_note":"Address and direct map link are available for easy turn-by-turn access.","nearby_walkable_count":0,"nearby_count_2km":1,"confidence":0.9}},"__N_SSG":true}