{"pageProps":{"entity":{"id":"burgersRestaurants_8a735b95eb4f","slug":"paul-s-burger-8a73","kind":"restaurant","name":"Paul’s Burger","lat":40.59788362738132,"lng":22.95216160608432,"url":"https://maps.app.goo.gl/9L8fryr5EiA3D5rR9?g_st=ipc","address":"Geor. Papandreou 38, Thessaloniki 546 46","categoryIds":["burgers","cheap-eats"],"categories":["Burger Spots","Gyros & Cheap Eats"],"legacySlugs":["paul-s-burger-a56a"]},"sameCategory":[{"id":"burgersRestaurants_c2797cbf1cc8","slug":"jacaranda-c279","kind":"restaurant","name":"Jacaranda","lat":40.583007556132294,"lng":22.982557958626895,"url":"https://maps.app.goo.gl/1GxBYUFXBeTUU8iq6?g_st=ipc","address":"Στέλιου Καζαντζίδη 24, Pilea 555 35","categoryIds":["burgers","cheap-eats"],"categories":["Burger Spots","Gyros & Cheap Eats"],"legacySlugs":["jacaranda-05fa"]},{"id":"burgersRestaurants_8f11f76e2e42","slug":"maverick-handmade-street-food-8f11","kind":"restaurant","name":"MAVERICK Handmade Street Food","lat":40.5733294711661,"lng":22.971759802516267,"url":"https://maps.app.goo.gl/Bc8D8iLK2oBQoFcm8?g_st=ipc","address":"Eth. Antistaseos 179, Kalamaria 551 34","categoryIds":["burgers","cheap-eats"],"categories":["Burger Spots","Gyros & Cheap Eats"],"legacySlugs":["maverick-handmade-street-food-77c2"]},{"id":"burgersRestaurants_0c007445e9cc","slug":"balboa-thessaloniki-0c00","kind":"restaurant","name":"Balboa Thessaloniki","lat":40.631911246314864,"lng":22.947511059222414,"url":"https://maps.app.goo.gl/Lys3ApFbCS6C7HCt8","address":"P. Mela 42, Thessaloniki 546 22","categoryIds":["burgers","cheap-eats"],"categories":["Burger Spots","Gyros & Cheap Eats"],"legacySlugs":["balboa-thessaloniki-bd4c"]},{"id":"burgersRestaurants_54aa085a6ef8","slug":"sinners-smash-burgers-54aa","kind":"restaurant","name":"Sinners Smash Burgers","lat":40.57608642412674,"lng":22.98935981589618,"url":"https://maps.app.goo.gl/Y2NDJtMWMoJrutpZ6?g_st=ipc","address":"Στέλιου Καζαντζίδη 31, Pilea 555 35","categoryIds":["burgers","cheap-eats"],"categories":["Burger Spots","Gyros & Cheap Eats"],"legacySlugs":["sinners-smash-burgers-e79f"]},{"id":"burgersRestaurants_c3d0c3efec16","slug":"ohmami-street-food-thessaloniki-c3d0","kind":"restaurant","name":"Ohmami - Street Food / Thessaloniki","lat":40.63556199320903,"lng":22.947562092920837,"url":"https://maps.app.goo.gl/NzN9wf8WYr2rjWbd7","address":"Patriarchoi Dionisii E 1, Thessaloniki 546 31","categoryIds":["burgers","cheap-eats"],"categories":["Burger Spots","Gyros & Cheap Eats"],"legacySlugs":["ohmami-street-food-thessaloniki-b6d7"]},{"id":"burgersRestaurants_7709ed422386","slug":"raw-street-burger-thessaloniki-7709","kind":"restaurant","name":"Raw Street Burger - Thessaloniki","lat":40.6360216575253,"lng":22.93735358036402,"url":"https://maps.app.goo.gl/8jf35cPRudvWnsoP7?g_st=ipc","address":"Politechniou 53, Thessaloniki 546 25","categoryIds":["burgers","cheap-eats"],"categories":["Burger Spots","Gyros & Cheap Eats"],"legacySlugs":["raw-street-burger-thessaloniki-a3ea"]},{"id":"burgersRestaurants_d27855febf5e","slug":"cantina-manara-d278","kind":"restaurant","name":"Cantina Manara","lat":40.6371113197463,"lng":22.93922534676657,"url":"https://maps.app.goo.gl/51NLWv682h6DK989A?g_st=ipc","address":"Στοά, Ermou 1, Thessaloniki 546 25","categoryIds":["burgers","cheap-eats"],"categories":["Burger Spots","Gyros & Cheap Eats"],"legacySlugs":["cantina-manara-3308"]},{"id":"burgersRestaurants_90d16bd5f050","slug":"pratina-burger-project-90d1","kind":"restaurant","name":"PRATINA Burger Project","lat":40.63713764523389,"lng":22.937597600102066,"url":"https://maps.app.goo.gl/rE8kgxhDvdzbh9hw7","address":"Veroias 5, Thessaloniki 546 25","categoryIds":["burgers","cheap-eats"],"categories":["Burger Spots","Gyros & Cheap Eats"],"legacySlugs":["pratina-burger-project-47ac"]},{"id":"burgersRestaurants_e6cca423021b","slug":"rookie-skg-e6cc","kind":"restaurant","name":"Rookie.skg","lat":40.66725084444489,"lng":22.911546340289146,"url":"https://maps.app.goo.gl/UbXbrxK1VEFkvDdp7?g_st=ipc","address":"P. Mela 28, Evosmos 562 24","categoryIds":["burgers","cheap-eats"],"categories":["Burger Spots","Gyros & Cheap Eats"],"legacySlugs":["rookie-skg-91f7"]},{"id":"burgersRestaurants_4060fc5be247","slug":"maestro-cantina-4060","kind":"restaurant","name":"Maestro Cantina","lat":40.539870288194706,"lng":23.0207573353921,"url":"https://maps.app.goo.gl/WJTaYcJdPxACzwkXA?g_st=ipc","address":"EO Thessalonikis Poligirou 32, Thermi 570 01","categoryIds":["burgers","cheap-eats"],"categories":["Burger Spots","Gyros & Cheap Eats"],"legacySlugs":["maestro-cantina-5ff9"]},{"id":"burgersRestaurants_d1dcd32d4d8e","slug":"stivos-burger-steak-d1dc","kind":"restaurant","name":"STIVOS BURGER & STEAK","lat":40.669593987579994,"lng":22.91138406394072,"url":"https://maps.app.goo.gl/7TUUVwTEcxqLX9347?g_st=ipc","address":"Ευαγγελισμού της Θεοτόκου 43, Evosmos 562 24","categoryIds":["burgers","cheap-eats"],"categories":["Burger Spots","Gyros & Cheap Eats"],"legacySlugs":["stivos-burger-steak-c884"]},{"id":"burgersRestaurants_2c0faaef9d53","slug":"holy-smoke-bbq-streetfood-2c0f","kind":"restaurant","name":"Holy Smoke BBQ Streetfood","lat":40.846110747356505,"lng":25.87110606697465,"url":"https://maps.app.goo.gl/QRyzxeSuPPkZ7om56?g_st=ipc","address":"Eth. Antistaseos 136, Alexandroupoli 681 00","categoryIds":["burgers","cheap-eats"],"categories":["Burger Spots","Gyros & Cheap Eats"],"legacySlugs":["holy-smoke-bbq-streetfood-b910"]}],"nearby":[{"id":"greekRestaurants_f3f4dd42dcb0","slug":"rinokeros-f3f4","kind":"restaurant","name":"Rinókeros","lat":40.59858749847681,"lng":22.9516822591396,"url":"https://maps.app.goo.gl/6Kk5vxpU7Goxr2Zq7?g_st=ipc","address":"25is Martiou 2, Thessaloniki 546 46","categoryIds":["greek-restaurants"],"categories":["Greek Restaurants"],"distanceKm":0.0881113189782936},{"id":"vegetarianRestaurants_02c8bc386448","slug":"falafeleria-02c8","kind":"restaurant","name":"Falafeleria","lat":40.5988199696969,"lng":22.95250846403434,"url":"https://maps.app.goo.gl/snuFukejKVaEqQ597?g_st=ipc","address":"25is Martiou 14, Thessaloniki 546 46","categoryIds":["vegetarian"],"categories":["Vegetarian Friendly Restaurants"],"distanceKm":0.10815662882729848},{"id":"cheapEatsRestaurants_811c63bc08c5","slug":"devido-811c","kind":"restaurant","name":"Devido","lat":40.599230791467505,"lng":22.95314409507896,"url":"https://maps.app.goo.gl/2EFX2fMBPiwhmmAv5?g_st=ipc","address":"25is Martiou 17, Thessaloniki 546 45","categoryIds":["cheap-eats"],"categories":["Gyros & Cheap Eats"],"distanceKm":0.1712313361973508},{"id":"cheapEatsRestaurants_7caa0b61c60c","slug":"o-giros-tis-ellados-7caa","kind":"restaurant","name":"O Giros Tis Ellados","lat":40.59770145420411,"lng":22.9555911779157,"url":"https://maps.app.goo.gl/dfbEJidizuzLLALq8?g_st=ipc","address":"Leof. Vasilissis Olgas 176, Thessaloniki 546 46","categoryIds":["cheap-eats"],"categories":["Gyros & Cheap Eats"],"distanceKm":0.29026611325675955},{"id":"greekRestaurants_5420cd09afd9","slug":"taverna-kronos-5420","kind":"restaurant","name":"Ταβέρνα Κρόνος","lat":40.59744980216976,"lng":22.955600566420387,"url":"https://maps.app.goo.gl/GJFXXJsfLXcf12tg7?g_st=ipc","address":"Β.Όλγας 178, & Γ. Βαφοπούλου 30, Θεσσαλονίκη 546 46","categoryIds":["greek-restaurants"],"categories":["Greek Restaurants"],"distanceKm":0.294331603160211},{"id":"greekRestaurants_e11b69a9f4fc","slug":"koronis-e11b","kind":"restaurant","name":"Κορωνίς","lat":40.59688587335896,"lng":22.955410845086725,"url":"https://maps.app.goo.gl/Kyh1q1o7596jHSuu9?g_st=ipc","address":"Θεμιστοκλή Σοφούλη 4, Θεσσαλονίκη 546 46","categoryIds":["greek-restaurants"],"categories":["Greek Restaurants"],"distanceKm":0.29591943964788947},{"id":"greekRestaurants_c2f14c425e63","slug":"alatorigani-c2f1","kind":"restaurant","name":"Αλατορίγανη","lat":40.60015243009011,"lng":22.95443250325129,"url":"https://maps.app.goo.gl/8H2pummkPQFjon5o8?g_st=ipc","address":"Λεωφ. Βασιλίσσης Όλγας 177, Θεσσαλονίκη 546 45","categoryIds":["greek-restaurants"],"categories":["Greek Restaurants"],"distanceKm":0.3168667574796846},{"id":"luxuryDiningRestaurants_aa49ab401c78","slug":"opsopoion-maganeiai-aa49","kind":"restaurant","name":"Opsopoion Maganeiai","lat":40.59504961870734,"lng":22.950911901497957,"url":"https://maps.app.goo.gl/bY2dGZAgk6wxVc1e9?g_st=ipc","address":"Komotinis 6, Thessaloniki 546 55","categoryIds":["luxury-dining"],"categories":["Luxury Dining"],"distanceKm":0.3323230150509028},{"id":"greekRestaurants_caf46d3ae170","slug":"mpachtses-caf4","kind":"restaurant","name":"Μπαχτσές","lat":40.59735406643829,"lng":22.956242795320843,"url":"https://maps.app.goo.gl/24benajDUQutZUA78?g_st=ipc","address":"Λεωφ. Βασιλίσσης Όλγας 211, Θεσσαλονίκη 546 46","categoryIds":["greek-restaurants"],"categories":["Greek Restaurants"],"distanceKm":0.34957049548430064},{"id":"dessertsRestaurants_1eb1d7d0a39b","slug":"trigona-elenidis-antheon-1eb1","kind":"restaurant","name":"Τρίγωνα Ελενίδης (Ανθέων)","lat":40.601144746020374,"lng":22.95082783427097,"url":"https://maps.app.goo.gl/f4c7NqVni4s54aXE6?g_st=ipc","address":"Geor. Papandreou 6, Thessaloniki 546 45","categoryIds":["desserts"],"categories":["Dessert Shops"],"distanceKm":0.37970194139502206},{"id":"rooftopLoungesRestaurants_1533c10141a1","slug":"allegro-1533","kind":"restaurant","name":"Allegro","lat":40.597207319655574,"lng":22.9475710644147,"url":"https://maps.app.goo.gl/JPyojcjpAj6bXV746?g_st=ipc","address":"25 Martiou & Coastal Road, Thessaloniki 546 46","categoryIds":["rooftop-lounges"],"categories":["Rooftop Lounges"],"distanceKm":0.3948087245468649},{"id":"coffeeBrunchRestaurants_b086083463ae","slug":"join-juice-bars-b086","kind":"restaurant","name":"JOIN juice bars","lat":40.60107511267006,"lng":22.949804539088774,"url":"https://maps.app.goo.gl/LQXcNjB3LwE4q56r7?g_st=ipc","address":"Marias Kallas 1, Thessaloniki 546 45","categoryIds":["coffee-brunch","vegetarian"],"categories":["Coffee & Brunch Spots","Vegetarian Friendly Restaurants"],"legacySlugs":["join-juice-bars-124c"],"distanceKm":0.40686537138852163},{"id":"asianRestaurants_0af7fecfc049","slug":"asian-house-0af7","kind":"restaurant","name":"Asian House","lat":40.6013142217221,"lng":22.95026357792361,"url":"https://maps.app.goo.gl/cFAfVvor8tZQsjbz6?g_st=ipc","address":"Koromila 3, Thessaloniki 546 45","categoryIds":["asian"],"categories":["Asian Restaurants"],"distanceKm":0.41375607507008794},{"id":"dessertsRestaurants_f84ed009af83","slug":"terkenlis-f84e","kind":"restaurant","name":"Terkenlis","lat":40.59488849299692,"lng":22.956363253741753,"url":"https://maps.app.goo.gl/xBak2d9JxbKxQpz57?g_st=ipc","address":"Leof. Vasilissis Olgas 235, Thessaloniki 546 55","categoryIds":["desserts"],"categories":["Dessert Shops"],"distanceKm":0.4865873455574764},{"id":"cheapEatsRestaurants_0368efbccc32","slug":"grill-junior-0368","kind":"restaurant","name":"Grill Junior","lat":40.60286928963285,"lng":22.956953349868357,"url":"https://maps.app.goo.gl/KmNipqE8jJT8qrZ17?g_st=ipc","address":"Thermopilon 31, Thessaloniki 542 48","categoryIds":["cheap-eats"],"categories":["Gyros & Cheap Eats"],"distanceKm":0.6862936320919933},{"id":"cheapEatsRestaurants_7eb356f33485","slug":"subito-7eb3","kind":"restaurant","name":"subito","lat":40.6000123876882,"lng":22.959807900547272,"url":"https://maps.app.goo.gl/hJJxUbRut66xbMFs5?g_st=ipc","address":"Delfon 145, Thessaloniki 542 48","categoryIds":["cheap-eats"],"categories":["Gyros & Cheap Eats"],"distanceKm":0.6875930664412151},{"id":"greekRestaurants_d690428e2039","slug":"nea-diagonios-d690","kind":"restaurant","name":"Nea Diagonios","lat":40.59234555425419,"lng":22.94797192954155,"url":"https://maps.app.goo.gl/TtmMpqEMxkewPb8G9?g_st=ipc","address":"Themistokli Sofouli 64Α, Thessaloniki 546 55","categoryIds":["greek-restaurants"],"categories":["Greek Restaurants"],"distanceKm":0.7101790917903438},{"id":"dessertsRestaurants_8b22dff88156","slug":"alfa-ice-cream-cafe-8b22","kind":"restaurant","name":"Alfa Ice-Cream Cafe","lat":40.60099594467994,"lng":22.959526782313244,"url":"https://maps.app.goo.gl/tbZTnf9V3BccEmubA?g_st=ipc","address":"Delfon 143, Thessaloniki 546 46","categoryIds":["desserts"],"categories":["Dessert Shops"],"distanceKm":0.7116420980300662},{"id":"asianRestaurants_e9c045aff53d","slug":"sushaki-greek-sushi-experience-e9c0","kind":"restaurant","name":"Sushaki | Greek Sushi Experience","lat":40.60428165420744,"lng":22.954061100104322,"url":"https://maps.app.goo.gl/Tfd55EpuS182EpUw7","address":"Petrou Sindika 11, Thessaloniki 546 43","categoryIds":["asian"],"categories":["Asian Restaurants"],"distanceKm":0.7292786129953738},{"id":"coffeeBrunchRestaurants_346744718646","slug":"thegia-more-than-a-bakery-3467","kind":"restaurant","name":"ΘΕΓΙΑ more than a bakery","lat":40.59152214019956,"lng":22.948474846251315,"url":"https://maps.app.goo.gl/Rk9qKb5jkoYV7x6HA?g_st=ipc","address":"Themistokli Sofouli 65, Kalamaria 551 31","categoryIds":["coffee-brunch"],"categories":["Coffee & Brunch Spots"],"distanceKm":0.7728292737203301},{"id":"municipalities_8679714322fe","slug":"martioy-8679","kind":"municipality","name":"Μαρτίου","lat":40.6024,"lng":22.9596,"region":"Θεσσαλονίκη","name_en":"Martiou","region_en":"Thessaloniki","distanceKm":0.8041067003198458},{"id":"coffeeBrunchRestaurants_b83fc8a35279","slug":"byrek-b83f","kind":"restaurant","name":"Byrek","lat":40.604437611308434,"lng":22.958000236614392,"url":"https://maps.app.goo.gl/hxd33pfTMwrTNJ6K6?g_st=ic","address":"Petrou Sindika 46, Thessaloniki 542 48","categoryIds":["coffee-brunch"],"categories":["Coffee & Brunch Spots"],"distanceKm":0.8798213077591559},{"id":"dessertsRestaurants_715ce072dcab","slug":"chatzi-715c","kind":"restaurant","name":"Chatzi","lat":40.590808607832805,"lng":22.947461000377523,"url":"https://maps.app.goo.gl/aPDKbL8fF37cA1M1A?g_st=ipc","address":"ΘΕΜΙΣΤΟΚΛΗ ΣΟΦΟΥΛΗ 73, Argonafton 2, Kalamaria 551 31","categoryIds":["desserts"],"categories":["Dessert Shops"],"distanceKm":0.8811527398935791},{"id":"luxuryDiningRestaurants_6c2f9d989a6a","slug":"shark-bar-restaurant-thessaloniki-6c2f","kind":"restaurant","name":"SHARK Bar | Restaurant - Thessaloniki","lat":40.59118558847925,"lng":22.946520720029824,"url":"https://maps.app.goo.gl/gugoZEiFmeixR8B67?g_st=ipc","address":"Argonafton 2, Kalamaria 551 31","categoryIds":["luxury-dining"],"categories":["Luxury Dining"],"distanceKm":0.8840555840812148}],"sameRegion":[],"mentionedGuides":[],"canonicalSlug":"paul-s-burger-8a73","isCanonicalEntity":false,"enrichment":{"summary_en":"Paul’s Burger is a curated restaurant in Thessaloniki 546 46 in the Burger Spots collection. It is connected to 20 nearby Googlementor picks to help travelers build a stronger local route.","summary_el":"Paul’s Burger είναι ένα επιλεγμένο σημείο φαγητού στην περιοχή Thessaloniki 546 46 και ανήκει στη συλλογή Burger Spots. Συνδέεται με 20 κοντινές προτάσεις του Googlementor για πιο ολοκληρωμένη εμπειρία.","vibe_tags":["curated","budget-friendly"],"best_for":["first-time visitors","food lovers","budget travelers"],"visit_moments":["lunch stop","dinner stop"],"practical_note":"Address and direct map link are available for easy turn-by-turn access.","nearby_walkable_count":20,"nearby_count_2km":70,"confidence":0.98}},"__N_SSG":true}