{"pageProps":{"entity":{"id":"dessertsRestaurants_b17cae58055b","slug":"solo-gelato-kypseli-b17c","kind":"restaurant","name":"SOLO GELATO ΚΥΨΕΛΗ","lat":37.997495076308105,"lng":23.735075284705523,"url":"https://maps.app.goo.gl/xy8KGbP1LQZJCmxX7?g_st=ipc","address":"Ιθάκης 9, Αθήνα 112 57","categoryIds":["desserts"],"categories":["Dessert Shops"]},"sameCategory":[{"id":"dessertsRestaurants_500065b70e96","slug":"mpozas-5000","kind":"restaurant","name":"Μπόζας","lat":37.99742038031428,"lng":23.73986164387991,"url":"https://maps.app.goo.gl/zSMSytPeL1fEn7U3A?g_st=ipc","address":"Κερκύρας 39 &, Παξών, Αθήνα 113 62","categoryIds":["desserts"],"categories":["Dessert Shops"]},{"id":"coffeeBrunchRestaurants_8eea389a06d0","slug":"santo-belto-8eea","kind":"restaurant","name":"Santo Belto","lat":38.00295539657206,"lng":23.737407823969118,"url":"https://maps.app.goo.gl/ZWa6fMfeNKbHNQGB7?g_st=ipc","address":"Αγίας Ζώνης 21, Αθήνα 113 61","categoryIds":["coffee-brunch","desserts"],"categories":["Coffee & Brunch Spots","Dessert Shops"],"legacySlugs":["santo-belto-1567"]},{"id":"dessertsRestaurants_6380c13ce6fb","slug":"petek-zacharoplasteio-6380","kind":"restaurant","name":"Πετέκ - Ζαχαροπλαστείο","lat":37.992161285064114,"lng":23.729868228783843,"url":"https://maps.app.goo.gl/bya8rkC9eSnHKYnU9?g_st=ipc","address":"3ης Σεπτεμβρίου 81, Αθήνα 104 34","categoryIds":["desserts"],"categories":["Dessert Shops"]},{"id":"dessertsRestaurants_55ea1e7f1b68","slug":"cremona-55ea","kind":"restaurant","name":"CREMONA","lat":37.999276434608944,"lng":23.746794928014506,"url":"https://maps.app.goo.gl/88H4UALJy3RpJMnJA?g_st=ipc","address":"58, Δοϊράνης 56, Αθήνα 113 63","categoryIds":["desserts"],"categories":["Dessert Shops"]},{"id":"dessertsRestaurants_98b6e615d276","slug":"chunky-cookie-bar-98b6","kind":"restaurant","name":"Chunky Cookie Bar","lat":37.990432042632165,"lng":23.743378760155576,"url":"https://maps.app.goo.gl/RyoKAVU7gY9FtBng6?g_st=ipc","address":"Πέτρου Καλλιγά 6, Αθήνα 114 74","categoryIds":["desserts"],"categories":["Dessert Shops"]},{"id":"dessertsRestaurants_27cc6726185a","slug":"zacharoplasteia-kosmikon-ag-nikolaos-27cc","kind":"restaurant","name":"ΖΑΧΑΡΟΠΛΑΣΤΕΙΑ ΚΟΣΜΙΚΟΝ ΑΓ.ΝΙΚΟΛΑΟΣ","lat":38.00667700680062,"lng":23.72782119868635,"url":"https://maps.app.goo.gl/qDYpfn8xkLTr164U7?g_st=ipc","address":"Λεωφ. Ιωνίας 104, Αθήνα 104 46","categoryIds":["desserts"],"categories":["Dessert Shops"]},{"id":"dessertsRestaurants_ba20d8faff31","slug":"craquelin-ba20","kind":"restaurant","name":"Craquelin","lat":37.9865815151158,"lng":23.732749024802267,"url":"https://maps.app.goo.gl/m9Z1VRpp25owhfSz8?g_st=ipc","address":"Σολωμού 23, Αθήνα 106 82","categoryIds":["desserts"],"categories":["Dessert Shops"]},{"id":"dessertsRestaurants_1784b9fa852d","slug":"baklamania-1784","kind":"restaurant","name":"Baklamania","lat":37.985982058793134,"lng":23.733879471082627,"url":"https://maps.app.goo.gl/dVejuM8qJpCUsYq38?g_st=ipc","address":"Θεμιστοκλέους 49, Αθήνα 106 83","categoryIds":["desserts"],"categories":["Dessert Shops"]},{"id":"dessertsRestaurants_0a4575669b20","slug":"sorolop-0a45","kind":"restaurant","name":"Sorolop","lat":37.98564970745245,"lng":23.73486137468713,"url":"https://maps.app.goo.gl/JHNfHtwZtaTRv5c86?g_st=ipc","address":"Ανδρέα Μεταξά 17, Αθήνα 106 81","categoryIds":["desserts"],"categories":["Dessert Shops"]},{"id":"dessertsRestaurants_be636dabd487","slug":"afoi-asimakopoyloi-be63","kind":"restaurant","name":"Αφοι Ασημακόπουλοι","lat":37.98543510745225,"lng":23.738217370820664,"url":"https://maps.app.goo.gl/zhMqHSFRswEjySMi9?g_st=ipc","address":"Χαρ. Τρικούπη 82, Αθήνα 106 80","categoryIds":["desserts"],"categories":["Dessert Shops"]},{"id":"dessertsRestaurants_50c92ff86d1d","slug":"portatif-factory-50c9","kind":"restaurant","name":"Πορτατίφ - Factory","lat":37.98547841789868,"lng":23.739345621810312,"url":"https://maps.app.goo.gl/Q5VYitKyncAmC1Wn8?g_st=ipc","address":"Μαυρομιχάλη 81, Αθήνα 114 72","categoryIds":["desserts"],"categories":["Dessert Shops"]},{"id":"dessertsRestaurants_ebf937ba8b50","slug":"stani-ebf9","kind":"restaurant","name":"Στάνη","lat":37.9854576770231,"lng":23.727929129339035,"url":"https://maps.app.goo.gl/eghkbGAv61qnF46Z8?g_st=ipc","address":"Μαρίκας Κοτοπούλη 10, Αθήνα 104 32","categoryIds":["desserts"],"categories":["Dessert Shops"]}],"nearby":[{"id":"vegetarianRestaurants_83307181ea44","slug":"gknoy-8330","kind":"restaurant","name":"ΓΚΝΟΥ","lat":37.99747301743944,"lng":23.73513103670901,"url":"https://maps.app.goo.gl/9hv6BgvR3DARK8469?g_st=ipc","address":"Επτανήσου 13, Αθήνα 112 57","categoryIds":["vegetarian"],"categories":["Vegetarian Friendly Restaurants"],"distanceKm":0.005466506211543942},{"id":"cheapEatsRestaurants_ec6036039639","slug":"dionysos-ec60","kind":"restaurant","name":"Διόνυσος","lat":37.99776607364749,"lng":23.735031186199688,"url":"https://maps.app.goo.gl/f7GyH9GtFQKGQmmS9?g_st=ipc","address":"Ιθάκης 12 12, Αθήνα 112 57","categoryIds":["cheap-eats"],"categories":["Gyros & Cheap Eats"],"distanceKm":0.030380278366914547},{"id":"greekRestaurants_bfb413275b7f","slug":"kyveli-bfb4","kind":"restaurant","name":"Κυβέλη","lat":37.99805749284101,"lng":23.73519064835316,"url":"https://maps.app.goo.gl/GZkR3yG4uYF9Asep6","address":"Επτανήσου 15, Αθήνα 112 57","categoryIds":["greek-restaurants"],"categories":["Greek Restaurants"],"distanceKm":0.06334960340389581},{"id":"coffeeBrunchRestaurants_76650a6337b0","slug":"o-foyrnos-toy-remoyndoy-7665","kind":"restaurant","name":"Ο Φούρνος του Ρεμούνδου","lat":37.99778393444846,"lng":23.737266306236258,"url":"https://maps.app.goo.gl/6mpkX4B7SCACHFyy6?g_st=ipc","address":"Κυψέλης 37, Αθήνα 113 61","categoryIds":["coffee-brunch"],"categories":["Coffee & Brunch Spots"],"distanceKm":0.19465785073281452},{"id":"coffeeBrunchRestaurants_5e77841cb06d","slug":"flake-5e77","kind":"restaurant","name":"Flake","lat":37.99900849338742,"lng":23.737419912416144,"url":"https://maps.app.goo.gl/Xk1A8oDNqWipGzYL6?g_st=ipc","address":"Σποράδων 24, Αθήνα 113 61","categoryIds":["coffee-brunch"],"categories":["Coffee & Brunch Spots"],"distanceKm":0.2655717960331638},{"id":"vegetarianRestaurants_35af3a72d872","slug":"leik-kafe-35af","kind":"restaurant","name":"λέικ καφέ","lat":37.99570532128052,"lng":23.737094528681606,"url":"https://maps.app.goo.gl/c3DSV5tXT2pKELDL8?g_st=ipc","address":"Αιγίνης 1, Αθήνα 113 62","categoryIds":["vegetarian"],"categories":["Vegetarian Friendly Restaurants"],"distanceKm":0.2662957288337752},{"id":"coffeeBrunchRestaurants_ce89cd6aa5d7","slug":"kick-ce89","kind":"restaurant","name":"KICK","lat":37.99916132656893,"lng":23.737461252467714,"url":"https://maps.app.goo.gl/72fZq7DBsWg8jnSR8?g_st=ipc","address":"Σποράδων 26, Αθήνα 113 61","categoryIds":["coffee-brunch"],"categories":["Coffee & Brunch Spots"],"distanceKm":0.2793535199406119},{"id":"cheapEatsRestaurants_b098fa4e8c79","slug":"kaproys-b098","kind":"restaurant","name":"Κάπρους","lat":37.997892215729216,"lng":23.738708713405035,"url":"https://maps.app.goo.gl/zmZ9p1KuXBfmeQTP9?g_st=ipc","address":"Σπετσών 49, Αθήνα 113 62","categoryIds":["cheap-eats"],"categories":["Gyros & Cheap Eats"],"distanceKm":0.3214291290324933},{"id":"cheapEatsRestaurants_fcf206bb8bf8","slug":"jackaroo-fcf2","kind":"restaurant","name":"Jackaroo","lat":38.00066185886443,"lng":23.735523749834027,"url":"https://maps.app.goo.gl/bKD82egRLvDN81sG9?g_st=ipc","address":"Φωκίωνος Νέγρη 18, Αθήνα 112 57","categoryIds":["cheap-eats"],"categories":["Gyros & Cheap Eats"],"distanceKm":0.3543160195162835},{"id":"cheapEatsRestaurants_51111124208f","slug":"soyvlakopoleion-rigani-5111","kind":"restaurant","name":"Σουβλακοπωλείον Ρίγανη","lat":38.00099448703569,"lng":23.73511231778499,"url":"https://maps.app.goo.gl/fCW1TYPSHgUdCft78?g_st=ipc","address":"Φωκίωνος Νέγρη 15, Αθήνα 112 57","categoryIds":["cheap-eats"],"categories":["Gyros & Cheap Eats"],"distanceKm":0.3891302493896983},{"id":"vegetarianRestaurants_ac24d91fc2b5","slug":"geyseis-tis-damaskoy-ac24","kind":"restaurant","name":"Γεύσεις της Δαμασκού","lat":38.00104187111536,"lng":23.735527497819955,"url":"https://maps.app.goo.gl/CBgjw3FjXKsmZLqP9?g_st=ipc","address":"Φωκίωνος Νέγρη 19, Αθήνα 112 57","categoryIds":["vegetarian"],"categories":["Vegetarian Friendly Restaurants"],"distanceKm":0.3963711634091293},{"id":"dessertsRestaurants_500065b70e96","slug":"mpozas-5000","kind":"restaurant","name":"Μπόζας","lat":37.99742038031428,"lng":23.73986164387991,"url":"https://maps.app.goo.gl/zSMSytPeL1fEn7U3A?g_st=ipc","address":"Κερκύρας 39 &, Παξών, Αθήνα 113 62","categoryIds":["desserts"],"categories":["Dessert Shops"],"distanceKm":0.41949095584964063},{"id":"italianRestaurants_fee68a36e757","slug":"lisa-athens-fee6","kind":"restaurant","name":"Lisa Athens","lat":38.00121668798056,"lng":23.737030313370706,"url":"https://maps.app.goo.gl/eiXsobGt1KWweP7UA?g_st=ipc","address":"Φωκίωνος Νέγρη 25, Αθήνα 113 61","categoryIds":["italian"],"categories":["Italian Restaurants"],"distanceKm":0.44788003784917646},{"id":"familyFriendly_8133c93f98d4","slug":"pedion-areos-8133","kind":"restaurant","name":"Πεδίον Άρεως","lat":37.99296743190719,"lng":23.73662502583579,"url":"https://maps.app.goo.gl/qo4PWWenK9kDd9qC7?g_st=ipc","address":"Λεωφ. Αλεξάνδρας, Αθήνα 114 74","categoryIds":["family-friendly"],"categories":["Kid Friendly Locations"],"distanceKm":0.5214451456790578},{"id":"municipalities_f73663b8f738","slug":"attiki-f736","kind":"municipality","name":"Αττική","lat":37.9958,"lng":23.7292,"aliases":["Αττικη","Victoria"],"region":"Κέντρο Αθήνας","name_en":"Attiki","region_en":"Athens Center","distanceKm":0.5482504842263934},{"id":"coffeeBrunchRestaurants_f2fc2f9837eb","slug":"green-park-f2fc","kind":"restaurant","name":"Green Park","lat":37.99268098251898,"lng":23.733030655681027,"url":"https://maps.app.goo.gl/YVmf7NaJKpFKqFvw6?g_st=ipc","address":"Μαυρομματαίων 22, Αθήνα 104 34","categoryIds":["coffee-brunch"],"categories":["Coffee & Brunch Spots"],"distanceKm":0.5644911932230481},{"id":"fishTavernasRestaurants_4ef32e781ddb","slug":"psaradiko-psarofageio-vlasis-4ef3","kind":"restaurant","name":"Ψαράδικο-Ψαροφαγείο Βλάσης","lat":38.00159683768883,"lng":23.739141642286196,"url":"https://maps.app.goo.gl/fHgyjqw3Rn6yqq6N6?g_st=ipc","address":"Φωκίωνος Νέγρη 47, Αθήνα 113 61","categoryIds":["fish-tavernas"],"categories":["Fish Tavernas"],"distanceKm":0.5787728162438409},{"id":"vegetarianRestaurants_6e333d15393d","slug":"enjoy-just-falafel-6e33","kind":"restaurant","name":"Enjoy Just Falafel","lat":37.99432372166888,"lng":23.729461045155038,"url":"https://maps.app.goo.gl/BjUbMf9auTnRzi956?g_st=ipc","address":"Greece, Αριστοτέλους 98, Αθήνα 104 34","categoryIds":["vegetarian"],"categories":["Vegetarian Friendly Restaurants"],"distanceKm":0.6052944381873749},{"id":"cheapEatsRestaurants_b1a42490e7cb","slug":"gyros-soyvlaki-viktoria-tylixe-to-b1a4","kind":"restaurant","name":"Γύρος σουβλάκι Βικτώρια ΤΥΛΙΞΕ ΤΟ","lat":37.99350120718295,"lng":23.729835255916253,"url":"https://maps.app.goo.gl/eKw6YctPXBvBSifU7?g_st=ipc","address":"Πλ. Βικτώριας 6, Αθήνα 104 34","categoryIds":["cheap-eats"],"categories":["Gyros & Cheap Eats"],"distanceKm":0.6387988229143978},{"id":"coffeeBrunchRestaurants_8eea389a06d0","slug":"santo-belto-8eea","kind":"restaurant","name":"Santo Belto","lat":38.00295539657206,"lng":23.737407823969118,"url":"https://maps.app.goo.gl/ZWa6fMfeNKbHNQGB7?g_st=ipc","address":"Αγίας Ζώνης 21, Αθήνα 113 61","categoryIds":["coffee-brunch","desserts"],"categories":["Coffee & Brunch Spots","Dessert Shops"],"legacySlugs":["santo-belto-1567"],"distanceKm":0.6406368423830267},{"id":"greekRestaurants_f9f686e79eab","slug":"o-mpakalogatos-f9f6","kind":"restaurant","name":"Ο Μπακαλόγατος","lat":38.00187471148547,"lng":23.740181411434346,"url":"https://maps.app.goo.gl/981vRQxbrAtrVwL46","address":"Φωκίωνος Νέγρη 72, Αθήνα 113 61","categoryIds":["greek-restaurants"],"categories":["Greek Restaurants"],"distanceKm":0.6613188340631646},{"id":"greekRestaurants_47b0ee0c8d13","slug":"mi-la-re-47b0","kind":"restaurant","name":"Μι λα ρε","lat":37.99704423560871,"lng":23.74315138793718,"url":"https://maps.app.goo.gl/mURYyiemhV3PvXjDA","address":"Ευελπίδων 87, Αθήνα 113 62","categoryIds":["greek-restaurants"],"categories":["Greek Restaurants"],"distanceKm":0.7094505092169525},{"id":"luxuryDiningRestaurants_4ac28de916c7","slug":"10-urban-roof-4ac2","kind":"restaurant","name":"10 Urban Roof","lat":37.99116171206528,"lng":23.733113789092354,"url":"https://maps.app.goo.gl/EwoNbTNDX9bmfSgf9?g_st=ipc","address":"Λεωφ. Αλεξάνδρας 10, Αθήνα 106 82","categoryIds":["luxury-dining"],"categories":["Luxury Dining"],"distanceKm":0.7249107417818332},{"id":"dessertsRestaurants_6380c13ce6fb","slug":"petek-zacharoplasteio-6380","kind":"restaurant","name":"Πετέκ - Ζαχαροπλαστείο","lat":37.992161285064114,"lng":23.729868228783843,"url":"https://maps.app.goo.gl/bya8rkC9eSnHKYnU9?g_st=ipc","address":"3ης Σεπτεμβρίου 81, Αθήνα 104 34","categoryIds":["desserts"],"categories":["Dessert Shops"],"distanceKm":0.7483020835605029}],"sameRegion":[],"mentionedGuides":[],"canonicalSlug":"solo-gelato-kypseli-b17c","isCanonicalEntity":true,"enrichment":{"summary_en":"SOLO GELATO ΚΥΨΕΛΗ is a curated restaurant in Αθήνα 112 57 in the Dessert Shops collection. It is connected to 26 nearby Googlementor picks to help travelers build a stronger local route.","summary_el":"SOLO GELATO ΚΥΨΕΛΗ είναι ένα επιλεγμένο σημείο φαγητού στην περιοχή Αθήνα 112 57 και ανήκει στη συλλογή Dessert Shops. Συνδέεται με 26 κοντινές προτάσεις του Googlementor για πιο ολοκληρωμένη εμπειρία.","vibe_tags":["curated","sweet-stop"],"best_for":["first-time visitors","food lovers"],"visit_moments":["afternoon break","after dinner"],"practical_note":"Address and direct map link are available for easy turn-by-turn access.","nearby_walkable_count":26,"nearby_count_2km":140,"confidence":0.98}},"__N_SSG":true}