{"pageProps":{"entity":{"id":"greekRestaurants_2b555dc83271","slug":"soyvlakia-o-giannis-2b55","kind":"restaurant","name":"Σουβλάκια \"Ο Γιάννης\"","lat":40.61367230211868,"lng":22.968664986882153,"url":"https://maps.app.goo.gl/rGd5Se34NDg2Q9er5?g_st=ipc","address":"Κλεάνθους 54, Θεσσαλονίκη 544 53","categoryIds":["greek-restaurants"],"categories":["Greek Restaurants"]},"sameCategory":[{"id":"greekRestaurants_7a4337bc20a6","slug":"akrovatis-7a43","kind":"restaurant","name":"Ακροβάτης","lat":40.61307041653645,"lng":22.9677238002552,"url":"https://maps.app.goo.gl/kcK7ME3teiYGRent6?g_st=ipc","address":"Papafi 113, Thessaloniki 544 53","categoryIds":["greek-restaurants"],"categories":["Greek Restaurants"]},{"id":"greekRestaurants_0677d6c362a6","slug":"evora-eatery-0677","kind":"restaurant","name":"Εβόρα Eatery","lat":40.61655136125546,"lng":22.969054811212995,"url":"https://maps.app.goo.gl/K4Cnh5DSvkNE3ttK8?g_st=ipc","address":"Διογένους 13, Θεσσαλονίκη 544 53","categoryIds":["greek-restaurants"],"categories":["Greek Restaurants"]},{"id":"greekRestaurants_c29be60e5285","slug":"choirofreno-c29b","kind":"restaurant","name":"Χοιρόφρενο","lat":40.61678728213184,"lng":22.972877458653127,"url":"https://maps.app.goo.gl/fCEBNZq73XUBc6R68?g_st=ipc","address":"Ικαρίας 5, Θεσσαλονίκη 543 51","categoryIds":["greek-restaurants"],"categories":["Greek Restaurants"]},{"id":"cheapEatsRestaurants_c619a7c97409","slug":"to-kokoraki-c619","kind":"restaurant","name":"ΤΟ ΚΟΚΟΡΑΚΙ","lat":40.6088349903696,"lng":22.967918512345722,"url":"https://maps.app.goo.gl/KNA3DuGAxNV9SYMs8?g_st=ipc","address":"Mark. Mpotsari 105, Thessaloniki 544 53","categoryIds":["cheap-eats","greek-restaurants"],"categories":["Gyros & Cheap Eats","Greek Restaurants"],"legacySlugs":["to-kokoraki-5da1"]},{"id":"greekRestaurants_4d78fe3c61be","slug":"rou-leisure-gatherings-4d78","kind":"restaurant","name":"Rou Leisure Gatherings","lat":40.61281592695175,"lng":22.975955444197268,"url":"https://maps.app.goo.gl/ms5wLYa1p3XXEfE18?g_st=ipc","address":"Πραξαγόρα 22, Θεσσαλονίκη 543 51","categoryIds":["greek-restaurants"],"categories":["Greek Restaurants"]},{"id":"greekRestaurants_575dfe5a741b","slug":"menu-me-noy-575d","kind":"restaurant","name":"Menu με...νου","lat":40.60815951661583,"lng":22.966514659148867,"url":"https://maps.app.goo.gl/x5kA6azJxjLv1HQX6?g_st=ipc","address":"Αλεξάνδρου Παπαναστασίου, Δ 87, Thessaloniki 544 53","categoryIds":["greek-restaurants"],"categories":["Greek Restaurants"]},{"id":"greekRestaurants_e19673ba852f","slug":"pire-kai-vradiazei-e196","kind":"restaurant","name":"Πήρε και Βραδιάζει","lat":40.6161654625719,"lng":22.96166588679185,"url":"https://maps.app.goo.gl/Y7iaetGgvQnRv1wAA?g_st=ipc","address":"Ομήρου 7, Θεσσαλονίκη 546 39","categoryIds":["greek-restaurants"],"categories":["Greek Restaurants"]},{"id":"greekRestaurants_5c376770db26","slug":"kafeneion-to-dallaveri-5c37","kind":"restaurant","name":"Kafeneion To Dallaveri","lat":40.61571484515384,"lng":22.976632129539492,"url":"https://maps.app.goo.gl/6CZnkJNTLRD3MjRz7?g_st=ipc","address":"Diagora 51, Thessaloniki 543 51","categoryIds":["greek-restaurants"],"categories":["Greek Restaurants"]},{"id":"greekRestaurants_bb87e6a51434","slug":"o-daskalos-bb87","kind":"restaurant","name":"Ο ΔΑΣΚΑΛΟΣ","lat":40.607225167696676,"lng":22.970329107131402,"url":"https://maps.app.goo.gl/J1XPLAWFgHM7NWS19?g_st=ipc","address":"Παπάφη 192, Ίμβρου 19-21, Θεσσαλονίκη 544 53","categoryIds":["greek-restaurants"],"categories":["Greek Restaurants"]},{"id":"greekRestaurants_c1766e7bf95f","slug":"i-palia-athina-c176","kind":"restaurant","name":"Η Παλιά Αθήνα","lat":40.60696697600651,"lng":22.970143293615717,"url":"https://maps.app.goo.gl/uzsrCErBcVQi2b349?g_st=ipc","address":"Ίμβρου 24, Θεσσαλονίκη 544 53","categoryIds":["greek-restaurants"],"categories":["Greek Restaurants"]},{"id":"greekRestaurants_d088423c78a1","slug":"sygchrono-kafeneion-o-tzertzeles-d088","kind":"restaurant","name":"Σύγχρονο Καφενείον ο Τζερτζελές","lat":40.617294004272665,"lng":22.977421178943235,"url":"https://maps.app.goo.gl/E8KAZpAFgpwoquHv9?g_st=ipc","address":"Καθηγητού Νικολάου Ανδριώτη 13, Θεσσαλονίκη 543 51","categoryIds":["greek-restaurants"],"categories":["Greek Restaurants"]},{"id":"greekRestaurants_7ec3d69bed0e","slug":"paggaion-7ec3","kind":"restaurant","name":"Παγγαίον","lat":40.60814749933467,"lng":22.96161599459279,"url":"https://maps.app.goo.gl/LDfYbYAQqiNM26EUA?g_st=ipc","address":"Τομπάζη 31, Θεσσαλονίκη 546 44","categoryIds":["greek-restaurants"],"categories":["Greek Restaurants"]}],"nearby":[{"id":"dessertsRestaurants_7728725cae0c","slug":"zacharoplasteio-ilios-kleanthoys-hlios-pastry-shop-kleanthous-7728","kind":"restaurant","name":"ΖΑΧΑΡΟΠΛΑΣΤΕΙΟ ΗΛΙΟΣ ΚΛΕΑΝΘΟΥΣ /Hlios Pastry Shop Kleanthous","lat":40.61382568960551,"lng":22.969099400369018,"url":"https://maps.app.goo.gl/tNhNJReBE4oYvZx6A?g_st=ipc","address":"Kleanthous 60, Thessaloniki 544 53","categoryIds":["desserts"],"categories":["Dessert Shops"],"distanceKm":0.04044131709829508},{"id":"burgersRestaurants_5cdf5651be04","slug":"dunk-smash-burgers-5cdf","kind":"restaurant","name":"Dunk Smash Burgers","lat":40.614049656844195,"lng":22.968949553843263,"url":"https://maps.app.goo.gl/ECaRWM59W66g3f6h8?g_st=ipc","address":"Peston 82, Thessaloniki 544 53","categoryIds":["burgers"],"categories":["Burger Spots"],"distanceKm":0.04834878634754113},{"id":"asianRestaurants_fa15bba13e7a","slug":"asian-house-fa15","kind":"restaurant","name":"Asian House","lat":40.61406863205144,"lng":22.96925982276085,"url":"https://maps.app.goo.gl/RZUt6eATfNjJBVMW9?g_st=ipc","address":"Kleanthous 49, Thessaloniki 544 53","categoryIds":["asian"],"categories":["Asian Restaurants"],"distanceKm":0.06680706431338557},{"id":"greekRestaurants_7a4337bc20a6","slug":"akrovatis-7a43","kind":"restaurant","name":"Ακροβάτης","lat":40.61307041653645,"lng":22.9677238002552,"url":"https://maps.app.goo.gl/kcK7ME3teiYGRent6?g_st=ipc","address":"Papafi 113, Thessaloniki 544 53","categoryIds":["greek-restaurants"],"categories":["Greek Restaurants"],"distanceKm":0.10387879670882488},{"id":"italianRestaurants_57f0e6de9174","slug":"trattoria-santa-rita-57f0","kind":"restaurant","name":"Trattoria Santa Rita","lat":40.612086768976745,"lng":22.969846546876834,"url":"https://maps.app.goo.gl/tJ95kQkAp73h9qDi8?g_st=ipc","address":"Malakopis 19, Thessaloniki 544 53","categoryIds":["italian"],"categories":["Italian Restaurants"],"distanceKm":0.2025591241288851},{"id":"familyFriendly_06e3b0e7591a","slug":"hado-arena-toumpa-06e3","kind":"restaurant","name":"HADO ARENA TOUMPA","lat":40.61298475023653,"lng":22.966163361832432,"url":"https://maps.app.goo.gl/Y3M4X3SLfpUBctf88?g_st=ipc","address":"Kleanthous 25, Thessaloniki 544 53","categoryIds":["family-friendly"],"categories":["Kid Friendly Locations"],"distanceKm":0.22457673730285155},{"id":"burgersRestaurants_d1aa1b03e041","slug":"evora-eatery-d1aa","kind":"restaurant","name":"Evora Eatery","lat":40.616537415041016,"lng":22.969055137519607,"url":"https://maps.app.goo.gl/nXZzhY9yFR2kDUGA9?g_st=ipc","address":"Diogenous 13, Thessaloniki 544 53","categoryIds":["burgers"],"categories":["Burger Spots"],"distanceKm":0.32028356130054375},{"id":"greekRestaurants_0677d6c362a6","slug":"evora-eatery-0677","kind":"restaurant","name":"Εβόρα Eatery","lat":40.61655136125546,"lng":22.969054811212995,"url":"https://maps.app.goo.gl/K4Cnh5DSvkNE3ttK8?g_st=ipc","address":"Διογένους 13, Θεσσαλονίκη 544 53","categoryIds":["greek-restaurants"],"categories":["Greek Restaurants"],"distanceKm":0.32182331234940087},{"id":"greekRestaurants_c29be60e5285","slug":"choirofreno-c29b","kind":"restaurant","name":"Χοιρόφρενο","lat":40.61678728213184,"lng":22.972877458653127,"url":"https://maps.app.goo.gl/fCEBNZq73XUBc6R68?g_st=ipc","address":"Ικαρίας 5, Θεσσαλονίκη 543 51","categoryIds":["greek-restaurants"],"categories":["Greek Restaurants"],"distanceKm":0.4963861440949114},{"id":"fishTavernasRestaurants_482591e75ff4","slug":"kritamos-meze-bar-4825","kind":"restaurant","name":"Kritamos Meze-Bar","lat":40.61409377580344,"lng":22.97473899193856,"url":"https://maps.app.goo.gl/PC1XeAa9i5F1wcwX7?g_st=ipc","address":"Tirolois 38, Thessaloniki 543 51","categoryIds":["fish-tavernas"],"categories":["Fish Tavernas"],"distanceKm":0.5148417388740698},{"id":"municipalities_5bdb3c34c767","slug":"toympa-5bdb","kind":"municipality","name":"Τούμπα","lat":40.61,"lng":22.9725,"region":"Θεσσαλονίκη","name_en":"Toumpa","region_en":"Thessaloniki","distanceKm":0.5210935160686913},{"id":"cheapEatsRestaurants_3c28289caa25","slug":"giotis-3c28","kind":"restaurant","name":"Giotis","lat":40.60922266804071,"lng":22.97064673048183,"url":"https://maps.app.goo.gl/EWmSLiCCxYM2N33x6?g_st=ipc","address":"Mark. Mpotsari 150, Thessaloniki 544 53","categoryIds":["cheap-eats"],"categories":["Gyros & Cheap Eats"],"distanceKm":0.5222911408016037},{"id":"cheapEatsRestaurants_c619a7c97409","slug":"to-kokoraki-c619","kind":"restaurant","name":"ΤΟ ΚΟΚΟΡΑΚΙ","lat":40.6088349903696,"lng":22.967918512345722,"url":"https://maps.app.goo.gl/KNA3DuGAxNV9SYMs8?g_st=ipc","address":"Mark. Mpotsari 105, Thessaloniki 544 53","categoryIds":["cheap-eats","greek-restaurants"],"categories":["Gyros & Cheap Eats","Greek Restaurants"],"legacySlugs":["to-kokoraki-5da1"],"distanceKm":0.5415628170937374},{"id":"cheapEatsRestaurants_8f3b208739c0","slug":"funky-s-thessaloniki-8f3b","kind":"restaurant","name":"Funky's Thessaloniki","lat":40.615543107651526,"lng":22.974915159309568,"url":"https://maps.app.goo.gl/QNUEoQzqLuXtrpVc7?g_st=ipc","address":"Grigoriou Lampraki 110, Thessaloniki 543 51","categoryIds":["cheap-eats","italian"],"categories":["Gyros & Cheap Eats","Italian Restaurants"],"legacySlugs":["funky-s-thessaloniki-ef2b"],"distanceKm":0.5671003148029635},{"id":"cheapEatsRestaurants_f51539f3f3fe","slug":"kostas-f515","kind":"restaurant","name":"Kostas","lat":40.608571752720515,"lng":22.967969048628863,"url":"https://maps.app.goo.gl/bUnuC1Vh9ysa2VhL6?g_st=ipc","address":"Mark. Mpotsari 120, Thessaloniki 546 43","categoryIds":["cheap-eats"],"categories":["Gyros & Cheap Eats"],"distanceKm":0.5701895869658815},{"id":"greekRestaurants_4d78fe3c61be","slug":"rou-leisure-gatherings-4d78","kind":"restaurant","name":"Rou Leisure Gatherings","lat":40.61281592695175,"lng":22.975955444197268,"url":"https://maps.app.goo.gl/ms5wLYa1p3XXEfE18?g_st=ipc","address":"Πραξαγόρα 22, Θεσσαλονίκη 543 51","categoryIds":["greek-restaurants"],"categories":["Greek Restaurants"],"distanceKm":0.6227142039128563},{"id":"coffeeBrunchRestaurants_9fa36f8be04c","slug":"rou-leisure-gatherings-9fa3","kind":"restaurant","name":"Rou Leisure Gatherings","lat":40.612773277438485,"lng":22.97595730543709,"url":"https://maps.app.goo.gl/GxRckrquv1sShJp28?g_st=ipc","address":"Praxagora 22, Thessaloniki 543 51","categoryIds":["coffee-brunch"],"categories":["Coffee & Brunch Spots"],"distanceKm":0.6236122914452138},{"id":"greekRestaurants_575dfe5a741b","slug":"menu-me-noy-575d","kind":"restaurant","name":"Menu με...νου","lat":40.60815951661583,"lng":22.966514659148867,"url":"https://maps.app.goo.gl/x5kA6azJxjLv1HQX6?g_st=ipc","address":"Αλεξάνδρου Παπαναστασίου, Δ 87, Thessaloniki 544 53","categoryIds":["greek-restaurants"],"categories":["Greek Restaurants"],"distanceKm":0.6393039568965201},{"id":"greekRestaurants_e19673ba852f","slug":"pire-kai-vradiazei-e196","kind":"restaurant","name":"Πήρε και Βραδιάζει","lat":40.6161654625719,"lng":22.96166588679185,"url":"https://maps.app.goo.gl/Y7iaetGgvQnRv1wAA?g_st=ipc","address":"Ομήρου 7, Θεσσαλονίκη 546 39","categoryIds":["greek-restaurants"],"categories":["Greek Restaurants"],"distanceKm":0.6525932910002931},{"id":"municipalities_6e0a80514433","slug":"kaytanzogleio-periochi-6e0a","kind":"municipality","name":"Καυτανζόγλειο περιοχή","lat":40.6157,"lng":22.9613,"region":"Θεσσαλονίκη","name_en":"Kaftanzoglio Area","region_en":"Thessaloniki","distanceKm":0.6612924282389726},{"id":"cheapEatsRestaurants_9e983ad5e812","slug":"prassas-9e98","kind":"restaurant","name":"Prassas","lat":40.60822104515919,"lng":22.96538292733955,"url":"https://maps.app.goo.gl/cajfpJVBkeREe7FNA?g_st=ipc","address":"Mark. Mpotsari 89, Thessaloniki 546 44","categoryIds":["cheap-eats"],"categories":["Gyros & Cheap Eats"],"distanceKm":0.6664658917732231},{"id":"coffeeBrunchRestaurants_3f47d83b09c0","slug":"butterflies-and-hurricanes-3f47","kind":"restaurant","name":"Butterflies And Hurricanes","lat":40.61464844201882,"lng":22.960841697890658,"url":"https://maps.app.goo.gl/Gesp19RwCPBWQ9s58?g_st=ipc","address":"Pindarou 1, Thessaloniki 546 39","categoryIds":["coffee-brunch","vegetarian"],"categories":["Coffee & Brunch Spots","Vegetarian Friendly Restaurants"],"legacySlugs":["butterflies-and-hurricanes-37b6"],"distanceKm":0.6692187634695336},{"id":"cheapEatsRestaurants_543fb752ef8d","slug":"souvlatzidiko-543f","kind":"restaurant","name":"Souvlatzidiko","lat":40.615140054166176,"lng":22.976602700104493,"url":"https://maps.app.goo.gl/dKu85q9fYtc6krXf7?g_st=ipc","address":"Διαγορα, με Λαμπρακη, Thessaloniki 543 51","categoryIds":["cheap-eats"],"categories":["Gyros & Cheap Eats"],"distanceKm":0.6896048734649622},{"id":"greekRestaurants_5c376770db26","slug":"kafeneion-to-dallaveri-5c37","kind":"restaurant","name":"Kafeneion To Dallaveri","lat":40.61571484515384,"lng":22.976632129539492,"url":"https://maps.app.goo.gl/6CZnkJNTLRD3MjRz7?g_st=ipc","address":"Diagora 51, Thessaloniki 543 51","categoryIds":["greek-restaurants"],"categories":["Greek Restaurants"],"distanceKm":0.7098121100874168}],"sameRegion":[],"mentionedGuides":[],"canonicalSlug":"soyvlakia-o-giannis-2b55","isCanonicalEntity":true,"enrichment":{"summary_en":"Σουβλάκια \"Ο Γιάννης\" is a curated restaurant in Θεσσαλονίκη 544 53 in the Greek Restaurants collection. It is connected to 28 nearby Googlementor picks to help travelers build a stronger local route.","summary_el":"Σουβλάκια \"Ο Γιάννης\" είναι ένα επιλεγμένο σημείο φαγητού στην περιοχή Θεσσαλονίκη 544 53 και ανήκει στη συλλογή Greek Restaurants. Συνδέεται με 28 κοντινές προτάσεις του Googlementor για πιο ολοκληρωμένη εμπειρία.","vibe_tags":["curated"],"best_for":["first-time visitors","food lovers"],"visit_moments":["lunch stop","dinner stop"],"practical_note":"Address and direct map link are available for easy turn-by-turn access.","nearby_walkable_count":28,"nearby_count_2km":92,"confidence":0.98}},"__N_SSG":true}