{"pageProps":{"entity":{"id":"cheapEatsRestaurants_ff4578059709","slug":"story-streat-ff45","kind":"restaurant","name":"Story Streat","lat":37.93927555121359,"lng":23.639905760009334,"url":"https://maps.app.goo.gl/EXsQn9E1PkJeJjZU9?g_st=ipc","address":"301 Ακτή Μιαούλη, Enanti Agiou Nikolaou, Πειραιάς 185 35","categoryIds":["cheap-eats"],"categories":["Gyros & Cheap Eats"]},"sameCategory":[{"id":"cheapEatsRestaurants_338abca2bc3e","slug":"jackaroo-338a","kind":"restaurant","name":"Jackaroo","lat":37.940156634414215,"lng":23.643183475106575,"url":"https://maps.app.goo.gl/QjFk2WWeE9jasgmR8?g_st=ipc","address":"Κολοκοτρώνη 126, Πειραιάς 185 35","categoryIds":["cheap-eats"],"categories":["Gyros & Cheap Eats"]},{"id":"burgersRestaurants_51cd3df73f20","slug":"mpar-mpee-kioy-freattyda-51cd","kind":"restaurant","name":"Μπαρ Μπεε Κιου - Φρεαττύδα","lat":37.93450645446817,"lng":23.642685440187794,"url":"https://maps.app.goo.gl/UkJPpNzXrBGL944RA?g_st=ipc","address":"Λεωφ. Φρεάττυδος 13, Πειραιάς 185 37","categoryIds":["burgers","cheap-eats"],"categories":["Burger Spots","Gyros & Cheap Eats"],"legacySlugs":["mpar-mpee-kioy-freattyda-b711"]},{"id":"cheapEatsRestaurants_8cc8f7ce2a5d","slug":"kali-pita-8cc8","kind":"restaurant","name":"Καλή Πίτα","lat":37.93904235716474,"lng":23.647494180172405,"url":"https://maps.app.goo.gl/5Uc5sfiitWqftH1u6?g_st=ipc","address":"Ακτή Μουτσοπούλου 10, Πειραιάς 185 35","categoryIds":["cheap-eats"],"categories":["Gyros & Cheap Eats"]},{"id":"cheapEatsRestaurants_5cd53c0e6d00","slug":"la-jacka-5cd5","kind":"restaurant","name":"La Jacka","lat":37.9421277470468,"lng":23.647527719022438,"url":"https://maps.app.goo.gl/4aXg5d6SUN73hXDt8?g_st=ic","address":"Καραΐσκου 117, Pireas 185 32","categoryIds":["cheap-eats"],"categories":["Gyros & Cheap Eats"]},{"id":"cheapEatsRestaurants_cd23ca747a49","slug":"jackaroo-cd23","kind":"restaurant","name":"JACKAROO","lat":37.94026416396424,"lng":23.649684152709604,"url":"https://maps.app.goo.gl/7CALFJPovo6YskzUA?g_st=ipc","address":"Σωτήρος Διός 45, Πειραιάς 185 34","categoryIds":["cheap-eats"],"categories":["Gyros & Cheap Eats"]},{"id":"cheapEatsRestaurants_44069571c770","slug":"o-giorgos-4406","kind":"restaurant","name":"Ο Γιώργος","lat":37.94626514113319,"lng":23.644321784628165,"url":"https://maps.app.goo.gl/41PfRyTP8uJ6c3uy9?g_st=ipc","address":"Γούναρη 18 και, Νικήτα, Πειραιάς 185 31","categoryIds":["cheap-eats"],"categories":["Gyros & Cheap Eats"]},{"id":"cheapEatsRestaurants_976f1c06c63f","slug":"i-vromiara-the-gourmet-street-food-piraeus-976f","kind":"restaurant","name":"Η Βρωμιαρα - The Gourmet Street Food Piraeus","lat":37.94005665661438,"lng":23.649946814929663,"url":"https://maps.app.goo.gl/9bVUq8xDuxLwaLim9?g_st=ipc","address":"Σωτήρος Διός 47, Πειραιάς 185 34","categoryIds":["cheap-eats"],"categories":["Gyros & Cheap Eats"]},{"id":"cheapEatsRestaurants_06c18b2e0a28","slug":"o-polyvios-06c1","kind":"restaurant","name":"ο Πολύβιος","lat":37.94989609662676,"lng":23.635292950073545,"url":"https://maps.app.goo.gl/hykabQee4Gtqnvuk9?g_st=ipc","address":"Αγίου Δημητρίου 28, Πειραιάς 185 45","categoryIds":["cheap-eats"],"categories":["Gyros & Cheap Eats"]},{"id":"cheapEatsRestaurants_b825154bd7ab","slug":"systimatiko-soyvlatzidiko-o-karampelas-b825","kind":"restaurant","name":"Συστηματικό Σουβλατζίδικο Ο Καράμπελας","lat":37.94518871094833,"lng":23.654274337068934,"url":"https://maps.app.goo.gl/DkaV9CriKcsiVg296?g_st=ipc","address":"Πύλης 53, Πειραιάς 185 34","categoryIds":["cheap-eats"],"categories":["Gyros & Cheap Eats"]},{"id":"burgersRestaurants_4906276397a1","slug":"godgilla-keratsini-4906","kind":"restaurant","name":"GODGILLA ΚΕΡΑΤΣΙΝΙ","lat":37.95895954039208,"lng":23.62512429010796,"url":"https://maps.app.goo.gl/XPM5TwgWvpZmGQUh6?g_st=ipc","address":"Θεόφραστου 54, Κερατσίνι 187 56","categoryIds":["burgers","cheap-eats"],"categories":["Burger Spots","Gyros & Cheap Eats"],"legacySlugs":["godgilla-keratsini-e67b"]},{"id":"cheapEatsRestaurants_2f84b1901b79","slug":"soyvlakia-o-serkos-2f84","kind":"restaurant","name":"Σουβλάκια ο Σέρκος","lat":37.96321249323642,"lng":23.6546161405587,"url":"https://maps.app.goo.gl/g55ZF34fH7dzCpi29?g_st=ipc","address":"Ίωνος Δραγούμη 39-41, Πειραιάς 185 42","categoryIds":["cheap-eats"],"categories":["Gyros & Cheap Eats"]},{"id":"cheapEatsRestaurants_e1efa6cc4eb9","slug":"kebab-hub-e1ef","kind":"restaurant","name":"KEBAB HUB","lat":37.96544893408382,"lng":23.64762675898248,"url":"https://maps.app.goo.gl/1jU1MDHhWUfkjuNTA?g_st=ipc","address":"Εφέσου 49, Νίκαια 184 50","categoryIds":["cheap-eats"],"categories":["Gyros & Cheap Eats"]}],"nearby":[{"id":"monasteriesChurches_616a7205bceb","slug":"ieros-naos-agioy-nikolaoy-616a","kind":"restaurant","name":"Ιερός Ναός Αγίου Νικολάου","lat":37.93852657714825,"lng":23.640083861716022,"url":"https://maps.app.goo.gl/yhWmXb3651phCnDF8?g_st=ipc","address":"Αγίου Νικολάου 2, Πειραιάς 185 37","categoryIds":["monasteries-churches"],"categories":["Monasteries & Spiritual Sites"],"distanceKm":0.08473403472626116},{"id":"italianRestaurants_245a69e4c28d","slug":"italida-restaurant-245a","kind":"restaurant","name":"Italida Restaurant","lat":37.939531794803344,"lng":23.64139153468878,"url":"https://maps.app.goo.gl/vJFoPpuhcPupJ3ju7?g_st=ipc","address":"Φιλελλήνων 9, Πειραιάς 185 36","categoryIds":["italian"],"categories":["Italian Restaurants"],"distanceKm":0.13337427983080538},{"id":"greekRestaurants_559e0d9ef868","slug":"marigo-edesmatopoleio-559e","kind":"restaurant","name":"Μαριγώ Εδεσματοπωλείο","lat":37.93961721991741,"lng":23.641779536091324,"url":"https://maps.app.goo.gl/4advyD22Ta7qiUEv7","address":"Φίλωνος 133, Πειραιάς 185 36","categoryIds":["greek-restaurants"],"categories":["Greek Restaurants"],"distanceKm":0.16865575477075606},{"id":"asianRestaurants_4f2a760fc2e5","slug":"rouan-thai-4f2a","kind":"restaurant","name":"Rouan Thai","lat":37.939187297472465,"lng":23.64209685014842,"url":"https://maps.app.goo.gl/s9uo8VDSoDevpowm6?g_st=ipc","address":"Νοταρά 131, Πειραιάς 185 36","categoryIds":["asian"],"categories":["Asian Restaurants"],"distanceKm":0.19239886083107846},{"id":"coffeeBrunchRestaurants_4ee8e575619a","slug":"modish-coffee-graze-and-booze-4ee8","kind":"restaurant","name":"modish coffee, graze and booze","lat":37.936912830564985,"lng":23.639147286687205,"url":"https://maps.app.goo.gl/Fa2QfE64sQhorAFE9?g_st=ipc","address":"Ακτή Μιαούλη 81, Πειραιάς 185 38","categoryIds":["coffee-brunch"],"categories":["Coffee & Brunch Spots"],"distanceKm":0.27101192821692927},{"id":"cheapEatsRestaurants_338abca2bc3e","slug":"jackaroo-338a","kind":"restaurant","name":"Jackaroo","lat":37.940156634414215,"lng":23.643183475106575,"url":"https://maps.app.goo.gl/QjFk2WWeE9jasgmR8?g_st=ipc","address":"Κολοκοτρώνη 126, Πειραιάς 185 35","categoryIds":["cheap-eats"],"categories":["Gyros & Cheap Eats"],"distanceKm":0.30367647179026847},{"id":"asianRestaurants_48bbff4f4936","slug":"kitschen-48bb","kind":"restaurant","name":"Kitschen","lat":37.936566769814284,"lng":23.63928965922229,"url":"https://maps.app.goo.gl/1zPoyQ3qoTUyktA49?g_st=ipc","address":"Κανάρη 5, Πειραιάς 185 37","categoryIds":["asian"],"categories":["Asian Restaurants"],"distanceKm":0.3060103791900795},{"id":"dessertsRestaurants_485012761632","slug":"galaktopoleio-stamoy-peiraia-4850","kind":"restaurant","name":"Γαλακτοπωλείο ΣΤΑΜΟΥ, Πειραιά","lat":37.93559337890928,"lng":23.64309227138255,"url":"https://maps.app.goo.gl/msTiobs8vpLYrcz57?g_st=ipc","address":"Λεωφ. Αφεντούλη 16 &, Πραξιτέλους 243, Πειραιάς 185 36","categoryIds":["desserts"],"categories":["Dessert Shops"],"distanceKm":0.4957136126028623},{"id":"mexicanRestaurants_a97d037088f2","slug":"che-cocina-y-barra-sudamericana-a97d","kind":"restaurant","name":"CHE Cocina y Barra Sudamericana","lat":37.94032437815617,"lng":23.645996360812326,"url":"https://maps.app.goo.gl/TyUmY21xfn9LHmce7?g_st=ipc","address":"Καραΐσκου 151, Πειραιάς 185 35","categoryIds":["mexican"],"categories":["Mexican Restaurants"],"distanceKm":0.546697543797158},{"id":"burgersRestaurants_51cd3df73f20","slug":"mpar-mpee-kioy-freattyda-51cd","kind":"restaurant","name":"Μπαρ Μπεε Κιου - Φρεαττύδα","lat":37.93450645446817,"lng":23.642685440187794,"url":"https://maps.app.goo.gl/UkJPpNzXrBGL944RA?g_st=ipc","address":"Λεωφ. Φρεάττυδος 13, Πειραιάς 185 37","categoryIds":["burgers","cheap-eats"],"categories":["Burger Spots","Gyros & Cheap Eats"],"legacySlugs":["mpar-mpee-kioy-freattyda-b711"],"distanceKm":0.5836459502142283},{"id":"coffeeBrunchRestaurants_fe42c1fe0d07","slug":"la-belle-epoque-fe42","kind":"restaurant","name":"La Belle Époque","lat":37.94126457803724,"lng":23.646089165937596,"url":"https://maps.app.goo.gl/BAXbDkZ2it9TjYv19?g_st=ipc","address":"Αριστοτέλους 10, Πειραιάς 185 35","categoryIds":["coffee-brunch"],"categories":["Coffee & Brunch Spots"],"distanceKm":0.5856187129989737},{"id":"coffeeBrunchRestaurants_dede4a68abbb","slug":"temps-perdu-dede","kind":"restaurant","name":"Temps Perdu","lat":37.94112588112371,"lng":23.646526456108827,"url":"https://maps.app.goo.gl/ABEv497Uv63A5df28?g_st=ipc","address":"Καραΐσκου 114, Πειραιάς 185 35","categoryIds":["coffee-brunch"],"categories":["Coffee & Brunch Spots"],"distanceKm":0.6159743641944727},{"id":"dessertsRestaurants_7b04a6c0e5e9","slug":"loukoumother-s-peiraias-7b04","kind":"restaurant","name":"Loukoumother's Πειραιάς","lat":37.93905157733481,"lng":23.647294517023667,"url":"https://maps.app.goo.gl/n5Dp63fF47u9TZuz6?g_st=ipc","address":"Ακτή Μουτσοπούλου 12, Πειραιάς 185 35","categoryIds":["desserts"],"categories":["Dessert Shops"],"distanceKm":0.6484387166544251},{"id":"municipalities_45e34fb512ae","slug":"peiraias-45e3","kind":"municipality","name":"Πειραιάς","lat":37.9421,"lng":23.6465,"aliases":["Πειραιας","Πειραια","Pireaus","Pireus","Piraeus"],"region":"Πειραιάς","name_en":"Piraeus","region_en":"Piraeus","distanceKm":0.6580545762002149},{"id":"cheapEatsRestaurants_8cc8f7ce2a5d","slug":"kali-pita-8cc8","kind":"restaurant","name":"Καλή Πίτα","lat":37.93904235716474,"lng":23.647494180172405,"url":"https://maps.app.goo.gl/5Uc5sfiitWqftH1u6?g_st=ipc","address":"Ακτή Μουτσοπούλου 10, Πειραιάς 185 35","categoryIds":["cheap-eats"],"categories":["Gyros & Cheap Eats"],"distanceKm":0.6659748559618494},{"id":"cheapEatsRestaurants_5cd53c0e6d00","slug":"la-jacka-5cd5","kind":"restaurant","name":"La Jacka","lat":37.9421277470468,"lng":23.647527719022438,"url":"https://maps.app.goo.gl/4aXg5d6SUN73hXDt8?g_st=ic","address":"Καραΐσκου 117, Pireas 185 32","categoryIds":["cheap-eats"],"categories":["Gyros & Cheap Eats"],"distanceKm":0.7398233172067794},{"id":"mustSeeAttractions_1f6f7342d4cd","slug":"to-roloi-toy-peiraia-1f6f","kind":"restaurant","name":"Το Ρολόι του Πειραιά","lat":37.93913367533199,"lng":23.648716548781902,"url":"https://maps.app.goo.gl/T618Z3KqK9zezNFE9?g_st=ipc","address":"Ακτή Μουτσοπούλου 6, Πειραιάς 185 35","categoryIds":["attractions"],"categories":["Must-See Attractions"],"distanceKm":0.7728265787054964},{"id":"luxuryDiningRestaurants_ef48010de0b4","slug":"mitsis-n-u-piraeus-port-ef48","kind":"restaurant","name":"Mitsis N'U Piraeus Port","lat":37.946256281878604,"lng":23.642735306655823,"url":"https://maps.app.goo.gl/3DKm52Lh2ApKNN1X8?g_st=ipc","address":"Αριστείδου 16-20, Πειραιάς 185 31","categoryIds":["luxury-dining"],"categories":["Luxury Dining"],"distanceKm":0.814915290685115},{"id":"fishTavernasRestaurants_b66c76146a47","slug":"psarotaverna-o-giannis-b66c","kind":"restaurant","name":"Ψαροταβέρνα Ο Γιάννης","lat":37.93499994150365,"lng":23.63212553676847,"url":"https://maps.app.goo.gl/eNuQNp1jpPTuF4Zp6?g_st=ipc","address":"Λεωφ. Χατζηκυριάκου 107, Πειραιάς 185 39","categoryIds":["fish-tavernas"],"categories":["Fish Tavernas"],"distanceKm":0.8316101248927963},{"id":"italianRestaurants_4128f283696a","slug":"santa-pasta-cucina-italiana-4128","kind":"restaurant","name":"SANTA PASTA Cucina Italiana","lat":37.94068201075252,"lng":23.64952027321399,"url":"https://maps.app.goo.gl/s3jT1Jfm88nb6Y8f8?g_st=ipc","address":"Γρ. Λαμπράκη 144, Πειραιάς 185 35","categoryIds":["italian"],"categories":["Italian Restaurants"],"distanceKm":0.857521173037205},{"id":"cheapEatsRestaurants_cd23ca747a49","slug":"jackaroo-cd23","kind":"restaurant","name":"JACKAROO","lat":37.94026416396424,"lng":23.649684152709604,"url":"https://maps.app.goo.gl/7CALFJPovo6YskzUA?g_st=ipc","address":"Σωτήρος Διός 45, Πειραιάς 185 34","categoryIds":["cheap-eats"],"categories":["Gyros & Cheap Eats"],"distanceKm":0.864530780692583},{"id":"cheapEatsRestaurants_44069571c770","slug":"o-giorgos-4406","kind":"restaurant","name":"Ο Γιώργος","lat":37.94626514113319,"lng":23.644321784628165,"url":"https://maps.app.goo.gl/41PfRyTP8uJ6c3uy9?g_st=ipc","address":"Γούναρη 18 και, Νικήτα, Πειραιάς 185 31","categoryIds":["cheap-eats"],"categories":["Gyros & Cheap Eats"],"distanceKm":0.8683376346961458},{"id":"fishTavernasRestaurants_8bbe1388dc43","slug":"to-yperokeanion-8bbe","kind":"restaurant","name":"Το Υπερωκεάνιον","lat":37.937027133979264,"lng":23.630306101455314,"url":"https://maps.app.goo.gl/8UkxMc6urxkVhCf28?g_st=ipc","address":"Μαρίας Χατζηκυριάκου 48, Πειραιάς 185 38","categoryIds":["fish-tavernas"],"categories":["Fish Tavernas"],"distanceKm":0.8781975484284007},{"id":"cheapEatsRestaurants_976f1c06c63f","slug":"i-vromiara-the-gourmet-street-food-piraeus-976f","kind":"restaurant","name":"Η Βρωμιαρα - The Gourmet Street Food Piraeus","lat":37.94005665661438,"lng":23.649946814929663,"url":"https://maps.app.goo.gl/9bVUq8xDuxLwaLim9?g_st=ipc","address":"Σωτήρος Διός 47, Πειραιάς 185 34","categoryIds":["cheap-eats"],"categories":["Gyros & Cheap Eats"],"distanceKm":0.884821883357866}],"sameRegion":[],"mentionedGuides":[],"canonicalSlug":"story-streat-ff45","isCanonicalEntity":true,"enrichment":{"summary_en":"Story Streat is a curated restaurant in Πειραιάς 185 35 in the Gyros & Cheap Eats collection. It is connected to 17 nearby Googlementor picks to help travelers build a stronger local route.","summary_el":"Story Streat είναι ένα επιλεγμένο σημείο φαγητού στην περιοχή Πειραιάς 185 35 και ανήκει στη συλλογή Gyros & Cheap Eats. Συνδέεται με 17 κοντινές προτάσεις του Googlementor για πιο ολοκληρωμένη εμπειρία.","vibe_tags":["curated","budget-friendly"],"best_for":["first-time visitors","food lovers","budget travelers"],"visit_moments":["lunch stop","dinner stop"],"practical_note":"Address and direct map link are available for easy turn-by-turn access.","nearby_walkable_count":17,"nearby_count_2km":62,"confidence":0.98}},"__N_SSG":true}