{"pageProps":{"entity":{"id":"greekRestaurants_3e3bf2271718","slug":"tiganies-schares-meat-restaurant-3e3b","kind":"restaurant","name":"Τηγανιές & Σχάρες Meat Restaurant","lat":40.62182611021091,"lng":22.95622107562596,"url":"https://maps.app.goo.gl/LQSzg3m51jKr2wvR7?g_st=ipc","address":"Λυσιμάχου Καυταντζόγλου 12, Θεσσαλονίκη 546 40","categoryIds":["greek-restaurants"],"categories":["Greek Restaurants"]},"sameCategory":[{"id":"greekRestaurants_028889ec4c7c","slug":"kafeneion-giasemi-0288","kind":"restaurant","name":"Καφενείον Γιασεμί","lat":40.62700271205112,"lng":22.950250188903894,"url":"https://maps.app.goo.gl/igCkYjicpsFhyKi79?g_st=ipc","address":"Τσόπελα 4, Θεσσαλονίκη 546 21","categoryIds":["greek-restaurants"],"categories":["Greek Restaurants"]},{"id":"greekRestaurants_e19673ba852f","slug":"pire-kai-vradiazei-e196","kind":"restaurant","name":"Πήρε και Βραδιάζει","lat":40.6161654625719,"lng":22.96166588679185,"url":"https://maps.app.goo.gl/Y7iaetGgvQnRv1wAA?g_st=ipc","address":"Ομήρου 7, Θεσσαλονίκη 546 39","categoryIds":["greek-restaurants"],"categories":["Greek Restaurants"]},{"id":"greekRestaurants_96300d908e41","slug":"massalia-9630","kind":"restaurant","name":"Μασσαλία","lat":40.62879227637267,"lng":22.950820456091158,"url":"https://maps.app.goo.gl/Woet67mPUQvmRPAY6?g_st=ipc","address":"Μανουσογιαννάκη 6, Θεσσαλονίκη 546 21","categoryIds":["greek-restaurants"],"categories":["Greek Restaurants"]},{"id":"greekRestaurants_bc2682007b45","slug":"canteen-all-day-bar-restaurant-bc26","kind":"restaurant","name":"Canteen All day Bar Restaurant","lat":40.628045759253304,"lng":22.94769823250704,"url":"https://maps.app.goo.gl/4PvAxWQTpkBWbzxZ6?g_st=ipc","address":"Δημ. Γούναρη 7, Θεσσαλονίκη 546 22","categoryIds":["greek-restaurants"],"categories":["Greek Restaurants"]},{"id":"greekRestaurants_9ca9bccdb731","slug":"diagonios-1977-9ca9","kind":"restaurant","name":"Διαγώνιος 1977","lat":40.628424051093205,"lng":22.94777702854618,"url":"https://maps.app.goo.gl/NGT8FMWUaiPpBxYGA?g_st=ipc","address":"Πλ. Φαναριωτῶν 2, Θεσσαλονίκη 546 22","categoryIds":["greek-restaurants"],"categories":["Greek Restaurants"]},{"id":"greekRestaurants_5db983812e0a","slug":"to-elliniko-5db9","kind":"restaurant","name":"Το Ελληνικό","lat":40.62835209292357,"lng":22.947350658434885,"url":"https://maps.app.goo.gl/xnCJBuGfhotgXpup6?g_st=ipc","address":"Στρ. Καλλάρη 9, Θεσσαλονίκη 546 22","categoryIds":["greek-restaurants"],"categories":["Greek Restaurants"]},{"id":"greekRestaurants_e2d4737d2e6a","slug":"deka-trapezia-e2d4","kind":"restaurant","name":"Δέκα Τραπέζια","lat":40.62814201457264,"lng":22.946897711090458,"url":"https://maps.app.goo.gl/rmRGahPcj5NACQVp9?g_st=ipc","address":"Στρ. Καλλάρη 4, Θεσσαλονίκη 546 22","categoryIds":["greek-restaurants"],"categories":["Greek Restaurants"]},{"id":"greekRestaurants_8e1d134cbe5a","slug":"diavasi-8e1d","kind":"restaurant","name":"Διάβαση","lat":40.629392533313,"lng":22.947707172796427,"url":"https://maps.app.goo.gl/MvYkV7ZoB8ykDseV7?g_st=ipc","address":"Π. Μελά 13, Θεσσαλονίκη 546 22","categoryIds":["greek-restaurants"],"categories":["Greek Restaurants"]},{"id":"greekRestaurants_6540c06dfef8","slug":"argofageio-6540","kind":"restaurant","name":"Αργοφαγείο","lat":40.631130013359666,"lng":22.94963377057043,"url":"https://maps.app.goo.gl/Xdu7zZ8Wq5MhAe6R6?g_st=ipc","address":"Απελλού 6, Θεσσαλονίκη 546 22","categoryIds":["greek-restaurants"],"categories":["Greek Restaurants"]},{"id":"greekRestaurants_a1a2ecf01b90","slug":"neos-galerios-a1a2","kind":"restaurant","name":"Νέος Γαλέριος","lat":40.63104870965081,"lng":22.94936321160579,"url":"https://maps.app.goo.gl/x4M4LyYumCxPakjo7?g_st=ipc","address":"Απελλού 3, Θεσσαλονίκη 546 22","categoryIds":["greek-restaurants"],"categories":["Greek Restaurants"]},{"id":"greekRestaurants_0677d6c362a6","slug":"evora-eatery-0677","kind":"restaurant","name":"Εβόρα Eatery","lat":40.61655136125546,"lng":22.969054811212995,"url":"https://maps.app.goo.gl/K4Cnh5DSvkNE3ttK8?g_st=ipc","address":"Διογένους 13, Θεσσαλονίκη 544 53","categoryIds":["greek-restaurants"],"categories":["Greek Restaurants"]},{"id":"greekRestaurants_90c55ea6b27c","slug":"rogkoti-1928-90c5","kind":"restaurant","name":"Ρογκότη 1928","lat":40.63063704521069,"lng":22.947121329539414,"url":"https://maps.app.goo.gl/oYN4BameZGmdPwsE8?g_st=ipc","address":"Grigoriou Palama 8, Thessaloniki 546 22","categoryIds":["greek-restaurants"],"categories":["Greek Restaurants"]}],"nearby":[{"id":"familyFriendly_a5c1b620864c","slug":"pedion-areos-a5c1","kind":"restaurant","name":"Pedion Areos","lat":40.62247582832067,"lng":22.955391871168274,"url":"https://maps.app.goo.gl/hVHTxMywZzbL2Rr26?g_st=ic","address":"Eth. Aminis 28, Thessaloniki 546 21","categoryIds":["family-friendly"],"categories":["Kid Friendly Locations"],"distanceKm":0.1005841508288788},{"id":"italianRestaurants_7e579a43d1ce","slug":"dos-margaritas-7e57","kind":"restaurant","name":"Dos Margaritas","lat":40.621386723569444,"lng":22.952891023289123,"url":"https://maps.app.goo.gl/XC8KbzgVXxEiYUru8?g_st=ipc","address":"Emiliou Riadi 5, Thessaloniki 546 40","categoryIds":["italian"],"categories":["Italian Restaurants"],"distanceKm":0.2852708190296727},{"id":"cheapEatsRestaurants_26918358a6af","slug":"pizza-sakis-2691","kind":"restaurant","name":"Pizza Sakis","lat":40.6189040866906,"lng":22.958041870578818,"url":"https://maps.app.goo.gl/taG7ENcMfbyzazQX7?g_st=ipc","address":"Leof. Stratou 26, Thessaloniki 546 40","categoryIds":["cheap-eats"],"categories":["Gyros & Cheap Eats"],"distanceKm":0.35942460229699336},{"id":"mustSeeAttractions_10253cdb4884","slug":"archaeological-museum-of-thessaloniki-1025","kind":"restaurant","name":"Archaeological Museum of Thessaloniki","lat":40.625561586478966,"lng":22.953718318827413,"url":"https://maps.app.goo.gl/MFq7CxhtGP7Gi8k59?g_st=ipc","address":"Manoli Andronikou 6, Thessaloniki 546 21","categoryIds":["attractions"],"categories":["Must-See Attractions"],"distanceKm":0.46598839961303284},{"id":"cheapEatsRestaurants_fccedeec0967","slug":"to-myrmigki-hot-dog-vrasta-loykanika-fcce","kind":"restaurant","name":"Το Μυρμήγκι - HOT-DOG - Βραστά Λουκάνικα","lat":40.61789526919397,"lng":22.95852389027651,"url":"https://maps.app.goo.gl/u5NXam3TJPXTBEGQ6?g_st=ipc","address":"Konstantinoupoleos 8, Thessaloniki 546 40","categoryIds":["cheap-eats"],"categories":["Gyros & Cheap Eats"],"distanceKm":0.4783554906915101},{"id":"fishTavernasRestaurants_8c218ee54db9","slug":"trizoni-exclusive-8c21","kind":"restaurant","name":"Trizoni Exclusive","lat":40.6187461914036,"lng":22.951970459036858,"url":"https://maps.app.goo.gl/mWZS1wKdUUfV8Ris7?g_st=ipc","address":"Leof. Meg. Alexandrou 2, Thessaloniki 546 40","categoryIds":["fish-tavernas"],"categories":["Fish Tavernas"],"distanceKm":0.4959780206898667},{"id":"luxuryDiningRestaurants_be300778d86d","slug":"salonika-restaurant-bar-be30","kind":"restaurant","name":"Salonika Restaurant & Bar","lat":40.618706388830155,"lng":22.951992243395964,"url":"https://maps.app.goo.gl/m2U4xxrF3WyY7WwP7?g_st=ipc","address":"Leof. Meg. Alexandrou 2, Thessaloniki 546 40","categoryIds":["luxury-dining"],"categories":["Luxury Dining"],"distanceKm":0.4977242627069106},{"id":"familyFriendly_7f25af87c856","slug":"bikeit-7f25","kind":"restaurant","name":"BikeIT","lat":40.61873680277816,"lng":22.95194585489908,"url":"https://maps.app.goo.gl/JgmdrRTYY3tBNz6y8?g_st=ic","address":"Leof. Meg. Alexandrou 2, Thessaloniki 546 40","categoryIds":["family-friendly"],"categories":["Kid Friendly Locations"],"distanceKm":0.49820145460067133},{"id":"dessertsRestaurants_820e5a62f3a9","slug":"babalooka-to-aythentiko-galaktompoyreko-thessalonikis-820e","kind":"restaurant","name":"Babalooka-Το Αυθεντικό Γαλακτομπούρεκο Θεσσαλονίκης","lat":40.62123778051854,"lng":22.962627985179793,"url":"https://maps.app.goo.gl/tnzvbcbCY13DjRZe7?g_st=ipc","address":"Δίπλα στη στροφή Λαμπράκη, Leof. Kon/nou Karamanli 15, Thessaloniki 546 38","categoryIds":["desserts"],"categories":["Dessert Shops"],"distanceKm":0.5446854870202992},{"id":"italianRestaurants_0a96069b98fe","slug":"navona-restaurant-bar-0a96","kind":"restaurant","name":"Navona Restaurant Bar","lat":40.617883104732,"lng":22.952114230685524,"url":"https://maps.app.goo.gl/oPmtz2JTaw4nxWtp6","address":"Leof. Meg. Alexandrou 2, Thessaloniki 546 40","categoryIds":["italian"],"categories":["Italian Restaurants"],"distanceKm":0.5589107298084032},{"id":"cheapEatsRestaurants_c679cc68cdf8","slug":"tost-spesial-c679","kind":"restaurant","name":"Tost Spesial","lat":40.616314670176166,"lng":22.955059124656405,"url":"https://maps.app.goo.gl/9AT6QmGaM1pLwsRb9?g_st=ipc","address":"Paraskevopoulou 12, Thessaloniki 546 40","categoryIds":["cheap-eats"],"categories":["Gyros & Cheap Eats"],"distanceKm":0.6206417078419944},{"id":"familyFriendly_220ccb0fa158","slug":"road-safety-park-220c","kind":"restaurant","name":"Road Safety Park","lat":40.61702068861312,"lng":22.952313879309372,"url":"https://maps.app.goo.gl/dvUGTVktdMviyjRy9?g_st=ic","address":"Leof. Meg. Alexandrou 6, Thessaloniki 546 41","categoryIds":["family-friendly"],"categories":["Kid Friendly Locations"],"distanceKm":0.6279098695596805},{"id":"coffeeBrunchRestaurants_395eba0202c2","slug":"orange-395e","kind":"restaurant","name":"Orange","lat":40.61657039911688,"lng":22.959405836121938,"url":"https://maps.app.goo.gl/GeBX3Ci17XiZV9go6?g_st=ipc","address":"Konstantinoupoleos 21, Thessaloniki 546 40","categoryIds":["coffee-brunch"],"categories":["Coffee & Brunch Spots"],"distanceKm":0.6432637055468513},{"id":"municipalities_e812b237f880","slug":"triandria-e812","kind":"municipality","name":"Τριανδρία","lat":40.6256,"lng":22.9628,"aliases":["Τριανδρια"],"region":"Θεσσαλονίκη","name_en":"Triandria","region_en":"Thessaloniki","distanceKm":0.6959811959070294},{"id":"burgersRestaurants_83b3a5ac6b77","slug":"parco-83b3","kind":"restaurant","name":"Parco","lat":40.62746957872299,"lng":22.95260526619064,"url":"https://maps.app.goo.gl/XvoKi6u2LSYH1F6o7?g_st=ipc","address":"D' Esperey 1, Thessaloniki 546 21","categoryIds":["burgers","coffee-brunch"],"categories":["Burger Spots","Coffee & Brunch Spots"],"legacySlugs":["parco-b30e"],"distanceKm":0.6977895109944936},{"id":"asianRestaurants_4ecd6c075c4e","slug":"huang-4ecd","kind":"restaurant","name":"Huang","lat":40.62746881479162,"lng":22.95210600219236,"url":"https://maps.app.goo.gl/GNVEYmU2FT2611vx5?g_st=ipc","address":"Geor. Theotoka 1, Thessaloniki 546 21","categoryIds":["asian"],"categories":["Asian Restaurants"],"distanceKm":0.7171439046046106},{"id":"coffeeBrunchRestaurants_535d5a114e1a","slug":"titania-535d","kind":"restaurant","name":"ΤΙΤΑΝΙΑ","lat":40.62745635041655,"lng":22.95172436992036,"url":"https://maps.app.goo.gl/6d8e2D2YLjsqGz9H8?g_st=ipc","address":"Tsimiski 139, Thessaloniki 546 21","categoryIds":["coffee-brunch"],"categories":["Coffee & Brunch Spots"],"distanceKm":0.7320976857020461},{"id":"greekRestaurants_028889ec4c7c","slug":"kafeneion-giasemi-0288","kind":"restaurant","name":"Καφενείον Γιασεμί","lat":40.62700271205112,"lng":22.950250188903894,"url":"https://maps.app.goo.gl/igCkYjicpsFhyKi79?g_st=ipc","address":"Τσόπελα 4, Θεσσαλονίκη 546 21","categoryIds":["greek-restaurants"],"categories":["Greek Restaurants"],"distanceKm":0.7650261327983569},{"id":"greekRestaurants_e19673ba852f","slug":"pire-kai-vradiazei-e196","kind":"restaurant","name":"Πήρε και Βραδιάζει","lat":40.6161654625719,"lng":22.96166588679185,"url":"https://maps.app.goo.gl/Y7iaetGgvQnRv1wAA?g_st=ipc","address":"Ομήρου 7, Θεσσαλονίκη 546 39","categoryIds":["greek-restaurants"],"categories":["Greek Restaurants"],"distanceKm":0.7793480118623497},{"id":"coffeeBrunchRestaurants_4980bf5534c8","slug":"avenue-modern-cuisine-4980","kind":"restaurant","name":"AVENUE - Modern Cuisine","lat":40.6155426258885,"lng":22.952060123633387,"url":"https://maps.app.goo.gl/sbWsHkcndnd2Zv547?g_st=ipc","address":"Leof. Meg. Alexandrou 6, Thessaloniki 546 41","categoryIds":["coffee-brunch"],"categories":["Coffee & Brunch Spots"],"distanceKm":0.7819914581499126},{"id":"coffeeBrunchRestaurants_553ce2fa7675","slug":"plateia-theatroy-kafe-mpar-estiatorio-553c","kind":"restaurant","name":"Πλατεία Θεάτρου, Καφέ / Μπαρ/Εστιατόριο","lat":40.62692292313497,"lng":22.94981349501023,"url":"https://maps.app.goo.gl/bFpP1KB6naw1VbYr7?g_st=ipc","address":"Eth. Aminis 4, Thessaloniki 546 21","categoryIds":["coffee-brunch"],"categories":["Coffee & Brunch Spots"],"distanceKm":0.7833472367821367},{"id":"cheapEatsRestaurants_360afa6ead29","slug":"salu-deli-bar-360a","kind":"restaurant","name":"Salu Deli Bar","lat":40.62815289802217,"lng":22.952006929781376,"url":"https://maps.app.goo.gl/Mew4X3m69PgK4Y2TA?g_st=ipc","address":"Manousagiannaki 20, Thessaloniki 546 21","categoryIds":["cheap-eats","coffee-brunch"],"categories":["Gyros & Cheap Eats","Coffee & Brunch Spots"],"legacySlugs":["salu-deli-bar-e516"],"distanceKm":0.7882970702453607},{"id":"municipalities_6e0a80514433","slug":"kaytanzogleio-periochi-6e0a","kind":"municipality","name":"Καυτανζόγλειο περιοχή","lat":40.6157,"lng":22.9613,"region":"Θεσσαλονίκη","name_en":"Kaftanzoglio Area","region_en":"Thessaloniki","distanceKm":0.8048530076325653},{"id":"mustSeeAttractions_43897b8cc3d5","slug":"white-tower-of-thessaloniki-4389","kind":"restaurant","name":"White Tower of Thessaloniki","lat":40.62644387532891,"lng":22.948379384273697,"url":"https://maps.app.goo.gl/Rpx9LHfqRzCfvkCh8?g_st=ipc","address":"Thessaloniki 546 21","categoryIds":["attractions"],"categories":["Must-See Attractions"],"distanceKm":0.8376449609351233}],"sameRegion":[],"mentionedGuides":[],"canonicalSlug":"tiganies-schares-meat-restaurant-3e3b","isCanonicalEntity":true,"enrichment":{"summary_en":"Τηγανιές & Σχάρες Meat Restaurant is a curated restaurant in Θεσσαλονίκη 546 40 in the Greek Restaurants collection. It is connected to 22 nearby Googlementor picks to help travelers build a stronger local route.","summary_el":"Τηγανιές & Σχάρες Meat Restaurant είναι ένα επιλεγμένο σημείο φαγητού στην περιοχή Θεσσαλονίκη 546 40 και ανήκει στη συλλογή Greek Restaurants. Συνδέεται με 22 κοντινές προτάσεις του Googlementor για πιο ολοκληρωμένη εμπειρία.","vibe_tags":["curated"],"best_for":["first-time visitors","food lovers"],"visit_moments":["lunch stop","dinner stop"],"practical_note":"Address and direct map link are available for easy turn-by-turn access.","nearby_walkable_count":22,"nearby_count_2km":228,"confidence":0.98}},"__N_SSG":true}