{"pageProps":{"entity":{"id":"greekRestaurants_332aa0a30f34","slug":"to-koytoyki-332a","kind":"restaurant","name":"Το Κουτούκι","lat":38.01916385299786,"lng":23.80500366441751,"url":"https://maps.app.goo.gl/SuZCLAfs8GjCTcWG6?g_st=ipc","address":"Υψηλάντου 5, Χαλάνδρι 152 32","categoryIds":["greek-restaurants"],"categories":["Greek Restaurants"]},"sameCategory":[{"id":"greekRestaurants_166b7c278db9","slug":"tzitzikas-kai-mermigkas-166b","kind":"restaurant","name":"Τζίτζικας Και Μέρμηγκας","lat":38.02047878345652,"lng":23.804706604274816,"url":"https://maps.app.goo.gl/8pYJH9GZBYeQD5mk6?g_st=ipc","address":"Αισχύλου 26, Χαλάνδρι 152 34","categoryIds":["greek-restaurants"],"categories":["Greek Restaurants"]},{"id":"greekRestaurants_a120da3cfe10","slug":"mezedopoleio-iordanis-a120","kind":"restaurant","name":"Μεζεδοπωλείο Ιορδάνης","lat":38.020133303757966,"lng":23.80185334902281,"url":"https://maps.app.goo.gl/FYyCghhM4WWKom5n9?g_st=ipc","address":"Αριστοτέλους 42, Χαλάνδρι 152 32","categoryIds":["greek-restaurants"],"categories":["Greek Restaurants"]},{"id":"greekRestaurants_141b4df624df","slug":"peri-oysias-141b","kind":"restaurant","name":"Περί Ουσίας","lat":38.0199005649911,"lng":23.809145664428573,"url":"https://maps.app.goo.gl/gEFvWf42qxvaJBEX9?g_st=ipc","address":"Θησέως 25, Χαλάνδρι 152 34","categoryIds":["greek-restaurants"],"categories":["Greek Restaurants"]},{"id":"greekRestaurants_6657f75f25c7","slug":"trypia-dekara-6657","kind":"restaurant","name":"Τρύπια Δεκάρα","lat":38.020535111511364,"lng":23.799981150995844,"url":"https://maps.app.goo.gl/aTApNBNRqHkEo3CH8?g_st=ipc","address":"Θεμιστοκλέους 6, Χαλάνδρι 152 32","categoryIds":["greek-restaurants"],"categories":["Greek Restaurants"]},{"id":"greekRestaurants_d2dfa77acfa8","slug":"doykissa-mezedopoleio-d2df","kind":"restaurant","name":"Δούκισσα Μεζεδοπωλείο","lat":38.0195289224619,"lng":23.810346764437185,"url":"https://maps.app.goo.gl/xuDMuCBBZTFu1suy8?g_st=ipc","address":"Δουκίσσης Πλακεντίας 14, Χαλάνδρι 152 34","categoryIds":["greek-restaurants"],"categories":["Greek Restaurants"]},{"id":"greekRestaurants_69231f24503b","slug":"mpakalotaverna-6923","kind":"restaurant","name":"Μπακαλοταβέρνα","lat":38.02091962634735,"lng":23.79935272546419,"url":"https://maps.app.goo.gl/D6gW3fsdkz7sh9bg8?g_st=ipc","address":"Θουκυδίδου 6, Χαλάνδρι 152 32","categoryIds":["greek-restaurants"],"categories":["Greek Restaurants"]},{"id":"greekRestaurants_f52198928cda","slug":"mystikos-kipos-f521","kind":"restaurant","name":"Μυστικός Κήπος","lat":38.02018220795105,"lng":23.798366893276665,"url":"https://maps.app.goo.gl/RvfsJX8RaCUstXSa6?g_st=ipc","address":"Καραολη Δημήτριου 21, Χαλάνδρι 152 32","categoryIds":["greek-restaurants"],"categories":["Greek Restaurants"]},{"id":"greekRestaurants_42b778a801b1","slug":"psomi-alati-42b7","kind":"restaurant","name":"ΨΩΜΙ & ΑΛΑΤΙ","lat":38.02138760980619,"lng":23.797709722137604,"url":"https://maps.app.goo.gl/3yMZtJ6XHLXuktHM7?g_st=ipc","address":"Πλ. Ελευθερωτών 8, Χαλάνδρι 152 32","categoryIds":["greek-restaurants"],"categories":["Greek Restaurants"]},{"id":"cheapEatsRestaurants_d9e484914294","slug":"mparmpalias-d9e4","kind":"restaurant","name":"Μπαρμπαλιάς","lat":38.022224299572,"lng":23.79656538042495,"url":"https://maps.app.goo.gl/LeEZCDs2GRC6YKuT7?g_st=ipc","address":"Λεωφ. Βασιλέως Γεωργίου B 6, Χαλάνδρι 152 33","categoryIds":["cheap-eats","greek-restaurants"],"categories":["Gyros & Cheap Eats","Greek Restaurants"],"legacySlugs":["mparmpalias-c76d"]},{"id":"greekRestaurants_8c8e269305b0","slug":"nison-gi-8c8e","kind":"restaurant","name":"Νήσων Γη","lat":38.011331255497275,"lng":23.81122856443911,"url":"https://maps.app.goo.gl/wmEbsZ59WvGe41oB6?g_st=ipc","address":"Λεωφ. Μεσογείων 356, Αγ. Παρασκευή 153 41","categoryIds":["greek-restaurants"],"categories":["Greek Restaurants"]},{"id":"greekRestaurants_8e94a0e9697c","slug":"to-steki-tis-tompra-8e94","kind":"restaurant","name":"Το στέκι της Τόμπρα","lat":38.01114194965107,"lng":23.812150664429954,"url":"https://maps.app.goo.gl/nzMoaK1cxHPd4BAQA?g_st=ipc","address":"Ηπείρου 5-7, Αγ. Παρασκευή 153 41","categoryIds":["greek-restaurants"],"categories":["Greek Restaurants"]},{"id":"greekRestaurants_c4e480192004","slug":"ta-romanakia-c4e4","kind":"restaurant","name":"Τα Ρωμανάκια","lat":38.01166841393731,"lng":23.8131702489518,"url":"https://maps.app.goo.gl/huAdXz8UP2bA8sPj6?g_st=ipc","address":"Λεωφ. Μεσογείων 366, Αγ. Παρασκευή 153 41","categoryIds":["greek-restaurants"],"categories":["Greek Restaurants"]}],"nearby":[{"id":"greekRestaurants_166b7c278db9","slug":"tzitzikas-kai-mermigkas-166b","kind":"restaurant","name":"Τζίτζικας Και Μέρμηγκας","lat":38.02047878345652,"lng":23.804706604274816,"url":"https://maps.app.goo.gl/8pYJH9GZBYeQD5mk6?g_st=ipc","address":"Αισχύλου 26, Χαλάνδρι 152 34","categoryIds":["greek-restaurants"],"categories":["Greek Restaurants"],"distanceKm":0.14851118047519002},{"id":"dessertsRestaurants_4b614377342f","slug":"a-la-gkrek-4b61","kind":"restaurant","name":"Α λα γκρεκ","lat":38.01997084545109,"lng":23.803610791226863,"url":"https://maps.app.goo.gl/ErAvKczSJTMADaCZ7?g_st=ipc","address":"Αγίας Παρασκευής 65, Χαλάνδρι 152 34","categoryIds":["desserts"],"categories":["Dessert Shops"],"distanceKm":0.15145865632651664},{"id":"coffeeBrunchRestaurants_c6ccd807225a","slug":"bread-b-c-bread-before-christ-c6cc","kind":"restaurant","name":"BREAD B.C. Bread Before Christ","lat":38.02007274297337,"lng":23.803168344895795,"url":"https://maps.app.goo.gl/TyGqvKXydEaJvedUA?g_st=ipc","address":"Αγίας Παρασκευής 59, Χαλάνδρι 152 34","categoryIds":["coffee-brunch","desserts"],"categories":["Coffee & Brunch Spots","Dessert Shops"],"legacySlugs":["bread-b-c-bread-before-christ-012b"],"distanceKm":0.1898994905962529},{"id":"cheapEatsRestaurants_3872707b22c4","slug":"gianniotiko-soyvlaki-3872","kind":"restaurant","name":"ΓΙΑΝΝΙΩΤΙΚΟ ΣΟΥΒΛΑΚΙ","lat":38.018885728218706,"lng":23.80780825876153,"url":"https://maps.app.goo.gl/VSmxeGeUsq75QADx9?g_st=ic","address":"Agias Paraskevis 95, Chalandri 152 34","categoryIds":["cheap-eats"],"categories":["Gyros & Cheap Eats"],"distanceKm":0.24762144499911318},{"id":"coffeeBrunchRestaurants_19b78b1041b1","slug":"fisi-the-project-19b7","kind":"restaurant","name":"Fisi The Project","lat":38.02103923737401,"lng":23.803142982241283,"url":"https://maps.app.goo.gl/9VmK3qL1LECkBAycA?g_st=ipc","address":"Αγίου Γεωργίου 28, Χαλάνδρι 152 31","categoryIds":["coffee-brunch"],"categories":["Coffee & Brunch Spots"],"distanceKm":0.264675237516995},{"id":"coffeeBrunchRestaurants_c2dcfed13dc1","slug":"to-vazaki-juice-bar-c2dc","kind":"restaurant","name":"Το Βαζάκι Juice Bar","lat":38.021003514175945,"lng":23.80272580711501,"url":"https://maps.app.goo.gl/nDbFuEsz56BPrtWV8?g_st=ipc","address":"Αριστοτέλους 33, Χαλάνδρι 152 34","categoryIds":["coffee-brunch","vegetarian"],"categories":["Coffee & Brunch Spots","Vegetarian Friendly Restaurants"],"legacySlugs":["to-vazaki-juice-bar-fee3"],"distanceKm":0.28576290049062036},{"id":"greekRestaurants_a120da3cfe10","slug":"mezedopoleio-iordanis-a120","kind":"restaurant","name":"Μεζεδοπωλείο Ιορδάνης","lat":38.020133303757966,"lng":23.80185334902281,"url":"https://maps.app.goo.gl/FYyCghhM4WWKom5n9?g_st=ipc","address":"Αριστοτέλους 42, Χαλάνδρι 152 32","categoryIds":["greek-restaurants"],"categories":["Greek Restaurants"],"distanceKm":0.2962724306001369},{"id":"luxuryDiningRestaurants_b7dbfaaef165","slug":"hunters-room-grill-restaurant-b7db","kind":"restaurant","name":"Hunters Room & Grill Restaurant","lat":38.021923789577265,"lng":23.8032446662537,"url":"https://maps.app.goo.gl/UynpfTCs73NDwhL67?g_st=ipc","address":"Αριστοτέλους 23, & Παπάγου 17, Χαλάνδρι 152 34","categoryIds":["luxury-dining"],"categories":["Luxury Dining"],"distanceKm":0.3434010586369631},{"id":"greekRestaurants_141b4df624df","slug":"peri-oysias-141b","kind":"restaurant","name":"Περί Ουσίας","lat":38.0199005649911,"lng":23.809145664428573,"url":"https://maps.app.goo.gl/gEFvWf42qxvaJBEX9?g_st=ipc","address":"Θησέως 25, Χαλάνδρι 152 34","categoryIds":["greek-restaurants"],"categories":["Greek Restaurants"],"distanceKm":0.37196950327775524},{"id":"dessertsRestaurants_1340f4510458","slug":"terkenlis-chalandri-1340","kind":"restaurant","name":"Τερκενλής Χαλάνδρι","lat":38.017510768826554,"lng":23.80115941464693,"url":"https://maps.app.goo.gl/KH7YfmY3KwdAXppf7?g_st=ipc","address":"Παπανικολή 100, Χαλάνδρι 152 32","categoryIds":["desserts"],"categories":["Dessert Shops"],"distanceKm":0.3836598454993538},{"id":"coffeeBrunchRestaurants_6c7c61c89617","slug":"the-blind-spot-chalandri-6c7c","kind":"restaurant","name":"The Blind Spot Chalandri","lat":38.02081193268296,"lng":23.800852260132338,"url":"https://maps.app.goo.gl/meU9KZcd4KyskmW5A?g_st=ipc","address":"Αγίας Παρασκευής 29, Χαλάνδρι 152 34","categoryIds":["coffee-brunch"],"categories":["Coffee & Brunch Spots"],"distanceKm":0.4072235631650849},{"id":"mexicanRestaurants_2fa8f90ada8c","slug":"el-taco-bueno-2fa8","kind":"restaurant","name":"El Taco Bueno","lat":38.01767477225013,"lng":23.8094742149459,"url":"https://maps.app.goo.gl/nxvZPKw9Xm14kD6q7?g_st=ipc","address":"Αγίας Παρασκευής 110, Χαλάνδρι 152 32","categoryIds":["mexican"],"categories":["Mexican Restaurants"],"distanceKm":0.4251885472058434},{"id":"italianRestaurants_f7f3095a84cf","slug":"marika-f7f3","kind":"restaurant","name":"Μαρίκα","lat":38.01804412743968,"lng":23.809906247881305,"url":"https://maps.app.goo.gl/osUqCcuWwvgZPCpT6?g_st=ipc","address":"Αγίας Παρασκευής 109, Χαλάνδρι 152 34","categoryIds":["italian"],"categories":["Italian Restaurants"],"distanceKm":0.4471530874270201},{"id":"coffeeBrunchRestaurants_1645d021693b","slug":"butterfly-all-day-bar-1645","kind":"restaurant","name":"Butterfly All Day Bar","lat":38.02255116891241,"lng":23.802059077338257,"url":"https://maps.app.goo.gl/iFPzHyPcLoNrFRsNA?g_st=ipc","address":"Λεωφόρος Πεντέλης 8 , Στρατάρχου Παπάγου 5, Χαλάνδρι 152 33","categoryIds":["coffee-brunch"],"categories":["Coffee & Brunch Spots"],"distanceKm":0.4565082747457697},{"id":"greekRestaurants_6657f75f25c7","slug":"trypia-dekara-6657","kind":"restaurant","name":"Τρύπια Δεκάρα","lat":38.020535111511364,"lng":23.799981150995844,"url":"https://maps.app.goo.gl/aTApNBNRqHkEo3CH8?g_st=ipc","address":"Θεμιστοκλέους 6, Χαλάνδρι 152 32","categoryIds":["greek-restaurants"],"categories":["Greek Restaurants"],"distanceKm":0.4656400586971126},{"id":"greekRestaurants_d2dfa77acfa8","slug":"doykissa-mezedopoleio-d2df","kind":"restaurant","name":"Δούκισσα Μεζεδοπωλείο","lat":38.0195289224619,"lng":23.810346764437185,"url":"https://maps.app.goo.gl/xuDMuCBBZTFu1suy8?g_st=ipc","address":"Δουκίσσης Πλακεντίας 14, Χαλάνδρι 152 34","categoryIds":["greek-restaurants"],"categories":["Greek Restaurants"],"distanceKm":0.4698108743984071},{"id":"burgersRestaurants_9c281ee4457d","slug":"butcher-s-burger-halandri-steak-house-9c28","kind":"restaurant","name":"Butcher's Burger Halandri & Steak House","lat":38.02102226567013,"lng":23.79979731523688,"url":"https://maps.app.goo.gl/NnWhxpUGcKRnuxNb6?g_st=ipc","address":"Αγίας Παρασκευής 17, Χαλάνδρι 152 34","categoryIds":["burgers"],"categories":["Burger Spots"],"distanceKm":0.5007018206169636},{"id":"coffeeBrunchRestaurants_fee7b450e2e2","slug":"bored-c-mon-hub-fee7","kind":"restaurant","name":"Bored, C'mon hub","lat":38.02345514252141,"lng":23.803073599949013,"url":"https://maps.app.goo.gl/VKSg4V9NPf89H1ha7?g_st=ipc","address":"Λεωφ. Πεντέλης 15, Χαλάνδρι 152 34","categoryIds":["coffee-brunch"],"categories":["Coffee & Brunch Spots"],"distanceKm":0.5062361168835492},{"id":"coffeeBrunchRestaurants_9494334a3889","slug":"theory-bar-9494","kind":"restaurant","name":"Theory Bar","lat":38.02145412084465,"lng":23.799757422872677,"url":"https://maps.app.goo.gl/zwkhVzdkQughii3i7?g_st=ipc","address":"Πλάτωνος 14, Χαλάνδρι 152 34","categoryIds":["coffee-brunch"],"categories":["Coffee & Brunch Spots"],"distanceKm":0.5254074936682251},{"id":"asianRestaurants_2fedddceed72","slug":"noodle-bar-2fed","kind":"restaurant","name":"Noodle Bar","lat":38.022609797953606,"lng":23.8008077638359,"url":"https://maps.app.goo.gl/RDSLJTa1W2roeGbr9?g_st=ic","address":"Leof. Pentelis 1, Chalandri 152 34","categoryIds":["asian"],"categories":["Asian Restaurants"],"distanceKm":0.5309565011607399},{"id":"dessertsRestaurants_a1cf45fe2274","slug":"the-bakers-chalandri-a1cf","kind":"restaurant","name":"The Bakers Chalandri","lat":38.0226181576528,"lng":23.800807066742404,"url":"https://maps.app.goo.gl/gQq4yFd1tL46Twha8?g_st=ipc","address":"Λεωφ. Πεντέλης 1, Χαλάνδρι 152 34","categoryIds":["desserts"],"categories":["Dessert Shops"],"distanceKm":0.5316699218605627},{"id":"greekRestaurants_69231f24503b","slug":"mpakalotaverna-6923","kind":"restaurant","name":"Μπακαλοταβέρνα","lat":38.02091962634735,"lng":23.79935272546419,"url":"https://maps.app.goo.gl/D6gW3fsdkz7sh9bg8?g_st=ipc","address":"Θουκυδίδου 6, Χαλάνδρι 152 32","categoryIds":["greek-restaurants"],"categories":["Greek Restaurants"],"distanceKm":0.5321245475165858},{"id":"cheapEatsRestaurants_ec9b2c37ec79","slug":"o-ellinaras-ec9b","kind":"restaurant","name":"Ο ΕΛΛΗΝΑΡΑΣ","lat":38.017568546798636,"lng":23.799181700850475,"url":"https://maps.app.goo.gl/3g2yxFrBJ6V2KPZm7?g_st=ipc","address":"Παλαιολόγου 63, Χαλάνδρι 152 32","categoryIds":["cheap-eats"],"categories":["Gyros & Cheap Eats"],"distanceKm":0.5399780800929033},{"id":"cheapEatsRestaurants_70af29f6373f","slug":"holy-pasta-chalandri-70af","kind":"restaurant","name":"Holy Pasta Chalandri","lat":38.02090646389776,"lng":23.799055964157045,"url":"https://maps.app.goo.gl/dD7x8SrXxBd8mmDX7?g_st=ipc","address":"Ηρακλείου 3, Χαλάνδρι 152 32","categoryIds":["cheap-eats"],"categories":["Gyros & Cheap Eats"],"distanceKm":0.5558775363785109}],"sameRegion":[],"mentionedGuides":[{"slug":"american-college-of-greece-agia-paraskevi-guide-el","title":"American College of Greece: Οδηγός Αγίας Παρασκευής"},{"slug":"american-college-of-greece-agia-paraskevi-guide","title":"American College of Greece: Welcome to Agia Paraskevi"}],"canonicalSlug":"to-koytoyki-332a","isCanonicalEntity":true,"enrichment":{"summary_en":"Το Κουτούκι is a curated restaurant in Χαλάνδρι 152 32 in the Greek Restaurants collection. It is connected to 60 nearby Googlementor picks to help travelers build a stronger local route.","summary_el":"Το Κουτούκι είναι ένα επιλεγμένο σημείο φαγητού στην περιοχή Χαλάνδρι 152 32 και ανήκει στη συλλογή Greek Restaurants. Συνδέεται με 60 κοντινές προτάσεις του Googlementor για πιο ολοκληρωμένη εμπειρία.","vibe_tags":["curated"],"best_for":["first-time visitors","food lovers"],"visit_moments":["lunch stop","dinner stop"],"practical_note":"Address and direct map link are available for easy turn-by-turn access.","nearby_walkable_count":60,"nearby_count_2km":120,"confidence":0.98}},"__N_SSG":true}