{"pageProps":{"entity":{"id":"dessertsRestaurants_7728725cae0c","slug":"zacharoplasteio-ilios-kleanthoys-hlios-pastry-shop-kleanthous-7728","kind":"restaurant","name":"ΖΑΧΑΡΟΠΛΑΣΤΕΙΟ ΗΛΙΟΣ ΚΛΕΑΝΘΟΥΣ /Hlios Pastry Shop Kleanthous","lat":40.61382568960551,"lng":22.969099400369018,"url":"https://maps.app.goo.gl/tNhNJReBE4oYvZx6A?g_st=ipc","address":"Kleanthous 60, Thessaloniki 544 53","categoryIds":["desserts"],"categories":["Dessert Shops"]},"sameCategory":[{"id":"dessertsRestaurants_99d685460c3f","slug":"bombolo-99d6","kind":"restaurant","name":"BOMBOLO","lat":40.614466360968855,"lng":22.977765505829847,"url":"https://maps.app.goo.gl/z5pR8EZkJS12MpdQ9?g_st=ipc","address":"Grigoriou Lampraki 150, Thessaloniki 543 51","categoryIds":["desserts"],"categories":["Dessert Shops"]},{"id":"dessertsRestaurants_6236474f11ab","slug":"siropiasta-michailidis-6236","kind":"restaurant","name":"Siropiasta Michailidis","lat":40.61392951977613,"lng":22.979367441197244,"url":"https://maps.app.goo.gl/3YNsRZFm5KexaNhJ7?g_st=ipc","address":"Grigoriou Lampraki 160, Thessaloniki 543 52","categoryIds":["desserts"],"categories":["Dessert Shops"]},{"id":"dessertsRestaurants_820e5a62f3a9","slug":"babalooka-to-aythentiko-galaktompoyreko-thessalonikis-820e","kind":"restaurant","name":"Babalooka-Το Αυθεντικό Γαλακτομπούρεκο Θεσσαλονίκης","lat":40.62123778051854,"lng":22.962627985179793,"url":"https://maps.app.goo.gl/tnzvbcbCY13DjRZe7?g_st=ipc","address":"Δίπλα στη στροφή Λαμπράκη, Leof. Kon/nou Karamanli 15, Thessaloniki 546 38","categoryIds":["desserts"],"categories":["Dessert Shops"]},{"id":"dessertsRestaurants_e4f66f8adfe3","slug":"nikos-alexoudas-e4f6","kind":"restaurant","name":"Nikos Alexoudas","lat":40.610389059142975,"lng":22.958123238836652,"url":"https://maps.app.goo.gl/ifbqMFmsGqy7oaxA8?g_st=ipc","address":"Makedonias 18, Thessaloniki 546 42","categoryIds":["desserts"],"categories":["Dessert Shops"]},{"id":"dessertsRestaurants_84006bf7f4fa","slug":"sugarini-8400","kind":"restaurant","name":"Sugarini","lat":40.61332571258828,"lng":22.981104601509724,"url":"https://maps.app.goo.gl/m9owYPpFDRCrPtgq6?g_st=ipc","address":"Grigoriou Lampraki 169, Thessaloniki 543 52","categoryIds":["desserts"],"categories":["Dessert Shops"]},{"id":"dessertsRestaurants_0447f5ff16d8","slug":"pie-serres-lambrakis-0447","kind":"restaurant","name":"Pie \"SERRES\" Lambrakis","lat":40.611438946577884,"lng":22.985616518677983,"url":"https://maps.app.goo.gl/t2b2XQwYxmP3pkBd6?g_st=ipc","address":"Grigoriou Lampraki 222, Thessaloniki 555 34","categoryIds":["desserts"],"categories":["Dessert Shops"]},{"id":"dessertsRestaurants_a176ca58a94e","slug":"il-panino-a176","kind":"restaurant","name":"Il Panino","lat":40.60111282600128,"lng":22.964094400386756,"url":"https://maps.app.goo.gl/xgjKYkQmNmr9oVeU6?g_st=ipc","address":"Leof. Kon/nou Karamanli 154, Thessaloniki 542 48","categoryIds":["desserts"],"categories":["Dessert Shops"]},{"id":"dessertsRestaurants_8b22dff88156","slug":"alfa-ice-cream-cafe-8b22","kind":"restaurant","name":"Alfa Ice-Cream Cafe","lat":40.60099594467994,"lng":22.959526782313244,"url":"https://maps.app.goo.gl/tbZTnf9V3BccEmubA?g_st=ipc","address":"Delfon 143, Thessaloniki 546 46","categoryIds":["desserts"],"categories":["Dessert Shops"]},{"id":"dessertsRestaurants_4314e81fb349","slug":"boutique-baking-pepi-beza-4314","kind":"restaurant","name":"Boutique Baking Pepi Beza","lat":40.59730321322995,"lng":22.979587033632086,"url":"https://maps.app.goo.gl/daRMg1RfmVJcgATKA?g_st=ipc","address":"Meg. Alexandrou 3, Pilea 555 35","categoryIds":["desserts"],"categories":["Dessert Shops"]},{"id":"dessertsRestaurants_1eb1d7d0a39b","slug":"trigona-elenidis-antheon-1eb1","kind":"restaurant","name":"Τρίγωνα Ελενίδης (Ανθέων)","lat":40.601144746020374,"lng":22.95082783427097,"url":"https://maps.app.goo.gl/f4c7NqVni4s54aXE6?g_st=ipc","address":"Geor. Papandreou 6, Thessaloniki 546 45","categoryIds":["desserts"],"categories":["Dessert Shops"]},{"id":"dessertsRestaurants_cc58df47a36e","slug":"nick-alexoudas-cc58","kind":"restaurant","name":"NICK ALEXOUDAS","lat":40.60097575143556,"lng":22.988160776463623,"url":"https://maps.app.goo.gl/svQRP7nS7UargNrc9?g_st=ipc","address":"Profitou Ilia 77, Pilea 555 35","categoryIds":["desserts"],"categories":["Dessert Shops"]},{"id":"dessertsRestaurants_d6293efcb0d5","slug":"sugarela-d629","kind":"restaurant","name":"Sugarela","lat":40.628286349246984,"lng":22.94919276720608,"url":"https://maps.app.goo.gl/BWRmuMRqDoq6N7MH8?g_st=ipc","address":"Nikiforou Foka 12, Thessaloniki 546 21","categoryIds":["desserts"],"categories":["Dessert Shops"]}],"nearby":[{"id":"burgersRestaurants_5cdf5651be04","slug":"dunk-smash-burgers-5cdf","kind":"restaurant","name":"Dunk Smash Burgers","lat":40.614049656844195,"lng":22.968949553843263,"url":"https://maps.app.goo.gl/ECaRWM59W66g3f6h8?g_st=ipc","address":"Peston 82, Thessaloniki 544 53","categoryIds":["burgers"],"categories":["Burger Spots"],"distanceKm":0.027931954685551756},{"id":"asianRestaurants_fa15bba13e7a","slug":"asian-house-fa15","kind":"restaurant","name":"Asian House","lat":40.61406863205144,"lng":22.96925982276085,"url":"https://maps.app.goo.gl/RZUt6eATfNjJBVMW9?g_st=ipc","address":"Kleanthous 49, Thessaloniki 544 53","categoryIds":["asian"],"categories":["Asian Restaurants"],"distanceKm":0.030217839560432825},{"id":"greekRestaurants_2b555dc83271","slug":"soyvlakia-o-giannis-2b55","kind":"restaurant","name":"Σουβλάκια \"Ο Γιάννης\"","lat":40.61367230211868,"lng":22.968664986882153,"url":"https://maps.app.goo.gl/rGd5Se34NDg2Q9er5?g_st=ipc","address":"Κλεάνθους 54, Θεσσαλονίκη 544 53","categoryIds":["greek-restaurants"],"categories":["Greek Restaurants"],"distanceKm":0.04044131709829508},{"id":"greekRestaurants_7a4337bc20a6","slug":"akrovatis-7a43","kind":"restaurant","name":"Ακροβάτης","lat":40.61307041653645,"lng":22.9677238002552,"url":"https://maps.app.goo.gl/kcK7ME3teiYGRent6?g_st=ipc","address":"Papafi 113, Thessaloniki 544 53","categoryIds":["greek-restaurants"],"categories":["Greek Restaurants"],"distanceKm":0.14330269648467223},{"id":"italianRestaurants_57f0e6de9174","slug":"trattoria-santa-rita-57f0","kind":"restaurant","name":"Trattoria Santa Rita","lat":40.612086768976745,"lng":22.969846546876834,"url":"https://maps.app.goo.gl/tJ95kQkAp73h9qDi8?g_st=ipc","address":"Malakopis 19, Thessaloniki 544 53","categoryIds":["italian"],"categories":["Italian Restaurants"],"distanceKm":0.20338444652753337},{"id":"familyFriendly_06e3b0e7591a","slug":"hado-arena-toumpa-06e3","kind":"restaurant","name":"HADO ARENA TOUMPA","lat":40.61298475023653,"lng":22.966163361832432,"url":"https://maps.app.goo.gl/Y3M4X3SLfpUBctf88?g_st=ipc","address":"Kleanthous 25, Thessaloniki 544 53","categoryIds":["family-friendly"],"categories":["Kid Friendly Locations"],"distanceKm":0.2648853742597419},{"id":"burgersRestaurants_d1aa1b03e041","slug":"evora-eatery-d1aa","kind":"restaurant","name":"Evora Eatery","lat":40.616537415041016,"lng":22.969055137519607,"url":"https://maps.app.goo.gl/nXZzhY9yFR2kDUGA9?g_st=ipc","address":"Diogenous 13, Thessaloniki 544 53","categoryIds":["burgers"],"categories":["Burger Spots"],"distanceKm":0.30155325645697206},{"id":"greekRestaurants_0677d6c362a6","slug":"evora-eatery-0677","kind":"restaurant","name":"Εβόρα Eatery","lat":40.61655136125546,"lng":22.969054811212995,"url":"https://maps.app.goo.gl/K4Cnh5DSvkNE3ttK8?g_st=ipc","address":"Διογένους 13, Θεσσαλονίκη 544 53","categoryIds":["greek-restaurants"],"categories":["Greek Restaurants"],"distanceKm":0.3031042270778879},{"id":"greekRestaurants_c29be60e5285","slug":"choirofreno-c29b","kind":"restaurant","name":"Χοιρόφρενο","lat":40.61678728213184,"lng":22.972877458653127,"url":"https://maps.app.goo.gl/fCEBNZq73XUBc6R68?g_st=ipc","address":"Ικαρίας 5, Θεσσαλονίκη 543 51","categoryIds":["greek-restaurants"],"categories":["Greek Restaurants"],"distanceKm":0.4584139858509119},{"id":"fishTavernasRestaurants_482591e75ff4","slug":"kritamos-meze-bar-4825","kind":"restaurant","name":"Kritamos Meze-Bar","lat":40.61409377580344,"lng":22.97473899193856,"url":"https://maps.app.goo.gl/PC1XeAa9i5F1wcwX7?g_st=ipc","address":"Tirolois 38, Thessaloniki 543 51","categoryIds":["fish-tavernas"],"categories":["Fish Tavernas"],"distanceKm":0.4769674633184568},{"id":"municipalities_5bdb3c34c767","slug":"toympa-5bdb","kind":"municipality","name":"Τούμπα","lat":40.61,"lng":22.9725,"region":"Θεσσαλονίκη","name_en":"Toumpa","region_en":"Thessaloniki","distanceKm":0.5131875812215929},{"id":"cheapEatsRestaurants_8f3b208739c0","slug":"funky-s-thessaloniki-8f3b","kind":"restaurant","name":"Funky's Thessaloniki","lat":40.615543107651526,"lng":22.974915159309568,"url":"https://maps.app.goo.gl/QNUEoQzqLuXtrpVc7?g_st=ipc","address":"Grigoriou Lampraki 110, Thessaloniki 543 51","categoryIds":["cheap-eats","italian"],"categories":["Gyros & Cheap Eats","Italian Restaurants"],"legacySlugs":["funky-s-thessaloniki-ef2b"],"distanceKm":0.5267366920950244},{"id":"cheapEatsRestaurants_3c28289caa25","slug":"giotis-3c28","kind":"restaurant","name":"Giotis","lat":40.60922266804071,"lng":22.97064673048183,"url":"https://maps.app.goo.gl/EWmSLiCCxYM2N33x6?g_st=ipc","address":"Mark. Mpotsari 150, Thessaloniki 544 53","categoryIds":["cheap-eats"],"categories":["Gyros & Cheap Eats"],"distanceKm":0.5282354580617321},{"id":"cheapEatsRestaurants_c619a7c97409","slug":"to-kokoraki-c619","kind":"restaurant","name":"ΤΟ ΚΟΚΟΡΑΚΙ","lat":40.6088349903696,"lng":22.967918512345722,"url":"https://maps.app.goo.gl/KNA3DuGAxNV9SYMs8?g_st=ipc","address":"Mark. Mpotsari 105, Thessaloniki 544 53","categoryIds":["cheap-eats","greek-restaurants"],"categories":["Gyros & Cheap Eats","Greek Restaurants"],"legacySlugs":["to-kokoraki-5da1"],"distanceKm":0.5638221370471624},{"id":"greekRestaurants_4d78fe3c61be","slug":"rou-leisure-gatherings-4d78","kind":"restaurant","name":"Rou Leisure Gatherings","lat":40.61281592695175,"lng":22.975955444197268,"url":"https://maps.app.goo.gl/ms5wLYa1p3XXEfE18?g_st=ipc","address":"Πραξαγόρα 22, Θεσσαλονίκη 543 51","categoryIds":["greek-restaurants"],"categories":["Greek Restaurants"],"distanceKm":0.5895120908239844},{"id":"coffeeBrunchRestaurants_9fa36f8be04c","slug":"rou-leisure-gatherings-9fa3","kind":"restaurant","name":"Rou Leisure Gatherings","lat":40.612773277438485,"lng":22.97595730543709,"url":"https://maps.app.goo.gl/GxRckrquv1sShJp28?g_st=ipc","address":"Praxagora 22, Thessaloniki 543 51","categoryIds":["coffee-brunch"],"categories":["Coffee & Brunch Spots"],"distanceKm":0.5905878743882832},{"id":"cheapEatsRestaurants_f51539f3f3fe","slug":"kostas-f515","kind":"restaurant","name":"Kostas","lat":40.608571752720515,"lng":22.967969048628863,"url":"https://maps.app.goo.gl/bUnuC1Vh9ysa2VhL6?g_st=ipc","address":"Mark. Mpotsari 120, Thessaloniki 546 43","categoryIds":["cheap-eats"],"categories":["Gyros & Cheap Eats"],"distanceKm":0.5919517887086172},{"id":"cheapEatsRestaurants_543fb752ef8d","slug":"souvlatzidiko-543f","kind":"restaurant","name":"Souvlatzidiko","lat":40.615140054166176,"lng":22.976602700104493,"url":"https://maps.app.goo.gl/dKu85q9fYtc6krXf7?g_st=ipc","address":"Διαγορα, με Λαμπρακη, Thessaloniki 543 51","categoryIds":["cheap-eats"],"categories":["Gyros & Cheap Eats"],"distanceKm":0.649988867902343},{"id":"greekRestaurants_575dfe5a741b","slug":"menu-me-noy-575d","kind":"restaurant","name":"Menu με...νου","lat":40.60815951661583,"lng":22.966514659148867,"url":"https://maps.app.goo.gl/x5kA6azJxjLv1HQX6?g_st=ipc","address":"Αλεξάνδρου Παπαναστασίου, Δ 87, Thessaloniki 544 53","categoryIds":["greek-restaurants"],"categories":["Greek Restaurants"],"distanceKm":0.6667592518972362},{"id":"greekRestaurants_5c376770db26","slug":"kafeneion-to-dallaveri-5c37","kind":"restaurant","name":"Kafeneion To Dallaveri","lat":40.61571484515384,"lng":22.976632129539492,"url":"https://maps.app.goo.gl/6CZnkJNTLRD3MjRz7?g_st=ipc","address":"Diagora 51, Thessaloniki 543 51","categoryIds":["greek-restaurants"],"categories":["Greek Restaurants"],"distanceKm":0.669628173082627},{"id":"cheapEatsRestaurants_bf1d972f9838","slug":"gyradiko-bf1d","kind":"restaurant","name":"Gyradiko","lat":40.615031188130764,"lng":22.97695657295727,"url":"https://maps.app.goo.gl/6Bmdb1UVvVyTyyNdA?g_st=ipc","address":"Grigoriou Lampraki 125, Thessaloniki 543 51","categoryIds":["cheap-eats"],"categories":["Gyros & Cheap Eats"],"distanceKm":0.6766258875899653},{"id":"greekRestaurants_e19673ba852f","slug":"pire-kai-vradiazei-e196","kind":"restaurant","name":"Πήρε και Βραδιάζει","lat":40.6161654625719,"lng":22.96166588679185,"url":"https://maps.app.goo.gl/Y7iaetGgvQnRv1wAA?g_st=ipc","address":"Ομήρου 7, Θεσσαλονίκη 546 39","categoryIds":["greek-restaurants"],"categories":["Greek Restaurants"],"distanceKm":0.6792507161610465},{"id":"municipalities_6e0a80514433","slug":"kaytanzogleio-periochi-6e0a","kind":"municipality","name":"Καυτανζόγλειο περιοχή","lat":40.6157,"lng":22.9613,"region":"Θεσσαλονίκη","name_en":"Kaftanzoglio Area","region_en":"Thessaloniki","distanceKm":0.6905373826478567},{"id":"cheapEatsRestaurants_9e983ad5e812","slug":"prassas-9e98","kind":"restaurant","name":"Prassas","lat":40.60822104515919,"lng":22.96538292733955,"url":"https://maps.app.goo.gl/cajfpJVBkeREe7FNA?g_st=ipc","address":"Mark. Mpotsari 89, Thessaloniki 546 44","categoryIds":["cheap-eats"],"categories":["Gyros & Cheap Eats"],"distanceKm":0.697716332861713}],"sameRegion":[],"mentionedGuides":[],"canonicalSlug":"zacharoplasteio-ilios-kleanthoys-hlios-pastry-shop-kleanthous-7728","isCanonicalEntity":true,"enrichment":{"summary_en":"ΖΑΧΑΡΟΠΛΑΣΤΕΙΟ ΗΛΙΟΣ ΚΛΕΑΝΘΟΥΣ /Hlios Pastry Shop Kleanthous is a curated restaurant in Thessaloniki 544 53 in the Dessert Shops collection. It is connected to 28 nearby Googlementor picks to help travelers build a stronger local route.","summary_el":"ΖΑΧΑΡΟΠΛΑΣΤΕΙΟ ΗΛΙΟΣ ΚΛΕΑΝΘΟΥΣ /Hlios Pastry Shop Kleanthous είναι ένα επιλεγμένο σημείο φαγητού στην περιοχή Thessaloniki 544 53 και ανήκει στη συλλογή Dessert Shops. Συνδέεται με 28 κοντινές προτάσεις του Googlementor για πιο ολοκληρωμένη εμπειρία.","vibe_tags":["curated","sweet-stop"],"best_for":["first-time visitors","food lovers"],"visit_moments":["afternoon break","after dinner"],"practical_note":"Address and direct map link are available for easy turn-by-turn access.","nearby_walkable_count":28,"nearby_count_2km":92,"confidence":0.98}},"__N_SSG":true}