{"pageProps":{"payload":{"area":{"id":"municipalities_093f8da9eef7","name":"Νέα Σμύρνη","nameEn":"Nea Smyrni","region":"Νότια Προάστια","regionEn":"Southern Suburbs","lat":37.9456,"lng":23.7142,"urlSlug":"nea-smyrni","aliases":["Νέα Σμύρνη","Nea Smyrni","Νέα Σμύρνη Southern Suburbs","Nea Smyrni Southern Suburbs","Nea Smirni","Νεα Σμυρνη","Nea Smyrne","nea-smyrni-093f","nea-smyrni"]},"category":{"id":"attractions","name":"Must-See Attractions","urlSlug":"attractions","aliases":["attractions","Must-See Attractions","must-see-attractions"]},"entities":[{"entity":{"id":"mustSeeAttractions_dc5030eb7fbd","slug":"kentro-politismoy-idryma-stayros-niarchos-dc50","kind":"restaurant","name":"Κέντρο Πολιτισμού Ίδρυμα Σταύρος Νιάρχος","lat":37.939856198299935,"lng":23.69211972785974,"url":"https://maps.app.goo.gl/pQWTjEcbS98njE48A?g_st=ipc","address":"Λεωφ. Ανδρέα Συγγρού 364, Καλλιθέα 176 74","categoryIds":["attractions"],"categories":["Must-See Attractions"]},"distanceKm":2.0388623488478133},{"entity":{"id":"mustSeeAttractions_3df9a416cf1a","slug":"lofos-filopappoy-3df9","kind":"restaurant","name":"Λόφος Φιλοπάππου","lat":37.96711952882775,"lng":23.721574966297474,"url":"https://maps.app.goo.gl/oZosE6Kbfk2BP5e67?g_st=ipc","address":"Φυλής 215, Αθήνα 117 41","categoryIds":["attractions"],"categories":["Must-See Attractions"]},"distanceKm":2.478685450212019},{"entity":{"id":"mustSeeAttractions_aeebd3346525","slug":"pnyka-aeeb","kind":"restaurant","name":"Πνύκα","lat":37.96737351880718,"lng":23.721158867490345,"url":"https://maps.app.goo.gl/yJCvqZ3YjAxVjgmU6?g_st=ipc","address":"Αθήνα 117 41","categoryIds":["attractions"],"categories":["Must-See Attractions"]},"distanceKm":2.4967962263640664},{"entity":{"id":"mustSeeAttractions_11b87cb6f066","slug":"philopappos-monument-11b8","kind":"restaurant","name":"Philopappos Monument","lat":37.96735214641467,"lng":23.72141968401236,"url":"https://maps.app.goo.gl/4mH8BGK5UQuAHaXf6?g_st=ipc","address":"Athens 117 41","categoryIds":["attractions"],"categories":["Must-See Attractions"]},"distanceKm":2.5001831268179893},{"entity":{"id":"mustSeeAttractions_bf865dc1bff4","slug":"prison-of-socrates-bf86","kind":"restaurant","name":"Prison of Socrates","lat":37.96945283540711,"lng":23.72099752982901,"url":"https://maps.app.goo.gl/431NuRe11zxrUqR89?g_st=ipc","address":"43, Rovertou Galli 39, Athina 117 41","categoryIds":["attractions"],"categories":["Must-See Attractions"]},"distanceKm":2.718445033009366},{"entity":{"id":"mustSeeAttractions_8c69e6a7063e","slug":"moyseio-akropolis-8c69","kind":"restaurant","name":"Μουσείο Ακρόπολης","lat":37.96845037815513,"lng":23.728523216398074,"url":"https://maps.app.goo.gl/ZqiBPBtN3PxoeXmY8?g_st=ipc","address":"Διονυσίου Αρεοπαγίτου 15, Αθήνα 117 42","categoryIds":["attractions"],"categories":["Must-See Attractions"]},"distanceKm":2.8342319629589325},{"entity":{"id":"mustSeeAttractions_e73ed47cb5a3","slug":"odeio-irodoy-toy-attikoy-e73e","kind":"restaurant","name":"Ωδείο Ηρώδου του Αττικού","lat":37.97079439393834,"lng":23.724582622108812,"url":"https://maps.app.goo.gl/rjXRZrpDRp5VnNP2A?g_st=ipc","address":"Διονυσίου Αρεοπαγίτου, Αθήνα 105 55","categoryIds":["attractions"],"categories":["Must-See Attractions"]},"distanceKm":2.945663904181269},{"entity":{"id":"mustSeeAttractions_397dfba9f16b","slug":"notia-klitys-akropolis-athinon-397d","kind":"restaurant","name":"Νότια Κλιτύς Ακρόπολης Αθηνών","lat":37.96962866994438,"lng":23.729046031418846,"url":"https://maps.app.goo.gl/5RAt8qpszUA945pG8?g_st=ipc","address":"Διονυσίου Αρεοπαγίτου, Αθήνα 105 58","categoryIds":["attractions"],"categories":["Must-See Attractions"]},"distanceKm":2.9720426385805876},{"entity":{"id":"mustSeeAttractions_7720a421889c","slug":"marina-floisvoy-7720","kind":"restaurant","name":"Μαρίνα Φλοίσβου","lat":37.9311951612676,"lng":23.68504538337465,"url":"https://maps.app.goo.gl/vxdQs7SscGUC98hY9?g_st=ipc","address":"Flisvos Marina, Αθήνα 175 61","categoryIds":["attractions"],"categories":["Must-See Attractions"]},"distanceKm":3.017047452821299},{"entity":{"id":"mustSeeAttractions_26d34993a0ba","slug":"ethniko-asteroskopeio-athinon-kentro-episkepton-thiseioy-26d3","kind":"restaurant","name":"Εθνικό Αστεροσκοπείο Αθηνών - Κέντρο Επισκεπτών Θησείου","lat":37.972744612814594,"lng":23.717947819468222,"url":"https://maps.app.goo.gl/6gQt8KFRg9ZbnwLVA?g_st=ipc","address":"Λόφος Νυμφών Θησείο, ΤΘ 20048, Αθήνα 118 10","categoryIds":["attractions"],"categories":["Must-See Attractions"]},"distanceKm":3.036175029486699},{"entity":{"id":"mustSeeAttractions_9bfc186193fa","slug":"akropoli-athinon-9bfc","kind":"restaurant","name":"Ακρόπολη Αθηνών","lat":37.97153381829169,"lng":23.7257493192379,"url":"https://maps.app.goo.gl/p7J1mcB5DGfqSALg6?g_st=ipc","address":"Αθήνα 105 58","categoryIds":["attractions"],"categories":["Must-See Attractions"]},"distanceKm":3.0563124211057078},{"entity":{"id":"mustSeeAttractions_186b78600e45","slug":"parthenonas-186b","kind":"restaurant","name":"Παρθενώνας","lat":37.97152775110389,"lng":23.726714874737574,"url":"https://maps.app.goo.gl/ztHmcesfndwzvFuRA?g_st=ipc","address":"Αθήνα 105 58","categoryIds":["attractions"],"categories":["Must-See Attractions"]},"distanceKm":3.084761225571101},{"entity":{"id":"mustSeeAttractions_a7a2908a9221","slug":"naos-toy-olympioy-dios-a7a2","kind":"restaurant","name":"Ναός του Ολυμπίου Διός","lat":37.96929966455042,"lng":23.733099967898216,"url":"https://maps.app.goo.gl/MRiS2rx9HUUxeppD6?g_st=ipc","address":"Αθήνα 105 57","categoryIds":["attractions"],"categories":["Must-See Attractions"]},"distanceKm":3.11294987649417},{"entity":{"id":"mustSeeAttractions_a3aa8075d8fc","slug":"arch-of-hadrian-a3aa","kind":"restaurant","name":"Arch of Hadrian","lat":37.970210610652515,"lng":23.73198089152641,"url":"https://maps.app.goo.gl/XDM6bEzic8EMa3FX7?g_st=ipc","address":"Leof. Vasilisis Amalias 50, Athina 105 58","categoryIds":["attractions"],"categories":["Must-See Attractions"]},"distanceKm":3.1494489609304566},{"entity":{"id":"mustSeeAttractions_8085cf28024a","slug":"choragic-monument-of-lysicrates-8085","kind":"restaurant","name":"Choragic Monument of Lysicrates","lat":37.97108971386169,"lng":23.72994596958006,"url":"https://maps.app.goo.gl/7Xgk65sqPNFM93Sy9?g_st=ipc","address":"Epimenidou 3, Athina 105 58","categoryIds":["attractions"],"categories":["Must-See Attractions"]},"distanceKm":3.152643207664244},{"entity":{"id":"mustSeeAttractions_f9286196691d","slug":"anafiotika-f928","kind":"restaurant","name":"Αναφιώτικα","lat":37.97237012452399,"lng":23.728116657972198,"url":"https://maps.app.goo.gl/tWCR6cy3umt66P4p6?g_st=ipc","address":"Αθήνα 105 58","categoryIds":["attractions"],"categories":["Must-See Attractions"]},"distanceKm":3.2170474834846834},{"entity":{"id":"mustSeeAttractions_513259a6b06d","slug":"olympioy-dios-5132","kind":"restaurant","name":"Ολυμπίου Διός","lat":37.97177631416209,"lng":23.731310537974434,"url":"https://maps.app.goo.gl/FgkJ1umuygHQYmoC8?g_st=ipc","address":"Αθήνα 105 58","categoryIds":["attractions"],"categories":["Must-See Attractions"]},"distanceKm":3.274503224076574},{"entity":{"id":"mustSeeAttractions_6f694258a5ea","slug":"thiseio-6f69","kind":"restaurant","name":"Θησείο","lat":37.97501242037082,"lng":23.717080869886306,"url":"https://maps.app.goo.gl/i7GUzZ6ceEZCukDC6?g_st=ipc","address":"Αθήνα 118 51","categoryIds":["attractions"],"categories":["Must-See Attractions"]},"distanceKm":3.280249695281593},{"entity":{"id":"mustSeeAttractions_fa2e6a808026","slug":"archaia-agora-athinon-fa2e","kind":"restaurant","name":"Αρχαία Αγορά Αθηνών","lat":37.97489898202124,"lng":23.722093444133804,"url":"https://maps.app.goo.gl/ofAbPpuVbSmGyHGy7?g_st=ipc","address":"Αθήνα 105 55","categoryIds":["attractions"],"categories":["Must-See Attractions"]},"distanceKm":3.3305844220535823},{"entity":{"id":"mustSeeAttractions_ad424ca48b94","slug":"kipoi-zappeioy-ad42","kind":"restaurant","name":"Κήποι Ζαππείου","lat":37.97023042997274,"lng":23.73586719386634,"url":"https://maps.app.goo.gl/5RjMWARRwZPM2Kdw6?g_st=ipc","address":"Λεωφ. Βασιλίσσης Όλγας 1, Αθήνα 105 57","categoryIds":["attractions"],"categories":["Must-See Attractions"]},"distanceKm":3.3330917097996915},{"entity":{"id":"mustSeeAttractions_c2101de8cfd4","slug":"romaiki-agora-athinon-c210","kind":"restaurant","name":"Ρωμαϊκή Αγορά Αθηνών","lat":37.974304073145795,"lng":23.72610046442621,"url":"https://maps.app.goo.gl/ix2gNhhwsMZiBHES8?g_st=ipc","address":"Πολυγνώτου 3, Αθήνα 105 55","categoryIds":["attractions"],"categories":["Must-See Attractions"]},"distanceKm":3.3579413168755377},{"entity":{"id":"mustSeeAttractions_7df9738c0c83","slug":"romaika-loytra-zappeioy-7df9","kind":"restaurant","name":"Ρωμαϊκά Λουτρά Ζαππείου","lat":37.97157046328902,"lng":23.73377918203135,"url":"https://maps.app.goo.gl/umvyXLD9iKw3FVBTA?g_st=ipc","address":"Λεωφ. Βασιλίσσης Αμαλίας 405, Αθήνα 105 57","categoryIds":["attractions"],"categories":["Must-See Attractions"]},"distanceKm":3.3594408161326483},{"entity":{"id":"mustSeeAttractions_4e551e61d3d7","slug":"gate-of-athena-archegetis-4e55","kind":"restaurant","name":"Gate of Athena Archegetis","lat":37.974568649716346,"lng":23.725518029561396,"url":"https://maps.app.goo.gl/DQtGJPqpneygKtHk7?g_st=ipc","address":"Διοσκούρων, Epaminonda &, Athina 105 55","categoryIds":["attractions"],"categories":["Must-See Attractions"]},"distanceKm":3.370532581386861},{"entity":{"id":"mustSeeAttractions_f836a18a6282","slug":"naos-toy-ifaistoy-f836","kind":"restaurant","name":"Ναός του Ηφαίστου","lat":37.9755941105574,"lng":23.721451459878914,"url":"https://maps.app.goo.gl/auHh3GwXgN8RTikx6?g_st=ipc","address":"Αθήνα 105 55","categoryIds":["attractions"],"categories":["Must-See Attractions"]},"distanceKm":3.39524227396819},{"entity":{"id":"mustSeeAttractions_2a618ba12cb4","slug":"aerides-2a61","kind":"restaurant","name":"Αέρηδες","lat":37.97449623338425,"lng":23.727043202053398,"url":"https://maps.app.goo.gl/djGFTxoDCCB83eyN6?g_st=ipc","address":"Αθήνα 105 55","categoryIds":["attractions"],"categories":["Must-See Attractions"]},"distanceKm":3.4046899583771975},{"entity":{"id":"mustSeeAttractions_3fcc6eb77276","slug":"panathinaiko-stadio-3fcc","kind":"restaurant","name":"Παναθηναϊκό Στάδιο","lat":37.96833218533537,"lng":23.741113035876687,"url":"https://maps.app.goo.gl/EoVCRRTzjoVCkEm18?g_st=ipc","address":"Λεωφ. Βασιλέως Κωνσταντίνου, Αθήνα 116 35","categoryIds":["attractions"],"categories":["Must-See Attractions"]},"distanceKm":3.4578746471524884},{"entity":{"id":"mustSeeAttractions_b999049b5fec","slug":"roman-basilica-b999","kind":"restaurant","name":"Roman Basilica","lat":37.97583750461877,"lng":23.723867490000497,"url":"https://maps.app.goo.gl/ij6x92mGVau3FvST9?g_st=ipc","address":"Αδριανού 27, Αθήνα 105 55","categoryIds":["attractions"],"categories":["Must-See Attractions"]},"distanceKm":3.467435238930181},{"entity":{"id":"mustSeeAttractions_4878dd7452cc","slug":"vivliothiki-toy-adrianoy-4878","kind":"restaurant","name":"Βιβλιοθήκη του Αδριανού","lat":37.975502314737916,"lng":23.726030220996723,"url":"https://maps.app.goo.gl/Mr5MTi9dXGy4Y8Gt5?g_st=ipc","address":"Κ, Άρεως 3, Τ, Αθήνα 105 55","categoryIds":["attractions"],"categories":["Must-See Attractions"]},"distanceKm":3.482989966088415},{"entity":{"id":"mustSeeAttractions_a63ab05582ba","slug":"zappeio-megaro-a63a","kind":"restaurant","name":"Ζάππειο Μέγαρο","lat":37.971521700592604,"lng":23.73672254708253,"url":"https://maps.app.goo.gl/Hb78YQFedU1ZBjDY7?g_st=ipc","address":"Λεωφ. Βασιλίσσης Όλγας, Αθήνα 105 57","categoryIds":["attractions"],"categories":["Must-See Attractions"]},"distanceKm":3.493861195861122}],"counts":{"totalEntities":4118,"totalInArea":336,"totalInCategory":130,"totalCategoryArea":29},"relatedCategories":[{"categoryId":"coffee-brunch","categorySlug":"brunch","categoryName":"Coffee & Brunch Spots","count":56,"passesThreshold":true},{"categoryId":"cheap-eats","categorySlug":"cheap-eats","categoryName":"Gyros & Cheap Eats","count":46,"passesThreshold":true},{"categoryId":"greek-restaurants","categorySlug":"greek-restaurants","categoryName":"Greek Restaurants","count":44,"passesThreshold":true},{"categoryId":"desserts","categorySlug":"desserts","categoryName":"Dessert Shops","count":32,"passesThreshold":true},{"categoryId":"italian","categorySlug":"italian","categoryName":"Italian Restaurants","count":25,"passesThreshold":true},{"categoryId":"vegetarian","categorySlug":"vegetarian","categoryName":"Vegetarian Friendly Restaurants","count":19,"passesThreshold":true},{"categoryId":"luxury-dining","categorySlug":"luxury-dining","categoryName":"Luxury Dining","count":17,"passesThreshold":true},{"categoryId":"rooftop-lounges","categorySlug":"rooftops","categoryName":"Rooftop Lounges","count":14,"passesThreshold":true},{"categoryId":"asian","categorySlug":"asian-restaurants","categoryName":"Asian Restaurants","count":11,"passesThreshold":true},{"categoryId":"fish-tavernas","categorySlug":"fish-tavernas","categoryName":"Fish Tavernas","count":11,"passesThreshold":true}],"relatedAreas":[{"areaId":"municipalities_4149fa79e27b","areaName":"Ακρόπολη","areaSlug":"akropoli","count":43,"passesThreshold":true,"nearestDistanceKm":0.005729795337023071},{"areaId":"municipalities_877c3bc81df5","areaName":"Σύνταγμα","areaSlug":"syntagma","count":43,"passesThreshold":true,"nearestDistanceKm":0.009392084429921843},{"areaId":"municipalities_d7e1aaaed4f9","areaName":"Μοναστηράκι","areaSlug":"monastiraki","count":43,"passesThreshold":true,"nearestDistanceKm":0.05511020579331786},{"areaId":"municipalities_2bcfcb8b899f","areaName":"Ψυρρή","areaSlug":"psyrri","count":43,"passesThreshold":true,"nearestDistanceKm":0.07052877277643664},{"areaId":"municipalities_b85b54408d92","areaName":"Θησείο","areaSlug":"thiseio","count":43,"passesThreshold":true,"nearestDistanceKm":0.12431600224559981},{"areaId":"municipalities_5bc013791cf8","areaName":"Πλάκα","areaSlug":"plaka","count":43,"passesThreshold":true,"nearestDistanceKm":0.1411230726575214},{"areaId":"municipalities_0cae2c00b932","areaName":"Κολωνάκι","areaSlug":"kolonaki","count":43,"passesThreshold":true,"nearestDistanceKm":0.19126573945459605},{"areaId":"municipalities_0fd1d03201a0","areaName":"Μετς","areaSlug":"mets","count":43,"passesThreshold":true,"nearestDistanceKm":0.36750550129753523},{"areaId":"municipalities_616efd2a0d9b","areaName":"Κουκάκι","areaSlug":"koykaki","count":43,"passesThreshold":true,"nearestDistanceKm":0.4566743197434104},{"areaId":"municipalities_2f324ee27306","areaName":"Εξάρχεια","areaSlug":"exarcheia","count":43,"passesThreshold":true,"nearestDistanceKm":0.48555523581054816}],"passesThreshold":true},"hasAreaGuidePage":true},"__N_SSG":true}