{"pageProps":{"payload":{"area":{"id":"municipalities_b85b54408d92","name":"Θησείο","nameEn":"Thisio","region":"Κέντρο Αθήνας","regionEn":"Athens Center","lat":37.9747,"lng":23.7206,"urlSlug":"thiseio","aliases":["Θησείο","Thisio","Θησείο Athens Center","Thisio Athens Center","Thiseio","Thisseio","thiseio-b85b","thiseio"]},"category":{"id":"greek-restaurants","name":"Greek Restaurants","urlSlug":"greek-restaurants","aliases":["greek-restaurants","Greek Restaurants"]},"entities":[{"entity":{"id":"greekRestaurants_ab98629e5118","slug":"cinapos-ab98","kind":"restaurant","name":"Cinapos","lat":37.975037080566636,"lng":23.71898004749624,"url":"https://maps.app.goo.gl/Ryj3tMNNp7RWvUcs6","address":"Ηρακλειδών 10, Αθήνα 118 51","categoryIds":["greek-restaurants"],"categories":["Greek Restaurants"]},"distanceKm":0.1468570728458221},{"entity":{"id":"greekRestaurants_7a0990462c96","slug":"to-steki-toy-ilia-7a09","kind":"restaurant","name":"Το Στέκι Του Ηλία","lat":37.97686050854808,"lng":23.718458701649066,"url":"https://maps.app.goo.gl/1XoTtwx2q6EitZZi8","address":"Επταχάλκου 5, Αθήνα 118 51","categoryIds":["greek-restaurants"],"categories":["Greek Restaurants"]},"distanceKm":0.304862383789508},{"entity":{"id":"greekRestaurants_72a09df578ee","slug":"a-little-taste-of-home-restaurant-72a0","kind":"restaurant","name":"A Little Taste of Home Restaurant","lat":37.976779798219894,"lng":23.722967824354946,"url":"https://maps.app.goo.gl/GmHsbFa1YEmR2kef9","address":"Άστιγγος 8, Αθήνα 105 55","categoryIds":["greek-restaurants"],"categories":["Greek Restaurants"]},"distanceKm":0.3107363781942548},{"entity":{"id":"greekRestaurants_ccfa82da91ec","slug":"cafe-avissinia-ccfa","kind":"restaurant","name":"Cafe Avissinia","lat":37.97665935435758,"lng":23.723658874040776,"url":"https://maps.app.goo.gl/vKinr3WBQjy8EYru8","address":"Κυνέτου 7, Αθήνα 105 55","categoryIds":["greek-restaurants"],"categories":["Greek Restaurants"]},"distanceKm":0.34547593580215},{"entity":{"id":"greekRestaurants_e684531e1c90","slug":"to-kyklamino-e684","kind":"restaurant","name":"Το Κυκλάμινο","lat":37.976681511235476,"lng":23.724107441529995,"url":"https://maps.app.goo.gl/9UGJoEFr8WGupZtP9","address":"Πλ. Αβησσυνίας 3, Αθήνα 105 55","categoryIds":["greek-restaurants"],"categories":["Greek Restaurants"]},"distanceKm":0.3782360931540451},{"entity":{"id":"greekRestaurants_77b3530742da","slug":"maiandros-restaurant-77b3","kind":"restaurant","name":"Maiandros Restaurant","lat":37.97572091133567,"lng":23.725354400404825,"url":"https://maps.app.goo.gl/6vSRNbnm7hVmc1NH6","address":"Αδριανού 47, Αθήνα 105 55","categoryIds":["greek-restaurants"],"categories":["Greek Restaurants"]},"distanceKm":0.43191966162467493},{"entity":{"id":"greekRestaurants_60fc17fb1af0","slug":"eycharis-mezedopoleio-60fc","kind":"restaurant","name":"Ευχαρις Μεζεδοπωλείο","lat":37.97570405558301,"lng":23.72549560715114,"url":"https://maps.app.goo.gl/RANm4cQqR929BJSE7","address":"Αδριανού 49Α, Αθήνα 105 55","categoryIds":["greek-restaurants"],"categories":["Greek Restaurants"]},"distanceKm":0.4433979575375715},{"entity":{"id":"greekRestaurants_0c30703c94b5","slug":"krasopoylio-toy-kokkora-0c30","kind":"restaurant","name":"Κρασοπουλιο του Κοκκορα","lat":37.97774968772063,"lng":23.724156040305374,"url":"https://maps.app.goo.gl/FdPM4DDLKYaXnaei6","address":"Αισώπου 4, Αθήνα 105 54","categoryIds":["greek-restaurants"],"categories":["Greek Restaurants"]},"distanceKm":0.4605940259401962},{"entity":{"id":"greekRestaurants_e9caa161f872","slug":"to-steki-toy-ilia-e9ca","kind":"restaurant","name":"Το Στέκι του Ηλία","lat":37.977110249497095,"lng":23.715901670048872,"url":"https://maps.app.goo.gl/wSbCCiegqHvWj8KcA","address":"Θεσσαλονίκης 7, Αθήνα 118 51","categoryIds":["greek-restaurants"],"categories":["Greek Restaurants"]},"distanceKm":0.4913455808160563},{"entity":{"id":"greekRestaurants_01412cd104e7","slug":"bandiera-0141","kind":"restaurant","name":"Bandiera","lat":37.978324295237165,"lng":23.723850317882693,"url":"https://maps.app.goo.gl/Qi3TiLypHkh8kAfv8","address":"Τάκη 19, Αθήνα 105 54","categoryIds":["greek-restaurants"],"categories":["Greek Restaurants"]},"distanceKm":0.4935339044474568},{"entity":{"id":"greekRestaurants_47e0fbf99993","slug":"nikitas-psyrri-47e0","kind":"restaurant","name":"Νικήτας Ψυρρή","lat":37.97869467804771,"lng":23.723980497190343,"url":"https://maps.app.goo.gl/cnKsmpXwbUi4ehMj9","address":"Αγ. Αναργύρων 19, Αθήνα 105 54","categoryIds":["greek-restaurants"],"categories":["Greek Restaurants"]},"distanceKm":0.5339458969721477},{"entity":{"id":"greekRestaurants_63d3f13668e8","slug":"flint-athens-63d3","kind":"restaurant","name":"Flint Athens","lat":37.97865798885805,"lng":23.724488894508067,"url":"https://maps.app.goo.gl/Fj4mZsQhG6Dryz9HA","address":"Αγ. Αναργύρων 6, Αθήνα 105 54","categoryIds":["greek-restaurants"],"categories":["Greek Restaurants"]},"distanceKm":0.5566719577131668},{"entity":{"id":"greekRestaurants_60d2190d08b8","slug":"aerides-mezedopoleio-plaka-60d2","kind":"restaurant","name":"Αέρηδες Μεζεδοπωλείο Πλάκα","lat":37.974495755428926,"lng":23.72798871305526,"url":"https://maps.app.goo.gl/Cx6gQQWkCy2n1mXw6","address":"Διογένους 3, Αθήνα 105 56","categoryIds":["greek-restaurants"],"categories":["Greek Restaurants"]},"distanceKm":0.6480419836253339},{"entity":{"id":"greekRestaurants_62e8feb8d72b","slug":"eatery-bairaktaris-aiolou-29-62e8","kind":"restaurant","name":"Eatery Bairaktaris Aiolou 29","lat":37.97741431797203,"lng":23.727650746109706,"url":"https://maps.app.goo.gl/QiyDhjXfeNsDkt9k7","address":"Αιόλου 29, Αθήνα 105 51","categoryIds":["greek-restaurants"],"categories":["Greek Restaurants"]},"distanceKm":0.6877702526217838},{"entity":{"id":"greekRestaurants_79d853816a19","slug":"rakor-79d8","kind":"restaurant","name":"Rakor","lat":37.98047740550758,"lng":23.717062587155947,"url":"https://maps.app.goo.gl/eVrzxTMuCzQvAE596","address":"Πλαταιών 10, Αθήνα 104 35","categoryIds":["greek-restaurants"],"categories":["Greek Restaurants"]},"distanceKm":0.7133258744212422},{"entity":{"id":"greekRestaurants_0880507319bf","slug":"estiatorio-ayli-0880","kind":"restaurant","name":"Εστιατόριο Αυλή","lat":37.97971984965389,"lng":23.72579553971612,"url":"https://maps.app.goo.gl/91VrWaADuuDQ9qeWA","address":"Αγ. Δημητρίου 12, Αθήνα 105 54","categoryIds":["greek-restaurants"],"categories":["Greek Restaurants"]},"distanceKm":0.720379226282988},{"entity":{"id":"greekRestaurants_584137dc4866","slug":"taverna-klimataria-5841","kind":"restaurant","name":"Ταβέρνα Κληματαριά","lat":37.980637024107224,"lng":23.724630625441396,"url":"https://maps.app.goo.gl/2CMQFJheG9EgM5p99","address":"Πλ. Θεάτρου 2, Αθήνα 105 52","categoryIds":["greek-restaurants"],"categories":["Greek Restaurants"]},"distanceKm":0.748751444855148},{"entity":{"id":"greekRestaurants_f27a17153226","slug":"ta-karamanlidika-toy-fani-f27a","kind":"restaurant","name":"Τα Καραμανλίδικα του Φάνη","lat":37.98022746553766,"lng":23.7256348821809,"url":"https://maps.app.goo.gl/3bDZ8oASnXexFDgS7","address":"Ευριπίδου 52, Αθήνα 105 52","categoryIds":["greek-restaurants"],"categories":["Greek Restaurants"]},"distanceKm":0.7566480435970993},{"entity":{"id":"greekRestaurants_193dd3b500da","slug":"to-paradosiako-193d","kind":"restaurant","name":"Το Παραδοσιακό","lat":37.977707115390295,"lng":23.728787167486587,"url":"https://maps.app.goo.gl/NeJoupJj8mkFs1fXA","address":"Κολοκοτρώνη 59, Αθήνα 105 60","categoryIds":["greek-restaurants"],"categories":["Greek Restaurants"]},"distanceKm":0.7916937090372568},{"entity":{"id":"greekRestaurants_321ca0fca170","slug":"tis-theatroy-to-steki-321c","kind":"restaurant","name":"Της Θεάτρου το στέκι","lat":37.98069925682147,"lng":23.725498847688122,"url":"https://maps.app.goo.gl/7FMPKRwpazujA2C27","address":"Θεάτρου 7, Αθήνα 105 52","categoryIds":["greek-restaurants"],"categories":["Greek Restaurants"]},"distanceKm":0.7933304540394973},{"entity":{"id":"greekRestaurants_9d442e3cec12","slug":"diporto-9d44","kind":"restaurant","name":"Δίπορτο","lat":37.9807615601589,"lng":23.725828141444957,"url":"https://maps.app.goo.gl/5PAR192kZJY8s4Hs8","address":"Sokratous 9 &, Θεάτρου 2, Αθήνα 105 52","categoryIds":["greek-restaurants"],"categories":["Greek Restaurants"]},"distanceKm":0.8150355394830289},{"entity":{"id":"greekRestaurants_e299a6be96f9","slug":"to-kafeneio-e299","kind":"restaurant","name":"Το Καφενείο","lat":37.97255962660001,"lng":23.729567011443763,"url":"https://maps.app.goo.gl/3s8YnKNXM61cpsz69","address":"Επιχάρμου 1, Αθήνα 105 58","categoryIds":["greek-restaurants"],"categories":["Greek Restaurants"]},"distanceKm":0.8212397770176857},{"entity":{"id":"greekRestaurants_1b0710fd0635","slug":"loyis-kafeneio-1b07","kind":"restaurant","name":"Λούης καφενείο","lat":37.98085946462118,"lng":23.71532632472864,"url":"https://maps.app.goo.gl/HykcqWbVLkwR9HqJ7","address":"Λεωνίδου 87, Αθήνα 104 35","categoryIds":["greek-restaurants"],"categories":["Greek Restaurants"]},"distanceKm":0.826286932718411},{"entity":{"id":"greekRestaurants_3d9881c33aea","slug":"oikonomoy-estiatorio-ap-to-1930-3d98","kind":"restaurant","name":"Οικονόμου Εστιατόριο (απ'το 1930)","lat":37.9698630124268,"lng":23.71322106212657,"url":"https://maps.app.goo.gl/w5wA7gPwxSUbGq4m6","address":"Κυδαντίδων 32, Αθήνα 118 51","categoryIds":["greek-restaurants"],"categories":["Greek Restaurants"]},"distanceKm":0.8412139508536024},{"entity":{"id":"greekRestaurants_9a0e0e6e3a9d","slug":"feedel-urban-gastronomy-9a0e","kind":"restaurant","name":"Feedέλ Urban Gastronomy","lat":37.976600766846424,"lng":23.729911306320325,"url":"https://maps.app.goo.gl/Uppwoqd1GbSaLvCe7","address":"Κτενά 1, Αθήνα 105 63","categoryIds":["greek-restaurants"],"categories":["Greek Restaurants"]},"distanceKm":0.8430763893132551},{"entity":{"id":"greekRestaurants_8c5628ce57f7","slug":"seychelles-8c56","kind":"restaurant","name":"Σεϋχέλλες","lat":37.9823149491854,"lng":23.720253813195804,"url":"https://maps.app.goo.gl/iUj8NxtUsYKhihFV9","address":"Κεραμεικού 49, Αθήνα 104 36","categoryIds":["greek-restaurants"],"categories":["Greek Restaurants"]},"distanceKm":0.8472872020955732},{"entity":{"id":"greekRestaurants_f1eb108e1b22","slug":"taverna-t-aschimopapo-f1eb","kind":"restaurant","name":"Ταβέρνα Τ' Ασχημόπαπο","lat":37.96881098076761,"lng":23.714190146946947,"url":"https://maps.app.goo.gl/dNg85MBr8ViicbBL6","address":"Ιώνων 61, Αθήνα 118 51","categoryIds":["greek-restaurants"],"categories":["Greek Restaurants"]},"distanceKm":0.8628406256532042},{"entity":{"id":"greekRestaurants_c16ca9f65dbe","slug":"oinomageireio-i-ipeiros-c16c","kind":"restaurant","name":"Οινομαγειρείο Η Ήπειρος","lat":37.980081996854445,"lng":23.728018952835075,"url":"https://maps.app.goo.gl/Ksa1sT3W1xvTwody6","address":"Φιλοποίμενος 4, Αθήνα 105 51","categoryIds":["greek-restaurants"],"categories":["Greek Restaurants"]},"distanceKm":0.8837386863253024},{"entity":{"id":"greekRestaurants_75bff303ba08","slug":"symposio-restaurant-75bf","kind":"restaurant","name":"Symposio Restaurant","lat":37.97466836386933,"lng":23.73070242967316,"url":"https://maps.app.goo.gl/tMkNDw4cpv1tsuv86?g_st=ipc","address":"Apollonos 22, Athina 105 56","categoryIds":["greek-restaurants"],"categories":["Greek Restaurants"]},"distanceKm":0.8855156324969892},{"entity":{"id":"greekRestaurants_f4bfdaeebedd","slug":"karderina-f4bf","kind":"restaurant","name":"Καρδερίνα","lat":37.96886028012467,"lng":23.713545491142042,"url":"https://maps.app.goo.gl/JZ7NHd5aYDr2jXELA","address":"Καλλισθένους 67, Αθήνα 118 52","categoryIds":["greek-restaurants"],"categories":["Greek Restaurants"]},"distanceKm":0.8966815009121596}],"counts":{"totalEntities":4117,"totalInArea":848,"totalInCategory":779,"totalCategoryArea":97},"relatedCategories":[{"categoryId":"coffee-brunch","categorySlug":"brunch","categoryName":"Coffee & Brunch Spots","count":137,"passesThreshold":true},{"categoryId":"cheap-eats","categorySlug":"cheap-eats","categoryName":"Gyros & Cheap Eats","count":110,"passesThreshold":true},{"categoryId":"desserts","categorySlug":"desserts","categoryName":"Dessert Shops","count":82,"passesThreshold":true},{"categoryId":"vegetarian","categorySlug":"vegetarian","categoryName":"Vegetarian Friendly Restaurants","count":75,"passesThreshold":true},{"categoryId":"luxury-dining","categorySlug":"luxury-dining","categoryName":"Luxury Dining","count":72,"passesThreshold":true},{"categoryId":"italian","categorySlug":"italian","categoryName":"Italian Restaurants","count":53,"passesThreshold":true},{"categoryId":"rooftop-lounges","categorySlug":"rooftops","categoryName":"Rooftop Lounges","count":52,"passesThreshold":true},{"categoryId":"attractions","categorySlug":"attractions","categoryName":"Must-See Attractions","count":43,"passesThreshold":true},{"categoryId":"burgers","categorySlug":"burgers","categoryName":"Burger Spots","count":37,"passesThreshold":true},{"categoryId":"asian","categorySlug":"asian-restaurants","categoryName":"Asian Restaurants","count":36,"passesThreshold":true}],"relatedAreas":[{"areaId":"municipalities_877c3bc81df5","areaName":"Σύνταγμα","areaSlug":"syntagma","count":104,"passesThreshold":true,"nearestDistanceKm":0.25065315412584166},{"areaId":"municipalities_d7e1aaaed4f9","areaName":"Μοναστηράκι","areaSlug":"monastiraki","count":102,"passesThreshold":true,"nearestDistanceKm":0.11018896540685234},{"areaId":"municipalities_616efd2a0d9b","areaName":"Κουκάκι","areaSlug":"koykaki","count":102,"passesThreshold":true,"nearestDistanceKm":0.1192546213730499},{"areaId":"municipalities_0cae2c00b932","areaName":"Κολωνάκι","areaSlug":"kolonaki","count":102,"passesThreshold":true,"nearestDistanceKm":0.2699072412087797},{"areaId":"municipalities_2bcfcb8b899f","areaName":"Ψυρρή","areaSlug":"psyrri","count":101,"passesThreshold":true,"nearestDistanceKm":0.07774951180130882},{"areaId":"municipalities_5bc013791cf8","areaName":"Πλάκα","areaSlug":"plaka","count":100,"passesThreshold":true,"nearestDistanceKm":0.012491754607387504},{"areaId":"municipalities_2f324ee27306","areaName":"Εξάρχεια","areaSlug":"exarcheia","count":100,"passesThreshold":true,"nearestDistanceKm":0.18646577481015641},{"areaId":"municipalities_4149fa79e27b","areaName":"Ακρόπολη","areaSlug":"akropoli","count":100,"passesThreshold":true,"nearestDistanceKm":0.3588617537950929},{"areaId":"municipalities_7e1691d5f08d","areaName":"Μεταξουργείο","areaSlug":"metaxoyrgeio","count":98,"passesThreshold":true,"nearestDistanceKm":0.05816078489896007},{"areaId":"municipalities_f73663b8f738","areaName":"Αττική","areaSlug":"attiki","count":97,"passesThreshold":true,"nearestDistanceKm":0.5818704695299529}],"passesThreshold":true},"hasAreaGuidePage":true,"topGuides":[{"slug":"tap-water-safe-greece-el","title":"Είναι Ασφαλές να Πίνετε Νερό Βρύσης στην Ελλάδα;","date":"2026-03-04"},{"slug":"tap-water-safe-greece","title":"Is Tap Water Safe to Drink in Greece?","date":"2026-03-04"},{"slug":"athens-live-greek-music-guide-el","title":"Ζωντανή Παραδοσιακή Ελληνική Μουσική στην Αθήνα: Μπουζούκια, Ταβέρνες και Τι να Περιμένετε","date":"2026-02-20"},{"slug":"athens-live-greek-music-guide","title":"Live Traditional Greek Music in Athens: Bouzoukia, Taverns, and What to Expect","date":"2026-02-20"},{"slug":"traveling-to-greece-on-a-budget-el","title":"Ταξιδι στην Ελλαδα με μικρο budget","date":"2026-02-10"},{"slug":"greek-bakeries-brunch-coffee-guide-el","title":"Ελληνική Αρτοποιία, Brunch & Κουλτούρα Καφέ","date":"2025-02-15"}]},"__N_SSG":true}