{"pageProps":{"entity":{"id":"greekRestaurants_204f253dd532","slug":"antikastro-204f","kind":"restaurant","name":"antikastro","lat":36.54911350601486,"lng":26.354501637797917,"url":"https://maps.app.goo.gl/WHQ2qixYWioNZMKp6?g_st=ipc","address":"Πέρα Γιαλός, Αστυπάλαια 859 00","categoryIds":["greek-restaurants"],"categories":["Greek Restaurants"]},"sameCategory":[{"id":"greekRestaurants_25653bac7b54","slug":"paradosiako-kafeneio-to-kafeneio-toy-moyggoy-2565","kind":"restaurant","name":"Παραδοσιακό Καφενείο (To Καφενείο του Μουγγού)","lat":36.5453974756151,"lng":26.35310123253182,"url":"https://maps.app.goo.gl/gijNGaC27DHdZSCLA?g_st=ipc","address":"Αστυπάλαιας, Αστυπάλαια 859 00","categoryIds":["greek-restaurants"],"categories":["Greek Restaurants"]},{"id":"greekRestaurants_1eb270eb5f4f","slug":"ageri-restaurant-1eb2","kind":"restaurant","name":"Ageri restaurant","lat":36.545373863016174,"lng":26.35247532810791,"url":"https://maps.app.goo.gl/rQHUiQxR5nqHhzwq6?g_st=ipc","address":"Αστυπάλαια 859 00","categoryIds":["greek-restaurants"],"categories":["Greek Restaurants"]},{"id":"greekRestaurants_826ee6f6b42a","slug":"ducato-di-astypalea-826e","kind":"restaurant","name":"Ducato Di Astypalea","lat":36.54536940615809,"lng":26.35248428420808,"url":"https://maps.app.goo.gl/ZfS2feMAKcarSRzQ7?g_st=ipc","address":"Χώρα, Δωδεκάνησα 859 00","categoryIds":["greek-restaurants"],"categories":["Greek Restaurants"]},{"id":"greekRestaurants_9c87341404e8","slug":"to-stenaki-toy-koykla-to-stenaki-toy-koukla-9c87","kind":"restaurant","name":"Το στενάκι του Κούκλα.(to stenaki toy Koukla)","lat":36.545265395977154,"lng":26.35261447161412,"url":"https://maps.app.goo.gl/SnNzgQyWmVDaVzEZ8?g_st=ipc","address":"Astypalaia Chora myloi, Αστυπάλαια 859 00","categoryIds":["greek-restaurants"],"categories":["Greek Restaurants"]},{"id":"greekRestaurants_869806f17064","slug":"apanemia-8698","kind":"restaurant","name":"Απανεμιά","lat":36.54479553075043,"lng":26.354427413382332,"url":"https://maps.app.goo.gl/rmFvvL97zEvLD4fw7?g_st=ipc","address":"Αστυπάλαια 859 00","categoryIds":["greek-restaurants"],"categories":["Greek Restaurants"]},{"id":"greekRestaurants_0b3881d28de7","slug":"kafeneio-karai-0b38","kind":"restaurant","name":"Καφενείο Καράι","lat":36.54472153605894,"lng":26.355418637517822,"url":"https://maps.app.goo.gl/y4D61qmZahwjDV357?g_st=ipc","address":"Αστυπάλαια 859 00","categoryIds":["greek-restaurants"],"categories":["Greek Restaurants"]},{"id":"greekRestaurants_9d808a2d74ce","slug":"krokodeilos-9d80","kind":"restaurant","name":"Κροκόδειλος","lat":36.54308732348962,"lng":26.343405441539794,"url":"https://maps.app.goo.gl/dNbrA36bRneAQ4R88?g_st=ipc","address":"Επαρ.Οδ. Λειβάδιων-Βαθύς, Λιβάδια 859 00","categoryIds":["greek-restaurants"],"categories":["Greek Restaurants"]},{"id":"greekRestaurants_836c2ffc58fd","slug":"to-gerani-836c","kind":"restaurant","name":"Το Γεράνι","lat":36.54308410706101,"lng":26.342679449404006,"url":"https://maps.app.goo.gl/uDHS2p6qbdnAvE7M7?g_st=ipc","address":"Επαρ.Οδ. Λειβάδιων-Βαθύς, Λιβάδια 859 00","categoryIds":["greek-restaurants"],"categories":["Greek Restaurants"]}],"nearby":[{"id":"coffeeBrunchRestaurants_81babb19d554","slug":"anax-brunch-all-day-bar-81ba","kind":"restaurant","name":"Anax - Brunch & All day bar","lat":36.54881053562097,"lng":26.352767048461835,"url":"https://maps.app.goo.gl/Fog59qRdXL1VwbPKA?g_st=ipc","address":"Island, Astipalea 859 00","categoryIds":["coffee-brunch"],"categories":["Coffee & Brunch Spots"],"distanceKm":0.1585678524734858},{"id":"dessertsRestaurants_30901429574f","slug":"kolokytha-3090","kind":"restaurant","name":"Kolokytha","lat":36.54727053954883,"lng":26.353646884859614,"url":"https://maps.app.goo.gl/2T2VnbDknHbHu6nF7?g_st=ipc","address":"Unnamed Rd, Astipalea 859 00","categoryIds":["desserts"],"categories":["Dessert Shops"],"distanceKm":0.21869084303958225},{"id":"coffeeBrunchRestaurants_a3547d8efbea","slug":"kolokytha-a354","kind":"restaurant","name":"Kolokytha","lat":36.54726990012019,"lng":26.353646413648903,"url":"https://maps.app.goo.gl/6FaxgMCjdWj9EPA48?g_st=ipc","address":"Unnamed Rd, Astipalea 859 00","categoryIds":["coffee-brunch"],"categories":["Coffee & Brunch Spots"],"distanceKm":0.2187721668418118},{"id":"municipalities_d2bf66140ab6","slug":"astypalaia-d2bf","kind":"municipality","name":"Αστυπάλαια","lat":36.55,"lng":26.35,"region":"Δωδεκάνησα","name_en":"Astypalaia","region_en":"Dodecanese","distanceKm":0.41402599788992667},{"id":"italianRestaurants_964eabf93843","slug":"pablo-pasta-corner-964e","kind":"restaurant","name":"Pablo Pasta Corner","lat":36.545609138218644,"lng":26.3527289228981,"url":"https://maps.app.goo.gl/oiQQ7oLzNp1QAEmS9?g_st=ipc","address":"G9W3+63, Astipalea 859 00","categoryIds":["italian"],"categories":["Italian Restaurants"],"distanceKm":0.4206161722127636},{"id":"greekRestaurants_25653bac7b54","slug":"paradosiako-kafeneio-to-kafeneio-toy-moyggoy-2565","kind":"restaurant","name":"Παραδοσιακό Καφενείο (To Καφενείο του Μουγγού)","lat":36.5453974756151,"lng":26.35310123253182,"url":"https://maps.app.goo.gl/gijNGaC27DHdZSCLA?g_st=ipc","address":"Αστυπάλαιας, Αστυπάλαια 859 00","categoryIds":["greek-restaurants"],"categories":["Greek Restaurants"],"distanceKm":0.4317255599025276},{"id":"greekRestaurants_1eb270eb5f4f","slug":"ageri-restaurant-1eb2","kind":"restaurant","name":"Ageri restaurant","lat":36.545373863016174,"lng":26.35247532810791,"url":"https://maps.app.goo.gl/rQHUiQxR5nqHhzwq6?g_st=ipc","address":"Αστυπάλαια 859 00","categoryIds":["greek-restaurants"],"categories":["Greek Restaurants"],"distanceKm":0.453518371440957},{"id":"greekRestaurants_826ee6f6b42a","slug":"ducato-di-astypalea-826e","kind":"restaurant","name":"Ducato Di Astypalea","lat":36.54536940615809,"lng":26.35248428420808,"url":"https://maps.app.goo.gl/ZfS2feMAKcarSRzQ7?g_st=ipc","address":"Χώρα, Δωδεκάνησα 859 00","categoryIds":["greek-restaurants"],"categories":["Greek Restaurants"],"distanceKm":0.453654404510627}],"sameRegion":[],"mentionedGuides":[]},"__N_SSG":true}