{"pageProps":{"entity":{"id":"familyFriendly_a59e646924f0","slug":"parko-arkopolis-a59e","kind":"restaurant","name":"Πάρκο ARKOPOLIS","lat":38.04423565223715,"lng":23.533199733095568,"url":"https://maps.app.goo.gl/x7x4Lu9B5vabrAyJ7?g_st=ipc","address":"Μαρίας Κιουρί, Ελευσίνα 192 00","categoryIds":["family-friendly"],"categories":["Kid Friendly Locations"]},"sameCategory":[{"id":"familyFriendly_7539abe09fd5","slug":"votanikos-kipos-diomidoys-7539","kind":"restaurant","name":"Βοτανικός Κήπος Διομήδους","lat":38.010895961889986,"lng":23.642935426625115,"url":"https://maps.app.goo.gl/WsLFbFUaXSS2rGMR6?g_st=ipc","address":"Ιερά Οδός 403, Χαϊδάρι 124 61","categoryIds":["family-friendly"],"categories":["Kid Friendly Locations"]},{"id":"familyFriendly_dd451e30d935","slug":"strike-kiddo-dd45","kind":"restaurant","name":"Strike Kiddo","lat":38.01119139287315,"lng":23.650703428601517,"url":"https://maps.app.goo.gl/zpYyze4k5z1xryNd8?g_st=ipc","address":"Λεωφ. Αθηνών 336, Χαϊδάρι 124 62","categoryIds":["family-friendly"],"categories":["Kid Friendly Locations"]},{"id":"familyFriendly_bfc72d329d31","slug":"hado-agia-varvara-bfc7","kind":"restaurant","name":"HADO AGIA VARVARA","lat":37.98824441492673,"lng":23.659086481003886,"url":"https://maps.app.goo.gl/aP4Lewjodvss5zHY9?g_st=ipc","address":"Λεωφ. Ελ. Βενιζέλου 73, Αγ. Βαρβάρα 123 51","categoryIds":["family-friendly"],"categories":["Kid Friendly Locations"]},{"id":"familyFriendly_d58d453a4afe","slug":"hado-peristeri-d58d","kind":"restaurant","name":"HADO Περιστέρι","lat":38.02563091830247,"lng":23.685245432173534,"url":"https://maps.app.goo.gl/wwQRT4HuTNPHeVR97?g_st=ipc","address":"Ταντάλου 10, Περιστέρι 121 35","categoryIds":["family-friendly"],"categories":["Kid Friendly Locations"]},{"id":"familyFriendly_8e9d5a82d610","slug":"alsos-peristerioy-8e9d","kind":"restaurant","name":"Άλσος Περιστερίου","lat":38.01691760996396,"lng":23.68608991560274,"url":"https://maps.app.goo.gl/RLSd71ewXvmvT1cB6?g_st=ipc","address":"Αγίου Βασιλείου 63, Περιστέρι 121 35","categoryIds":["family-friendly"],"categories":["Kid Friendly Locations"]},{"id":"familyFriendly_115602a04920","slug":"thorikou-saronikos-190-10-1156","kind":"restaurant","name":"Thorikou, Saronikos 190 10","lat":37.973400347629344,"lng":23.672836485418895,"url":"https://maps.app.goo.gl/ekLuaxykkE5KT2Ee6?g_st=ipc","address":"Λεωφ. Κηφισού, Πέτρου Ράλλη και, Αγ. Ιωάννης Ρέντης 182 33","categoryIds":["family-friendly"],"categories":["Kid Friendly Locations"]},{"id":"familyFriendly_98c2e7261cb9","slug":"river-west-98c2","kind":"restaurant","name":"RΙVER WEST","lat":37.98032396745312,"lng":23.679187542082428,"url":"https://maps.app.goo.gl/f3b5sDipJZCcLSLC7?g_st=ipc","address":"Par. Leoforou Kifisou 98, Egaleo 122 41","categoryIds":["family-friendly"],"categories":["Kid Friendly Locations"]},{"id":"familyFriendly_d9ebf8b00250","slug":"athlitiko-parko-parnithas-kai-moyseio-palaion-epaggelmaton-d9eb","kind":"restaurant","name":"Αθλητικό Πάρκο Πάρνηθας και Μουσείο Παλαιών Επαγγελμάτων","lat":38.11083610723094,"lng":23.69169674427175,"url":"https://maps.app.goo.gl/J7UHi8dDFoMJKKUh7?g_st=ipc","address":"Ρόδων, Άνω Λιόσια 133 43","categoryIds":["family-friendly"],"categories":["Kid Friendly Locations"]}],"nearby":[{"id":"mustSeeAttractions_9b8993cb09f3","slug":"archaiologikos-choros-eleysinas-9b89","kind":"restaurant","name":"Αρχαιολογικός Χώρος Ελευσίνας","lat":38.04235410298215,"lng":23.539415339881792,"url":"https://maps.app.goo.gl/CQEgQ38KdmafS3mN7?g_st=ipc","address":"Σωτηρίου Γκιόκα 1, Ελευσίνα 192 00","categoryIds":["attractions"],"categories":["Must-See Attractions"],"distanceKm":0.5831318655534298},{"id":"greekRestaurants_884db7ea726f","slug":"rakoyn-884d","kind":"restaurant","name":"Ρακούν","lat":38.04130257579753,"lng":23.540052368264472,"url":"https://maps.app.goo.gl/8AuC45RCCAkJsvne9","address":"Νικολαΐδου 66, Ελευσίνα 192 00","categoryIds":["greek-restaurants"],"categories":["Greek Restaurants"],"distanceKm":0.682997416712516},{"id":"greekRestaurants_9cb9af8d0b5c","slug":"ayli-eleysina-9cb9","kind":"restaurant","name":"Αυλή Ελευσίνα","lat":38.03677889549646,"lng":23.538522460635875,"url":"https://maps.app.goo.gl/FqXm1SHTy3UsbXZy9","address":"Κανελλόπουλου 9, Ελευσίνα 192 00","categoryIds":["greek-restaurants"],"categories":["Greek Restaurants"],"distanceKm":0.9511976522294622},{"id":"municipalities_91603d960254","slug":"eleysina-9160","kind":"municipality","name":"Ελευσίνα","lat":38.0333,"lng":23.5333,"aliases":["Ελευσινα"],"region":"Δυτική Αττική","name_en":"Elefsina","region_en":"West Attica","distanceKm":1.216020753092373},{"id":"cheapEatsRestaurants_8c8fe904de1f","slug":"o-gyros-tis-polis-8c8f","kind":"restaurant","name":"Ο Γύρος Της Πόλης","lat":38.066483272222705,"lng":23.529477178860592,"url":"https://maps.app.goo.gl/aT8YqVdyM8ijeioo7?g_st=ipc","address":"Τέρμα Αφών, Afon Kipreou, Ελευσίνα 190 18","categoryIds":["cheap-eats"],"categories":["Gyros & Cheap Eats"],"distanceKm":2.495201544536883},{"id":"cheapEatsRestaurants_ff5878e53264","slug":"iliadis-coffee-and-food-ff58","kind":"restaurant","name":"ILIADIS COFFEE AND FOOD","lat":38.04539961819888,"lng":23.58539496057634,"url":"https://maps.app.goo.gl/vsiCvaNeFCuC7Dfv8?g_st=ipc","address":"Λεωφ. Δημοκρατίας 67, Ασπρόπυργος 193 00","categoryIds":["cheap-eats"],"categories":["Gyros & Cheap Eats"],"distanceKm":4.572527506100013},{"id":"cheapEatsRestaurants_d7c29e2a0475","slug":"soyvlakia-o-pinis-d7c2","kind":"restaurant","name":"ΣΟΥΒΛΑΚΙΑ \"Ο ΠΙΝΗΣ\"","lat":38.059665035702054,"lng":23.588228176039767,"url":"https://maps.app.goo.gl/jR5vQVFM7HLTQP8n9?g_st=ipc","address":"Σαλαμίνος 39, Ασπρόπυργος 193 00","categoryIds":["cheap-eats"],"categories":["Gyros & Cheap Eats"],"distanceKm":5.114666038615839},{"id":"monasteriesChurches_a960e0dee86b","slug":"iera-moni-panagias-gorgoepikooy-a960","kind":"restaurant","name":"Ιερά Μονή Παναγίας Γοργοεπηκόου","lat":38.06149256664941,"lng":23.467831046678143,"url":"https://maps.app.goo.gl/vNnKum91S5s8eiVu8?g_st=ipc","address":"Μακεδονομάχων, Μάνδρα-Ειδύλλια 196 00","categoryIds":["monasteries-churches"],"categories":["Monasteries & Spiritual Sites"],"distanceKm":6.036749116711036}],"sameRegion":[],"mentionedGuides":[]},"__N_SSG":true}