{"pageProps":{"entity":{"id":"rooftopLoungesRestaurants_022b40d3c73a","slug":"avocado-cocktail-bar-022b","kind":"restaurant","name":"Avocado Cocktail Bar","lat":39.28423915622935,"lng":20.39914061806164,"url":"https://maps.app.goo.gl/Rej46ZikGi16jCPa6?g_st=ipc","address":"23ης Φεβρουαρίου, Parga 480 60","categoryIds":["rooftop-lounges"],"categories":["Rooftop Lounges"]},"sameCategory":[{"id":"rooftopLoungesRestaurants_fbedc289379a","slug":"taratsa-open-fbed","kind":"restaurant","name":"Taratsa Open","lat":38.83493516503128,"lng":20.711610210825643,"url":"https://maps.app.goo.gl/gucKqbib1YPXfXRd8?g_st=ipc","address":"EO Amfilochias Lefkadas, Lefkada 311 00","categoryIds":["rooftop-lounges"],"categories":["Rooftop Lounges"]},{"id":"rooftopLoungesRestaurants_1533c10141a1","slug":"allegro-1533","kind":"restaurant","name":"Allegro","lat":40.597207319655574,"lng":22.9475710644147,"url":"https://maps.app.goo.gl/JPyojcjpAj6bXV746?g_st=ipc","address":"25 Martiou & Coastal Road, Thessaloniki 546 46","categoryIds":["rooftop-lounges"],"categories":["Rooftop Lounges"]},{"id":"rooftopLoungesRestaurants_7e076fa27638","slug":"margarita-at-the-top-of-sense-7e07","kind":"restaurant","name":"Margarita At the Top of Sense","lat":40.63545426028475,"lng":22.93700542047033,"url":"https://maps.app.goo.gl/WnmhcnyR1pUzpjBc9?g_st=ipc","address":"Pl. Morichovou 11, Thessaloniki 546 25","categoryIds":["rooftop-lounges"],"categories":["Rooftop Lounges"]},{"id":"rooftopLoungesRestaurants_c00e2007b8c8","slug":"orizontes-roof-garden-c00e","kind":"restaurant","name":"Orizontes Roof Garden","lat":40.63324843271599,"lng":22.94121400261453,"url":"https://maps.app.goo.gl/k4RMBTJaYnWPwHrU7?g_st=ipc","address":"Aristotelous Sq 9, Thessaloniki 546 24","categoryIds":["rooftop-lounges"],"categories":["Rooftop Lounges"]},{"id":"rooftopLoungesRestaurants_37ff1d604564","slug":"ennea-rooftop-bar-37ff","kind":"restaurant","name":"Ennea Rooftop Bar","lat":40.63386856558694,"lng":22.943170697637683,"url":"https://maps.app.goo.gl/BC4vj2HMkPaRWUJY6?g_st=ipc","address":"MonAsty Thessaloniki Autograph Collection, Vasileos Irakleiou 45, Thessaloniki 546 23","categoryIds":["rooftop-lounges"],"categories":["Rooftop Lounges"]},{"id":"rooftopLoungesRestaurants_28b6f524a86b","slug":"bey-hamam-28b6","kind":"restaurant","name":"Bey Hamam","lat":40.635414762374545,"lng":22.945319011313067,"url":"https://maps.app.goo.gl/962RzcGYY41GffHm7?g_st=ipc","address":"Εγνατία, Mitropolitou Gennadiou 34, Thessaloniki 546 25","categoryIds":["rooftop-lounges"],"categories":["Rooftop Lounges"]},{"id":"rooftopLoungesRestaurants_2f03a1dd9309","slug":"morrison-the-premium-rooftop-2f03","kind":"restaurant","name":"Morrison • The Premium Rooftop","lat":40.60821653387287,"lng":22.99874350808088,"url":"https://maps.app.goo.gl/U2kiDC3n5qDpiFoG6?g_st=ipc","address":"17is Noemvriou 87, Pilea 555 35","categoryIds":["rooftop-lounges"],"categories":["Rooftop Lounges"]},{"id":"rooftopLoungesRestaurants_3af9241259c9","slug":"liberty-view-of-nafplio-3af9","kind":"restaurant","name":"Liberty View Of Nafplio","lat":37.56620313105519,"lng":22.806200235013893,"url":"https://maps.app.goo.gl/rQCJ25nGMgqPtznc9?g_st=ipc","address":"Σιδηράς Μεραρχίας 39, Ναύπλιο 211 00","categoryIds":["rooftop-lounges"],"categories":["Rooftop Lounges"]}],"nearby":[{"id":"italianRestaurants_9f740af053b2","slug":"filomila-9f74","kind":"restaurant","name":"Filomila","lat":39.28501094493868,"lng":20.39762732442374,"url":"https://maps.app.goo.gl/q6frpMcS63aQ6eSu5?g_st=ipc","address":"Filomila","categoryIds":["italian"],"categories":["Italian Restaurants"],"distanceKm":0.15597490940858838},{"id":"municipalities_4044fe56cffd","slug":"parga-4044","kind":"municipality","name":"Πάργα","lat":39.2856,"lng":20.4014,"aliases":["Παργα"],"region":"Ήπειρος","name_en":"Parga","region_en":"Epirus","distanceKm":0.24639444468632507},{"id":"fishTavernasRestaurants_60db33e5dbf6","slug":"ionion-fish-restaurant-60db","kind":"restaurant","name":"Ionion Fish Restaurant","lat":39.39885130705451,"lng":20.25621796602664,"url":"https://maps.app.goo.gl/UjAp1padEHJ7Q3nQ7?g_st=ipc","address":"Mega Ammos, Sivota 461 00","categoryIds":["fish-tavernas"],"categories":["Fish Tavernas"],"distanceKm":17.705365648002562},{"id":"mustSeeAttractions_ed63de4c6ad6","slug":"paralia-voutoumi-ed63","kind":"restaurant","name":"Paralia Voutoumi","lat":39.15774095957267,"lng":20.227494022688056,"url":"https://maps.app.goo.gl/zBjCseaorqmLUWjo6?g_st=ipc","address":"490 82","categoryIds":["attractions"],"categories":["Must-See Attractions"],"distanceKm":20.408011902425084},{"id":"dessertsRestaurants_40ed95d6ca7b","slug":"il-capriccio-creperie-gelateria-40ed","kind":"restaurant","name":"Il Capriccio Creperie Gelateria","lat":39.196184264572324,"lng":20.187150122565953,"url":"https://maps.app.goo.gl/cvmdPcy2F9CSE1Jx6?g_st=ipc","address":"Unnamed Road,, Gaios 490 82","categoryIds":["desserts"],"categories":["Dessert Shops"],"distanceKm":20.71658422432133},{"id":"municipalities_761b6508fb52","slug":"paxoi-761b","kind":"municipality","name":"Παξοί","lat":39.1969,"lng":20.1863,"region":"Ιόνιο","name_en":"Paxoi","region_en":"Ionian Islands","distanceKm":20.743671138991612},{"id":"municipalities_7196d20fb090","slug":"igoymenitsa-7196","kind":"municipality","name":"Ηγουμενίτσα","lat":39.5036,"lng":20.2669,"region":"Ήπειρος","name_en":"Igoumenitsa","region_en":"Epirus","distanceKm":26.90896428890938},{"id":"dessertsRestaurants_bf5c88e2b8a0","slug":"paylos-boutique-gelateria-bf5c","kind":"restaurant","name":"Παύλος Boutique Gelateria","lat":39.50673573079307,"lng":20.262695193015087,"url":"https://maps.app.goo.gl/jvvGBnLGwBaooftv9?g_st=ipc","address":"Eth. Antistasis 88, Igoumenitsa 461 00","categoryIds":["desserts"],"categories":["Dessert Shops"],"distanceKm":27.378092640344978}],"sameRegion":[],"mentionedGuides":[]},"__N_SSG":true}