{"pageProps":{"entity":{"id":"coffeeBrunchRestaurants_ff1094e6f54f","slug":"manassu-beach-bar-and-restaurant-ff10","kind":"restaurant","name":"Manassu Beach Bar and Restaurant","lat":40.15983560901836,"lng":23.895238695639563,"url":"https://maps.app.goo.gl/vTT1YVpou5DWsbZ16?g_st=ipc","address":"12ο χλμ. Βουρβουρού, Sarti 630 78","categoryIds":["coffee-brunch"],"categories":["Coffee & Brunch Spots"]},"sameCategory":[{"id":"coffeeBrunchRestaurants_497e3d529e6b","slug":"rodia-beach-bar-497e","kind":"restaurant","name":"Rodia Beach Bar","lat":40.16728294783182,"lng":23.87753516622083,"url":"https://maps.app.goo.gl/JWDuoC5xfuaZE3qx7?g_st=ipc","address":"Vourvourou 630 78","categoryIds":["coffee-brunch"],"categories":["Coffee & Brunch Spots"]},{"id":"coffeeBrunchRestaurants_05e087fe1230","slug":"molos-05e0","kind":"restaurant","name":"Molos","lat":40.09415334263866,"lng":23.78475325827316,"url":"https://maps.app.goo.gl/b3KTgBobUtSzbYRQ8?g_st=ipc","address":"25is Martiou 20, Neos Marmaras 630 81","categoryIds":["coffee-brunch"],"categories":["Coffee & Brunch Spots"]},{"id":"coffeeBrunchRestaurants_e74c2a6900af","slug":"kohi-beach-e74c","kind":"restaurant","name":"Kohi beach","lat":40.074443417965654,"lng":23.790085630034497,"url":"https://maps.app.goo.gl/JVA5L8YnHzkTjoQq5?g_st=ipc","address":"PORTO KARRAS, Neos Marmaras 630 81","categoryIds":["coffee-brunch"],"categories":["Coffee & Brunch Spots"]},{"id":"coffeeBrunchRestaurants_7e71dcad1f15","slug":"sinaloa-beach-club-7e71","kind":"restaurant","name":"Sinaloa Beach Club","lat":40.02439528883169,"lng":23.83477732325125,"url":"https://maps.app.goo.gl/5y3h9wHEBbAE7ydNA?g_st=ipc","address":"Neos Marmaras 630 81","categoryIds":["coffee-brunch"],"categories":["Coffee & Brunch Spots"]},{"id":"coffeeBrunchRestaurants_854c31e0ceee","slug":"la-luna-854c","kind":"restaurant","name":"La Luna","lat":40.23930190869367,"lng":23.72686046824902,"url":"https://maps.app.goo.gl/ufdEfkab77wbekDB9?g_st=ipc","address":"Παραλία Τρανή Αμμούδα, Ormos Panagias 630 78","categoryIds":["coffee-brunch"],"categories":["Coffee & Brunch Spots"]},{"id":"coffeeBrunchRestaurants_6bd1b4ee2edd","slug":"le-mantri-beach-bar-6bd1","kind":"restaurant","name":"Le Mantri Beach Bar","lat":40.24711352255949,"lng":23.722806749285716,"url":"https://maps.app.goo.gl/JzQ8QxBHm1Z7RWLz6?g_st=ipc","address":"Ακτή Τρανή Αμμούδα, Λιβροχιό good, Ag. Nikolaos 630 78","categoryIds":["coffee-brunch"],"categories":["Coffee & Brunch Spots"]},{"id":"coffeeBrunchRestaurants_4f22b9f8e395","slug":"ethnik-beach-bar-4f22","kind":"restaurant","name":"Ethnik Beach Bar","lat":39.99629866369205,"lng":23.87260948520653,"url":"https://maps.app.goo.gl/SSzGcihWSHuskGnj9?g_st=ipc","address":"Τριστινικα 630 72","categoryIds":["coffee-brunch"],"categories":["Coffee & Brunch Spots"]},{"id":"coffeeBrunchRestaurants_3cdad4c24984","slug":"ergon-beach-house-nikiti-3cda","kind":"restaurant","name":"ERGON Beach House Nikiti","lat":40.203661627704044,"lng":23.679869228615946,"url":"https://maps.app.goo.gl/8k67FJFCG4gbZRCz7?g_st=ipc","address":"Egialou 1, Nikiti 630 88","categoryIds":["coffee-brunch"],"categories":["Coffee & Brunch Spots"]}],"nearby":[{"id":"coffeeBrunchRestaurants_497e3d529e6b","slug":"rodia-beach-bar-497e","kind":"restaurant","name":"Rodia Beach Bar","lat":40.16728294783182,"lng":23.87753516622083,"url":"https://maps.app.goo.gl/JWDuoC5xfuaZE3qx7?g_st=ipc","address":"Vourvourou 630 78","categoryIds":["coffee-brunch"],"categories":["Coffee & Brunch Spots"],"distanceKm":1.7172355042951737},{"id":"municipalities_2e6aac1a10ea","slug":"kavoyrotrypes-2e6a","kind":"municipality","name":"Καβουρότρυπες","lat":40.1914,"lng":23.9761,"region":"Χαλκιδική","name_en":"Kavourotrypes","region_en":"Halkidiki","distanceKm":7.714669822206847},{"id":"greekRestaurants_b3c17d231447","slug":"mellia-restaurant-b3c1","kind":"restaurant","name":"Melliá Restaurant","lat":40.19208860749863,"lng":23.80767095185341,"url":"https://maps.app.goo.gl/1uxCAvJPume7NxnN7?g_st=ipc","address":"Βουρβουρού 630 78","categoryIds":["greek-restaurants"],"categories":["Greek Restaurants"],"distanceKm":8.259083088867909},{"id":"luxuryDiningRestaurants_f6d3a7539ed9","slug":"bubo-f6d3","kind":"restaurant","name":"Bubo","lat":40.19127812556052,"lng":23.80445470083623,"url":"https://maps.app.goo.gl/n2fTsV6Gr8NWKq3k7?g_st=ipc","address":"5RR3+FH, Sithonia 630 78 (within Ekies All Senses Resort)","categoryIds":["luxury-dining"],"categories":["Luxury Dining"],"distanceKm":8.468496584833503},{"id":"fishTavernasRestaurants_89407965d754","slug":"bubo-8940","kind":"restaurant","name":"Bubo","lat":40.19122023224205,"lng":23.803994678989536,"url":"https://maps.app.goo.gl/oD1rDfLpCw74E1w19?g_st=ipc","address":"5RR3+FH, Sithonia 630 78","categoryIds":["fish-tavernas"],"categories":["Fish Tavernas"],"distanceKm":8.501467807932928},{"id":"greekRestaurants_43468164bfe6","slug":"gorgona-i-poylman-4346","kind":"restaurant","name":"Γοργόνα ή Πούλμαν","lat":40.18844887866331,"lng":23.799070114643,"url":"https://maps.app.goo.gl/eCPfEYcm6XmwdGov6?g_st=ipc","address":"Βουρβουρού 630 78","categoryIds":["greek-restaurants"],"categories":["Greek Restaurants"],"distanceKm":8.768340838869277},{"id":"fishTavernasRestaurants_65768adf2a19","slug":"ta-vrahakia-6576","kind":"restaurant","name":"Ta Vrahakia","lat":40.097540490283095,"lng":23.98106959598484,"url":"https://maps.app.goo.gl/s3bXAQZmTZm8mRD49?g_st=ipc","address":"Sarti, 630 72","categoryIds":["fish-tavernas"],"categories":["Fish Tavernas"],"distanceKm":10.061438166762498},{"id":"municipalities_9881ef0d546d","slug":"sarti-9881","kind":"municipality","name":"Σάρτη","lat":40.092,"lng":23.9774,"region":"Χαλκιδική","name_en":"Sarti","region_en":"Halkidiki","distanceKm":10.28080939732898}],"sameRegion":[],"mentionedGuides":[]},"__N_SSG":true}