{"pageProps":{"entity":{"id":"wineriesVineyards_0cdfcd6ce302","slug":"nico-lazaridi-chateau-nico-lazaridi-oinopoieio-nikoy-lazaridi-0cdf","kind":"restaurant","name":"NICO LAZARIDI Château Nico Lazaridi - Οινοποιείο Νίκου Λαζαρίδη","lat":41.129507803067504,"lng":24.279792635578804,"url":"https://maps.app.goo.gl/WKD1nyVBu5sjxUqV8?g_st=ipc","address":"Κοινότητα Αγοράς, Δράμα, Agora 660 32","categoryIds":["wineries-vineyards"],"categories":["Wineries & Vineyards"]},"sameCategory":[{"id":"wineriesVineyards_a9a7cc1f9625","slug":"estates-costa-lazaridi-drama-a9a7","kind":"restaurant","name":"Estates Costa Lazaridi Drama","lat":41.13086312258315,"lng":24.259959410750362,"url":"https://maps.app.goo.gl/Kw5f3uTchrYrtq7G7?g_st=ipc","address":"Epar.Od. Platamona - Adrianis 47, Adriani 661 00","categoryIds":["wineries-vineyards"],"categories":["Wineries & Vineyards"]},{"id":"wineriesVineyards_554af4e222d0","slug":"oenogenesis-s-a-554a","kind":"restaurant","name":"OENOGENESIS S.A.","lat":41.11655968127127,"lng":24.244269125370955,"url":"https://maps.app.goo.gl/bnEeezvifVHw7rFq7?g_st=ipc","address":"Επί επαρχιακής οδού Δοξάτο-Αδριανή, Adriani 661 00","categoryIds":["wineries-vineyards"],"categories":["Wineries & Vineyards"]},{"id":"wineriesVineyards_21e4fc1e860b","slug":"wine-art-estate-21e4","kind":"restaurant","name":"\"Wine Art\" Estate","lat":41.10253195746925,"lng":24.17303276432893,"url":"https://maps.app.goo.gl/kuEE1xd8ov4WsHDd9?g_st=ipc","address":"p. mela 2, Mikrochori 661 00","categoryIds":["wineries-vineyards"],"categories":["Wineries & Vineyards"]},{"id":"wineriesVineyards_3da11558d51a","slug":"ktima-pavlidis-3da1","kind":"restaurant","name":"Ktima Pavlidis","lat":41.20099538103468,"lng":23.95247116441372,"url":"https://maps.app.goo.gl/7JsSGRBJR1mceRNE9?g_st=ipc","address":"Kokinogeia 662 00","categoryIds":["wineries-vineyards"],"categories":["Wineries & Vineyards"]},{"id":"wineriesVineyards_eb4eefea1ef8","slug":"oenops-wines-eb4e","kind":"restaurant","name":"OENOPS WINES","lat":41.18716398837062,"lng":23.94513089525479,"url":"https://maps.app.goo.gl/FMCPZ5ZmPNoWEBFVA?g_st=ipc","address":"3ο χλμ επαρχιακής οδού Προσοτσάνης, Kokkinogia 662 00","categoryIds":["wineries-vineyards"],"categories":["Wineries & Vineyards"]},{"id":"wineriesVineyards_99bb64a2c9e6","slug":"domaine-porto-carras-new-era-99bb","kind":"restaurant","name":"Domaine Porto Carras new era","lat":40.072188356104746,"lng":23.80576582498951,"url":"https://maps.app.goo.gl/huHWpFUEXo8827o1A?g_st=ipc","address":"Σιθωνία 630 81","categoryIds":["wineries-vineyards"],"categories":["Wineries & Vineyards"]},{"id":"wineriesVineyards_2ab2ad540f09","slug":"kechris-winery-2ab2","kind":"restaurant","name":"KECHRIS Winery","lat":40.64762484465721,"lng":22.85152020450362,"url":"https://maps.app.goo.gl/sv2SwXYfdv3Hc5ob9?g_st=ipc","address":"Olimpou, Delta 570 09","categoryIds":["wineries-vineyards"],"categories":["Wineries & Vineyards"]},{"id":"wineriesVineyards_65599ab05a5f","slug":"tsantali-6559","kind":"restaurant","name":"Tsantali","lat":40.36907180251345,"lng":23.047266199347828,"url":"https://maps.app.goo.gl/yKNrVSuK1iy4L2Ls9?g_st=ipc","address":"Agios Pavlos 630 80","categoryIds":["wineries-vineyards"],"categories":["Wineries & Vineyards"]}],"nearby":[{"id":"wineriesVineyards_a9a7cc1f9625","slug":"estates-costa-lazaridi-drama-a9a7","kind":"restaurant","name":"Estates Costa Lazaridi Drama","lat":41.13086312258315,"lng":24.259959410750362,"url":"https://maps.app.goo.gl/Kw5f3uTchrYrtq7G7?g_st=ipc","address":"Epar.Od. Platamona - Adrianis 47, Adriani 661 00","categoryIds":["wineries-vineyards"],"categories":["Wineries & Vineyards"],"distanceKm":1.6679323646747857},{"id":"wineriesVineyards_554af4e222d0","slug":"oenogenesis-s-a-554a","kind":"restaurant","name":"OENOGENESIS S.A.","lat":41.11655968127127,"lng":24.244269125370955,"url":"https://maps.app.goo.gl/bnEeezvifVHw7rFq7?g_st=ipc","address":"Επί επαρχιακής οδού Δοξάτο-Αδριανή, Adriani 661 00","categoryIds":["wineries-vineyards"],"categories":["Wineries & Vineyards"],"distanceKm":3.3055806756420623},{"id":"coffeeBrunchRestaurants_1e661ed95ce8","slug":"river-cafe-1e66","kind":"restaurant","name":"River Cafe","lat":41.06113826137017,"lng":24.26515962969056,"url":"https://maps.app.goo.gl/MD2gmED1xtQRvMJS6?g_st=ipc","address":"Άνω Κεφαλάρι 660 32","categoryIds":["coffee-brunch"],"categories":["Coffee & Brunch Spots"],"distanceKm":7.700603097421667},{"id":"wineriesVineyards_21e4fc1e860b","slug":"wine-art-estate-21e4","kind":"restaurant","name":"\"Wine Art\" Estate","lat":41.10253195746925,"lng":24.17303276432893,"url":"https://maps.app.goo.gl/kuEE1xd8ov4WsHDd9?g_st=ipc","address":"p. mela 2, Mikrochori 661 00","categoryIds":["wineries-vineyards"],"categories":["Wineries & Vineyards"],"distanceKm":9.433101089784493},{"id":"dessertsRestaurants_fa96f575f727","slug":"armenoville-fa96","kind":"restaurant","name":"Armenovílle","lat":41.14370182931695,"lng":24.14876446334483,"url":"https://maps.app.goo.gl/7nzHrRoeVuv244XT6?g_st=ipc","address":"1is Iouliou 6, Drama 661 00","categoryIds":["desserts"],"categories":["Dessert Shops"],"distanceKm":11.085972367805063},{"id":"familyFriendly_df83d6806c13","slug":"oneiroypoli-dramas-df83","kind":"restaurant","name":"Ονειρούπολη Δράμας","lat":41.147983932052774,"lng":24.146200919467475,"url":"https://maps.app.goo.gl/hQZWfg9QfnFeMyBTA?g_st=ipc","address":"Drama 661 00","categoryIds":["family-friendly"],"categories":["Kid Friendly Locations"],"distanceKm":11.374442556210218},{"id":"municipalities_8789afaef2a4","slug":"drama-8789","kind":"municipality","name":"Δράμα","lat":41.151,"lng":24.145,"region":"Ανατολική Μακεδονία και Θράκη","name_en":"Drama","region_en":"Eastern Macedonia & Thrace","distanceKm":11.537888639629305},{"id":"dessertsRestaurants_6dd39e58dc31","slug":"ntinos-patisserie-6dd3","kind":"restaurant","name":"Ntinos Patisserie","lat":41.151585513355016,"lng":24.14300415927613,"url":"https://maps.app.goo.gl/HZ2MFbKvrx1G3nXf9?g_st=ipc","address":"El. Venizelou 93, Drama 661 00","categoryIds":["desserts"],"categories":["Dessert Shops"],"distanceKm":11.714869280679691}],"sameRegion":[],"mentionedGuides":[]},"__N_SSG":true}