{"pageProps":{"entity":{"id":"cheapEatsRestaurants_8af2c5ab8db1","slug":"paperbag-street-food-8af2","kind":"restaurant","name":"PAPERBAG || street food","lat":40.634629758562504,"lng":22.948314502108076,"url":"https://maps.app.goo.gl/EppjR6X5bpodm5MR7?g_st=ipc","address":"Achiropiitou 2, Thessaloniki 546 35","categoryIds":["cheap-eats"],"categories":["Gyros & Cheap Eats"]},"sameCategory":[{"id":"cheapEatsRestaurants_b6d7f55c61d9","slug":"ohmami-street-food-thessaloniki-b6d7","kind":"restaurant","name":"Ohmami - Street Food / Thessaloniki","lat":40.63556315760708,"lng":22.947563243318125,"url":"https://maps.app.goo.gl/SWEWMLbzJrveMUjT7?g_st=ipc","address":"Patriarchoi Dionisii E 1, Thessaloniki 546 31","categoryIds":["cheap-eats"],"categories":["Gyros & Cheap Eats"]},{"id":"cheapEatsRestaurants_89af7e3d3903","slug":"dakee-spot-89af","kind":"restaurant","name":"Dakee spot","lat":40.6322179094533,"lng":22.947351485022043,"url":"https://maps.app.goo.gl/rccueDiq6UHSWjB86?g_st=ipc","address":"P. Mela 48, Thessaloniki 546 22","categoryIds":["cheap-eats"],"categories":["Gyros & Cheap Eats"]},{"id":"cheapEatsRestaurants_bd4c36f00e26","slug":"balboa-thessaloniki-bd4c","kind":"restaurant","name":"Balboa Thessaloniki","lat":40.631903473697065,"lng":22.947513989325277,"url":"https://maps.app.goo.gl/oFPYJzUU4rgqitwB7?g_st=ipc","address":"P. Mela 42, Thessaloniki 546 22","categoryIds":["cheap-eats"],"categories":["Gyros & Cheap Eats"]},{"id":"cheapEatsRestaurants_963344db5c1c","slug":"mimis-9633","kind":"restaurant","name":"Mimis","lat":40.63706330748784,"lng":22.950306559309492,"url":"https://maps.app.goo.gl/m8WS13tHpdvSyxE99?g_st=ipc","address":"Ag. Dimitriou 126, Thessaloniki 546 35","categoryIds":["cheap-eats"],"categories":["Gyros & Cheap Eats"]},{"id":"cheapEatsRestaurants_7865a8488572","slug":"life-and-chicken-7865","kind":"restaurant","name":"Life And Chicken","lat":40.633119640565006,"lng":22.95173924738418,"url":"https://maps.app.goo.gl/NkyDdLxK9uDyWwpD7?g_st=ipc","address":"Κέντρο, Θεσσαλονίκη, Patriarchou Ioakim 26, Thessaloniki 546 35","categoryIds":["cheap-eats"],"categories":["Gyros & Cheap Eats"]},{"id":"cheapEatsRestaurants_3f9006febdb5","slug":"life-and-chicken-3f90","kind":"restaurant","name":"Life And Chicken","lat":40.63311964993022,"lng":22.951739765062324,"url":"https://maps.app.goo.gl/fczSwQFG8SAVzjsu7?g_st=ipc","address":"Κέντρο, Θεσσαλονίκη, Patriarchou Ioakim 26, Thessaloniki 546 35","categoryIds":["cheap-eats"],"categories":["Gyros & Cheap Eats"]},{"id":"cheapEatsRestaurants_abf9ebdbbc06","slug":"taco-mazama-californian-style-mexican-street-food-abf9","kind":"restaurant","name":"Taco Mazama (Californian Style Mexican Street Food)","lat":40.63149354851285,"lng":22.94839774432504,"url":"https://maps.app.goo.gl/zE2aLejbpEyQpDvq8?g_st=ipc","address":"Paleon Patron Germanou 28, Thessaloniki 546 22","categoryIds":["cheap-eats"],"categories":["Gyros & Cheap Eats"]},{"id":"cheapEatsRestaurants_59b46ad1098f","slug":"gouda-luck-59b4","kind":"restaurant","name":"Gouda luck","lat":40.632030062154726,"lng":22.9512395674924,"url":"https://maps.app.goo.gl/w5kby75ZDPeF56mp7?g_st=ic","address":"Egnatia 144, Thessaloniki 546 22","categoryIds":["cheap-eats"],"categories":["Gyros & Cheap Eats"]}],"nearby":[{"id":"coffeeBrunchRestaurants_3e6cfb10198f","slug":"shed-3e6c","kind":"restaurant","name":"shed","lat":40.63516182787635,"lng":22.9483681936243,"url":"https://maps.app.goo.gl/bczd7kAPu1ihwt9fA?g_st=ipc","address":"Patriarchoi Dionisii E 11, Thessaloniki 546 35","categoryIds":["coffee-brunch"],"categories":["Coffee & Brunch Spots"],"distanceKm":0.05933663033173037},{"id":"vegetarianRestaurants_1e9851e5feae","slug":"handwich-1e98","kind":"restaurant","name":"HANDWICH","lat":40.63375897578191,"lng":22.947935333630785,"url":"https://maps.app.goo.gl/JccdCGeGNfXKNSwQ7?g_st=ipc","address":"Egnatia 112, Thessaloniki 546 22","categoryIds":["vegetarian"],"categories":["Vegetarian Friendly Restaurants"],"distanceKm":0.10197608509293735},{"id":"coffeeBrunchRestaurants_1ba6faa5ef16","slug":"naked-1ba6","kind":"restaurant","name":"NAKED","lat":40.6351156138034,"lng":22.949358819047884,"url":"https://maps.app.goo.gl/tVt4qfxaTjfyP7oG8?g_st=ipc","address":"Filippou 62, Thessaloniki 546 35","categoryIds":["coffee-brunch"],"categories":["Coffee & Brunch Spots"],"distanceKm":0.10336471477603537},{"id":"burgersRestaurants_c3d0c3efec16","slug":"ohmami-street-food-thessaloniki-c3d0","kind":"restaurant","name":"Ohmami - Street Food / Thessaloniki","lat":40.63556199320903,"lng":22.947562092920837,"url":"https://maps.app.goo.gl/NzN9wf8WYr2rjWbd7","address":"Patriarchoi Dionisii E 1, Thessaloniki 546 31","categoryIds":["burgers"],"categories":["Burger Spots"],"distanceKm":0.12155811109190451},{"id":"cheapEatsRestaurants_b6d7f55c61d9","slug":"ohmami-street-food-thessaloniki-b6d7","kind":"restaurant","name":"Ohmami - Street Food / Thessaloniki","lat":40.63556315760708,"lng":22.947563243318125,"url":"https://maps.app.goo.gl/SWEWMLbzJrveMUjT7?g_st=ipc","address":"Patriarchoi Dionisii E 1, Thessaloniki 546 31","categoryIds":["cheap-eats"],"categories":["Gyros & Cheap Eats"],"distanceKm":0.12161791283997414},{"id":"fishTavernasRestaurants_ec7fddf4df43","slug":"mourga-ec7f","kind":"restaurant","name":"Mourga","lat":40.635412338789585,"lng":22.94963013274726,"url":"https://maps.app.goo.gl/u7q8zzuEjPhJ53mR7?g_st=ipc","address":"Christopoulou 12, Thessaloniki 546 35","categoryIds":["fish-tavernas"],"categories":["Fish Tavernas"],"distanceKm":0.141056738267786},{"id":"greekRestaurants_13c994d14935","slug":"taverna-oyzeri-kosmas-13c9","kind":"restaurant","name":"Ταβέρνα - Ουζερί Κοσμάς","lat":40.635727203567235,"lng":22.94715477968318,"url":"https://maps.app.goo.gl/9edjcaLLqs3ZFkL47?g_st=ipc","address":"Πλάτωνος 15, Θεσσαλονίκη 546 31","categoryIds":["greek-restaurants"],"categories":["Greek Restaurants"],"distanceKm":0.15642273233820242},{"id":"italianRestaurants_d3fb4b2d1274","slug":"osteria-dai-fioi-d3fb","kind":"restaurant","name":"Osteria dai Fioi","lat":40.633770916934814,"lng":22.950440152016508,"url":"https://maps.app.goo.gl/ptx8MrTs166UDsu79?g_st=ipc","address":"Leonida Iasonidou 9, Thessaloniki 546 35","categoryIds":["italian"],"categories":["Italian Restaurants"],"distanceKm":0.20320889712812656}],"sameRegion":[],"mentionedGuides":[]},"__N_SSG":true}