{"pageProps":{"entity":{"id":"dessertsRestaurants_bd4141abfc88","slug":"paylakis-zacharoplasteio-bd41","kind":"restaurant","name":"Παυλάκης Ζαχαροπλαστείο","lat":37.95571450585217,"lng":23.63113250439145,"url":"https://maps.app.goo.gl/uG9ew76UW6orfg278?g_st=ipc","address":"Σπάρτης 129, Πειραιάς 185 46","categoryIds":["desserts"],"categories":["Dessert Shops"]},"sameCategory":[{"id":"dessertsRestaurants_2ce344200b32","slug":"artozacharoplasteia-gavriilidis-2ce3","kind":"restaurant","name":"Αρτοζαχαροπλαστεία Γαβριηλίδης","lat":37.964134303993816,"lng":23.626317751280503,"url":"https://maps.app.goo.gl/JyTzpkU2ifwrGv839?g_st=ipc","address":"Λεωφ. Σαλαμίνος 71, Κερατσίνι 187 56","categoryIds":["desserts"],"categories":["Dessert Shops"]},{"id":"dessertsRestaurants_1148b5deca52","slug":"galaktopoleio-stamoy-1148","kind":"restaurant","name":"Γαλακτοπωλείο ΣΤΑΜΟΥ","lat":37.9652037202668,"lng":23.635596413779496,"url":"https://maps.app.goo.gl/rrTmftHWRasbJb7aA?g_st=ipc","address":"Πέτρου Ράλλη 438, Νίκαια 184 51","categoryIds":["desserts"],"categories":["Dessert Shops"]},{"id":"dessertsRestaurants_bfa57b4eb085","slug":"little-bear-piraeus-vegan-patisserie-bistro-bfa5","kind":"restaurant","name":"Little Bear Piraeus - Vegan Patisserie & Bistro","lat":37.946303720961154,"lng":23.647731238367324,"url":"https://maps.app.goo.gl/u2qFa1uh9dMczD9G6?g_st=ipc","address":"Ελ. Βενιζέλου 14, Πειραιάς 185 31","categoryIds":["desserts"],"categories":["Dessert Shops"]},{"id":"dessertsRestaurants_7b04a6c0e5e9","slug":"loukoumother-s-peiraias-7b04","kind":"restaurant","name":"Loukoumother's Πειραιάς","lat":37.93905157733481,"lng":23.647294517023667,"url":"https://maps.app.goo.gl/n5Dp63fF47u9TZuz6?g_st=ipc","address":"Ακτή Μουτσοπούλου 12, Πειραιάς 185 35","categoryIds":["desserts"],"categories":["Dessert Shops"]},{"id":"dessertsRestaurants_485012761632","slug":"galaktopoleio-stamoy-peiraia-4850","kind":"restaurant","name":"Γαλακτοπωλείο ΣΤΑΜΟΥ, Πειραιά","lat":37.93559337890928,"lng":23.64309227138255,"url":"https://maps.app.goo.gl/msTiobs8vpLYrcz57?g_st=ipc","address":"Λεωφ. Αφεντούλη 16 &, Πραξιτέλους 243, Πειραιάς 185 36","categoryIds":["desserts"],"categories":["Dessert Shops"]},{"id":"dessertsRestaurants_fc8742eefd51","slug":"loukoumothers-korydallos-fc87","kind":"restaurant","name":"Loukoumothers Korydallos","lat":37.97603620585146,"lng":23.64943855450405,"url":"https://maps.app.goo.gl/vMqPzYGSApLyRm1NA?g_st=ipc","address":"Ταξιαρχών &, Καψάλη 12, Κορυδαλλός 181 20","categoryIds":["desserts"],"categories":["Dessert Shops"]},{"id":"dessertsRestaurants_3dbefba5d853","slug":"galaktopoleio-stamoy-3dbe","kind":"restaurant","name":"Γαλακτοπωλείο ΣΤΑΜΟΥ","lat":37.98009558422181,"lng":23.657555522495652,"url":"https://maps.app.goo.gl/39ZNM4A7nfLV7BTBA?g_st=ipc","address":"Γρ. Λαμπράκη 120, Κορυδαλλός 181 21","categoryIds":["desserts"],"categories":["Dessert Shops"]},{"id":"dessertsRestaurants_2d68be5dbeef","slug":"cinnabon-river-west-2d68","kind":"restaurant","name":"Cinnabon River West","lat":37.98076958767386,"lng":23.67777033031343,"url":"https://maps.app.goo.gl/iys8A2TDdunHPN1i8?g_st=ic","address":"Par. Leoforou Kifisou 96-98, Egaleo 122 41","categoryIds":["desserts"],"categories":["Dessert Shops"]}],"nearby":[{"id":"greekRestaurants_e914468cc862","slug":"oinopantopoleio-to-eidikon-e914","kind":"restaurant","name":"Οινοπαντοπωλείο Tο Ειδικόν","lat":37.953880471733605,"lng":23.63384583394419,"url":"https://maps.app.goo.gl/PMXGHCEV52xT7G7w7","address":"Ψαρών 38, Πειραιάς 185 46","categoryIds":["greek-restaurants"],"categories":["Greek Restaurants"],"distanceKm":0.3133434343906048},{"id":"greekRestaurants_899916cf9819","slug":"izampela-armenikes-nostimies-8999","kind":"restaurant","name":"Ιζαμπέλα - Αρμένικες νοστιμιές","lat":37.95153993965958,"lng":23.631088706562064,"url":"https://maps.app.goo.gl/r3twrz7bwRr76j8n8","address":"Αναπαύσεως 36, Δραπετσώνα 185 46","categoryIds":["greek-restaurants"],"categories":["Greek Restaurants"],"distanceKm":0.4642064653589547},{"id":"burgersRestaurants_108c8d4114f6","slug":"bbc-burger-barbeque-corner-108c","kind":"restaurant","name":"BBC Burger Barbeque Corner","lat":37.952390409927204,"lng":23.625437904614223,"url":"https://maps.app.goo.gl/G6x3d2ZUCEMQrN3k7?g_st=ipc","address":"Ἀναπαύσεως 90, Κερατσίνι 187 55","categoryIds":["burgers"],"categories":["Burger Spots"],"distanceKm":0.6212170375770326},{"id":"burgersRestaurants_4906276397a1","slug":"godgilla-keratsini-4906","kind":"restaurant","name":"GODGILLA ΚΕΡΑΤΣΙΝΙ","lat":37.95895954039208,"lng":23.62512429010796,"url":"https://maps.app.goo.gl/XPM5TwgWvpZmGQUh6?g_st=ipc","address":"Θεόφραστου 54, Κερατσίνι 187 56","categoryIds":["burgers"],"categories":["Burger Spots"],"distanceKm":0.6384968213066714},{"id":"cheapEatsRestaurants_e67b21453fa9","slug":"godgilla-keratsini-e67b","kind":"restaurant","name":"GODGILLA ΚΕΡΑΤΣΙΝΙ","lat":37.958965369510814,"lng":23.62512410531841,"url":"https://maps.app.goo.gl/HayshPj5xRxQu9pK7?g_st=ipc","address":"Θεόφραστου 54, Κερατσίνι 187 56","categoryIds":["cheap-eats"],"categories":["Gyros & Cheap Eats"],"distanceKm":0.6388766833758713},{"id":"greekRestaurants_f42ac62c3249","slug":"bounty-all-aboard-f42a","kind":"restaurant","name":"Bounty all aboard","lat":37.949723445369806,"lng":23.63332963263093,"url":"https://maps.app.goo.gl/2iShe5bzo7qg3ohc6","address":"Εθ. Αντιστάσεως 10, Δραπετσώνα 186 48","categoryIds":["greek-restaurants"],"categories":["Greek Restaurants"],"distanceKm":0.69347025984816},{"id":"cheapEatsRestaurants_06c18b2e0a28","slug":"o-polyvios-06c1","kind":"restaurant","name":"ο Πολύβιος","lat":37.94989609662676,"lng":23.635292950073545,"url":"https://maps.app.goo.gl/hykabQee4Gtqnvuk9?g_st=ipc","address":"Αγίου Δημητρίου 28, Πειραιάς 185 45","categoryIds":["cheap-eats"],"categories":["Gyros & Cheap Eats"],"distanceKm":0.7427298542066366},{"id":"burgersRestaurants_d46a3e1807bd","slug":"what-they-said-d46a","kind":"restaurant","name":"What They Said","lat":37.94935179980419,"lng":23.633928811446484,"url":"https://maps.app.goo.gl/1hcPfQeHfJrzqf8KA","address":"Eth. Antistaseos 37, Drapetsona 186 48","categoryIds":["burgers"],"categories":["Burger Spots"],"distanceKm":0.7487788502280828}],"sameRegion":[],"mentionedGuides":[]},"__N_SSG":true}