{"pageProps":{"payload":{"area":{"id":"municipalities_fe83c68ec29d","name":"Νέα Παραλία","nameEn":"Nea Paralia","region":"Θεσσαλονίκη","regionEn":"Thessaloniki","lat":40.6108,"lng":22.955,"urlSlug":"nea-paralia","aliases":["Νέα Παραλία","Nea Paralia","Νέα Παραλία Thessaloniki","Nea Paralia Thessaloniki","nea-paralia-fe83","nea-paralia"]},"category":{"id":"coffee-brunch","name":"Coffee & Brunch Spots","urlSlug":"brunch","aliases":["coffee-brunch","Coffee & Brunch Spots","coffee-brunch-spots","coffee-and-brunch","brunch-spots"]},"entities":[{"entity":{"id":"coffeeBrunchRestaurants_4980bf5534c8","slug":"avenue-modern-cuisine-4980","kind":"restaurant","name":"AVENUE - Modern Cuisine","lat":40.6155426258885,"lng":22.952060123633387,"url":"https://maps.app.goo.gl/sbWsHkcndnd2Zv547?g_st=ipc","address":"Leof. Meg. Alexandrou 6, Thessaloniki 546 41","categoryIds":["coffee-brunch"],"categories":["Coffee & Brunch Spots"]},"distanceKm":0.5828257644924711},{"entity":{"id":"coffeeBrunchRestaurants_3f47d83b09c0","slug":"butterflies-and-hurricanes-3f47","kind":"restaurant","name":"Butterflies And Hurricanes","lat":40.61464844201882,"lng":22.960841697890658,"url":"https://maps.app.goo.gl/Gesp19RwCPBWQ9s58?g_st=ipc","address":"Pindarou 1, Thessaloniki 546 39","categoryIds":["coffee-brunch"],"categories":["Coffee & Brunch Spots"]},"distanceKm":0.6528959277844403},{"entity":{"id":"coffeeBrunchRestaurants_f80aae297d57","slug":"the-coffee-rawsters-f80a","kind":"restaurant","name":"The Coffee Rawsters","lat":40.605074813300206,"lng":22.958339804305506,"url":"https://maps.app.goo.gl/6bHEuH2VrUaoPjxN6?g_st=ipc","address":"Delfon 117, Thessaloniki 546 44","categoryIds":["coffee-brunch"],"categories":["Coffee & Brunch Spots"]},"distanceKm":0.6962490238667894},{"entity":{"id":"coffeeBrunchRestaurants_395eba0202c2","slug":"orange-395e","kind":"restaurant","name":"Orange","lat":40.61657039911688,"lng":22.959405836121938,"url":"https://maps.app.goo.gl/GeBX3Ci17XiZV9go6?g_st=ipc","address":"Konstantinoupoleos 21, Thessaloniki 546 40","categoryIds":["coffee-brunch"],"categories":["Coffee & Brunch Spots"]},"distanceKm":0.7416247634580226},{"entity":{"id":"coffeeBrunchRestaurants_b83fc8a35279","slug":"byrek-b83f","kind":"restaurant","name":"Byrek","lat":40.604437611308434,"lng":22.958000236614392,"url":"https://maps.app.goo.gl/hxd33pfTMwrTNJ6K6?g_st=ic","address":"Petrou Sindika 46, Thessaloniki 542 48","categoryIds":["coffee-brunch"],"categories":["Coffee & Brunch Spots"]},"distanceKm":0.751434727761061},{"entity":{"id":"coffeeBrunchRestaurants_b086083463ae","slug":"join-juice-bars-b086","kind":"restaurant","name":"JOIN juice bars","lat":40.60107511267006,"lng":22.949804539088774,"url":"https://maps.app.goo.gl/LQXcNjB3LwE4q56r7?g_st=ipc","address":"Marias Kallas 1, Thessaloniki 546 45","categoryIds":["coffee-brunch"],"categories":["Coffee & Brunch Spots"]},"distanceKm":1.1669208800091715},{"entity":{"id":"coffeeBrunchRestaurants_9fa36f8be04c","slug":"rou-leisure-gatherings-9fa3","kind":"restaurant","name":"Rou Leisure Gatherings","lat":40.612773277438485,"lng":22.97595730543709,"url":"https://maps.app.goo.gl/GxRckrquv1sShJp28?g_st=ipc","address":"Praxagora 22, Thessaloniki 543 51","categoryIds":["coffee-brunch"],"categories":["Coffee & Brunch Spots"]},"distanceKm":1.7826083433927828},{"entity":{"id":"coffeeBrunchRestaurants_553ce2fa7675","slug":"plateia-theatroy-kafe-mpar-estiatorio-553c","kind":"restaurant","name":"Πλατεία Θεάτρου, Καφέ / Μπαρ/Εστιατόριο","lat":40.62692292313497,"lng":22.94981349501023,"url":"https://maps.app.goo.gl/bFpP1KB6naw1VbYr7?g_st=ipc","address":"Eth. Aminis 4, Thessaloniki 546 21","categoryIds":["coffee-brunch"],"categories":["Coffee & Brunch Spots"]},"distanceKm":1.8454588278548893},{"entity":{"id":"coffeeBrunchRestaurants_7f4ca735b5ec","slug":"laterna-7f4c","kind":"restaurant","name":"Laterna","lat":40.597256928464596,"lng":22.96766795433404,"url":"https://maps.app.goo.gl/UuEUGrB58srruWFPA?g_st=ipc","address":"Voulgari 64, Thessaloniki 542 49","categoryIds":["coffee-brunch"],"categories":["Coffee & Brunch Spots"]},"distanceKm":1.8470328405547978},{"entity":{"id":"coffeeBrunchRestaurants_b30e4666f704","slug":"parco-b30e","kind":"restaurant","name":"Parco","lat":40.62747189738441,"lng":22.952606136312443,"url":"https://maps.app.goo.gl/imD2Az1gRrNyzqz79?g_st=ipc","address":"D' Esperey 1, Thessaloniki 546 21","categoryIds":["coffee-brunch"],"categories":["Coffee & Brunch Spots"]},"distanceKm":1.8648085779524801},{"entity":{"id":"coffeeBrunchRestaurants_535d5a114e1a","slug":"titania-535d","kind":"restaurant","name":"ΤΙΤΑΝΙΑ","lat":40.62745635041655,"lng":22.95172436992036,"url":"https://maps.app.goo.gl/6d8e2D2YLjsqGz9H8?g_st=ipc","address":"Tsimiski 139, Thessaloniki 546 21","categoryIds":["coffee-brunch"],"categories":["Coffee & Brunch Spots"]},"distanceKm":1.872623242266152},{"entity":{"id":"coffeeBrunchRestaurants_e5167aa2c2d7","slug":"salu-deli-bar-e516","kind":"restaurant","name":"Salu Deli Bar","lat":40.62815060755561,"lng":22.95200625931016,"url":"https://maps.app.goo.gl/JMsbfHHLizbxj2sh6?g_st=ipc","address":"Manousagiannaki 20, Thessaloniki 546 21","categoryIds":["coffee-brunch"],"categories":["Coffee & Brunch Spots"]},"distanceKm":1.945775807490298},{"entity":{"id":"coffeeBrunchRestaurants_459993a6b6f4","slug":"join-juice-bars-4599","kind":"restaurant","name":"JOIN juice bars","lat":40.62769069211422,"lng":22.947117280367095,"url":"https://maps.app.goo.gl/7fKny43wd3q96T1s5?g_st=ipc","address":"Leof. Nikis 73, Thessaloniki 546 22","categoryIds":["coffee-brunch"],"categories":["Coffee & Brunch Spots"]},"distanceKm":1.9925204654804805},{"entity":{"id":"coffeeBrunchRestaurants_9305c93ce682","slug":"canteen-all-day-bar-restaurant-9305","kind":"restaurant","name":"Canteen All day Bar Restaurant","lat":40.62803673619556,"lng":22.94769963358214,"url":"https://maps.app.goo.gl/M7potW66EBLTEfRx7?g_st=ipc","address":"Dim. Gounari 7, Thessaloniki 546 22","categoryIds":["coffee-brunch"],"categories":["Coffee & Brunch Spots"]},"distanceKm":2.0132473737520518},{"entity":{"id":"coffeeBrunchRestaurants_47c3c430cfa2","slug":"in-house-project-47c3","kind":"restaurant","name":"In House Project","lat":40.62870471135404,"lng":22.947776924849798,"url":"https://maps.app.goo.gl/9KxXxviA2D5JhcSW7?g_st=ipc","address":"Mitropoleos 96, Thessaloniki 546 22","categoryIds":["coffee-brunch"],"categories":["Coffee & Brunch Spots"]},"distanceKm":2.082162250808292},{"entity":{"id":"coffeeBrunchRestaurants_346744718646","slug":"thegia-more-than-a-bakery-3467","kind":"restaurant","name":"ΘΕΓΙΑ more than a bakery","lat":40.59152214019956,"lng":22.948474846251315,"url":"https://maps.app.goo.gl/Rk9qKb5jkoYV7x6HA?g_st=ipc","address":"Themistokli Sofouli 65, Kalamaria 551 31","categoryIds":["coffee-brunch"],"categories":["Coffee & Brunch Spots"]},"distanceKm":2.2132559761472166},{"entity":{"id":"coffeeBrunchRestaurants_f384f712568d","slug":"because-bagel-f384","kind":"restaurant","name":"Because Bagel","lat":40.63057390062951,"lng":22.95125439347093,"url":"https://maps.app.goo.gl/sYa6XLi3t6oC2LCj7?g_st=ipc","address":"Al. Svolou 41, Thessaloniki 546 21","categoryIds":["coffee-brunch"],"categories":["Coffee & Brunch Spots"]},"distanceKm":2.2213676486395078},{"entity":{"id":"coffeeBrunchRestaurants_203d902848ee","slug":"philia-thessaloniki-203d","kind":"restaurant","name":"Philia Thessaloniki","lat":40.63033915762918,"lng":22.94834718792844,"url":"https://maps.app.goo.gl/RLKeacGYRRwh2No58?g_st=ic","address":"Pl. Navarinou 5, Thessaloniki 546 22","categoryIds":["coffee-brunch"],"categories":["Coffee & Brunch Spots"]},"distanceKm":2.244040626270223},{"entity":{"id":"coffeeBrunchRestaurants_9cbeb6df46a2","slug":"mlrt-sourdough-microbakery-9cbe","kind":"restaurant","name":"MLRT Sourdough microbakery","lat":40.630290634546846,"lng":22.946095540648265,"url":"https://maps.app.goo.gl/Q2XyfbaALKZttmXn7?g_st=ipc","address":"Mitropolitou Iosif 15, Thessaloniki 546 22","categoryIds":["coffee-brunch"],"categories":["Coffee & Brunch Spots"]},"distanceKm":2.293869435630873},{"entity":{"id":"coffeeBrunchRestaurants_a1cebd140b7f","slug":"fluffy-brunch-a1ce","kind":"restaurant","name":"Fluffy Brunch","lat":40.630856001242115,"lng":22.948097521947723,"url":"https://maps.app.goo.gl/kPU1qrdrjXANCqMt7?g_st=ipc","address":"Pl. Navarinou 10, Thessaloniki 546 22","categoryIds":["coffee-brunch"],"categories":["Coffee & Brunch Spots"]},"distanceKm":2.304962780828484},{"entity":{"id":"coffeeBrunchRestaurants_8e7fd42757f5","slug":"koukos-8e7f","kind":"restaurant","name":"Koukos","lat":40.6303171719103,"lng":22.944717929555512,"url":"https://maps.app.goo.gl/igjo7pYZywYHB7n77?g_st=ipc","address":"Βογατσικού 10, Thessaloniki 546 22","categoryIds":["coffee-brunch"],"categories":["Coffee & Brunch Spots"]},"distanceKm":2.3372895846484885},{"entity":{"id":"coffeeBrunchRestaurants_24b6a5a5bc93","slug":"brunchsin-24b6","kind":"restaurant","name":"Brunchsin","lat":40.63142362221095,"lng":22.94824040063862,"url":"https://maps.app.goo.gl/oQiMBEdPePBk3uAQ9?g_st=ipc","address":"Paleon Patron Germanou 26, Thessaloniki 546 22","categoryIds":["coffee-brunch"],"categories":["Coffee & Brunch Spots"]},"distanceKm":2.3631430163921374},{"entity":{"id":"coffeeBrunchRestaurants_59f3ca123c97","slug":"72h-artisanal-bakery-59f3","kind":"restaurant","name":"72H Artisanal Bakery","lat":40.630980814351275,"lng":22.946106919469365,"url":"https://maps.app.goo.gl/xY83zLTaRAhzVGBo8?g_st=ipc","address":"Paleon Patron Germanou 2, Thessaloniki 546 22","categoryIds":["coffee-brunch"],"categories":["Coffee & Brunch Spots"]},"distanceKm":2.3662055584577444},{"entity":{"id":"coffeeBrunchRestaurants_1b425a72f2b5","slug":"join-juice-bars-1b42","kind":"restaurant","name":"JOIN Juice bars","lat":40.63111893989398,"lng":22.94663938125253,"url":"https://maps.app.goo.gl/N6nKzENHvyunx5Mi6?g_st=ipc","address":"Paleon Patron Germanou 10, Thessaloniki 546 22","categoryIds":["coffee-brunch"],"categories":["Coffee & Brunch Spots"]},"distanceKm":2.3669920414938423},{"entity":{"id":"coffeeBrunchRestaurants_f6927d333ac7","slug":"local-thessaloniki-f692","kind":"restaurant","name":"LOCAL Thessaloniki","lat":40.63143794324686,"lng":22.94699527001704,"url":"https://maps.app.goo.gl/RCLyEycZ8dqaLJjT6?g_st=ipc","address":"Paleon Patron Germanou 17, Thessaloniki 546 22","categoryIds":["coffee-brunch"],"categories":["Coffee & Brunch Spots"]},"distanceKm":2.3922175485695854},{"entity":{"id":"coffeeBrunchRestaurants_e317c423742b","slug":"spoon-e317","kind":"restaurant","name":"Spoon","lat":40.631612141451626,"lng":22.94743751548318,"url":"https://maps.app.goo.gl/22Pm73g59e2LeoJQ7?g_st=ipc","address":"P. Mela 38, Thessaloniki 546 22","categoryIds":["coffee-brunch"],"categories":["Coffee & Brunch Spots"]},"distanceKm":2.4006122407952906},{"entity":{"id":"coffeeBrunchRestaurants_4e3f63a5537a","slug":"garcon-brasserie-4e3f","kind":"restaurant","name":"Garçon Brasserie","lat":40.630505389559524,"lng":22.943205623552505,"url":"https://maps.app.goo.gl/GrJYGuBQazoFTfHm9?g_st=ipc","address":"Agias Sofias 2, Thessaloniki 546 22","categoryIds":["coffee-brunch"],"categories":["Coffee & Brunch Spots"]},"distanceKm":2.406663091119374},{"entity":{"id":"coffeeBrunchRestaurants_d846b3398205","slug":"valenio-d846","kind":"restaurant","name":"Valenio","lat":40.63145586275098,"lng":22.945904864010572,"url":"https://maps.app.goo.gl/Haiqh54dCVYmVume9?g_st=ipc","address":"Iktinou 6, Thessaloniki 546 22","categoryIds":["coffee-brunch"],"categories":["Coffee & Brunch Spots"]},"distanceKm":2.421709291370344},{"entity":{"id":"coffeeBrunchRestaurants_ad573219eedf","slug":"ergon-agora-ad57","kind":"restaurant","name":"ERGON Agora","lat":40.63187081672803,"lng":22.94735121723834,"url":"https://maps.app.goo.gl/ozYptsUfXEMA3PdNA?g_st=ipc","address":"P. Mela 42, Thessaloniki 546 22","categoryIds":["coffee-brunch"],"categories":["Coffee & Brunch Spots"]},"distanceKm":2.430276625770691},{"entity":{"id":"coffeeBrunchRestaurants_cbf12f48a77e","slug":"mandarini-skg-cbf1","kind":"restaurant","name":"Mandarini_skg","lat":40.63174083169372,"lng":22.946676387172698,"url":"https://maps.app.goo.gl/CEdKb7KcdrPJwXZdA?g_st=ipc","address":"Zefxidos 6, Thessaloniki 546 22","categoryIds":["coffee-brunch"],"categories":["Coffee & Brunch Spots"]},"distanceKm":2.432181298601286}],"counts":{"totalEntities":4118,"totalInArea":401,"totalInCategory":506,"totalCategoryArea":65},"relatedCategories":[{"categoryId":"cheap-eats","categorySlug":"cheap-eats","categoryName":"Gyros & Cheap Eats","count":85,"passesThreshold":true},{"categoryId":"greek-restaurants","categorySlug":"greek-restaurants","categoryName":"Greek Restaurants","count":73,"passesThreshold":true},{"categoryId":"desserts","categorySlug":"desserts","categoryName":"Dessert Shops","count":49,"passesThreshold":true},{"categoryId":"burgers","categorySlug":"burgers","categoryName":"Burger Spots","count":28,"passesThreshold":true},{"categoryId":"italian","categorySlug":"italian","categoryName":"Italian Restaurants","count":18,"passesThreshold":true},{"categoryId":"fish-tavernas","categorySlug":"fish-tavernas","categoryName":"Fish Tavernas","count":17,"passesThreshold":true},{"categoryId":"vegetarian","categorySlug":"vegetarian","categoryName":"Vegetarian Friendly Restaurants","count":16,"passesThreshold":true},{"categoryId":"asian","categorySlug":"asian-restaurants","categoryName":"Asian Restaurants","count":14,"passesThreshold":true},{"categoryId":"luxury-dining","categorySlug":"luxury-dining","categoryName":"Luxury Dining","count":14,"passesThreshold":true},{"categoryId":"family-friendly","categorySlug":"family-friendly","categoryName":"Kid Friendly Locations","count":7,"passesThreshold":true}],"relatedAreas":[{"areaId":"municipalities_5bc013791cf8","areaName":"Πλάκα","areaSlug":"plaka","count":142,"passesThreshold":true,"nearestDistanceKm":0.1263629446508417},{"areaId":"municipalities_b85b54408d92","areaName":"Θησείο","areaSlug":"thiseio","count":137,"passesThreshold":true,"nearestDistanceKm":0.13190824216712424},{"areaId":"municipalities_877c3bc81df5","areaName":"Σύνταγμα","areaSlug":"syntagma","count":136,"passesThreshold":true,"nearestDistanceKm":0.16065593503940825},{"areaId":"municipalities_4149fa79e27b","areaName":"Ακρόπολη","areaSlug":"akropoli","count":136,"passesThreshold":true,"nearestDistanceKm":0.27692773736814036},{"areaId":"municipalities_d7e1aaaed4f9","areaName":"Μοναστηράκι","areaSlug":"monastiraki","count":135,"passesThreshold":true,"nearestDistanceKm":0.05173092611255523},{"areaId":"municipalities_616efd2a0d9b","areaName":"Κουκάκι","areaSlug":"koykaki","count":135,"passesThreshold":true,"nearestDistanceKm":0.07224190875382393},{"areaId":"municipalities_2bcfcb8b899f","areaName":"Ψυρρή","areaSlug":"psyrri","count":135,"passesThreshold":true,"nearestDistanceKm":0.1010137281247451},{"areaId":"municipalities_0fd1d03201a0","areaName":"Μετς","areaSlug":"mets","count":134,"passesThreshold":true,"nearestDistanceKm":0.12687781171574306},{"areaId":"municipalities_0cae2c00b932","areaName":"Κολωνάκι","areaSlug":"kolonaki","count":133,"passesThreshold":true,"nearestDistanceKm":0.019551496670837543},{"areaId":"municipalities_0eb5ad956816","areaName":"Νέος Κόσμος","areaSlug":"neos-kosmos","count":132,"passesThreshold":true,"nearestDistanceKm":0.5340714379438}],"passesThreshold":true},"hasAreaGuidePage":true},"__N_SSG":true}