{"pageProps":{"entity":{"id":"burgersRestaurants_b5cd5e9d8f33","slug":"comet-street-gourmet-athens-b5cd","kind":"restaurant","name":"Comet Street Gourmet Athens","lat":38.05458806834009,"lng":23.84252767987863,"url":"https://maps.app.goo.gl/7yT5TAqAFBttQ8yZ7?g_st=ipc","address":"Σωκράτους 3, Μελίσσια 151 27","categoryIds":["burgers"],"categories":["Burger Spots"]},"sameCategory":[{"id":"burgersRestaurants_cdde40de0c45","slug":"the-burger-dudes-cdde","kind":"restaurant","name":"The Burger Dudes","lat":38.037808685524865,"lng":23.82651013380888,"url":"https://maps.app.goo.gl/nCm18QqReRW4TNmb6?g_st=ipc","address":"Θέτιδος 1, Βριλήσσια 152 35","categoryIds":["burgers"],"categories":["Burger Spots"]},{"id":"burgersRestaurants_264306258d6e","slug":"busty-s-burger-2643","kind":"restaurant","name":"Busty's Burger","lat":38.05283037769694,"lng":23.815776704443905,"url":"https://maps.app.goo.gl/ZPYfcdYHMWXyKwF16?g_st=ipc","address":"Οδός Πεντέλης, Μαρούσι 151 26","categoryIds":["burgers"],"categories":["Burger Spots"]},{"id":"burgersRestaurants_ceb67d2517dd","slug":"godgilla-umami-street-food-ceb6","kind":"restaurant","name":"Godgilla umami street food","lat":38.056565975998105,"lng":23.814008768575892,"url":"https://maps.app.goo.gl/WyovvCKHo17WtrPb8?g_st=ipc","address":"Γεωρ. Κοτζιά 2, Μαρούσι 151 26","categoryIds":["burgers"],"categories":["Burger Spots"]},{"id":"burgersRestaurants_fe3476589c94","slug":"barbara-que-fe34","kind":"restaurant","name":"BarBara Que","lat":38.035803199648754,"lng":23.82668456854574,"url":"https://maps.app.goo.gl/qDrH9onsxTkW9iau8?g_st=ipc","address":"Εθ. Αντιστάσεως 27, Βριλήσσια 152 35","categoryIds":["burgers"],"categories":["Burger Spots"]},{"id":"burgersRestaurants_3d23e4017c79","slug":"f-smashing-marousi-delivery-take-away-only-3d23","kind":"restaurant","name":"F* Smashing Marousi (Delivery & Take away Only!)","lat":38.05659414043942,"lng":23.807978426457023,"url":"https://maps.app.goo.gl/YDf78cc6DThEFAdSA?g_st=ipc","address":"Π. Κυριακού 18, Μαρούσι 151 24","categoryIds":["burgers"],"categories":["Burger Spots"]},{"id":"burgersRestaurants_6d610eb79dbd","slug":"taz-smash-burger-6d61","kind":"restaurant","name":"Taz Smash Burger","lat":38.05644521597169,"lng":23.804667787562405,"url":"https://maps.app.goo.gl/tj3ojXGmrnTvMA9c7?g_st=ipc","address":"Περικλέους 2, Μαρούσι 151 22","categoryIds":["burgers"],"categories":["Burger Spots"]},{"id":"burgersRestaurants_11e6ae00efca","slug":"melt-burgers-11e6","kind":"restaurant","name":"Melt Burgers","lat":38.037895872437886,"lng":23.799602975307902,"url":"https://maps.app.goo.gl/17z1ma6NXSDvgsM2A?g_st=ipc","address":"Λεωφ. Κηφισίας 59, Μαρούσι 151 24","categoryIds":["burgers"],"categories":["Burger Spots"]},{"id":"burgersRestaurants_a0d6a061aa9e","slug":"mvp-restaurant-a0d6","kind":"restaurant","name":"MVP RESTAURANT","lat":38.08823770971798,"lng":23.816227663317804,"url":"https://maps.app.goo.gl/JjXo3mQwSBz49WBp9?g_st=ipc","address":"Χαρ. Τρικούπη 127, Νέα Ερυθραία 146 71","categoryIds":["burgers"],"categories":["Burger Spots"]}],"nearby":[{"id":"mexicanRestaurants_a122440089bb","slug":"chilangos-melissia-a122","kind":"restaurant","name":"Chilangos Μελίσσια","lat":38.054355571864015,"lng":23.84267375327988,"url":"https://maps.app.goo.gl/1nUje6biZMsuVgA88?g_st=ipc","address":"Π. Τσαλδάρη 31, Μελίσσια 151 27","categoryIds":["mexican"],"categories":["Mexican Restaurants"],"distanceKm":0.028843166563961367},{"id":"luxuryDiningRestaurants_7b82ed0407ba","slug":"kozi-s-7b82","kind":"restaurant","name":"Kozi's","lat":38.05410178054939,"lng":23.84283580469915,"url":"https://maps.app.goo.gl/FDQnvFLEucyn2rft6?g_st=ipc","address":"Π. Τσαλδάρη 34, Μελίσσια 151 27","categoryIds":["luxury-dining"],"categories":["Luxury Dining"],"distanceKm":0.0604294056901899},{"id":"italianRestaurants_3f60e58e5074","slug":"nolio-restaurant-3f60","kind":"restaurant","name":"Nolio Restaurant","lat":38.0541360368352,"lng":23.842912804517134,"url":"https://maps.app.goo.gl/yrWwCAmRFC73bnXRA?g_st=ipc","address":"Π. Τσαλδάρη 32-34, Μελίσσια 151 27","categoryIds":["italian"],"categories":["Italian Restaurants"],"distanceKm":0.06052696880576019},{"id":"asianRestaurants_b06ea4e8fead","slug":"shisan-sushi-bar-b06e","kind":"restaurant","name":"Shisan Sushi Bar","lat":38.053962138366174,"lng":23.841922115859383,"url":"https://maps.app.goo.gl/xTbQEiSszAswqYqi8?g_st=ipc","address":"Αλ. Ζαΐμη 1, Μελίσσια 151 27","categoryIds":["asian"],"categories":["Asian Restaurants"],"distanceKm":0.08749581141251166},{"id":"asianRestaurants_0fceaf69bfec","slug":"tailandi-0fce","kind":"restaurant","name":"Ταϊλάνδη","lat":38.05465471580679,"lng":23.844081463874097,"url":"https://maps.app.goo.gl/EKBgxEmreeAUsw7BA?g_st=ipc","address":"Σωκράτους 7, Μελίσσια 151 27","categoryIds":["asian"],"categories":["Asian Restaurants"],"distanceKm":0.13624713254639179},{"id":"cheapEatsRestaurants_b596150cf3db","slug":"trigono-melission-b596","kind":"restaurant","name":"ΤΡΙΓΩΝΟ ΜΕΛΙΣΣΙΩΝ","lat":38.05317998498453,"lng":23.84087862675326,"url":"https://maps.app.goo.gl/FjiCt1o7yoa331UN8?g_st=ipc","address":"Π. Τσαλδάρη 21, Μελίσσια 151 27","categoryIds":["cheap-eats"],"categories":["Gyros & Cheap Eats"],"distanceKm":0.2129852571453854},{"id":"fishTavernasRestaurants_8fa64823bdb9","slug":"psarokokkalo-8fa6","kind":"restaurant","name":"Ψαροκόκκαλο","lat":38.05407148936591,"lng":23.838879406158195,"url":"https://maps.app.goo.gl/yjqJBhxZ9XwdkDBv7?g_st=ipc","address":"Ελ. Βενιζέλου 19, Μελίσσια 151 27","categoryIds":["fish-tavernas"],"categories":["Fish Tavernas"],"distanceKm":0.324558424969872},{"id":"luxuryDiningRestaurants_9b9da81f93b6","slug":"psarokokkalo-9b9d","kind":"restaurant","name":"Ψαροκόκκαλο","lat":38.05403920943362,"lng":23.838870568638754,"url":"https://maps.app.goo.gl/jUvgtGYVftJKQUeM7?g_st=ipc","address":"Ελ. Βενιζέλου 19, Μελίσσια 151 27","categoryIds":["luxury-dining"],"categories":["Luxury Dining"],"distanceKm":0.3259730137461229}],"sameRegion":[],"mentionedGuides":[{"slug":"tap-water-safe-greece-el","title":"Είναι Ασφαλές να Πίνετε Νερό Βρύσης στην Ελλάδα;"},{"slug":"tap-water-safe-greece","title":"Is Tap Water Safe to Drink in Greece?"},{"slug":"traveling-to-greece-on-a-budget-el","title":"Ταξιδι στην Ελλαδα με μικρο budget"},{"slug":"traveling-to-greece-on-a-budget","title":"Traveling to Greece on a Budget"}]},"__N_SSG":true}