{"pageProps":{"entity":{"id":"greekRestaurants_284ab55d844a","slug":"drosia-284a","kind":"restaurant","name":"Δροσιά","lat":40.64461236646585,"lng":22.953803286668357,"url":"https://maps.app.goo.gl/APT3HJiqoZGsnyPs9?g_st=ipc","address":"Μεσολογγίου 44, Θεσσαλονίκη 566 25","categoryIds":["greek-restaurants"],"categories":["Greek Restaurants"]},"sameCategory":[{"id":"greekRestaurants_26adfb378173","slug":"toicho-toicho-26ad","kind":"restaurant","name":"Τοίχο Τοίχο","lat":40.64280442360803,"lng":22.955285045566942,"url":"https://maps.app.goo.gl/98dknE2zQL7T8npUA?g_st=ipc","address":"Στεργίου Πολυδώρου 1, Θεσσαλονίκη 546 34","categoryIds":["greek-restaurants"],"categories":["Greek Restaurants"]},{"id":"greekRestaurants_c253491b9a8d","slug":"to-igglis-taverna-c253","kind":"restaurant","name":"το \"Ιγγλις\" ταβέρνα","lat":40.63880204066886,"lng":22.95710932601345,"url":"https://maps.app.goo.gl/dRFfUaqod6DSYEDx8?g_st=ipc","address":"Ηροδότου 32, Θεσσαλονίκη 546 34","categoryIds":["greek-restaurants"],"categories":["Greek Restaurants"]},{"id":"greekRestaurants_0c9a78977f40","slug":"nea-folia-0c9a","kind":"restaurant","name":"Νέα Φωλιά","lat":40.63831468853848,"lng":22.95095515507328,"url":"https://maps.app.goo.gl/RoPE5F5QLpWFB4rcA?g_st=ipc","address":"Αριστομένους 4, Θεσσαλονίκη 546 34","categoryIds":["greek-restaurants"],"categories":["Greek Restaurants"]},{"id":"greekRestaurants_5762dafe8770","slug":"giannoyla-5762","kind":"restaurant","name":"Γιαννούλα","lat":40.640039548951144,"lng":22.946778249418276,"url":"https://maps.app.goo.gl/bG2X8oAd5FzPwzKJ9?g_st=ipc","address":"Κασσάνδρου 50, Θεσσαλονίκη 546 33","categoryIds":["greek-restaurants"],"categories":["Greek Restaurants"]},{"id":"greekRestaurants_f55cb9debc6f","slug":"iliopetra-f55c","kind":"restaurant","name":"Ηλιόπετρα","lat":40.637407844896174,"lng":22.95118029752211,"url":"https://maps.app.goo.gl/twTSSnJJWA1rop578?g_st=ipc","address":"Αισχύλου 5, Θεσσαλονίκη 546 34","categoryIds":["greek-restaurants"],"categories":["Greek Restaurants"]},{"id":"greekRestaurants_8cc725e89b2f","slug":"doxa-8cc7","kind":"restaurant","name":"Δόξα","lat":40.63645880387639,"lng":22.95480906477019,"url":"https://maps.app.goo.gl/v7a1JB4C1wDKAViy6?g_st=ipc","address":"Αποστόλου Παύλου 25, Θεσσαλονίκη 546 34","categoryIds":["greek-restaurants"],"categories":["Greek Restaurants"]},{"id":"greekRestaurants_429218289710","slug":"ta-mikra-kalyvia-4292","kind":"restaurant","name":"Τα μικρά Καλύβια","lat":40.63664047814548,"lng":22.951162513295422,"url":"https://maps.app.goo.gl/Z39MqbdKvPEFnvnK6?g_st=ipc","address":"Ἁγ. Δημητρίου 136, Θεσσαλονίκη 546 35","categoryIds":["greek-restaurants"],"categories":["Greek Restaurants"]},{"id":"greekRestaurants_468e8ef769c7","slug":"i-kanoyla-468e","kind":"restaurant","name":"Η Κάνουλα","lat":40.63902723791725,"lng":22.945280279447754,"url":"https://maps.app.goo.gl/1wLZCLzQxy3PPNvc7?g_st=ipc","address":"Τάσκου Παπαγεωργίου 4, Θεσσαλονίκη 546 31","categoryIds":["greek-restaurants"],"categories":["Greek Restaurants"]}],"nearby":[{"id":"fishTavernasRestaurants_f7102e19ba0d","slug":"koukida-fun-seafood-f710","kind":"restaurant","name":"Koukida Fun-Seafood","lat":40.643445839214266,"lng":22.95570392041812,"url":"https://maps.app.goo.gl/B9KYRcx4RDrq1Zh48?g_st=ipc","address":"Agrafon 13, Thessaloniki 546 34","categoryIds":["fish-tavernas"],"categories":["Fish Tavernas"],"distanceKm":0.20625295794693208},{"id":"greekRestaurants_26adfb378173","slug":"toicho-toicho-26ad","kind":"restaurant","name":"Τοίχο Τοίχο","lat":40.64280442360803,"lng":22.955285045566942,"url":"https://maps.app.goo.gl/98dknE2zQL7T8npUA?g_st=ipc","address":"Στεργίου Πολυδώρου 1, Θεσσαλονίκη 546 34","categoryIds":["greek-restaurants"],"categories":["Greek Restaurants"],"distanceKm":0.2367369825172501},{"id":"municipalities_ee3779c3af5f","slug":"ano-poli-ee37","kind":"municipality","name":"Άνω Πόλη","lat":40.6436,"lng":22.959,"region":"Θεσσαλονίκη","name_en":"Ano Poli","region_en":"Thessaloniki","distanceKm":0.4526741028782198},{"id":"coffeeBrunchRestaurants_61bbbed9f0b5","slug":"castra-all-day-terrace-bar-61bb","kind":"restaurant","name":"Castra- All Day Terrace Bar","lat":40.641322666802424,"lng":22.958308851938888,"url":"https://maps.app.goo.gl/bvxf6vbBiEtuPwrh9?g_st=ipc","address":"Eptapirgiou 122, Thessaloniki 546 34","categoryIds":["coffee-brunch"],"categories":["Coffee & Brunch Spots"],"distanceKm":0.5275604860586913},{"id":"cheapEatsRestaurants_59e2b6d2677d","slug":"to-prytaneio-59e2","kind":"restaurant","name":"Το Πρυτανείο","lat":40.64303995879506,"lng":22.947630622213342,"url":"https://maps.app.goo.gl/p1mkurFCqsY7XC3w5?g_st=ipc","address":"Alexandras Papadopoulou 72, Thessaloniki 546 33","categoryIds":["cheap-eats"],"categories":["Gyros & Cheap Eats"],"distanceKm":0.549364509485242},{"id":"mustSeeAttractions_72fd08699c11","slug":"thessaloniki-acropolis-72fd","kind":"restaurant","name":"Thessaloniki Acropolis","lat":40.644004048967396,"lng":22.961770870557544,"url":"https://maps.app.goo.gl/Pj3FuXA7LeypGUARA?g_st=ipc","address":"Eptapirgiou 130, Thessaloniki 546 34","categoryIds":["attractions"],"categories":["Must-See Attractions"],"distanceKm":0.6756286443738714},{"id":"mustSeeAttractions_d05b087a8840","slug":"heptapyrgion-of-thessaloniki-d05b","kind":"restaurant","name":"Heptapyrgion of Thessaloniki","lat":40.64405781477335,"lng":22.96178016442897,"url":"https://maps.app.goo.gl/1s8aj4cc3MbpvaGq9?g_st=ipc","address":"Επταπύργιο, Eptapirgiou 40, Thessaloniki 546 34","categoryIds":["attractions"],"categories":["Must-See Attractions"],"distanceKm":0.6758368959867339},{"id":"cheapEatsRestaurants_d40ad575edd7","slug":"michelangelo-skg-d40a","kind":"restaurant","name":"Michelangelo.skg","lat":40.65053808833563,"lng":22.95671243903333,"url":"https://maps.app.goo.gl/nAwyYBALch1ybbQSA?g_st=ipc","address":"Riga Feraiou 162, Sikies 566 26","categoryIds":["cheap-eats"],"categories":["Gyros & Cheap Eats"],"distanceKm":0.7031370568291906}],"sameRegion":[],"mentionedGuides":[]},"__N_SSG":true}