{"pageProps":{"entity":{"id":"familyFriendly_569cf558f6b0","slug":"oasis-activity-farm-park-569c","kind":"restaurant","name":"OASIS Activity Farm Park","lat":37.928303788781086,"lng":23.851038750815583,"url":"https://maps.app.goo.gl/VYjCmEzxbNTXc6xX9?g_st=ipc","address":"Πλαπούτα, Άνω Καρέλλας 194 00","categoryIds":["family-friendly"],"categories":["Kid Friendly Locations"]},"sameCategory":[{"id":"familyFriendly_86643dc5354c","slug":"gaidoyrochora-to-elliniko-kentro-gia-to-gaidoyri-8664","kind":"restaurant","name":"Γαϊδουροχώρα - Το Ελληνικό Κέντρο για το Γαϊδούρι","lat":37.92251188321968,"lng":23.844073086239685,"url":"https://maps.app.goo.gl/bxj4o99on71RaCp79?g_st=ipc","address":"Ηπείρου 40, Κρωπία 194 00","categoryIds":["family-friendly"],"categories":["Kid Friendly Locations"]},{"id":"familyFriendly_605cb6ee53f8","slug":"paidiki-chara-plateias-karaiskaki-605c","kind":"restaurant","name":"Παιδική Χαρά Πλατείας Καραισκάκη","lat":37.90061761752489,"lng":23.771490329070613,"url":"https://maps.app.goo.gl/9R2iG5DSfkWfCzH2A?g_st=ipc","address":"Λευκωσίας 25, Γλυφάδα 165 62","categoryIds":["family-friendly"],"categories":["Kid Friendly Locations"]},{"id":"familyFriendly_db6ace0662f1","slug":"aquapolis-athens-db6a","kind":"restaurant","name":"Aquapolis Athens","lat":37.97858312845216,"lng":23.91151007116057,"url":"https://maps.app.goo.gl/5Ru3eXW4yXz7efi98?g_st=ic","address":"Θέση Γιαλού, Spata 190 04","categoryIds":["family-friendly"],"categories":["Kid Friendly Locations"]},{"id":"familyFriendly_8ed15a9c84d5","slug":"attica-zoological-park-8ed1","kind":"restaurant","name":"Attica Zoological Park","lat":37.98044022083859,"lng":23.910805906852257,"url":"https://maps.app.goo.gl/f6rw3vWAJG1aAtPU6?g_st=ipc","address":"Spata 190 04","categoryIds":["family-friendly"],"categories":["Kid Friendly Locations"]},{"id":"familyFriendly_9cc1c30ecd05","slug":"designer-outlet-athens-9cc1","kind":"restaurant","name":"Designer Outlet Athens","lat":37.98621935732948,"lng":23.91050612444449,"url":"https://maps.app.goo.gl/FiJWknWTB14td3ra9?g_st=ipc","address":"D-Oikodomiko Tetragono, Γυαλού E71, Σπάτα 190 04","categoryIds":["family-friendly"],"categories":["Kid Friendly Locations"]},{"id":"familyFriendly_0ccded432145","slug":"smart-park-0ccd","kind":"restaurant","name":"Smart Park","lat":37.98478188179295,"lng":23.913104747091037,"url":"https://maps.app.goo.gl/JecbscmoWg1c4Snw5?g_st=ipc","address":"Εμπορικό Πάρκο Smart Park, Ε. Πουλακη, OT 71, & 72, Σπάτα 190 04","categoryIds":["family-friendly"],"categories":["Kid Friendly Locations"]},{"id":"familyFriendly_81e1faa2d7f2","slug":"kafe-nuestro-sueno-81e1","kind":"restaurant","name":"καφέ Nuestro sueno","lat":37.996802341238464,"lng":23.81194934538021,"url":"https://maps.app.goo.gl/VTAxttodcrh81J5E9?g_st=ipc","address":"Καραολή και Δημητρίου, Χολαργός 153 41","categoryIds":["family-friendly"],"categories":["Kid Friendly Locations"]},{"id":"familyFriendly_72e5a0b3386d","slug":"sports-park-72e5","kind":"restaurant","name":"SPORTS PARK","lat":37.97421350979179,"lng":23.929458278036556,"url":"https://maps.app.goo.gl/Jbrq2A31UzDnM1Ro7?g_st=ipc","address":"1 χλμ Σπατών, Πικερμίου, Σπάτα 190 04","categoryIds":["family-friendly"],"categories":["Kid Friendly Locations"]}],"nearby":[{"id":"familyFriendly_86643dc5354c","slug":"gaidoyrochora-to-elliniko-kentro-gia-to-gaidoyri-8664","kind":"restaurant","name":"Γαϊδουροχώρα - Το Ελληνικό Κέντρο για το Γαϊδούρι","lat":37.92251188321968,"lng":23.844073086239685,"url":"https://maps.app.goo.gl/bxj4o99on71RaCp79?g_st=ipc","address":"Ηπείρου 40, Κρωπία 194 00","categoryIds":["family-friendly"],"categories":["Kid Friendly Locations"],"distanceKm":0.8877281389834153},{"id":"greekRestaurants_24ceffe54bf6","slug":"krokos-taverna-i-folia-24ce","kind":"restaurant","name":"Κροκος Ταβέρνα Η Φωλια","lat":37.941171044387104,"lng":23.86789220057886,"url":"https://maps.app.goo.gl/rsdLSf9DyCBtiGXo8","address":"Λεωφ. Λαυρίου 20 χλμ, Παιανία 190 02","categoryIds":["greek-restaurants"],"categories":["Greek Restaurants"],"distanceKm":2.0571274235983035},{"id":"cheapEatsRestaurants_f656711be260","slug":"psitopoleio-o-thanasis-f656","kind":"restaurant","name":"Ψητοπωλείο ο Θανάσης","lat":37.95535052108935,"lng":23.854531337453796,"url":"https://maps.app.goo.gl/GvWt9fy2W45TxTRs8?g_st=ipc","address":"Αγ. Τριάδος 42, Παιανία 190 02","categoryIds":["cheap-eats"],"categories":["Gyros & Cheap Eats"],"distanceKm":3.0230142513066154},{"id":"municipalities_c6945cf2f481","slug":"spata-c694","kind":"municipality","name":"Σπάτα","lat":37.95,"lng":23.9,"region":"Ανατολικά Προάστια","name_en":"Spata","region_en":"Eastern Suburbs","distanceKm":4.925025360933269},{"id":"coffeeBrunchRestaurants_6490fab080eb","slug":"anapsyktirio-kalopoyla-6490","kind":"restaurant","name":"Αναψυκτήριο Καλοπούλα","lat":37.96354797529962,"lng":23.804248106884938,"url":"https://maps.app.goo.gl/uXF6EF7MznZrK5Jb9?g_st=ipc","address":"Unnamed Road, Καισαριανή","categoryIds":["coffee-brunch"],"categories":["Coffee & Brunch Spots"],"distanceKm":5.673847619340754},{"id":"monasteriesChurches_f9758a225b79","slug":"iera-moni-taxiarchon-asterioy-f975","kind":"restaurant","name":"Ιερά Μονή Ταξιαρχών Αστερίου","lat":37.96963791637043,"lng":23.811299998354023,"url":"https://maps.app.goo.gl/3bMH4x4NEyFmUZJ97?g_st=ipc","address":"Ζωγράφου 157 72","categoryIds":["monasteries-churches"],"categories":["Monasteries & Spiritual Sites"],"distanceKm":5.767658734938283},{"id":"monasteriesChurches_ab2f1ef6db23","slug":"iera-moni-kaisarianis-ab2f","kind":"restaurant","name":"Ιερά Μονή Καισαριανής","lat":37.96085617263528,"lng":23.798163534107264,"url":"https://maps.app.goo.gl/tKzi13MSJeMrbus97?g_st=ipc","address":"Καισαριανή 161 22","categoryIds":["monasteries-churches"],"categories":["Monasteries & Spiritual Sites"],"distanceKm":5.8821551974674895},{"id":"monasteriesChurches_2be0515299ae","slug":"iera-moni-agioy-ioannoy-prodromoy-karea-2be0","kind":"restaurant","name":"Ιερά Μονή Αγίου Ιωάννου Προδρόμου Καρέα","lat":37.94196286966367,"lng":23.778600784098284,"url":"https://maps.app.goo.gl/sjaYoN5Vu2UjZVSx6?g_st=ipc","address":"Καρέας, Βύρωνας 162 33","categoryIds":["monasteries-churches"],"categories":["Monasteries & Spiritual Sites"],"distanceKm":6.531862710788035}],"sameRegion":[],"mentionedGuides":[]},"__N_SSG":true}