{"pageProps":{"entity":{"id":"fishTavernasRestaurants_c628ee14dc22","slug":"taverna-areti-stamoulis-c628","kind":"restaurant","name":"Taverna Areti - Stamoulis","lat":39.172445737181256,"lng":23.342568733517215,"url":"https://maps.app.goo.gl/tHMerUFf4UU2S8jr8?g_st=ipc","address":"Αγ. Γεώργιος 370 06","categoryIds":["fish-tavernas"],"categories":["Fish Tavernas"]},"sameCategory":[{"id":"fishTavernasRestaurants_efccd15b6223","slug":"kehria-tarsanas-taverna-efcc","kind":"restaurant","name":"Kehria Tarsanas Taverna","lat":39.18412173483994,"lng":23.445119695165598,"url":"https://maps.app.goo.gl/tUiEEByDucNo1PfbA?g_st=ipc","address":"Unnamed Road, Skiathos 370 02","categoryIds":["fish-tavernas"],"categories":["Fish Tavernas"]},{"id":"fishTavernasRestaurants_77d3e9a1bb44","slug":"infinity-blue-restaurant-77d3","kind":"restaurant","name":"Infinity Blue Restaurant","lat":39.142389727462664,"lng":23.44573084758166,"url":"https://maps.app.goo.gl/GYPTidFzoXiRNDdCA?g_st=ipc","address":"Kolios, 370 02","categoryIds":["fish-tavernas"],"categories":["Fish Tavernas"]},{"id":"fishTavernasRestaurants_8539d0698831","slug":"argo-restaurant-8539","kind":"restaurant","name":"Argo Restaurant","lat":39.17227725570198,"lng":23.22064957150471,"url":"https://maps.app.goo.gl/HKBpdAh3KxQWGaRr8?g_st=ipc","address":"Epar.Od. Milina-Trikeri, Milina 370 13","categoryIds":["fish-tavernas"],"categories":["Fish Tavernas"]},{"id":"fishTavernasRestaurants_71c8fedcef80","slug":"carnayo-restaurant-skiathos-71c8","kind":"restaurant","name":"Carnayo Restaurant Skiathos","lat":39.165824279351774,"lng":23.493041550704223,"url":"https://maps.app.goo.gl/DardoapX9Zoh1VF77?g_st=ipc","address":"Paraliakos, Skiathos 370 02","categoryIds":["fish-tavernas"],"categories":["Fish Tavernas"]},{"id":"fishTavernasRestaurants_458d48d686b2","slug":"akrogiali-galanos-458d","kind":"restaurant","name":"Ακρογιαλι Γαλανος","lat":39.26649482814042,"lng":23.166733047141467,"url":"https://maps.app.goo.gl/KNjSWtb43DnSGnxU7?g_st=ipc","address":"Epar.Od. Lefokastrou-Afisou, Afissos 370 10","categoryIds":["fish-tavernas"],"categories":["Fish Tavernas"]},{"id":"fishTavernasRestaurants_fb10a0ef09f6","slug":"to-karnagio-to-karnagio-agia-kyriaki-notioy-pilioy-fb10","kind":"restaurant","name":"To Karnagio / Το Καρνάγιο - Αγία Κυριακή Νοτίου Πηλίου","lat":39.09262802220784,"lng":23.06864421145359,"url":"https://maps.app.goo.gl/9qZMAALf8EZ6XnGKA?g_st=ipc","address":"Epar.Od. Trikeriou-Agias Kiriakis 212, Ag. Kiriaki 370 09","categoryIds":["fish-tavernas"],"categories":["Fish Tavernas"]},{"id":"fishTavernasRestaurants_c8eeb49067cc","slug":"aggelika-fish-taverna-c8ee","kind":"restaurant","name":"Aggelika Fish Taverna","lat":39.37460340431694,"lng":23.203276067077514,"url":"https://maps.app.goo.gl/TXanhReoHFTGYtHL9?g_st=ipc","address":"Μαγνησία Πήλιο Τσαγκαράδα Μυλοπόταμος, Πήλιο Μυλοπόταμος 370 12","categoryIds":["fish-tavernas"],"categories":["Fish Tavernas"]},{"id":"fishTavernasRestaurants_baf37ae6d6a8","slug":"korali-seafood-restaurant-agnontas-skopelos-baf3","kind":"restaurant","name":"Korali Seafood Restaurant . Agnontas Skopelos","lat":39.08302676907846,"lng":23.71151668170709,"url":"https://maps.app.goo.gl/DpvC9bsrL18rv9WD9?g_st=ipc","address":"Epar.Od. Agnontas, Skopelos 370 03","categoryIds":["fish-tavernas"],"categories":["Fish Tavernas"]}],"nearby":[{"id":"greekRestaurants_e3849f333d19","slug":"estiatorio-kryfi-ammos-e384","kind":"restaurant","name":"Εστιατόριο Κρυφή Άμμος","lat":39.15831978512696,"lng":23.390064394645744,"url":"https://maps.app.goo.gl/AsLp5CVRi7LKmbyu5?g_st=ipc","address":"Σκιάθος 370 02","categoryIds":["greek-restaurants"],"categories":["Greek Restaurants"],"distanceKm":4.385643938860147},{"id":"greekRestaurants_f034f0fe0cac","slug":"salt-and-pepper-skiathos-f034","kind":"restaurant","name":"Salt and Pepper Skiathos","lat":39.14185621850757,"lng":23.426181107584785,"url":"https://maps.app.goo.gl/VjcQnWCRSBW1Vy5HA?g_st=ipc","address":"Τρούλος 370 02","categoryIds":["greek-restaurants"],"categories":["Greek Restaurants"],"distanceKm":7.97138437966703},{"id":"fishTavernasRestaurants_efccd15b6223","slug":"kehria-tarsanas-taverna-efcc","kind":"restaurant","name":"Kehria Tarsanas Taverna","lat":39.18412173483994,"lng":23.445119695165598,"url":"https://maps.app.goo.gl/tUiEEByDucNo1PfbA?g_st=ipc","address":"Unnamed Road, Skiathos 370 02","categoryIds":["fish-tavernas"],"categories":["Fish Tavernas"],"distanceKm":8.93437253757334},{"id":"greekRestaurants_40646fb63153","slug":"crazy-rooster-4064","kind":"restaurant","name":"Crazy Rooster","lat":39.14456218374441,"lng":23.44548982931251,"url":"https://maps.app.goo.gl/oMMC2zscQn9skACV6?g_st=ipc","address":"Κολιός 370 02","categoryIds":["greek-restaurants"],"categories":["Greek Restaurants"],"distanceKm":9.399994284303697},{"id":"fishTavernasRestaurants_77d3e9a1bb44","slug":"infinity-blue-restaurant-77d3","kind":"restaurant","name":"Infinity Blue Restaurant","lat":39.142389727462664,"lng":23.44573084758166,"url":"https://maps.app.goo.gl/GYPTidFzoXiRNDdCA?g_st=ipc","address":"Kolios, 370 02","categoryIds":["fish-tavernas"],"categories":["Fish Tavernas"],"distanceKm":9.501994079939752},{"id":"fishTavernasRestaurants_8539d0698831","slug":"argo-restaurant-8539","kind":"restaurant","name":"Argo Restaurant","lat":39.17227725570198,"lng":23.22064957150471,"url":"https://maps.app.goo.gl/HKBpdAh3KxQWGaRr8?g_st=ipc","address":"Epar.Od. Milina-Trikeri, Milina 370 13","categoryIds":["fish-tavernas"],"categories":["Fish Tavernas"],"distanceKm":10.509909339341355},{"id":"wineriesVineyards_1ba3565ec57e","slug":"parissis-winery-1ba3","kind":"restaurant","name":"Parissis Winery","lat":39.18153615640374,"lng":23.469914268213092,"url":"https://maps.app.goo.gl/xFt7L59eLpWAg6GJ8?g_st=ipc","address":"Unnamed Road, Σκιάθος 370 02","categoryIds":["wineries-vineyards"],"categories":["Wineries & Vineyards"],"distanceKm":11.02338539018647},{"id":"dessertsRestaurants_80d05b4a9112","slug":"dafni-s-sweets-80d0","kind":"restaurant","name":"Dafni's Sweets","lat":39.16451312827066,"lng":23.484321078437517,"url":"https://maps.app.goo.gl/qZaYAac8rhBH69sC8?g_st=ipc","address":"Τέρμα Παπαδιαμάντη, Skiathos 370 02","categoryIds":["desserts"],"categories":["Dessert Shops"],"distanceKm":12.252054849772382}],"sameRegion":[],"mentionedGuides":[]},"__N_SSG":true}