{"pageProps":{"entity":{"id":"coffeeBrunchRestaurants_f7db517498a0","slug":"beach-house-by-flamingo-f7db","kind":"restaurant","name":"Beach House by flamingo","lat":40.38155085132963,"lng":22.921580696023792,"url":"https://maps.app.goo.gl/YdqcocS9SrPhoykt5?g_st=ipc","address":"Ποταμός, Epanomi 575 00","categoryIds":["coffee-brunch"],"categories":["Coffee & Brunch Spots"]},"sameCategory":[{"id":"coffeeBrunchRestaurants_0acfd74b52d1","slug":"bonobo-0acf","kind":"restaurant","name":"bonobo","lat":40.469049217975595,"lng":22.95592261642206,"url":"https://maps.app.goo.gl/2aoNej1nWQNAJniB7?g_st=ipc","address":"Miaouli 78, Plagiari 575 00","categoryIds":["coffee-brunch"],"categories":["Coffee & Brunch Spots"]},{"id":"coffeeBrunchRestaurants_f566655a51a7","slug":"sahara-resort-f566","kind":"restaurant","name":"Sahara Resort","lat":40.3253593585324,"lng":23.020574138293206,"url":"https://maps.app.goo.gl/kqkoFkCe2U9nzS2E6?g_st=ipc","address":"Νέα Ηράκλεια 630 80","categoryIds":["coffee-brunch"],"categories":["Coffee & Brunch Spots"]},{"id":"coffeeBrunchRestaurants_5b87d322c2b5","slug":"pink-dot-cafe-5b87","kind":"restaurant","name":"Pink Dot Cafe","lat":40.548406580479465,"lng":22.98186227348721,"url":"https://maps.app.goo.gl/CG2fgJcxKmWaKuAV6?g_st=ipc","address":"Leof. Georgikis Scholis 84, Pilea 570 01","categoryIds":["coffee-brunch","desserts"],"categories":["Coffee & Brunch Spots","Dessert Shops"],"legacySlugs":["pink-dot-cafe-f1a3"]},{"id":"coffeeBrunchRestaurants_cae5ad9a4492","slug":"join-juice-bars-cae5","kind":"restaurant","name":"JOIN juice bars","lat":40.555069982077164,"lng":22.99254169325442,"url":"https://maps.app.goo.gl/VvKcZzDAukezDVie8?g_st=ipc","address":"11ο χλμ εθνικής οδού, A/D Thessalonikis Neon Moudanion, Thessaloniki 570 01","categoryIds":["coffee-brunch","vegetarian"],"categories":["Coffee & Brunch Spots","Vegetarian Friendly Restaurants"],"legacySlugs":["join-juice-bars-7a1d"]},{"id":"coffeeBrunchRestaurants_3849ba172973","slug":"ergon-agora-east-3849","kind":"restaurant","name":"ERGON Agora (East)","lat":40.55876847950934,"lng":22.976949760424034,"url":"https://maps.app.goo.gl/um7bZpan68i3iqsx7?g_st=ipc","address":"Leof. Georgikis Scholis 50, Pilea Chortiatis 555 35","categoryIds":["coffee-brunch","family-friendly"],"categories":["Coffee & Brunch Spots","Kid Friendly Locations"],"legacySlugs":["ergon-agora-east-02cb"]},{"id":"coffeeBrunchRestaurants_b47f6bd0d6ab","slug":"bahamas-urban-brunch-bar-b47f","kind":"restaurant","name":"Bahamas Urban |Brunch| Bar","lat":40.55455255928708,"lng":23.018985570943435,"url":"https://maps.app.goo.gl/MseUiktgczouvbdp7?g_st=ipc","address":"Thermis-Panoramatos Rd 7, Thermi 570 01","categoryIds":["coffee-brunch"],"categories":["Coffee & Brunch Spots"]},{"id":"coffeeBrunchRestaurants_37a99c7a5e9b","slug":"cafe-plateia-37a9","kind":"restaurant","name":"Café Plateia","lat":40.58219813646138,"lng":22.94932374129252,"url":"https://maps.app.goo.gl/9R5MQ6z3jfLnmMwu7?g_st=ipc","address":"Mitropolitou Chrisanthou 0, Kalamaria 551 32","categoryIds":["coffee-brunch"],"categories":["Coffee & Brunch Spots"]},{"id":"coffeeBrunchRestaurants_f9825eace7fc","slug":"les-zazous-f982","kind":"restaurant","name":"Les Zazous","lat":40.58600004577793,"lng":22.93944264109209,"url":"https://maps.app.goo.gl/timwhn386UbaBApm7?g_st=ipc","address":"Themistokli Sofouli 108, Kalamaria 551 31","categoryIds":["coffee-brunch","luxury-dining"],"categories":["Coffee & Brunch Spots","Luxury Dining"],"legacySlugs":["les-zazous-fd5e"]},{"id":"coffeeBrunchRestaurants_346744718646","slug":"thegia-more-than-a-bakery-3467","kind":"restaurant","name":"ΘΕΓΙΑ more than a bakery","lat":40.59152214019956,"lng":22.948474846251315,"url":"https://maps.app.goo.gl/Rk9qKb5jkoYV7x6HA?g_st=ipc","address":"Themistokli Sofouli 65, Kalamaria 551 31","categoryIds":["coffee-brunch"],"categories":["Coffee & Brunch Spots"]},{"id":"coffeeBrunchRestaurants_7f4ca735b5ec","slug":"laterna-7f4c","kind":"restaurant","name":"Laterna","lat":40.597256928464596,"lng":22.96766795433404,"url":"https://maps.app.goo.gl/UuEUGrB58srruWFPA?g_st=ipc","address":"Voulgari 64, Thessaloniki 542 49","categoryIds":["coffee-brunch"],"categories":["Coffee & Brunch Spots"]},{"id":"coffeeBrunchRestaurants_b086083463ae","slug":"join-juice-bars-b086","kind":"restaurant","name":"JOIN juice bars","lat":40.60107511267006,"lng":22.949804539088774,"url":"https://maps.app.goo.gl/LQXcNjB3LwE4q56r7?g_st=ipc","address":"Marias Kallas 1, Thessaloniki 546 45","categoryIds":["coffee-brunch","vegetarian"],"categories":["Coffee & Brunch Spots","Vegetarian Friendly Restaurants"],"legacySlugs":["join-juice-bars-124c"]},{"id":"coffeeBrunchRestaurants_b83fc8a35279","slug":"byrek-b83f","kind":"restaurant","name":"Byrek","lat":40.604437611308434,"lng":22.958000236614392,"url":"https://maps.app.goo.gl/hxd33pfTMwrTNJ6K6?g_st=ic","address":"Petrou Sindika 46, Thessaloniki 542 48","categoryIds":["coffee-brunch"],"categories":["Coffee & Brunch Spots"]}],"nearby":[{"id":"fishTavernasRestaurants_5f888942c0b2","slug":"ouzeri-agkyrovoli-5f88","kind":"restaurant","name":"Ouzeri Agkyrovoli","lat":40.3816010668938,"lng":22.930017992829136,"url":"https://maps.app.goo.gl/5dazC7iQuRSBAe5g8?g_st=ipc","address":"Άγνωστη Οδός, Ποταμός Επανωμής 575 00","categoryIds":["fish-tavernas"],"categories":["Fish Tavernas"],"distanceKm":0.7146808141478094},{"id":"fishTavernasRestaurants_fb9d66fac1f5","slug":"tavern-agnanti-fb9d","kind":"restaurant","name":"Tavern Agnanti","lat":40.41084248795629,"lng":22.891152463357457,"url":"https://maps.app.goo.gl/rCLbi5kVttqKQ5gH7?g_st=ipc","address":"Παραλία Επανομής 575 00","categoryIds":["fish-tavernas"],"categories":["Fish Tavernas"],"distanceKm":4.1531185409546065},{"id":"wineriesVineyards_1453a2659012","slug":"gerovasileiou-estate-1453","kind":"restaurant","name":"Gerovasileiou Estate","lat":40.44938832129469,"lng":22.924743352052637,"url":"https://maps.app.goo.gl/C8APtFGMgaBwFMYcA?g_st=ipc","address":"ktima Gerovassiliou, Epanomi 575 00","categoryIds":["wineries-vineyards"],"categories":["Wineries & Vineyards"],"distanceKm":7.547932962691102},{"id":"dessertsRestaurants_1eaa59dec57f","slug":"confectioneries-hatzifotiou-1eaa","kind":"restaurant","name":"Confectioneries Hatzifotiou","lat":40.44091493203973,"lng":23.01172950209268,"url":"https://maps.app.goo.gl/ZBAersiUhet96cfT7?g_st=ipc","address":"24ο χλμ, Θεσ/νίκης - Μουδανιών, Mikra 575 00","categoryIds":["desserts"],"categories":["Dessert Shops"],"distanceKm":10.090953330657044},{"id":"coffeeBrunchRestaurants_0acfd74b52d1","slug":"bonobo-0acf","kind":"restaurant","name":"bonobo","lat":40.469049217975595,"lng":22.95592261642206,"url":"https://maps.app.goo.gl/2aoNej1nWQNAJniB7?g_st=ipc","address":"Miaouli 78, Plagiari 575 00","categoryIds":["coffee-brunch"],"categories":["Coffee & Brunch Spots"],"distanceKm":10.154363508379388},{"id":"coffeeBrunchRestaurants_f566655a51a7","slug":"sahara-resort-f566","kind":"restaurant","name":"Sahara Resort","lat":40.3253593585324,"lng":23.020574138293206,"url":"https://maps.app.goo.gl/kqkoFkCe2U9nzS2E6?g_st=ipc","address":"Νέα Ηράκλεια 630 80","categoryIds":["coffee-brunch"],"categories":["Coffee & Brunch Spots"],"distanceKm":10.459763451678636},{"id":"greekRestaurants_730ebf3d54bc","slug":"to-steki-steak-house-730e","kind":"restaurant","name":"ΤΟ ΣΤΕΚΙ Steak House","lat":40.468079577548984,"lng":22.97361442896107,"url":"https://maps.app.goo.gl/bcVGXZXajJU5Ehw39?g_st=ipc","address":"Π. Μελά 9, Τρίλοφος 575 00","categoryIds":["greek-restaurants"],"categories":["Greek Restaurants"],"distanceKm":10.581794615933676},{"id":"wineriesVineyards_65599ab05a5f","slug":"tsantali-6559","kind":"restaurant","name":"Tsantali","lat":40.36907180251345,"lng":23.047266199347828,"url":"https://maps.app.goo.gl/yKNrVSuK1iy4L2Ls9?g_st=ipc","address":"Agios Pavlos 630 80","categoryIds":["wineries-vineyards"],"categories":["Wineries & Vineyards"],"distanceKm":10.73689132292107},{"id":"fishTavernasRestaurants_b57bdf3c8aed","slug":"retselis-restaurant-b57b","kind":"restaurant","name":"Retselis Restaurant","lat":40.46564721234731,"lng":22.856472838512083,"url":"https://maps.app.goo.gl/SQELaoZ53HgSaqhs6?g_st=ipc","address":"Politechniou 1, Nea Michaniona 570 04","categoryIds":["fish-tavernas"],"categories":["Fish Tavernas"],"distanceKm":10.854390697811658},{"id":"greekRestaurants_0c835368c56b","slug":"anestis-chasapotaverna-0c83","kind":"restaurant","name":"Ανέστης Χασαποταβέρνα","lat":40.502483515629656,"lng":22.91579650811081,"url":"https://maps.app.goo.gl/t2wP5pPZ82MXqh6X7?g_st=ipc","address":"Λεωφ. Θεσσαλονίκης - Μηχανιώνας 78, Περαία 570 19","categoryIds":["greek-restaurants"],"categories":["Greek Restaurants"],"distanceKm":13.456004943841036},{"id":"fishTavernasRestaurants_74a21593aab9","slug":"prigkipas-2-74a2","kind":"restaurant","name":"Πρίγκιπας 2","lat":40.50076912252891,"lng":22.874276414295796,"url":"https://maps.app.goo.gl/bCTBJDRFAeRcLaM56?g_st=ipc","address":"Οικονομίου και, Neapoleos 1, Ag. Triada 570 19","categoryIds":["fish-tavernas"],"categories":["Fish Tavernas"],"distanceKm":13.847736815526545},{"id":"greekRestaurants_820bfd5186cb","slug":"ta-mpinelikia-820b","kind":"restaurant","name":"Τα Μπινελίκια","lat":40.50703896441234,"lng":22.920737720394328,"url":"https://maps.app.goo.gl/oKvjS1FyjeCvcJy66?g_st=ipc","address":"Δημοκρατίας 104, Περαία 570 19","categoryIds":["greek-restaurants"],"categories":["Greek Restaurants"],"distanceKm":13.953823872630766},{"id":"dessertsRestaurants_162156adc1f2","slug":"nick-alexoudas-1621","kind":"restaurant","name":"NICK ALEXOUDAS","lat":40.50355208818679,"lng":22.970983268361184,"url":"https://maps.app.goo.gl/pdjwM7eD44CCVek79?g_st=ipc","address":"Θέρμη 570 01","categoryIds":["desserts"],"categories":["Dessert Shops"],"distanceKm":14.195512873287694},{"id":"cheapEatsRestaurants_ce1b9aa17757","slug":"gyrovolies-ce1b","kind":"restaurant","name":"GYROVOLIES","lat":40.50927064423355,"lng":22.925792825198258,"url":"https://maps.app.goo.gl/tcGBs6FexGiv7Ju47?g_st=ipc","address":"Eleytherias 1, Perea 570 19","categoryIds":["cheap-eats"],"categories":["Gyros & Cheap Eats"],"distanceKm":14.206265276327464},{"id":"fishTavernasRestaurants_ecaa83f4acfd","slug":"archipelagos-ecaa","kind":"restaurant","name":"Archipelagos","lat":40.51031154332882,"lng":22.92896116717673,"url":"https://maps.app.goo.gl/VsctpgJ15cGguUW59?g_st=ipc","address":"P. Kountouriotou 37, Perea 575 00","categoryIds":["fish-tavernas"],"categories":["Fish Tavernas"],"distanceKm":14.331150877167055},{"id":"familyFriendly_d122f87f1fed","slug":"kapsalas-tennis-club-d122","kind":"restaurant","name":"Καψάλας tennis club","lat":40.49945923504331,"lng":22.848750088608462,"url":"https://maps.app.goo.gl/yZyZ8YKUDg7Ac4pY7?g_st=ipc","address":"Θέση Επτάρια, Nea Michaniona 570 04","categoryIds":["family-friendly"],"categories":["Kid Friendly Locations"],"distanceKm":14.487320101721798},{"id":"familyFriendly_594134dea180","slug":"tsoupra-5941","kind":"restaurant","name":"Tsoupra","lat":40.48659769840057,"lng":23.041299188559442,"url":"https://maps.app.goo.gl/7eqHoia3eNX5CcHv7?g_st=ipc","address":"ΤΘ293, Ag. Paraskevi 570 01","categoryIds":["family-friendly"],"categories":["Kid Friendly Locations"],"distanceKm":15.46306302335115},{"id":"familyFriendly_91485676f9ef","slug":"anemodoura-9148","kind":"restaurant","name":"Anemodoúra","lat":40.50002708370587,"lng":23.026843516964323,"url":"https://maps.app.goo.gl/99k4EGKtgjYSqeE99?g_st=ipc","address":"8η Οδός, Tagarades 570 01","categoryIds":["family-friendly"],"categories":["Kid Friendly Locations"],"distanceKm":15.903096520628324},{"id":"familyFriendly_0fecbfd6be0e","slug":"waterland-0fec","kind":"restaurant","name":"Waterland","lat":40.510653052442045,"lng":23.017626650911268,"url":"https://maps.app.goo.gl/NR3PEtkiCnf5Fkg89?g_st=ipc","address":"5i Odos, Tagarades 570 01","categoryIds":["family-friendly"],"categories":["Kid Friendly Locations"],"distanceKm":16.496580910124642},{"id":"dessertsRestaurants_2befb2db83ce","slug":"terkenlis-2bef","kind":"restaurant","name":"Terkenlis","lat":40.525256969361955,"lng":22.97500623617725,"url":"https://maps.app.goo.gl/NfxGujkvPGiZ6Nah7?g_st=ipc","address":"Macedonia, airport, Thessaloniki","categoryIds":["desserts"],"categories":["Dessert Shops"],"distanceKm":16.606483612617442},{"id":"coffeeBrunchRestaurants_5b87d322c2b5","slug":"pink-dot-cafe-5b87","kind":"restaurant","name":"Pink Dot Cafe","lat":40.548406580479465,"lng":22.98186227348721,"url":"https://maps.app.goo.gl/CG2fgJcxKmWaKuAV6?g_st=ipc","address":"Leof. Georgikis Scholis 84, Pilea 570 01","categoryIds":["coffee-brunch","desserts"],"categories":["Coffee & Brunch Spots","Dessert Shops"],"legacySlugs":["pink-dot-cafe-f1a3"],"distanceKm":19.241602879733033},{"id":"dessertsRestaurants_ade0c81c0696","slug":"terkenlis-sa-ade0","kind":"restaurant","name":"Terkenlis SA","lat":40.53095135339602,"lng":23.040855842977592,"url":"https://maps.app.goo.gl/akE1bVgaSKcamD5a9?g_st=ipc","address":"EO Thessalonikis Poligirou, Thermi 570 01","categoryIds":["desserts"],"categories":["Dessert Shops"],"distanceKm":19.437580628290615},{"id":"familyFriendly_be918ccf9323","slug":"adventure-paintball-be91","kind":"restaurant","name":"Adventure Paintball","lat":40.54700993224624,"lng":22.99671406411148,"url":"https://maps.app.goo.gl/7H5QaUvgacWdSVGR6?g_st=ic","address":"A/D Thessalonikis Neon Moudanion, Thermi 570 01","categoryIds":["family-friendly"],"categories":["Kid Friendly Locations"],"distanceKm":19.46521904178487},{"id":"burgersRestaurants_4060fc5be247","slug":"maestro-cantina-4060","kind":"restaurant","name":"Maestro Cantina","lat":40.539870288194706,"lng":23.0207573353921,"url":"https://maps.app.goo.gl/WJTaYcJdPxACzwkXA?g_st=ipc","address":"EO Thessalonikis Poligirou 32, Thermi 570 01","categoryIds":["burgers","cheap-eats"],"categories":["Burger Spots","Gyros & Cheap Eats"],"legacySlugs":["maestro-cantina-5ff9"],"distanceKm":19.50165049370266}],"sameRegion":[],"mentionedGuides":[],"canonicalSlug":"beach-house-by-flamingo-f7db","enrichment":{"summary_en":"Beach House by flamingo is a curated restaurant in Epanomi 575 00 in the Coffee & Brunch Spots collection. It is connected to 1 nearby Googlementor picks to help travelers build a stronger local route.","summary_el":"Beach House by flamingo είναι ένα επιλεγμένο σημείο φαγητού στην περιοχή Epanomi 575 00 και ανήκει στη συλλογή Coffee & Brunch Spots. Συνδέεται με 1 κοντινές προτάσεις του Googlementor για πιο ολοκληρωμένη εμπειρία.","vibe_tags":["curated","daytime-favorite"],"best_for":["first-time visitors","food lovers"],"visit_moments":["early morning","late brunch"],"practical_note":"Address and direct map link are available for easy turn-by-turn access.","nearby_walkable_count":1,"nearby_count_2km":1,"confidence":0.9},"areaContext":null,"intentContexts":[]},"__N_SSG":true}