{"pageProps":{"entity":{"id":"mustSeeAttractions_5d23953463e8","slug":"ethniko-archaiologiko-moyseio-5d23","kind":"restaurant","name":"Εθνικό Αρχαιολογικό Μουσείο","lat":37.989024298697544,"lng":23.73276057362421,"url":"https://maps.app.goo.gl/yMXMdhRrheqLTtjc9?g_st=ipc","address":"28ης Οκτωβρίου 44, Αθήνα 106 82","categoryIds":["attractions"],"categories":["Must-See Attractions"]},"sameCategory":[{"id":"mustSeeAttractions_9d5443f043f5","slug":"bibliotheke-9d54","kind":"restaurant","name":"Bibliothēkē","lat":37.98086714889517,"lng":23.732640659233777,"url":"https://maps.app.goo.gl/Tia41NbJ94S1YJYNA?g_st=ipc","address":"Athens 106 79","categoryIds":["attractions"],"categories":["Must-See Attractions"]},{"id":"mustSeeAttractions_4c1bed18d9f3","slug":"academy-of-athens-4c1b","kind":"restaurant","name":"Academy of Athens","lat":37.980052000475574,"lng":23.73401307902472,"url":"https://maps.app.goo.gl/ggPZ2e3QeajFYXJX8?g_st=ipc","address":"Panepistimiou 28, Athina 106 79","categoryIds":["attractions"],"categories":["Must-See Attractions"]},{"id":"monasteriesChurches_caa9124a394d","slug":"ieros-naos-agion-isidoron-lykavittoy-caa9","kind":"restaurant","name":"Ιερός Ναός Αγίων Ισιδώρων Λυκαβηττού","lat":37.982296617522,"lng":23.742795127887568,"url":"https://maps.app.goo.gl/vi4b8bvA5jdYKcqf9?g_st=ipc","address":"Μονοπατι Λυκαβηττου, Αθήνα 114 71","categoryIds":["monasteries-churches","attractions"],"categories":["Monasteries & Spiritual Sites","Must-See Attractions"],"legacySlugs":["ieros-naos-agion-isidoron-lykavittoy-361f"]},{"id":"mustSeeAttractions_0e9341b94f04","slug":"lykavittos-0e93","kind":"restaurant","name":"Λυκαβηττός","lat":37.98323503241099,"lng":23.746500382209337,"url":"https://maps.app.goo.gl/muvvb7CTCn3yFhWj6?g_st=ipc","address":"Σαρανταπήχου, Μονοπατι Λυκαβηττου &, Αθήνα 114 71","categoryIds":["attractions"],"categories":["Must-See Attractions"]},{"id":"mustSeeAttractions_1d05d319a6bb","slug":"psyrri-1d05","kind":"restaurant","name":"Ψυρρή","lat":37.9780643555903,"lng":23.723930742700833,"url":"https://maps.app.goo.gl/JcpJbaRT1V7eBHEa9?g_st=ipc","address":"Αθήνα 105 54","categoryIds":["attractions"],"categories":["Must-See Attractions"]},{"id":"mustSeeAttractions_5ecb5990c6e7","slug":"syntagma-square-5ecb","kind":"restaurant","name":"Syntagma Square","lat":37.97554970639471,"lng":23.734713366778323,"url":"https://maps.app.goo.gl/W5joNY37bu7NJ8Hz8?g_st=ipc","address":"Pl. Sintagmatos, Athina 105 63","categoryIds":["attractions"],"categories":["Must-See Attractions"]},{"id":"mustSeeAttractions_241beda98c80","slug":"plateia-monastirakioy-241b","kind":"restaurant","name":"Πλατεία Μοναστηρακίου","lat":37.97640816584317,"lng":23.725886410870196,"url":"https://maps.app.goo.gl/BWatUxUvLvu5LHMP9?g_st=ipc","address":"Απόλλωνος 21, Αθήνα 105 57","categoryIds":["attractions"],"categories":["Must-See Attractions"]},{"id":"mustSeeAttractions_40f48472fa4a","slug":"monument-to-the-unknown-soldier-40f4","kind":"restaurant","name":"Monument to the Unknown Soldier","lat":37.97535428174513,"lng":23.736259428820603,"url":"https://maps.app.goo.gl/RRXmkZ72CeNufyB66?g_st=ipc","address":"Leof. Vasilisis Amalias 133, Athina 105 57","categoryIds":["attractions"],"categories":["Must-See Attractions"]},{"id":"mustSeeAttractions_7e14ccbc774d","slug":"voyli-ton-ellinon-7e14","kind":"restaurant","name":"Βουλή των Ελλήνων","lat":37.97534017568183,"lng":23.73691601580171,"url":"https://maps.app.goo.gl/unRrdoEdMtGJhBhX8?g_st=ipc","address":"Μέγαρο, Βουλής, Αθήνα 100 21","categoryIds":["attractions"],"categories":["Must-See Attractions"]},{"id":"mustSeeAttractions_4a961e3001a5","slug":"moyseio-mpenaki-ellinikoy-politismoy-benaki-museum-of-greek-culture-4a96","kind":"restaurant","name":"Μουσείο Μπενάκη Ελληνικού Πολιτισμού | Benaki Museum of Greek Culture","lat":37.97595332142378,"lng":23.740446335275582,"url":"https://maps.app.goo.gl/tPkYqHsHmRpbKSaX9?g_st=ipc","address":"Koumpari 1, Athina 106 74","categoryIds":["attractions"],"categories":["Must-See Attractions"]},{"id":"mustSeeAttractions_4878dd7452cc","slug":"vivliothiki-toy-adrianoy-4878","kind":"restaurant","name":"Βιβλιοθήκη του Αδριανού","lat":37.975502314737916,"lng":23.726030220996723,"url":"https://maps.app.goo.gl/Mr5MTi9dXGy4Y8Gt5?g_st=ipc","address":"Κ, Άρεως 3, Τ, Αθήνα 105 55","categoryIds":["attractions"],"categories":["Must-See Attractions"]},{"id":"mustSeeAttractions_b999049b5fec","slug":"roman-basilica-b999","kind":"restaurant","name":"Roman Basilica","lat":37.97583750461877,"lng":23.723867490000497,"url":"https://maps.app.goo.gl/ij6x92mGVau3FvST9?g_st=ipc","address":"Αδριανού 27, Αθήνα 105 55","categoryIds":["attractions"],"categories":["Must-See Attractions"]}],"nearby":[{"id":"greekRestaurants_013c7ee68bf7","slug":"to-rini-013c","kind":"restaurant","name":"Το Ρίνι","lat":37.99027878775376,"lng":23.732870988899485,"url":"https://maps.app.goo.gl/RRByVB3HqZfDcnkK7","address":"Ρεθύμνου 8, Αθήνα 106 82","categoryIds":["greek-restaurants"],"categories":["Greek Restaurants"],"distanceKm":0.139828024559008},{"id":"luxuryDiningRestaurants_4ac28de916c7","slug":"10-urban-roof-4ac2","kind":"restaurant","name":"10 Urban Roof","lat":37.99116171206528,"lng":23.733113789092354,"url":"https://maps.app.goo.gl/EwoNbTNDX9bmfSgf9?g_st=ipc","address":"Λεωφ. Αλεξάνδρας 10, Αθήνα 106 82","categoryIds":["luxury-dining"],"categories":["Luxury Dining"],"distanceKm":0.23967675402725025},{"id":"italianRestaurants_ed5df50f2107","slug":"dilien-ed5d","kind":"restaurant","name":"Dilien","lat":37.98733679240523,"lng":23.730994400110465,"url":"https://maps.app.goo.gl/yeGNTXa4VUk4Paqs5","address":"Stournari 43, Athina 106 82","categoryIds":["italian"],"categories":["Italian Restaurants"],"distanceKm":0.24324276106275453},{"id":"asianRestaurants_4360c7ba70e3","slug":"microulee-4360","kind":"restaurant","name":"Microulee","lat":37.98699838431432,"lng":23.73426742337473,"url":"https://maps.app.goo.gl/KAcLL73vy6J6TTKv5?g_st=ipc","address":"Στουρνάρη 14, Αθήνα 106 83","categoryIds":["asian"],"categories":["Asian Restaurants"],"distanceKm":0.26112446113771726},{"id":"cheapEatsRestaurants_0f0ae09c0d4e","slug":"guerilla-chef-burgers-0f0a","kind":"restaurant","name":"Guerilla Chef Burgers","lat":37.98671993993366,"lng":23.731787435580728,"url":"https://maps.app.goo.gl/K2QVLnm9vHS1E3cF9?g_st=ipc","address":"37.98671993993366, 23.731787435580728","categoryIds":["cheap-eats"],"categories":["Gyros & Cheap Eats"],"distanceKm":0.2700529070127958},{"id":"dessertsRestaurants_ba20d8faff31","slug":"craquelin-ba20","kind":"restaurant","name":"Craquelin","lat":37.9865815151158,"lng":23.732749024802267,"url":"https://maps.app.goo.gl/m9Z1VRpp25owhfSz8?g_st=ipc","address":"Σολωμού 23, Αθήνα 106 82","categoryIds":["desserts"],"categories":["Dessert Shops"],"distanceKm":0.2716270267933518},{"id":"burgersRestaurants_cd431d540de7","slug":"guerilla-chef-burgers-cd43","kind":"restaurant","name":"Guerilla Chef Burgers","lat":37.98670260429295,"lng":23.731789751446545,"url":"https://maps.app.goo.gl/dpwZgAJWWe2cfPeG9?g_st=ipc","address":"Σολωμού 33, Αθήνα 106 82","categoryIds":["burgers"],"categories":["Burger Spots"],"distanceKm":0.2718189863327762},{"id":"luxuryDiningRestaurants_3c3010cb0fe8","slug":"pharaoh-3c30","kind":"restaurant","name":"Pharaoh","lat":37.986974430593506,"lng":23.73075500920587,"url":"https://maps.app.goo.gl/1WxR8XYsFmsyuWyp7?g_st=ipc","address":"Solomou 54, Athina 106 82","categoryIds":["luxury-dining"],"categories":["Luxury Dining"],"distanceKm":0.28783082889983147},{"id":"vegetarianRestaurants_f70f4a4d0192","slug":"association-of-greeks-from-egypt-f70f","kind":"restaurant","name":"Association of Greeks from Egypt","lat":37.98962955327748,"lng":23.72952334118187,"url":"https://maps.app.goo.gl/gBkB6qncPWJhE1pC8?g_st=ipc","address":"3ης Σεπτεμβρίου 56, Αθήνα 104 33","categoryIds":["vegetarian"],"categories":["Vegetarian Friendly Restaurants"],"distanceKm":0.2915703025893086},{"id":"cheapEatsRestaurants_724c8ca91031","slug":"mangal-724c","kind":"restaurant","name":"Mangal","lat":37.98648075392058,"lng":23.733903117356245,"url":"https://maps.app.goo.gl/fZ3o2N67Ya2WA1aQA?g_st=ipc","address":"Σολωμού 12, Αθήνα 106 83","categoryIds":["cheap-eats"],"categories":["Gyros & Cheap Eats"],"distanceKm":0.3000305562537279},{"id":"greekRestaurants_5d1d35aa177d","slug":"gioysoyroym-5d1d","kind":"restaurant","name":"Γιουσουρούμ","lat":37.98634442442922,"lng":23.733413179378076,"url":"https://maps.app.goo.gl/jh9iV3W2AMUY6Pev5","address":"Σουλτάνη 11, Αθήνα 106 82","categoryIds":["greek-restaurants"],"categories":["Greek Restaurants"],"distanceKm":0.30342727301009487},{"id":"coffeeBrunchRestaurants_24a3c9b03a04","slug":"behold-theman-24a3","kind":"restaurant","name":"behold theman","lat":37.986871883204095,"lng":23.73489020906335,"url":"https://maps.app.goo.gl/avUBs2LwMous6Xs97?g_st=ipc","address":"Ιδεοχώρος, Στουρνάρη 6, Αθήνα 106 83","categoryIds":["coffee-brunch"],"categories":["Coffee & Brunch Spots"],"distanceKm":0.30350494810634965},{"id":"vegetarianRestaurants_ea997a3c2b69","slug":"handwich-athens-ea99","kind":"restaurant","name":"Handwich Athens","lat":37.98638339493441,"lng":23.731698144915832,"url":"https://maps.app.goo.gl/WwKS8hQTt3PyFTcN9?g_st=ipc","address":"Τζώρτζ 3, Αθήνα 106 82","categoryIds":["vegetarian"],"categories":["Vegetarian Friendly Restaurants"],"distanceKm":0.3080625359844792},{"id":"cheapEatsRestaurants_cda079c65f38","slug":"lorda-cda0","kind":"restaurant","name":"Λόρδα","lat":37.986574816164286,"lng":23.734456878858524,"url":"https://maps.app.goo.gl/nBaQ33jw6JEZQp7X9?g_st=ipc","address":"Σπύρου Τρικούπη 3, Αθήνα 106 83","categoryIds":["cheap-eats"],"categories":["Gyros & Cheap Eats"],"distanceKm":0.31029848599532167},{"id":"greekRestaurants_eec032d0bea1","slug":"atitamos-eec0","kind":"restaurant","name":"Ατίταμος","lat":37.98622715652684,"lng":23.73236663557607,"url":"https://maps.app.goo.gl/VfeckYbAHrSRw3Qo8","address":"Καποδιστρίου 2, Αθήνα 106 83","categoryIds":["greek-restaurants"],"categories":["Greek Restaurants"],"distanceKm":0.31293820396748023},{"id":"mexicanRestaurants_5d5b665dab34","slug":"poncho-tacos-5d5b","kind":"restaurant","name":"Poncho TACOS","lat":37.986865601219684,"lng":23.73564152842256,"url":"https://maps.app.goo.gl/UDV48UEWHbvnBPVPA?g_st=ipc","address":"Θεμιστοκλέους 63, Αθήνα 106 83","categoryIds":["mexican"],"categories":["Mexican Restaurants"],"distanceKm":0.3483718285790033},{"id":"dessertsRestaurants_1784b9fa852d","slug":"baklamania-1784","kind":"restaurant","name":"Baklamania","lat":37.985982058793134,"lng":23.733879471082627,"url":"https://maps.app.goo.gl/dVejuM8qJpCUsYq38?g_st=ipc","address":"Θεμιστοκλέους 49, Αθήνα 106 83","categoryIds":["desserts"],"categories":["Dessert Shops"],"distanceKm":0.352206997193139},{"id":"vegetarianRestaurants_49bc3b76300b","slug":"falafelo-street-food-49bc","kind":"restaurant","name":"Falafelo Street Food","lat":37.98589482225123,"lng":23.733448804787468,"url":"https://maps.app.goo.gl/R4ear5h1EDzpwe8Y8?g_st=ipc","address":"Σουλτάνη 2-4, Αθήνα 106 83","categoryIds":["vegetarian"],"categories":["Vegetarian Friendly Restaurants"],"distanceKm":0.3531703707765755},{"id":"vegetarianRestaurants_ad1aabfd0107","slug":"cookoomela-grill-vegan-ad1a","kind":"restaurant","name":"Cookoomela Grill Vegan","lat":37.985828644021424,"lng":23.73352687550602,"url":"https://maps.app.goo.gl/QbLppt3u9uZg36Xi6?g_st=ipc","address":"Θεμιστοκλέους 43, Αθήνα 106 83","categoryIds":["vegetarian"],"categories":["Vegetarian Friendly Restaurants"],"distanceKm":0.361631026135377},{"id":"vegetarianRestaurants_77e942c763e9","slug":"magic-kitchen-chortofagia-themistokleoys-kentro-77e9","kind":"restaurant","name":"Magic Kitchen Χορτοφαγία Θεμιστοκλέους Κέντρο","lat":37.98582880467768,"lng":23.733583710090212,"url":"https://maps.app.goo.gl/ZQqCgQBx8g5Gjgrh7?g_st=ipc","address":"Θεμιστοκλέους 45, Αθήνα 106 82","categoryIds":["vegetarian"],"categories":["Vegetarian Friendly Restaurants"],"distanceKm":0.362571526675658},{"id":"burgersRestaurants_293449c2193c","slug":"exberg-2934","kind":"restaurant","name":"Exberg","lat":37.985722017039464,"lng":23.73377568835493,"url":"https://maps.app.goo.gl/671QPGYqt87fhozt8?g_st=ipc","address":"Θεμιστοκλέους 56, Αθήνα 106 81","categoryIds":["burgers"],"categories":["Burger Spots"],"distanceKm":0.3778199833069551},{"id":"cheapEatsRestaurants_cab7e72e3b11","slug":"psitopoleion-giorgos-manos-cab7","kind":"restaurant","name":"Ψητοπωλείον Γιώργος - Μάνος","lat":37.9855993281782,"lng":23.733208439532696,"url":"https://maps.app.goo.gl/jYKrRJuSFDD632N47?g_st=ipc","address":"Θεμιστοκλέους 39, Αθήνα 106 77","categoryIds":["cheap-eats"],"categories":["Gyros & Cheap Eats"],"distanceKm":0.38285659696764607},{"id":"greekRestaurants_0cec67514103","slug":"ama-lachei-0cec","kind":"restaurant","name":"Άμα Λάχει","lat":37.9881200037971,"lng":23.737007621122938,"url":"https://maps.app.goo.gl/94C3hp4xbRp1fKYt7","address":"Καλλιδρομίου 69, Αθήνα 106 83","categoryIds":["greek-restaurants"],"categories":["Greek Restaurants"],"distanceKm":0.38553974391232293},{"id":"vegetarianRestaurants_7f7c33a1a56c","slug":"rozalia-7f7c","kind":"restaurant","name":"Ροζαλία","lat":37.98607917346581,"lng":23.735180101843408,"url":"https://maps.app.goo.gl/UngDLMKcNPzNvksZ6?g_st=ipc","address":"Βαλτετσίου 59, Αθήνα 106 81","categoryIds":["vegetarian"],"categories":["Vegetarian Friendly Restaurants"],"distanceKm":0.39013694490088185}],"sameRegion":[],"mentionedGuides":[],"canonicalSlug":"ethniko-archaiologiko-moyseio-5d23","enrichment":{"summary_en":"Εθνικό Αρχαιολογικό Μουσείο is a curated restaurant in Αθήνα 106 82 in the Must-See Attractions collection. It is connected to 68 nearby Googlementor picks to help travelers build a stronger local route.","summary_el":"Εθνικό Αρχαιολογικό Μουσείο είναι ένα επιλεγμένο σημείο φαγητού στην περιοχή Αθήνα 106 82 και ανήκει στη συλλογή Must-See Attractions. Συνδέεται με 68 κοντινές προτάσεις του Googlementor για πιο ολοκληρωμένη εμπειρία.","vibe_tags":["curated"],"best_for":["first-time visitors","food lovers"],"visit_moments":["lunch stop","dinner stop"],"practical_note":"Address and direct map link are available for easy turn-by-turn access.","nearby_walkable_count":68,"nearby_count_2km":509,"confidence":0.98},"areaContext":{"slug":"exarcheia","name":"Exarcheia","nameEl":"Εξάρχεια"},"intentContexts":[{"href":"/attractions/exarcheia","label":"Must-See Attractions in Exarcheia","categorySlug":"attractions","categoryName":"Must-See Attractions","areaSlug":"exarcheia","areaName":"Exarcheia","areaNameEl":"Εξάρχεια"}]},"__N_SSG":true}