{"pageProps":{"entity":{"id":"familyFriendly_727aa4faed66","slug":"hado-dafni-727a","kind":"restaurant","name":"HADO Δάφνη","lat":37.94808909976108,"lng":23.73774466226219,"url":"https://maps.app.goo.gl/DDga87nVticqm9qYA?g_st=ipc","address":"Μπουμπουλίνας 6, Αγ. Δημήτριος Αττικής 173 43","categoryIds":["family-friendly"],"categories":["Kid Friendly Locations"]},"sameCategory":[{"id":"familyFriendly_5af727c12cd9","slug":"zappeion-gardens-playground-5af7","kind":"restaurant","name":"Zappeion Gardens Playground","lat":37.97014491296032,"lng":23.73740955062274,"url":"https://maps.app.goo.gl/PMwTfrNSvfQFtkeg9?g_st=ic","address":"Leof. Vasilissis Olgas 1, Athina 105 57","categoryIds":["family-friendly"],"categories":["Kid Friendly Locations"]},{"id":"familyFriendly_dbcc9f7f5af0","slug":"athens-national-garden-playground-dbcc","kind":"restaurant","name":"Athens National Garden Playground","lat":37.97207516278518,"lng":23.738684774717846,"url":"https://maps.app.goo.gl/KzRKoHWJqHBNs7oL8?g_st=ic","address":"Irodou Attikou 21, Athina 105 57","categoryIds":["family-friendly"],"categories":["Kid Friendly Locations"]},{"id":"familyFriendly_97da3f56afb5","slug":"ethnikos-kipos-97da","kind":"restaurant","name":"Εθνικός Κήπος","lat":37.97258568206085,"lng":23.73743382176546,"url":"https://maps.app.goo.gl/MCnnH77ndto6n5WT8?g_st=ipc","address":"Αθήνα 105 57","categoryIds":["family-friendly","attractions"],"categories":["Kid Friendly Locations","Must-See Attractions"],"legacySlugs":["ethnikos-kipos-9c8c"]},{"id":"familyFriendly_40c293d69cb0","slug":"elliniko-paidiko-moyseio-40c2","kind":"restaurant","name":"Ελληνικό Παιδικό Μουσείο","lat":37.97343665476228,"lng":23.744227584570496,"url":"https://maps.app.goo.gl/wiMy56MxapPr4udz6?g_st=ipc","address":"Βασ. Γεωργίου B 19, Αθήνα 106 75","categoryIds":["family-friendly"],"categories":["Kid Friendly Locations"]},{"id":"familyFriendly_feb6b1cb5cd1","slug":"little-land-kids-play-feb6","kind":"restaurant","name":"Little Land - Kids Play","lat":37.930642671894525,"lng":23.710426716839976,"url":"https://maps.app.goo.gl/fZKSbKJMUaonK7vh9?g_st=ipc","address":"Λεωφ. Ελ. Βενιζέλου 235, Παλαιό Φάληρο 175 63","categoryIds":["family-friendly"],"categories":["Kid Friendly Locations"]},{"id":"familyFriendly_a550b3686c2d","slug":"ethniko-asteroskopeio-athinon-kentro-episkepton-thiseioy-a550","kind":"restaurant","name":"Εθνικό Αστεροσκοπείο Αθηνών - Κέντρο Επισκεπτών Θησείου","lat":37.97274718818258,"lng":23.717946612728728,"url":"https://maps.app.goo.gl/hbZeHeJkN4GXh5tc6?g_st=ipc","address":"Λόφος Νυμφών Θησείο, ΤΘ 20048, Αθήνα 118 10","categoryIds":["family-friendly","attractions"],"categories":["Kid Friendly Locations","Must-See Attractions"],"legacySlugs":["ethniko-asteroskopeio-athinon-kentro-episkepton-thiseioy-26d3"]},{"id":"familyFriendly_75cf039dc3c8","slug":"monsterville-75cf","kind":"restaurant","name":"Μonsterville","lat":37.9770387951142,"lng":23.726973034108944,"url":"https://maps.app.goo.gl/ZrBswsgbAjWMCTSH9?g_st=ic","address":"Agias Irinis 13, Athina 105 51","categoryIds":["family-friendly"],"categories":["Kid Friendly Locations"]},{"id":"familyFriendly_e17e47d68ad1","slug":"little-kook-e17e","kind":"restaurant","name":"Little Kook","lat":37.9777197837275,"lng":23.724286649155946,"url":"https://maps.app.goo.gl/QNEYddbgdFKUSvNW9?g_st=ic","address":"Karaiskaki 17, Athina 105 54","categoryIds":["family-friendly"],"categories":["Kid Friendly Locations"]},{"id":"familyFriendly_afbd73fa31fe","slug":"neo-psifiako-planitario-idrymatos-eygenidoy-afbd","kind":"restaurant","name":"Νέο Ψηφιακό Πλανητάριο Ιδρύματος Ευγενίδου","lat":37.939924135926155,"lng":23.69664152972377,"url":"https://maps.app.goo.gl/6jTSzr4LUutvW78x6?g_st=ipc","address":"387 Syggrou Ave. (entrance 11, Πεντέλης st, Αθήνα 175 64","categoryIds":["family-friendly"],"categories":["Kid Friendly Locations"]},{"id":"familyFriendly_2be04a6b1d81","slug":"parko-stayros-niarchos-2be0","kind":"restaurant","name":"Πάρκο Σταύρος Νιάρχος","lat":37.942200854453496,"lng":23.69345667519833,"url":"https://maps.app.goo.gl/8s92kLGvmU1yA3fe8?g_st=ipc","address":"Λεωφ. Ανδρέα Συγγρού 364, Καλλιθέα 176 74","categoryIds":["family-friendly"],"categories":["Kid Friendly Locations"]},{"id":"familyFriendly_a3e2f6188bf1","slug":"kentro-politismoy-idryma-stayros-niarchos-a3e2","kind":"restaurant","name":"Κέντρο Πολιτισμού Ίδρυμα Σταύρος Νιάρχος","lat":37.93985683037055,"lng":23.692122482978903,"url":"https://maps.app.goo.gl/ib2tnNRmM1foX6zd8?g_st=ipc","address":"Λεωφ. Ανδρέα Συγγρού 364, Καλλιθέα 176 74","categoryIds":["family-friendly","attractions"],"categories":["Kid Friendly Locations","Must-See Attractions"],"legacySlugs":["kentro-politismoy-idryma-stayros-niarchos-dc50"]},{"id":"familyFriendly_b7e14b13fc56","slug":"paramythoypoli-ellinikoy-argyroypolis-b7e1","kind":"restaurant","name":"Παραμυθούπολη Ελληνικού Αργυρούπολης","lat":37.90960009979719,"lng":23.737312819815322,"url":"https://maps.app.goo.gl/MGgTCv28KmDG4VgK8?g_st=ipc","address":"Αλ. Παπαναστασίου, Αργυρούπολη 164 52","categoryIds":["family-friendly"],"categories":["Kid Friendly Locations"]}],"nearby":[{"id":"coffeeBrunchRestaurants_77dac76c5346","slug":"madania-77da","kind":"restaurant","name":"Madania","lat":37.94780401530034,"lng":23.73687705670489,"url":"https://maps.app.goo.gl/SN98TxjvUzYYXpvq9?g_st=ipc","address":"Leof. Agiou Dimitriou 17 &, Ηροδότου, Αγ. Δημήτριος Αττικής 173 43","categoryIds":["coffee-brunch"],"categories":["Coffee & Brunch Spots"],"distanceKm":0.08241624581460061},{"id":"greekRestaurants_5c7530a68c50","slug":"ladokolla-dafnis-5c75","kind":"restaurant","name":"Λαδόκολλα Δάφνης","lat":37.948710278848054,"lng":23.736099857630663,"url":"https://maps.app.goo.gl/DJkwhBF35mfEBRKG7","address":"Λεωφ. Αλ. Παπαναστασίου 8, Δάφνη Αττικής 172 35","categoryIds":["greek-restaurants"],"categories":["Greek Restaurants"],"distanceKm":0.15991066653061062},{"id":"vegetarianRestaurants_74f8ca9bcb55","slug":"dinette-dafni-74f8","kind":"restaurant","name":"Dinette Dafni","lat":37.949260684351316,"lng":23.73612865746863,"url":"https://maps.app.goo.gl/kkxVViHsfrAhDtz38?g_st=ipc","address":"Μιχαήλ Καραολή 1-3, Αθήνα 172 35","categoryIds":["vegetarian"],"categories":["Vegetarian Friendly Restaurants"],"distanceKm":0.19248293399765684},{"id":"coffeeBrunchRestaurants_41c6675d394b","slug":"lokal-athens-41c6","kind":"restaurant","name":"ΛΟΚΑΛ ΑΘΕΝΣ","lat":37.94681394109403,"lng":23.736018711734893,"url":"https://maps.app.goo.gl/cBZUFc3qKk2urDcJ7?g_st=ipc","address":"Λεωφ. Αγίου Δημητρίου 33, Αγ. Δημήτριος Αττικής 173 43","categoryIds":["coffee-brunch"],"categories":["Coffee & Brunch Spots"],"distanceKm":0.20738565571076992},{"id":"cheapEatsRestaurants_1640e0da72d1","slug":"smasheat-o-1640","kind":"restaurant","name":"Smasheat'o","lat":37.95001486404743,"lng":23.73773292955517,"url":"https://maps.app.goo.gl/nrXvTuy8yr3sWi7k8?g_st=ipc","address":"Meg. Alexandrou 2, Athina 172 35","categoryIds":["cheap-eats"],"categories":["Gyros & Cheap Eats"],"distanceKm":0.2141376897847955},{"id":"coffeeBrunchRestaurants_eb390a2ff655","slug":"ohayo-teahouse-eb39","kind":"restaurant","name":"Ohayo Teahouse","lat":37.949425041480666,"lng":23.734793004377693,"url":"https://maps.app.goo.gl/vkq5bgJaaWXHr76X8?g_st=ipc","address":"Αγίας Βαρβάρας 79, Αθήνα 172 35","categoryIds":["coffee-brunch"],"categories":["Coffee & Brunch Spots"],"distanceKm":0.2984146872803134},{"id":"cheapEatsRestaurants_59f1048e980a","slug":"to-steki-toy-kosta-59f1","kind":"restaurant","name":"Το Στέκι του Κώστα","lat":37.95121107984788,"lng":23.735124045238276,"url":"https://maps.app.goo.gl/gtmBLN9nUzctuFYM8?g_st=ipc","address":"Αγίας Βαρβάρας 59, Δάφνη Αττικής 172 35","categoryIds":["cheap-eats"],"categories":["Gyros & Cheap Eats"],"distanceKm":0.41630802057028926},{"id":"luxuryDiningRestaurants_bb06ffef1662","slug":"jerar-bb06","kind":"restaurant","name":"Jerár","lat":37.951578580834756,"lng":23.735160182054084,"url":"https://maps.app.goo.gl/FdaHgzGN8Q8h9ubz8?g_st=ipc","address":"Αγίας Βαρβάρας 55, Δάφνη Αττικής 172 35","categoryIds":["luxury-dining"],"categories":["Luxury Dining"],"distanceKm":0.4493414884473317},{"id":"dessertsRestaurants_bf8ca0a3720e","slug":"elli-s-cakes-bf8c","kind":"restaurant","name":"Elli's Cakes","lat":37.9448495085085,"lng":23.734073926930343,"url":"https://maps.app.goo.gl/eufNFz1Bu9hgqeNm6?g_st=ipc","address":"Λεωφ. Αγίου Δημητρίου 40, Αγ. Δημήτριος Αττικής 173 41","categoryIds":["desserts"],"categories":["Dessert Shops"],"distanceKm":0.48307990988324623},{"id":"municipalities_54bb39e9ab94","slug":"dafni-54bb","kind":"municipality","name":"Δάφνη","lat":37.95,"lng":23.732,"aliases":["Dafni","Daphni","Δαφνη","Daphne"],"region":"Νότια Προάστια","name_en":"Dafni","region_en":"Southern Suburbs","distanceKm":0.5466950649384473},{"id":"italianRestaurants_22324beef805","slug":"pizza-days-agioy-dimitrioy-2232","kind":"restaurant","name":"Pizza Days - Αγίου Δημητρίου","lat":37.9436201391912,"lng":23.733022003629234,"url":"https://maps.app.goo.gl/mj45NkH8L5jqeHD58?g_st=ipc","address":"Ανδρέα Παπανδρέου 2, Αγ. Δημήτριος Αττικής 173 41","categoryIds":["italian"],"categories":["Italian Restaurants"],"distanceKm":0.6468607536370913},{"id":"greekRestaurants_191784dd5c83","slug":"ta-filetakia-1917","kind":"restaurant","name":"Τα φιλετάκια","lat":37.94824819005281,"lng":23.729579675166935,"url":"https://maps.app.goo.gl/tBGQqYJbzo48VPWv9","address":"Εθνάρχου Μακαρίου 126, Δάφνη Αττικής 172 34","categoryIds":["greek-restaurants"],"categories":["Greek Restaurants"],"distanceKm":0.716162889425924},{"id":"cheapEatsRestaurants_a6f267f71448","slug":"psitopoleio-o-kostas-a6f2","kind":"restaurant","name":"Ψητοπωλείο Ο Κώστας","lat":37.94774148940973,"lng":23.74608370924349,"url":"https://maps.app.goo.gl/8n9ne3gHR6APgQwh6?g_st=ipc","address":"Ηλιουπόλεως 157, Υμηττός 172 36","categoryIds":["cheap-eats"],"categories":["Gyros & Cheap Eats"],"distanceKm":0.7322301767855633},{"id":"cheapEatsRestaurants_b9d0dc3d0a7f","slug":"mayropipero-b9d0","kind":"restaurant","name":"Μαυροπίπερο","lat":37.939871957691295,"lng":23.73599315534295,"url":"https://maps.app.goo.gl/kLQRksA1KxobJdFA6?g_st=ipc","address":"Στρατάρχου Αλεξάνδρου Παπάγου 41, Αγ. Δημήτριος Αττικής 173 43","categoryIds":["cheap-eats"],"categories":["Gyros & Cheap Eats"],"distanceKm":0.9265233628435205},{"id":"burgersRestaurants_82d2f41d9265","slug":"big-nick-82d2","kind":"restaurant","name":"Big Nick","lat":37.956445331565305,"lng":23.73566615673783,"url":"https://maps.app.goo.gl/j5eRwkA5Uf2bwVHs7?g_st=ipc","address":"Λεωφόρος Βουλιαγμένης 145, Αθήνα 116 31","categoryIds":["burgers","vegetarian"],"categories":["Burger Spots","Vegetarian Friendly Restaurants"],"legacySlugs":["big-nick-ce09"],"distanceKm":0.9468740483508512},{"id":"cheapEatsRestaurants_11e58e7bd1c7","slug":"pita-pan-11e5","kind":"restaurant","name":"Pita Pan","lat":37.93966105014638,"lng":23.74003701406881,"url":"https://maps.app.goo.gl/ub6T2bWkrrx9QZt69?g_st=ipc","address":"Παρ. Λεωφ. Βουλιαγμένης 276, Αγ. Δημήτριος Αττικής 173 43","categoryIds":["cheap-eats"],"categories":["Gyros & Cheap Eats"],"distanceKm":0.9584724487984526},{"id":"italianRestaurants_7df507160f43","slug":"de-michelle-7df5","kind":"restaurant","name":"DE MICHELLE","lat":37.94606996265572,"lng":23.727087729280314,"url":"https://maps.app.goo.gl/iqvRwdhG4FanUzaEA?g_st=ipc","address":"Μητροπολίτου Ευθυβούλη 17, Νέα Σμύρνη 171 24","categoryIds":["italian"],"categories":["Italian Restaurants"],"distanceKm":0.9610570791252748},{"id":"dessertsRestaurants_65e04c3f641c","slug":"cinnabon-athens-metro-mall-65e0","kind":"restaurant","name":"Cinnabon (Athens Metro Mall)","lat":37.93941612015106,"lng":23.739972879470894,"url":"https://maps.app.goo.gl/71DTBLWMjXBGonps5?g_st=ipc","address":"Παρ. Λεωφ. Βουλιαγμένης 276, Αγ. Δημήτριος Αττικής 173 43","categoryIds":["desserts"],"categories":["Dessert Shops"],"distanceKm":0.9839861704739427},{"id":"italianRestaurants_d26e71c0baaa","slug":"p3-pizza-pasta-piazza-d26e","kind":"restaurant","name":"P3 • Pizza Pasta Piazza","lat":37.95458478436311,"lng":23.74640491373037,"url":"https://maps.app.goo.gl/RxyTMGLyt4d7KQ4T7?g_st=ipc","address":"Πλ. Υμηττού 15, Υμηττός 172 37","categoryIds":["italian"],"categories":["Italian Restaurants"],"distanceKm":1.0479952606501834},{"id":"burgersRestaurants_c05eb7f13ddf","slug":"psychiatreio-c05e","kind":"restaurant","name":"Ψυχιατρείο","lat":37.941454787946455,"lng":23.74643002685345,"url":"https://maps.app.goo.gl/nvzgc7zjFUEkgZMN8?g_st=ipc","address":"Αγίου Κωνσταντίνου 16, Ηλιούπολη 163 46","categoryIds":["burgers","cheap-eats"],"categories":["Burger Spots","Gyros & Cheap Eats"],"legacySlugs":["psychiatreio-6c0c"],"distanceKm":1.060307413607427},{"id":"monasteriesChurches_532a88c17ded","slug":"ieros-naos-agioy-dimitrioy-532a","kind":"restaurant","name":"Ιερός Ναός Αγίου Δημητρίου","lat":37.939612390639354,"lng":23.731409160406493,"url":"https://maps.app.goo.gl/NQFZSQ6EDz4WiEjk6?g_st=ipc","address":"Λεωφ. Αγίου Δημητρίου 117, Αγ. Δημήτριος Αττικής 173 43","categoryIds":["monasteries-churches"],"categories":["Monasteries & Spiritual Sites"],"distanceKm":1.0941108872328307},{"id":"greekRestaurants_11dff068e9ea","slug":"taverna-toy-vardi-11df","kind":"restaurant","name":"Ταβέρνα του Βαρδή","lat":37.95570603338151,"lng":23.74583290711746,"url":"https://maps.app.goo.gl/6RAXFnJTA2DTzwA88","address":"Καισαρείας 9, Υμηττός 172 37","categoryIds":["greek-restaurants"],"categories":["Greek Restaurants"],"distanceKm":1.1046645966978805},{"id":"italianRestaurants_297de75e2491","slug":"la-bella-napoli-297d","kind":"restaurant","name":"La Bella Napoli","lat":37.95333874485214,"lng":23.726510881566565,"url":"https://maps.app.goo.gl/viysAA695txjhPLE6?g_st=ipc","address":"Ρουμπέση 64, Αθήνα 172 30","categoryIds":["italian"],"categories":["Italian Restaurants"],"distanceKm":1.1449730601497414},{"id":"cheapEatsRestaurants_53eb96e06f78","slug":"zampelis-soyvlaki-53eb","kind":"restaurant","name":"ΖΑΜΠΕΛΗΣ Σουβλάκι","lat":37.942278449963005,"lng":23.7489165228981,"url":"https://maps.app.goo.gl/mBFJVYTZsF1kBbtk7?g_st=ipc","address":"Λεωφ. Μαρίνου Αντύπα 42, Ηλιούπολη 163 46","categoryIds":["cheap-eats"],"categories":["Gyros & Cheap Eats"],"distanceKm":1.17352490038553}],"sameRegion":[],"mentionedGuides":[],"canonicalSlug":"hado-dafni-727a","enrichment":{"summary_en":"HADO Δάφνη is a curated restaurant in Αγ. Δημήτριος Αττικής 173 43 in the Kid Friendly Locations collection. It is connected to 13 nearby Googlementor picks to help travelers build a stronger local route.","summary_el":"HADO Δάφνη είναι ένα επιλεγμένο σημείο φαγητού στην περιοχή Αγ. Δημήτριος Αττικής 173 43 και ανήκει στη συλλογή Kid Friendly Locations. Συνδέεται με 13 κοντινές προτάσεις του Googlementor για πιο ολοκληρωμένη εμπειρία.","vibe_tags":["curated","family-ready"],"best_for":["first-time visitors","food lovers","families"],"visit_moments":["lunch stop","dinner stop"],"practical_note":"Address and direct map link are available for easy turn-by-turn access.","nearby_walkable_count":13,"nearby_count_2km":71,"confidence":0.98},"areaContext":{"slug":"dafni","name":"Dafni","nameEl":"Δάφνη"},"intentContexts":[{"href":"/family-friendly/dafni","label":"Kid Friendly Locations in Dafni","categorySlug":"family-friendly","categoryName":"Kid Friendly Locations","areaSlug":"dafni","areaName":"Dafni","areaNameEl":"Δάφνη"}]},"__N_SSG":true}