{"pageProps":{"entity":{"id":"municipalities_48180ac7ab6a","slug":"kavala-4818","kind":"municipality","name":"Καβάλα","lat":40.937,"lng":24.406,"region":"Κεντρική Μακεδονία","name_en":"Kavala","region_en":"Central Macedonia"},"sameCategory":[],"nearby":[{"id":"dessertsRestaurants_63113ea4bb9d","slug":"ntinos-patisserie-6311","kind":"restaurant","name":"Ntinos Patisserie","lat":40.93677597847986,"lng":24.41089117085129,"url":"https://maps.app.goo.gl/k1igYo9JRosLStDy7?g_st=ipc","address":"El. Venizelou 25, Kavala 653 02","categoryIds":["desserts"],"categories":["Dessert Shops"],"distanceKm":0.41161368358539413},{"id":"dessertsRestaurants_429ae1be11cf","slug":"evangelou-confectionary-429a","kind":"restaurant","name":"Evangelou Confectionary","lat":40.93760506506312,"lng":24.410866727456785,"url":"https://maps.app.goo.gl/RP9XvJeTKjnB3SyW7?g_st=ipc","address":"P. Mela 6, Kavala 653 02","categoryIds":["desserts"],"categories":["Dessert Shops"],"distanceKm":0.41430285955115737},{"id":"rooftopLoungesRestaurants_bb49421d891b","slug":"swell-roof-garden-bb49","kind":"restaurant","name":"Swell Roof Garden","lat":40.93644468023091,"lng":24.41131352952831,"url":"https://maps.app.goo.gl/u2rtEnenzWiQA1C79?g_st=ipc","address":"El. Venizelou 17, Kavala 653 02","categoryIds":["rooftop-lounges"],"categories":["Rooftop Lounges"],"distanceKm":0.45058963558864107},{"id":"dessertsRestaurants_45b658e0e38d","slug":"marantidis-konstantinos-45b6","kind":"restaurant","name":"Marantidis Konstantinos","lat":40.940415746394464,"lng":24.418722029538895,"url":"https://maps.app.goo.gl/DuCK5b9RjUfShnnG8?g_st=ipc","address":"Sappeon 7, Kavala 652 01","categoryIds":["desserts"],"categories":["Dessert Shops"],"distanceKm":1.1341138726964384},{"id":"fishTavernasRestaurants_aecb96de4396","slug":"savvas-aecb","kind":"restaurant","name":"Savvas","lat":40.942255728565115,"lng":24.425243186310322,"url":"https://maps.app.goo.gl/HRHjPKGDuwcWxApM7?g_st=ipc","address":"Thasou 29, Kavala 652 01","categoryIds":["fish-tavernas"],"categories":["Fish Tavernas"],"distanceKm":1.7187694210956395},{"id":"mustSeeAttractions_e57cfb521268","slug":"archaeological-site-of-philippi-e57c","kind":"restaurant","name":"Archaeological Site of Philippi","lat":41.012686338997746,"lng":24.287678993251607,"url":"https://maps.app.goo.gl/1Uc3YFqdrM7dERMj7?g_st=ipc","address":"EO Dramas Kavalas, Filippi 640 03","categoryIds":["attractions"],"categories":["Must-See Attractions"],"distanceKm":13.019133918663977},{"id":"fishTavernasRestaurants_f11f3f78b977","slug":"taverna-ta-tria-pitharia-f11f","kind":"restaurant","name":"Taverna Ta Tria Pitharia","lat":40.83585839690305,"lng":24.305213402843865,"url":"https://maps.app.goo.gl/4hp3qTvHqzD6ZvsJ7?g_st=ipc","address":"Nikis, Nea Peramos 640 07","categoryIds":["fish-tavernas"],"categories":["Fish Tavernas"],"distanceKm":14.080710041181838},{"id":"coffeeBrunchRestaurants_1e661ed95ce8","slug":"river-cafe-1e66","kind":"restaurant","name":"River Cafe","lat":41.06113826137017,"lng":24.26515962969056,"url":"https://maps.app.goo.gl/MD2gmED1xtQRvMJS6?g_st=ipc","address":"Άνω Κεφαλάρι 660 32","categoryIds":["coffee-brunch"],"categories":["Coffee & Brunch Spots"],"distanceKm":18.17244049056318},{"id":"coffeeBrunchRestaurants_3f658622b548","slug":"sklaris-3f65","kind":"restaurant","name":"Sklaris","lat":40.972805070668926,"lng":24.140591861373508,"url":"https://maps.app.goo.gl/1UACMfNmgegpjXm16?g_st=ipc","address":"Serron 17, Ag. Christoforos 640 01","categoryIds":["coffee-brunch"],"categories":["Coffee & Brunch Spots"],"distanceKm":22.641041852403447},{"id":"wineriesVineyards_0cdfcd6ce302","slug":"nico-lazaridi-chateau-nico-lazaridi-oinopoieio-nikoy-lazaridi-0cdf","kind":"restaurant","name":"NICO LAZARIDI Château Nico Lazaridi - Οινοποιείο Νίκου Λαζαρίδη","lat":41.129507803067504,"lng":24.279792635578804,"url":"https://maps.app.goo.gl/WKD1nyVBu5sjxUqV8?g_st=ipc","address":"Κοινότητα Αγοράς, Δράμα, Agora 660 32","categoryIds":["wineries-vineyards"],"categories":["Wineries & Vineyards"],"distanceKm":23.88041830157636},{"id":"wineriesVineyards_554af4e222d0","slug":"oenogenesis-s-a-554a","kind":"restaurant","name":"OENOGENESIS S.A.","lat":41.11655968127127,"lng":24.244269125370955,"url":"https://maps.app.goo.gl/bnEeezvifVHw7rFq7?g_st=ipc","address":"Επί επαρχιακής οδού Δοξάτο-Αδριανή, Adriani 661 00","categoryIds":["wineries-vineyards"],"categories":["Wineries & Vineyards"],"distanceKm":24.13932305219494},{"id":"wineriesVineyards_a9a7cc1f9625","slug":"estates-costa-lazaridi-drama-a9a7","kind":"restaurant","name":"Estates Costa Lazaridi Drama","lat":41.13086312258315,"lng":24.259959410750362,"url":"https://maps.app.goo.gl/Kw5f3uTchrYrtq7G7?g_st=ipc","address":"Epar.Od. Platamona - Adrianis 47, Adriani 661 00","categoryIds":["wineries-vineyards"],"categories":["Wineries & Vineyards"],"distanceKm":24.793830578178287},{"id":"wineriesVineyards_21e4fc1e860b","slug":"wine-art-estate-21e4","kind":"restaurant","name":"\"Wine Art\" Estate","lat":41.10253195746925,"lng":24.17303276432893,"url":"https://maps.app.goo.gl/kuEE1xd8ov4WsHDd9?g_st=ipc","address":"p. mela 2, Mikrochori 661 00","categoryIds":["wineries-vineyards"],"categories":["Wineries & Vineyards"],"distanceKm":26.84748174541348},{"id":"dessertsRestaurants_fa96f575f727","slug":"armenoville-fa96","kind":"restaurant","name":"Armenovílle","lat":41.14370182931695,"lng":24.14876446334483,"url":"https://maps.app.goo.gl/7nzHrRoeVuv244XT6?g_st=ipc","address":"1is Iouliou 6, Drama 661 00","categoryIds":["desserts"],"categories":["Dessert Shops"],"distanceKm":31.523113495586763},{"id":"familyFriendly_df83d6806c13","slug":"oneiroypoli-dramas-df83","kind":"restaurant","name":"Ονειρούπολη Δράμας","lat":41.147983932052774,"lng":24.146200919467475,"url":"https://maps.app.goo.gl/hQZWfg9QfnFeMyBTA?g_st=ipc","address":"Drama 661 00","categoryIds":["family-friendly"],"categories":["Kid Friendly Locations"],"distanceKm":32.017389108679886},{"id":"municipalities_8789afaef2a4","slug":"drama-8789","kind":"municipality","name":"Δράμα","lat":41.151,"lng":24.145,"region":"Ανατολική Μακεδονία και Θράκη","name_en":"Drama","region_en":"Eastern Macedonia & Thrace","distanceKm":32.331694984891364},{"id":"dessertsRestaurants_6dd39e58dc31","slug":"ntinos-patisserie-6dd3","kind":"restaurant","name":"Ntinos Patisserie","lat":41.151585513355016,"lng":24.14300415927613,"url":"https://maps.app.goo.gl/HZ2MFbKvrx1G3nXf9?g_st=ipc","address":"El. Venizelou 93, Drama 661 00","categoryIds":["desserts"],"categories":["Dessert Shops"],"distanceKm":32.4929561752378},{"id":"municipalities_447a33d90dfe","slug":"polygyros-447a","kind":"municipality","name":"Πολύγυρος","lat":40.3167,"lng":23.5167,"region":"Κεντρική Μακεδονία","name_en":"Polygyros","region_en":"Central Macedonia","distanceKm":101.93061741496365},{"id":"municipalities_c1f706b91268","slug":"kilkis-c1f7","kind":"municipality","name":"Κιλκίς","lat":40.99,"lng":22.875,"region":"Κεντρική Μακεδονία","name_en":"Kilkis","region_en":"Central Macedonia","distanceKm":128.6858128805242},{"id":"municipalities_68933443b9ec","slug":"naoysa-6893","kind":"municipality","name":"Νάουσα","lat":40.624,"lng":22.144,"region":"Κεντρική Μακεδονία","name_en":"Naousa","region_en":"Central Macedonia","distanceKm":193.60550013429815},{"id":"municipalities_cfaa6a6444bc","slug":"aridaia-cfaa","kind":"municipality","name":"Αριδαία","lat":40.9333,"lng":22.05,"region":"Κεντρική Μακεδονία","name_en":"Aridaia","region_en":"Central Macedonia","distanceKm":197.9040752217564}],"sameRegion":[{"id":"municipalities_447a33d90dfe","slug":"polygyros-447a","kind":"municipality","name":"Πολύγυρος","lat":40.3167,"lng":23.5167,"region":"Κεντρική Μακεδονία","name_en":"Polygyros","region_en":"Central Macedonia"},{"id":"municipalities_68933443b9ec","slug":"naoysa-6893","kind":"municipality","name":"Νάουσα","lat":40.624,"lng":22.144,"region":"Κεντρική Μακεδονία","name_en":"Naousa","region_en":"Central Macedonia"},{"id":"municipalities_c1f706b91268","slug":"kilkis-c1f7","kind":"municipality","name":"Κιλκίς","lat":40.99,"lng":22.875,"region":"Κεντρική Μακεδονία","name_en":"Kilkis","region_en":"Central Macedonia"},{"id":"municipalities_cfaa6a6444bc","slug":"aridaia-cfaa","kind":"municipality","name":"Αριδαία","lat":40.9333,"lng":22.05,"region":"Κεντρική Μακεδονία","name_en":"Aridaia","region_en":"Central Macedonia"}],"mentionedGuides":[],"canonicalSlug":"kavala-4818","enrichment":{"summary_en":"Καβάλα is a curated neighborhood area in Κεντρική Μακεδονία. It is connected to 3 nearby Googlementor picks to help travelers build a stronger local route.","summary_el":"Καβάλα είναι ένα επιλεγμένο σημείο ενδιαφέροντος στην περιοχή Κεντρική Μακεδονία. Συνδέεται με 3 κοντινές προτάσεις του Googlementor για πιο ολοκληρωμένη εμπειρία.","vibe_tags":["local-neighborhood","base-for-exploring"],"best_for":["first-time visitors","walk-and-explore days","return visitors"],"visit_moments":["late morning walks","sunset exploration"],"practical_note":"3 curated places are within walkable distance from this area center.","nearby_walkable_count":3,"nearby_count_2km":5,"confidence":0.55},"areaContext":null,"intentContexts":[]},"__N_SSG":true}