{"pageProps":{"entity":{"id":"municipalities_927aa23a9fc7","slug":"kimolos-927a","kind":"municipality","name":"Κίμωλος","lat":36.7783,"lng":24.575,"aliases":["Κιμωλος"],"region":"Κυκλάδες","name_en":"Kimolos","region_en":"Cyclades"},"sameCategory":[],"nearby":[{"id":"wineriesVineyards_946eb8e58cb0","slug":"kostantakis-winery-946e","kind":"restaurant","name":"Kostantakis Winery","lat":36.75755644321186,"lng":24.52676070016812,"url":"https://maps.app.goo.gl/6jEcs57aPdcQLmi17?g_st=ipc","address":"Πολλώνια 848 00","categoryIds":["wineries-vineyards"],"categories":["Wineries & Vineyards"],"distanceKm":4.876842656203667},{"id":"municipalities_9168baac00c3","slug":"pollonia-9168","kind":"municipality","name":"Πολλώνια","lat":36.7534,"lng":24.5087,"region":"Μήλος","name_en":"Pollonia","region_en":"Milos","distanceKm":6.522613695009364},{"id":"luxuryDiningRestaurants_9f9cf29a5760","slug":"makris-milos-fine-dining-restaurant-9f9c","kind":"restaurant","name":"Makris Milos Fine Dining Restaurant","lat":36.744626545035004,"lng":24.481317634143164,"url":"https://maps.app.goo.gl/DyjWXnMeBVwqWcfy6?g_st=ipc","address":"Mytakas, Island 848 00","categoryIds":["luxury-dining"],"categories":["Luxury Dining"],"distanceKm":9.146905699294274},{"id":"dessertsRestaurants_227e46360090","slug":"aggeliki-ice-cream-shop-227e","kind":"restaurant","name":"Aggeliki ice cream shop","lat":36.724956307095454,"lng":24.446679354720963,"url":"https://maps.app.goo.gl/Lr6pCYmiGibrxw1B7?g_st=ipc","address":"Greece, Adamas 848 00","categoryIds":["desserts"],"categories":["Dessert Shops"],"distanceKm":12.879673522323372},{"id":"municipalities_89c635fb5cca","slug":"adamantas-89c6","kind":"municipality","name":"Αδάμαντας","lat":36.7236,"lng":24.4446,"region":"Μήλος","name_en":"Adamas","region_en":"Milos","distanceKm":13.113751386276968},{"id":"fishTavernasRestaurants_defc11d1130f","slug":"psaravolada-restaurant-defc","kind":"restaurant","name":"Psaravolada Restaurant","lat":36.67157549974308,"lng":24.505578356845632,"url":"https://maps.app.goo.gl/ywWETxsWSPkbUx8eA?g_st=ipc","address":"Ψαραβολάδα, Αγία Κυριακη 848 00","categoryIds":["fish-tavernas"],"categories":["Fish Tavernas"],"distanceKm":13.383272096830218},{"id":"municipalities_e18b28aacc13","slug":"milos-e18b","kind":"municipality","name":"Μήλος","lat":36.7446,"lng":24.426,"aliases":["Μηλος"],"region":"Κυκλάδες","name_en":"Milos","region_en":"Cyclades","distanceKm":13.792046111246227},{"id":"municipalities_af26c33fb168","slug":"plaka-milos-af26","kind":"municipality","name":"Πλάκα Μήλος","lat":36.744,"lng":24.425,"region":"Μήλος","name_en":"Plaka Milos","region_en":"Milos","distanceKm":13.896011784826904},{"id":"coffeeBrunchRestaurants_22ed699a380f","slug":"mosaic-milos-22ed","kind":"restaurant","name":"Mosaic Milos","lat":36.74431276131015,"lng":24.421917244173116,"url":"https://maps.app.goo.gl/5Mzweh8YnbTNhVaQ9?g_st=ipc","address":"Plaka 848 00","categoryIds":["coffee-brunch","rooftop-lounges"],"categories":["Coffee & Brunch Spots","Rooftop Lounges"],"legacySlugs":["mosaic-milos-55f4"],"distanceKm":14.150931087938554},{"id":"greekRestaurants_95678f462cb1","slug":"okeanida-9567","kind":"restaurant","name":"Ωκεανίδα","lat":36.93305392530472,"lng":24.690130051637126,"url":"https://maps.app.goo.gl/PhqjSxYuDqrVS2dw6?g_st=ipc","address":"Βαθύ 840 03","categoryIds":["greek-restaurants"],"categories":["Greek Restaurants"],"distanceKm":20.025917636768682},{"id":"fishTavernasRestaurants_4051f6c5c5f1","slug":"yalos-sifnos-4051","kind":"restaurant","name":"Yalos Sifnos","lat":36.93198313076824,"lng":24.73092559432301,"url":"https://maps.app.goo.gl/hct1BV2oGe6F3cM97?g_st=ipc","address":"Πλατύς Γιαλός 840 03","categoryIds":["fish-tavernas"],"categories":["Fish Tavernas"],"distanceKm":22.011167886031732},{"id":"fishTavernasRestaurants_c2965cc0335d","slug":"maiolica-sifnos-c296","kind":"restaurant","name":"Maiòlica Sifnos","lat":36.93201088219794,"lng":24.731152746803176,"url":"https://maps.app.goo.gl/RsiuxKtR7W21BNnb8?g_st=ipc","address":"Πλατύς Γιαλός 840 03","categoryIds":["fish-tavernas","luxury-dining"],"categories":["Fish Tavernas","Luxury Dining"],"legacySlugs":["maiolica-sifnos-5a94"],"distanceKm":22.02630452935647},{"id":"fishTavernasRestaurants_4baa7d7d1366","slug":"omega3-4baa","kind":"restaurant","name":"Omega3","lat":36.932052168795934,"lng":24.731352405475214,"url":"https://maps.app.goo.gl/jioScJGAm2izK6a49?g_st=ipc","address":"Πλατύς Γιαλός 840 03","categoryIds":["fish-tavernas"],"categories":["Fish Tavernas"],"distanceKm":22.041072261856964},{"id":"greekRestaurants_556ba6aea8bf","slug":"to-steki-556b","kind":"restaurant","name":"Το Στέκι","lat":36.932144891987825,"lng":24.732143733490126,"url":"https://maps.app.goo.gl/V9M4s1KNBNRDerWW8?g_st=ipc","address":"Πλατύς Γυαλός, Σίφνος 840 03","categoryIds":["greek-restaurants"],"categories":["Greek Restaurants"],"distanceKm":22.093553621900885},{"id":"coffeeBrunchRestaurants_bd7fc0151f49","slug":"fasolu-restaurant-beach-bar-bd7f","kind":"restaurant","name":"Fasolu Restaurant - Beach Bar","lat":36.941116049216255,"lng":24.753293392899685,"url":"https://maps.app.goo.gl/Lb3CYfu5rPNFtURu7?g_st=ipc","address":"Fassolou Beach, 840 03","categoryIds":["coffee-brunch"],"categories":["Coffee & Brunch Spots"],"distanceKm":24.070327489577416},{"id":"fishTavernasRestaurants_4864e8e3be1a","slug":"angie-seaside-restaurant-4864","kind":"restaurant","name":"ANGIE seaside restaurant","lat":36.944136259291675,"lng":24.751012764820505,"url":"https://maps.app.goo.gl/bGogp723rTJwR3cx7?g_st=ipc","address":"Φαρος, Faros 840 03","categoryIds":["fish-tavernas"],"categories":["Fish Tavernas"],"distanceKm":24.191897755889375},{"id":"fishTavernasRestaurants_0067c5728086","slug":"alyelo-bar-restaurant-0067","kind":"restaurant","name":"Alyelo Bar Restaurant","lat":36.944070932851574,"lng":24.75112565793777,"url":"https://maps.app.goo.gl/R8Jg72P8QchmsSubA?g_st=ipc","address":"Φάρος 840 03","categoryIds":["fish-tavernas"],"categories":["Fish Tavernas"],"distanceKm":24.19286946968461},{"id":"fishTavernasRestaurants_d069945d0fb2","slug":"pelicanos-d069","kind":"restaurant","name":"Pelicanos","lat":36.94422039775623,"lng":24.751254852785607,"url":"https://maps.app.goo.gl/xbF6ZRisum4Kfmgz5?g_st=ipc","address":"beach, Faros 840 03","categoryIds":["fish-tavernas"],"categories":["Fish Tavernas"],"distanceKm":24.21296679377464},{"id":"municipalities_72366b2ec926","slug":"sifnos-7236","kind":"municipality","name":"Σίφνος","lat":36.9717,"lng":24.7036,"aliases":["Σιφνος"],"region":"Κυκλάδες","name_en":"Sifnos","region_en":"Cyclades","distanceKm":24.358139394605193},{"id":"greekRestaurants_9e0c5c2d6f56","slug":"o-simos-9e0c","kind":"restaurant","name":"Ο ΣΙΜΟΣ","lat":36.98874960651575,"lng":24.675797411728432,"url":"https://maps.app.goo.gl/LmWkmfGPjhMBpKoQ6?g_st=ipc","address":"Καμάρες 840 03","categoryIds":["greek-restaurants"],"categories":["Greek Restaurants"],"distanceKm":25.059392610443197},{"id":"greekRestaurants_259ad1a4a416","slug":"i-meropi-259a","kind":"restaurant","name":"Η ΜΕΡΟΠΗ","lat":36.98892038412835,"lng":24.67563104680434,"url":"https://maps.app.goo.gl/6mzPsRRf26rUzcpT7?g_st=ipc","address":"Καμάρες 840 03","categoryIds":["greek-restaurants"],"categories":["Greek Restaurants"],"distanceKm":25.071836954867855},{"id":"greekRestaurants_21f1a58b70a1","slug":"drimoni-21f1","kind":"restaurant","name":"Δριμόνι","lat":36.97111592359732,"lng":24.726882746663012,"url":"https://maps.app.goo.gl/FjBr963bhTreLrq66?g_st=ipc","address":"Απολλωνία 840 03","categoryIds":["greek-restaurants"],"categories":["Greek Restaurants"],"distanceKm":25.341671787134473},{"id":"dessertsRestaurants_816e027b7bd3","slug":"yfes-816e","kind":"restaurant","name":"Yfes","lat":36.971257014168174,"lng":24.72665696440793,"url":"https://maps.app.goo.gl/9np4LKVixhfHWSEt6?g_st=ipc","address":"Απολλωνία 840 03","categoryIds":["desserts"],"categories":["Dessert Shops"],"distanceKm":25.344244291321495},{"id":"greekRestaurants_7921aa5472db","slug":"kafeneio-drakakis-7921","kind":"restaurant","name":"KAFENEIO DRAKAKIS","lat":36.972959258998515,"lng":24.723737653225438,"url":"https://maps.app.goo.gl/HT6hzXp5huwaTTHm7?g_st=ipc","address":"Απολλωνία 840 03","categoryIds":["greek-restaurants"],"categories":["Greek Restaurants"],"distanceKm":25.368218333329423}],"sameRegion":[{"id":"municipalities_094e7414e11a","slug":"mykonos-094e","kind":"municipality","name":"Μύκονος","lat":37.4467,"lng":25.3289,"aliases":["Mikonos","Μύκονα","Μυκονος","Mykonos","Myconos"],"region":"Κυκλάδες","name_en":"Mykonos","region_en":"Cyclades"},{"id":"municipalities_10c41fed1584","slug":"syros-10c4","kind":"municipality","name":"Σύρος","lat":37.4442,"lng":24.9428,"aliases":["Syros","Siros","Σύρα","Συρος","Συρο"],"region":"Κυκλάδες","name_en":"Syros","region_en":"Cyclades"},{"id":"municipalities_27d97a869977","slug":"schoinoysa-27d9","kind":"municipality","name":"Σχοινούσα","lat":36.8667,"lng":25.5167,"region":"Κυκλάδες","name_en":"Schinoussa","region_en":"Cyclades"},{"id":"municipalities_3cbd90a19d63","slug":"andros-3cbd","kind":"municipality","name":"Άνδρος","lat":37.8333,"lng":24.9333,"region":"Κυκλάδες","name_en":"Andros","region_en":"Cyclades"},{"id":"municipalities_402e7912632b","slug":"serifos-402e","kind":"municipality","name":"Σέριφος","lat":37.1537,"lng":24.5197,"aliases":["Σεριφος"],"region":"Κυκλάδες","name_en":"Serifos","region_en":"Cyclades"},{"id":"municipalities_444e7b37bb5a","slug":"koyfonisi-444e","kind":"municipality","name":"Κουφονήσι","lat":36.9333,"lng":25.6,"region":"Κυκλάδες","name_en":"Koufonisia","region_en":"Cyclades"},{"id":"municipalities_56cba484379e","slug":"anafi-56cb","kind":"municipality","name":"Ανάφη","lat":36.35,"lng":25.7667,"region":"Κυκλάδες","name_en":"Anafi","region_en":"Cyclades"},{"id":"municipalities_5b32b43e93f7","slug":"santorini-5b32","kind":"municipality","name":"Σαντορίνη","lat":36.3932,"lng":25.4615,"aliases":["Thira","Thera","Santorin","Σαντορίνα","Σαντορινη","Θήρα","Θηρα"],"region":"Κυκλάδες","name_en":"Santorini","region_en":"Cyclades"},{"id":"municipalities_6d137de68b2c","slug":"kea-6d13","kind":"municipality","name":"Κέα","lat":37.6333,"lng":24.3333,"aliases":["Kea","Keios","Κέιος","Κεα"],"region":"Κυκλάδες","name_en":"Kea","region_en":"Cyclades"},{"id":"municipalities_72366b2ec926","slug":"sifnos-7236","kind":"municipality","name":"Σίφνος","lat":36.9717,"lng":24.7036,"aliases":["Σιφνος"],"region":"Κυκλάδες","name_en":"Sifnos","region_en":"Cyclades"},{"id":"municipalities_7b6436cb2406","slug":"sikinos-7b64","kind":"municipality","name":"Σίκινος","lat":36.6833,"lng":25.1333,"region":"Κυκλάδες","name_en":"Sikinos","region_en":"Cyclades"},{"id":"municipalities_7f2e13a4b7d2","slug":"donoysa-7f2e","kind":"municipality","name":"Δονούσα","lat":37.1,"lng":25.8,"region":"Κυκλάδες","name_en":"Donousa","region_en":"Cyclades"},{"id":"municipalities_8e551d6fe098","slug":"irakleia-8e55","kind":"municipality","name":"Ηρακλειά","lat":36.8333,"lng":25.45,"region":"Κυκλάδες","name_en":"Heraklia","region_en":"Cyclades"},{"id":"municipalities_9268ba4d6ee8","slug":"paros-9268","kind":"municipality","name":"Πάρος","lat":37.085,"lng":25.15,"aliases":["Paros","Πάριος","Παρος"],"region":"Κυκλάδες","name_en":"Paros","region_en":"Cyclades"},{"id":"municipalities_b0831f971d7e","slug":"folegandros-b083","kind":"municipality","name":"Φολέγανδρος","lat":36.6167,"lng":24.9167,"aliases":["Φολεγανδρος"],"region":"Κυκλάδες","name_en":"Folegandros","region_en":"Cyclades"},{"id":"municipalities_b456e42c7271","slug":"ormos-b456","kind":"municipality","name":"Όρμος","lat":37.4269,"lng":25.3528,"aliases":["Ορμος","Ornos Beach"],"region":"Κυκλάδες","name_en":"Ornos","region_en":"Cyclades"}],"mentionedGuides":[],"canonicalSlug":"kimolos-927a","enrichment":{"summary_en":"Κίμωλος is a curated neighborhood area in Κυκλάδες. It is connected to 0 nearby Googlementor picks to help travelers build a stronger local route.","summary_el":"Κίμωλος είναι ένα επιλεγμένο σημείο ενδιαφέροντος στην περιοχή Κυκλάδες. Συνδέεται με 0 κοντινές προτάσεις του Googlementor για πιο ολοκληρωμένη εμπειρία.","vibe_tags":["local-neighborhood","base-for-exploring"],"best_for":["first-time visitors","walk-and-explore days","return visitors"],"visit_moments":["late morning walks","sunset exploration"],"practical_note":"0 curated places are within walkable distance from this area center.","nearby_walkable_count":0,"nearby_count_2km":0,"confidence":0.55},"areaContext":null,"intentContexts":[]},"__N_SSG":true}