{"pageProps":{"entity":{"id":"dessertsRestaurants_e43c42b90f2e","slug":"madame-fraise-e43c","kind":"restaurant","name":"Madame Fraise","lat":37.96254401203089,"lng":23.741655782873448,"url":"https://maps.app.goo.gl/Fa8Ak5n35wZADRZJ8?g_st=ipc","address":"Υμηττού 225, Αθήνα 116 32","categoryIds":["desserts"],"categories":["Dessert Shops"]},"sameCategory":[{"id":"dessertsRestaurants_36cfd9004102","slug":"fresh-mail-pagkratioy-36cf","kind":"restaurant","name":"Fresh Mail Παγκρατίου","lat":37.963053181322294,"lng":23.74589240163266,"url":"https://maps.app.goo.gl/umohxobBLijQzZis5?g_st=ipc","address":"Filolaou 124Α, Athina 116 33","categoryIds":["desserts"],"categories":["Dessert Shops"]},{"id":"dessertsRestaurants_e497a22f982a","slug":"mario-luigi-e497","kind":"restaurant","name":"Mario & Luigi","lat":37.96604463058155,"lng":23.746371855606792,"url":"https://maps.app.goo.gl/rjbBWs56GxATknGu9?g_st=ipc","address":"Ευφράνορος 35, Αθήνα 116 35","categoryIds":["desserts","italian"],"categories":["Dessert Shops","Italian Restaurants"],"legacySlugs":["mario-luigi-77b6"]},{"id":"dessertsRestaurants_e6bd44c1950f","slug":"asterisque-the-bakery-e6bd","kind":"restaurant","name":"Asterisque The Bakery","lat":37.966001002034226,"lng":23.735518320337178,"url":"https://maps.app.goo.gl/rDURttsufbmP6fEE6?g_st=ipc","address":"Χαρβούρη 2, Αθήνα 116 36","categoryIds":["desserts"],"categories":["Dessert Shops"]},{"id":"dessertsRestaurants_713ba3364411","slug":"galaktopoleio-stamoy-713b","kind":"restaurant","name":"Γαλακτοπωλείο ΣΤΑΜΟΥ","lat":37.967778119825944,"lng":23.746488114142206,"url":"https://maps.app.goo.gl/PA8d53NRErbRQVzk6?g_st=ipc","address":"Ευτυχίδου 28-30, Αθήνα 116 35","categoryIds":["desserts"],"categories":["Dessert Shops"]},{"id":"dessertsRestaurants_7eaf4eddf047","slug":"loukoumania-pagrati-loykoymades-7eaf","kind":"restaurant","name":"Loukoumania Pagrati - Λουκουμάδες","lat":37.96735501275489,"lng":23.74736088525619,"url":"https://maps.app.goo.gl/T1YQTDedH6uY5vzR7?g_st=ipc","address":"Φρύνης 4, Αθήνα 116 34","categoryIds":["desserts"],"categories":["Dessert Shops"]},{"id":"dessertsRestaurants_055560d21207","slug":"zacharoplasteio-lido-0555","kind":"restaurant","name":"Ζαχαροπλαστείο Lido","lat":37.96582623086202,"lng":23.750235658736546,"url":"https://maps.app.goo.gl/6RDutorGFGKRD3ru9?g_st=ipc","address":"Χρεμωνίδου 35, Αθήνα 116 33","categoryIds":["desserts"],"categories":["Dessert Shops"]},{"id":"coffeeBrunchRestaurants_95dcd35af657","slug":"artopoieio-zacharoplasteio-arto-zymia-95dc","kind":"restaurant","name":"Αρτοποιείο Ζαχαροπλαστείο \"Αρτο..ζυμιά\"","lat":37.96420038301339,"lng":23.731208987347678,"url":"https://maps.app.goo.gl/FBqvEkq9TKnNFmzu9?g_st=ipc","address":"Αγλαονίκης 22, Αθήνα 117 43","categoryIds":["coffee-brunch","desserts"],"categories":["Coffee & Brunch Spots","Dessert Shops"],"legacySlugs":["artopoieio-zacharoplasteio-arto-zymia-afb8"]},{"id":"dessertsRestaurants_0ee58cfa385e","slug":"antonis-selekos-conceptual-desserts-0ee5","kind":"restaurant","name":"Antonis Selekos Conceptual Desserts","lat":37.9704115845213,"lng":23.747853371766638,"url":"https://maps.app.goo.gl/63mGgggS1JuTSJJf6?g_st=ipc","address":"Εριφύλης 2, Αθήνα 116 34","categoryIds":["desserts"],"categories":["Dessert Shops"]},{"id":"dessertsRestaurants_a146fa72ad20","slug":"ohh-boy-a146","kind":"restaurant","name":"Ohh Boy","lat":37.97243442670494,"lng":23.745570951608226,"url":"https://maps.app.goo.gl/6UUhjHiN4qG6gyXg6?g_st=ipc","address":"Αρχελάου 32, Αθήνα 116 35","categoryIds":["desserts","vegetarian"],"categories":["Dessert Shops","Vegetarian Friendly Restaurants"],"legacySlugs":["ohh-boy-1239"]},{"id":"dessertsRestaurants_22239c987b1a","slug":"patisserie-artemis-gelateria-ice-cream-2223","kind":"restaurant","name":"Patisserie Artemis - Gelateria Ice Cream","lat":37.96786547488155,"lng":23.729346783174314,"url":"https://maps.app.goo.gl/dE6muCbG7gwaWz9H8?g_st=ipc","address":"Μακρυγιάννη 33, Αθήνα 117 42","categoryIds":["desserts"],"categories":["Dessert Shops"]},{"id":"dessertsRestaurants_7f61f06e1814","slug":"ice-queen-gelato-7f61","kind":"restaurant","name":"Ice Queen Gelato","lat":37.96875198593791,"lng":23.729719578537868,"url":"https://maps.app.goo.gl/HyCCcJSVYZCw8dMV7?g_st=ipc","address":"Μακρυγιάννη 9, Αθήνα 117 42","categoryIds":["desserts","vegetarian"],"categories":["Dessert Shops","Vegetarian Friendly Restaurants"],"legacySlugs":["ice-queen-gelato-e688"]},{"id":"dessertsRestaurants_2a3970a71069","slug":"django-gelato-athens-2a39","kind":"restaurant","name":"Django Gelato Athens","lat":37.96685228149483,"lng":23.72787408682893,"url":"https://maps.app.goo.gl/uXMPHW7X8YEMKDvp9?g_st=ipc","address":"Βεΐκου 15, Αθήνα 117 42","categoryIds":["desserts"],"categories":["Dessert Shops"]}],"nearby":[{"id":"greekRestaurants_e8a12eb29aae","slug":"eylalia-e8a1","kind":"restaurant","name":"Ευλαλία","lat":37.96221703725563,"lng":23.742138763953527,"url":"https://maps.app.goo.gl/HVpdCimDL2uUQGMfA","address":"Φρύνωνος 10, Αθήνα 116 32","categoryIds":["greek-restaurants"],"categories":["Greek Restaurants"],"distanceKm":0.0558097850482865},{"id":"greekRestaurants_dcfbb404a98b","slug":"to-ypogeio-toy-marathoniti-dcfb","kind":"restaurant","name":"Το Υπόγειο του Μαραθωνίτη","lat":37.96187332155002,"lng":23.74031744806371,"url":"https://maps.app.goo.gl/pp5rzZKvkv6W1fXL7","address":"Βίνκελμαν 3, Αθήνα 116 32","categoryIds":["greek-restaurants"],"categories":["Greek Restaurants"],"distanceKm":0.13902478390428108},{"id":"coffeeBrunchRestaurants_c55d3c25167d","slug":"batard-c55d","kind":"restaurant","name":"Batard","lat":37.963759332679615,"lng":23.742734753718384,"url":"https://maps.app.goo.gl/jWyFQMPwKd4tru356?g_st=ic","address":"Pirronos 23, Athina 116 36","categoryIds":["coffee-brunch"],"categories":["Coffee & Brunch Spots"],"distanceKm":0.16495270827152425},{"id":"cheapEatsRestaurants_a825d27fc97c","slug":"i-pita-toy-karafla-a825","kind":"restaurant","name":"Η ΠΙΤΑ ΤΟΥ ΚΑΡΑΦΛΑ","lat":37.96232693388551,"lng":23.744677303486494,"url":"https://maps.app.goo.gl/sAGKAGj6UyDLWwiq7?g_st=ipc","address":"Φιλολάου 142, Αθήνα 116 32","categoryIds":["cheap-eats"],"categories":["Gyros & Cheap Eats"],"distanceKm":0.26598715803603257},{"id":"luxuryDiningRestaurants_4755b5d98bd2","slug":"spondi-restaurant-4755","kind":"restaurant","name":"Spondi Restaurant","lat":37.96512570220306,"lng":23.743047382502652,"url":"https://maps.app.goo.gl/yjnQQMfc7oBpEhjn7?g_st=ipc","address":"Πύρρωνος 5, Αθήνα 116 36","categoryIds":["luxury-dining"],"categories":["Luxury Dining"],"distanceKm":0.3119177569236735},{"id":"luxuryDiningRestaurants_0c6fd02fb5a6","slug":"ex-machina-0c6f","kind":"restaurant","name":"Ex Machina","lat":37.96479312618342,"lng":23.743989976816355,"url":"https://maps.app.goo.gl/F5z8usANoo63JuD88?g_st=ipc","address":"Εμπεδοκλέους 34, Αθήνα 116 36","categoryIds":["luxury-dining"],"categories":["Luxury Dining"],"distanceKm":0.32313842464743636},{"id":"vegetarianRestaurants_2e588abb0db5","slug":"baba-ghanoush-2e58","kind":"restaurant","name":"Baba Ghanoush","lat":37.96544673051708,"lng":23.74367426912522,"url":"https://maps.app.goo.gl/TVzEkkpCr1SQ2ZUEA?g_st=ipc","address":"Εμπεδοκλέους 25 - 27, Αθήνα 116 35","categoryIds":["vegetarian"],"categories":["Vegetarian Friendly Restaurants"],"distanceKm":0.36809100631121455},{"id":"dessertsRestaurants_36cfd9004102","slug":"fresh-mail-pagkratioy-36cf","kind":"restaurant","name":"Fresh Mail Παγκρατίου","lat":37.963053181322294,"lng":23.74589240163266,"url":"https://maps.app.goo.gl/umohxobBLijQzZis5?g_st=ipc","address":"Filolaou 124Α, Athina 116 33","categoryIds":["desserts"],"categories":["Dessert Shops"],"distanceKm":0.37570311116363625},{"id":"italianRestaurants_eb6dad79ff00","slug":"colibri-eb6d","kind":"restaurant","name":"Colibri","lat":37.96629536354424,"lng":23.742907448127177,"url":"https://maps.app.goo.gl/p6S1BxZ6W3VgwiR46?g_st=ipc","address":"Εμπεδοκλέους 15, Αθήνα 116 35","categoryIds":["italian"],"categories":["Italian Restaurants"],"distanceKm":0.4313219581177614},{"id":"luxuryDiningRestaurants_b24cda2a3b29","slug":"soil-restaurant-b24c","kind":"restaurant","name":"Soil Restaurant","lat":37.96695852322669,"lng":23.743066634939197,"url":"https://maps.app.goo.gl/6F5c77DnjsqmPiiS8?g_st=ipc","address":"Φερεκύδου 5, Αθήνα 116 35","categoryIds":["luxury-dining"],"categories":["Luxury Dining"],"distanceKm":0.5062132650064},{"id":"italianRestaurants_2ca02a129667","slug":"luma-2ca0","kind":"restaurant","name":"Luma","lat":37.967195735298965,"lng":23.74306872996665,"url":"https://maps.app.goo.gl/csSJRksdwNoDcqqE7?g_st=ipc","address":"Φερεκύδου 2, Αθήνα 116 35","categoryIds":["italian"],"categories":["Italian Restaurants"],"distanceKm":0.5318723758550835},{"id":"italianRestaurants_2b0b4658687c","slug":"agave-athens-2b0b","kind":"restaurant","name":"agave athens","lat":37.9657831829776,"lng":23.746184137622457,"url":"https://maps.app.goo.gl/uUSmZ457DPu3bX9J6?g_st=ipc","address":"Ευφράνορος 40, Αθήνα 116 35","categoryIds":["italian"],"categories":["Italian Restaurants"],"distanceKm":0.5360252258450335},{"id":"greekRestaurants_1ce7ef86a93e","slug":"vyrinis-1ce7","kind":"restaurant","name":"ΒΥΡΙΝΗΣ","lat":37.96743484356373,"lng":23.742810422529566,"url":"https://maps.app.goo.gl/1Xuvp6z7zeGEESxk7","address":"Αρχιμήδους 11, Αθήνα 116 35","categoryIds":["greek-restaurants"],"categories":["Greek Restaurants"],"distanceKm":0.5531753037738494},{"id":"asianRestaurants_245947f00892","slug":"one-piece-sushi-noodlebar-2459","kind":"restaurant","name":"One Piece Sushi & NoodleBar","lat":37.95987156768248,"lng":23.736223837796196,"url":"https://maps.app.goo.gl/haanYsUxepJjZsmTA?g_st=ipc","address":"Ilia Iliou 6, Μενεκράτους 39, Αθήνα 116 36","categoryIds":["asian"],"categories":["Asian Restaurants"],"distanceKm":0.5613243899326178},{"id":"dessertsRestaurants_e497a22f982a","slug":"mario-luigi-e497","kind":"restaurant","name":"Mario & Luigi","lat":37.96604463058155,"lng":23.746371855606792,"url":"https://maps.app.goo.gl/rjbBWs56GxATknGu9?g_st=ipc","address":"Ευφράνορος 35, Αθήνα 116 35","categoryIds":["desserts","italian"],"categories":["Dessert Shops","Italian Restaurants"],"legacySlugs":["mario-luigi-77b6"],"distanceKm":0.5678434513306915},{"id":"vegetarianRestaurants_6bddca4a5310","slug":"the-room-mets-6bdd","kind":"restaurant","name":"THE ROOM METS","lat":37.96677955241959,"lng":23.737885963446566,"url":"https://maps.app.goo.gl/stBGTxofrCxpCP4q7?g_st=ipc","address":"Μαρκ. Μουσούρου 22, Αθήνα 116 36","categoryIds":["vegetarian"],"categories":["Vegetarian Friendly Restaurants"],"distanceKm":0.5753530707276963},{"id":"italianRestaurants_858265b3f822","slug":"cosa-nostra-fresca-pasta-pagrati-8582","kind":"restaurant","name":"Cosa Nostra Fresca Pasta Pagrati","lat":37.96783594678004,"lng":23.743332676630974,"url":"https://maps.app.goo.gl/CdMX5E6yxNBbvoYs8?g_st=ipc","address":"Αρχιμήδους 8, Αθήνα 116 35","categoryIds":["italian","vegetarian"],"categories":["Italian Restaurants","Vegetarian Friendly Restaurants"],"legacySlugs":["cosa-nostra-fresca-pasta-pagrati-5ddd"],"distanceKm":0.6065207366103517},{"id":"burgersRestaurants_15242c3b8b89","slug":"mpear-1524","kind":"restaurant","name":"MPEAR","lat":37.96750105563297,"lng":23.744555646756957,"url":"https://maps.app.goo.gl/yKgLKc4LFJhxaawY6","address":"Ευφράνορος 8, Athina 116 35","categoryIds":["burgers"],"categories":["Burger Spots"],"distanceKm":0.6069965233736124},{"id":"coffeeBrunchRestaurants_f1796bb2ea7c","slug":"plegma-coffee-living-f179","kind":"restaurant","name":"Plegma Coffee & Living","lat":37.96746994485961,"lng":23.74467734312101,"url":"https://maps.app.goo.gl/CJbmBuxNwPN6MCH98?g_st=ipc","address":"Plegma Coffee & Living","categoryIds":["coffee-brunch"],"categories":["Coffee & Brunch Spots"],"distanceKm":0.6084251629599828},{"id":"coffeeBrunchRestaurants_baef4762247d","slug":"chelsea-hotel-baef","kind":"restaurant","name":"Chelsea Hotel","lat":37.96781479364914,"lng":23.743723733421092,"url":"https://maps.app.goo.gl/biMezA2mUN6mNc886?g_st=ipc","address":"Αρχιμήδους, Πρόκλου και, Αθήνα 116 35","categoryIds":["coffee-brunch"],"categories":["Coffee & Brunch Spots"],"distanceKm":0.6134811610947162},{"id":"cheapEatsRestaurants_56207a3913eb","slug":"elvis-soyvlakia-5620","kind":"restaurant","name":"Ελβις Σουβλακια","lat":37.96785045064934,"lng":23.7436306831368,"url":"https://maps.app.goo.gl/umPfqHULRVG9njbt5?g_st=ipc","address":"Αρχιμήδους 1-5, Αθήνα 116 35","categoryIds":["cheap-eats"],"categories":["Gyros & Cheap Eats"],"distanceKm":0.6149238325952068},{"id":"burgersRestaurants_2488bfd093b0","slug":"raw-street-burger-2488","kind":"restaurant","name":"RAW Street Burger","lat":37.96608078812892,"lng":23.747084457131937,"url":"https://maps.app.goo.gl/WsNpm6Ti1nzJiYwd7?g_st=ipc","address":"Υμηττού 130, Αθήνα 116 34","categoryIds":["burgers"],"categories":["Burger Spots"],"distanceKm":0.6173734744422661},{"id":"asianRestaurants_38b8b7a5de82","slug":"garum-athens-38b8","kind":"restaurant","name":"Garum Athens","lat":37.96322815000365,"lng":23.734456659008355,"url":"https://maps.app.goo.gl/MU1e8JQujzPUM5ZN6","address":"Kelsou 10, Athina 116 36","categoryIds":["asian","luxury-dining"],"categories":["Asian Restaurants","Luxury Dining"],"legacySlugs":["garum-athens-dc2b"],"distanceKm":0.6356946534942013},{"id":"mustSeeAttractions_3fcc6eb77276","slug":"panathinaiko-stadio-3fcc","kind":"restaurant","name":"Παναθηναϊκό Στάδιο","lat":37.96833218533537,"lng":23.741113035876687,"url":"https://maps.app.goo.gl/EoVCRRTzjoVCkEm18?g_st=ipc","address":"Λεωφ. Βασιλέως Κωνσταντίνου, Αθήνα 116 35","categoryIds":["attractions"],"categories":["Must-See Attractions"],"distanceKm":0.645371769031467}],"sameRegion":[],"mentionedGuides":[],"canonicalSlug":"madame-fraise-e43c","enrichment":{"summary_en":"Madame Fraise is a curated restaurant in Αθήνα 116 32 in the Dessert Shops collection. It is connected to 36 nearby Googlementor picks to help travelers build a stronger local route.","summary_el":"Madame Fraise είναι ένα επιλεγμένο σημείο φαγητού στην περιοχή Αθήνα 116 32 και ανήκει στη συλλογή Dessert Shops. Συνδέεται με 36 κοντινές προτάσεις του Googlementor για πιο ολοκληρωμένη εμπειρία.","vibe_tags":["curated","sweet-stop"],"best_for":["first-time visitors","food lovers"],"visit_moments":["afternoon break","after dinner"],"practical_note":"Address and direct map link are available for easy turn-by-turn access.","nearby_walkable_count":36,"nearby_count_2km":400,"confidence":0.98},"areaContext":{"slug":"pagkrati","name":"Pagkrati","nameEl":"Παγκράτι"},"intentContexts":[{"href":"/desserts/pagkrati","label":"Dessert Shops in Pagkrati","categorySlug":"desserts","categoryName":"Dessert Shops","areaSlug":"pagkrati","areaName":"Pagkrati","areaNameEl":"Παγκράτι"}]},"__N_SSG":true}