{"pageProps":{"entity":{"id":"mustSeeAttractions_4a961e3001a5","slug":"moyseio-mpenaki-ellinikoy-politismoy-benaki-museum-of-greek-culture-4a96","kind":"restaurant","name":"Μουσείο Μπενάκη Ελληνικού Πολιτισμού | Benaki Museum of Greek Culture","lat":37.97595332142378,"lng":23.740446335275582,"url":"https://maps.app.goo.gl/tPkYqHsHmRpbKSaX9?g_st=ipc","address":"Koumpari 1, Athina 106 74","categoryIds":["attractions"],"categories":["Must-See Attractions"]},"sameCategory":[{"id":"mustSeeAttractions_67d5b49dcf96","slug":"votaniko-moyseio-ethnikoy-kipoy-67d5","kind":"restaurant","name":"Βοτανικό Μουσείο Εθνικού Κήπου","lat":37.97408914636613,"lng":23.7389299048779,"url":"https://maps.app.goo.gl/jXVzy7hmkNKGbif26?g_st=ipc","address":"Λεωφ. Βασιλίσσης Σοφίας, Αθήνα 105 57","categoryIds":["attractions"],"categories":["Must-See Attractions"]},{"id":"mustSeeAttractions_7e14ccbc774d","slug":"voyli-ton-ellinon-7e14","kind":"restaurant","name":"Βουλή των Ελλήνων","lat":37.97534017568183,"lng":23.73691601580171,"url":"https://maps.app.goo.gl/unRrdoEdMtGJhBhX8?g_st=ipc","address":"Μέγαρο, Βουλής, Αθήνα 100 21","categoryIds":["attractions"],"categories":["Must-See Attractions"]},{"id":"mustSeeAttractions_4e1c093b1a30","slug":"vyzantino-kai-christianiko-moyseio-4e1c","kind":"restaurant","name":"Βυζαντινό και Χριστιανικό Μουσείο","lat":37.9753760157153,"lng":23.744611863575788,"url":"https://maps.app.goo.gl/jffFuAXc3Vq1DSsD8?g_st=ipc","address":"Λεωφ. Βασιλίσσης Σοφίας 22, Αθήνα 106 75","categoryIds":["attractions"],"categories":["Must-See Attractions"]},{"id":"mustSeeAttractions_40f48472fa4a","slug":"monument-to-the-unknown-soldier-40f4","kind":"restaurant","name":"Monument to the Unknown Soldier","lat":37.97535428174513,"lng":23.736259428820603,"url":"https://maps.app.goo.gl/RRXmkZ72CeNufyB66?g_st=ipc","address":"Leof. Vasilisis Amalias 133, Athina 105 57","categoryIds":["attractions"],"categories":["Must-See Attractions"]},{"id":"familyFriendly_97da3f56afb5","slug":"ethnikos-kipos-97da","kind":"restaurant","name":"Εθνικός Κήπος","lat":37.97258568206085,"lng":23.73743382176546,"url":"https://maps.app.goo.gl/MCnnH77ndto6n5WT8?g_st=ipc","address":"Αθήνα 105 57","categoryIds":["family-friendly","attractions"],"categories":["Kid Friendly Locations","Must-See Attractions"],"legacySlugs":["ethnikos-kipos-9c8c"]},{"id":"mustSeeAttractions_5ecb5990c6e7","slug":"syntagma-square-5ecb","kind":"restaurant","name":"Syntagma Square","lat":37.97554970639471,"lng":23.734713366778323,"url":"https://maps.app.goo.gl/W5joNY37bu7NJ8Hz8?g_st=ipc","address":"Pl. Sintagmatos, Athina 105 63","categoryIds":["attractions"],"categories":["Must-See Attractions"]},{"id":"mustSeeAttractions_a63ab05582ba","slug":"zappeio-megaro-a63a","kind":"restaurant","name":"Ζάππειο Μέγαρο","lat":37.971521700592604,"lng":23.73672254708253,"url":"https://maps.app.goo.gl/Hb78YQFedU1ZBjDY7?g_st=ipc","address":"Λεωφ. Βασιλίσσης Όλγας, Αθήνα 105 57","categoryIds":["attractions"],"categories":["Must-See Attractions"]},{"id":"mustSeeAttractions_4c1bed18d9f3","slug":"academy-of-athens-4c1b","kind":"restaurant","name":"Academy of Athens","lat":37.980052000475574,"lng":23.73401307902472,"url":"https://maps.app.goo.gl/ggPZ2e3QeajFYXJX8?g_st=ipc","address":"Panepistimiou 28, Athina 106 79","categoryIds":["attractions"],"categories":["Must-See Attractions"]},{"id":"monasteriesChurches_caa9124a394d","slug":"ieros-naos-agion-isidoron-lykavittoy-caa9","kind":"restaurant","name":"Ιερός Ναός Αγίων Ισιδώρων Λυκαβηττού","lat":37.982296617522,"lng":23.742795127887568,"url":"https://maps.app.goo.gl/vi4b8bvA5jdYKcqf9?g_st=ipc","address":"Μονοπατι Λυκαβηττου, Αθήνα 114 71","categoryIds":["monasteries-churches","attractions"],"categories":["Monasteries & Spiritual Sites","Must-See Attractions"],"legacySlugs":["ieros-naos-agion-isidoron-lykavittoy-361f"]},{"id":"mustSeeAttractions_ad424ca48b94","slug":"kipoi-zappeioy-ad42","kind":"restaurant","name":"Κήποι Ζαππείου","lat":37.97023042997274,"lng":23.73586719386634,"url":"https://maps.app.goo.gl/5RjMWARRwZPM2Kdw6?g_st=ipc","address":"Λεωφ. Βασιλίσσης Όλγας 1, Αθήνα 105 57","categoryIds":["attractions"],"categories":["Must-See Attractions"]},{"id":"mustSeeAttractions_7df9738c0c83","slug":"romaika-loytra-zappeioy-7df9","kind":"restaurant","name":"Ρωμαϊκά Λουτρά Ζαππείου","lat":37.97157046328902,"lng":23.73377918203135,"url":"https://maps.app.goo.gl/umvyXLD9iKw3FVBTA?g_st=ipc","address":"Λεωφ. Βασιλίσσης Αμαλίας 405, Αθήνα 105 57","categoryIds":["attractions"],"categories":["Must-See Attractions"]},{"id":"mustSeeAttractions_3fcc6eb77276","slug":"panathinaiko-stadio-3fcc","kind":"restaurant","name":"Παναθηναϊκό Στάδιο","lat":37.96833218533537,"lng":23.741113035876687,"url":"https://maps.app.goo.gl/EoVCRRTzjoVCkEm18?g_st=ipc","address":"Λεωφ. Βασιλέως Κωνσταντίνου, Αθήνα 116 35","categoryIds":["attractions"],"categories":["Must-See Attractions"]}],"nearby":[{"id":"luxuryDiningRestaurants_18db80acc872","slug":"drakoulis-dry-raw-kolonaki-18db","kind":"restaurant","name":"Drakoulis Dry & Raw Kolonaki","lat":37.97718005520891,"lng":23.741289591081852,"url":"https://maps.app.goo.gl/LMGwAzhv7RzR34wj6?g_st=ipc","address":"Πλ. Φιλικής Εταιρείας 14, Αθήνα 106 74","categoryIds":["luxury-dining"],"categories":["Luxury Dining"],"distanceKm":0.15514426332132136},{"id":"coffeeBrunchRestaurants_0ab06e0868e5","slug":"me-kolonaki-0ab0","kind":"restaurant","name":"me kolonaki","lat":37.9765612906505,"lng":23.742423758521817,"url":"https://maps.app.goo.gl/LxVhS9ugcHWgEPFa7?g_st=ipc","address":"Καψάλη 10, Αθήνα 106 74","categoryIds":["coffee-brunch"],"categories":["Coffee & Brunch Spots"],"distanceKm":0.1860408362255192},{"id":"coffeeBrunchRestaurants_f6e68f133ff0","slug":"chez-michel-f6e6","kind":"restaurant","name":"Chez Michel","lat":37.976675534882084,"lng":23.742456621704683,"url":"https://maps.app.goo.gl/XTb8dAWevvMWgsTW9?g_st=ic","address":"Irodotou 15, Athina 106 74","categoryIds":["coffee-brunch"],"categories":["Coffee & Brunch Spots"],"distanceKm":0.19364118340024447},{"id":"coffeeBrunchRestaurants_da407c688cb3","slug":"cocona-da40","kind":"restaurant","name":"Cocona","lat":37.977556380518415,"lng":23.739553637845837,"url":"https://maps.app.goo.gl/eL1Nh7NXC2UfRJX69?g_st=ipc","address":"Μηλιώνη 10, Αθήνα 106 73","categoryIds":["coffee-brunch"],"categories":["Coffee & Brunch Spots"],"distanceKm":0.1946693019136603},{"id":"coffeeBrunchRestaurants_32f3744210f1","slug":"ruins-athens-urban-area-32f3","kind":"restaurant","name":"Ruins Athens Urban Area","lat":37.97772096182225,"lng":23.740886798075717,"url":"https://maps.app.goo.gl/m4eWX6HzHjiKpfSEA?g_st=ipc","address":"Τσακάλωφ 4, Αθήνα 106 73","categoryIds":["coffee-brunch"],"categories":["Coffee & Brunch Spots"],"distanceKm":0.20030832412595592},{"id":"dessertsRestaurants_adae00fa679c","slug":"cake-kolonaki-adae","kind":"restaurant","name":"CAKE Kolonaki","lat":37.97679932249832,"lng":23.7424790611418,"url":"https://maps.app.goo.gl/ga6C3Z87HsSYfMGx5?g_st=ipc","address":"Ηροδότου 15, Αθήνα 106 74","categoryIds":["desserts"],"categories":["Dessert Shops"],"distanceKm":0.20147972915846216},{"id":"luxuryDiningRestaurants_10b90e1a8f52","slug":"zano-athens-10b9","kind":"restaurant","name":"Zanó - Athens","lat":37.97774961244962,"lng":23.741221128338456,"url":"https://maps.app.goo.gl/ybfkAt98uRcmLcZLA?g_st=ipc","address":"Παναγιώτου Αναγνωστοπούλου 3, Αθήνα 106 73","categoryIds":["luxury-dining"],"categories":["Luxury Dining"],"distanceKm":0.21096764311129884},{"id":"luxuryDiningRestaurants_2ecaca7a8cdf","slug":"brutus-tavern-2eca","kind":"restaurant","name":"Brutus Tavern","lat":37.9778313193549,"lng":23.741690006593426,"url":"https://maps.app.goo.gl/9gWFrAvvmqBKsy2bA?g_st=ipc","address":"Λεβέντη 3, Αθήνα 106 73","categoryIds":["luxury-dining"],"categories":["Luxury Dining"],"distanceKm":0.23556358832026392},{"id":"mustSeeAttractions_67d5b49dcf96","slug":"votaniko-moyseio-ethnikoy-kipoy-67d5","kind":"restaurant","name":"Βοτανικό Μουσείο Εθνικού Κήπου","lat":37.97408914636613,"lng":23.7389299048779,"url":"https://maps.app.goo.gl/jXVzy7hmkNKGbif26?g_st=ipc","address":"Λεωφ. Βασιλίσσης Σοφίας, Αθήνα 105 57","categoryIds":["attractions"],"categories":["Must-See Attractions"],"distanceKm":0.24624238778472463},{"id":"luxuryDiningRestaurants_e28089becd81","slug":"nido-athens-e280","kind":"restaurant","name":"NiDo Athens","lat":37.977919345579465,"lng":23.741770246682712,"url":"https://maps.app.goo.gl/okbeASGTeSTwszzP7?g_st=ipc","address":"Λεβέντη 5, Αθήνα 106 73","categoryIds":["luxury-dining"],"categories":["Luxury Dining"],"distanceKm":0.24750101051365891},{"id":"municipalities_0cae2c00b932","slug":"kolonaki-0cae","kind":"municipality","name":"Κολωνάκι","lat":37.9769,"lng":23.7436,"aliases":["Kolonaki"],"region":"Κέντρο Αθήνας","name_en":"Kolonaki","region_en":"Athens Center","distanceKm":0.2957868706297282},{"id":"coffeeBrunchRestaurants_218e6a31a50d","slug":"poco-a-poco-218e","kind":"restaurant","name":"Poco a poco","lat":37.977055798633465,"lng":23.743703400457175,"url":"https://maps.app.goo.gl/hkFGzq8fmpCWam4f8?g_st=ipc","address":"Loukianou 13, Athina 106 75","categoryIds":["coffee-brunch"],"categories":["Coffee & Brunch Spots"],"distanceKm":0.3106923233211242},{"id":"mustSeeAttractions_7e14ccbc774d","slug":"voyli-ton-ellinon-7e14","kind":"restaurant","name":"Βουλή των Ελλήνων","lat":37.97534017568183,"lng":23.73691601580171,"url":"https://maps.app.goo.gl/unRrdoEdMtGJhBhX8?g_st=ipc","address":"Μέγαρο, Βουλής, Αθήνα 100 21","categoryIds":["attractions"],"categories":["Must-See Attractions"],"distanceKm":0.31686106179839313},{"id":"italianRestaurants_5bb1f8760120","slug":"brunello-5bb1","kind":"restaurant","name":"Brunello","lat":37.97774328484756,"lng":23.74346729703624,"url":"https://maps.app.goo.gl/71Ffa4D3sz17HHuJ7?g_st=ipc","address":"Λουκιανού 21b, Αθήνα 106 75","categoryIds":["italian"],"categories":["Italian Restaurants"],"distanceKm":0.3312520343043035},{"id":"coffeeBrunchRestaurants_394da04a2026","slug":"it-restaurant-kolonaki-394d","kind":"restaurant","name":"IT restaurant Kolonaki","lat":37.9781134250021,"lng":23.737763201387953,"url":"https://maps.app.goo.gl/5dn3SzH3a8fsGfeW7?g_st=ipc","address":"106 71 Voukourestiou 30 &, Αλ. Σούτσου, Αθήνα 106 71","categoryIds":["coffee-brunch"],"categories":["Coffee & Brunch Spots"],"distanceKm":0.33615596294681005},{"id":"greekRestaurants_b892553ca459","slug":"i-dexameni-paradosiako-kafeneio-b892","kind":"restaurant","name":"Η Δεξαμενή| παραδοσιακό καφενείο","lat":37.97904976951895,"lng":23.7417447741282,"url":"https://maps.app.goo.gl/LtHtTEpZMdDdqe3S8","address":"Πλ. Δεξαμενής, Αθήνα 106 73","categoryIds":["greek-restaurants"],"categories":["Greek Restaurants"],"distanceKm":0.3626308161910248},{"id":"luxuryDiningRestaurants_4207b64cfee5","slug":"ronin-4207","kind":"restaurant","name":"Ronin","lat":37.97868261628751,"lng":23.74283922763361,"url":"https://maps.app.goo.gl/7nmcpWX3r9sBfd248?g_st=ipc","address":"Ξανθίππου 2, Αθήνα 106 75","categoryIds":["luxury-dining"],"categories":["Luxury Dining"],"distanceKm":0.3689063417701833},{"id":"mustSeeAttractions_4e1c093b1a30","slug":"vyzantino-kai-christianiko-moyseio-4e1c","kind":"restaurant","name":"Βυζαντινό και Χριστιανικό Μουσείο","lat":37.9753760157153,"lng":23.744611863575788,"url":"https://maps.app.goo.gl/jffFuAXc3Vq1DSsD8?g_st=ipc","address":"Λεωφ. Βασιλίσσης Σοφίας 22, Αθήνα 106 75","categoryIds":["attractions"],"categories":["Must-See Attractions"],"distanceKm":0.37071651679119805},{"id":"mustSeeAttractions_40f48472fa4a","slug":"monument-to-the-unknown-soldier-40f4","kind":"restaurant","name":"Monument to the Unknown Soldier","lat":37.97535428174513,"lng":23.736259428820603,"url":"https://maps.app.goo.gl/RRXmkZ72CeNufyB66?g_st=ipc","address":"Leof. Vasilisis Amalias 133, Athina 105 57","categoryIds":["attractions"],"categories":["Must-See Attractions"],"distanceKm":0.37298624197012226},{"id":"luxuryDiningRestaurants_dc35227b76dd","slug":"iodio-dc35","kind":"restaurant","name":"Iodio","lat":37.97846718508711,"lng":23.7434152762831,"url":"https://maps.app.goo.gl/xJsngrNWcKcLy6AB6?g_st=ipc","address":"Λουκιανού 36, Αθήνα 106 75","categoryIds":["luxury-dining"],"categories":["Luxury Dining"],"distanceKm":0.38190951159020653},{"id":"luxuryDiningRestaurants_1c82eb719373","slug":"mappemonde-restaurant-bar-lounge-1c82","kind":"restaurant","name":"MAPPEMONDE RESTAURANT BAR-LOUNGE","lat":37.97696364697298,"lng":23.73616989138591,"url":"https://maps.app.goo.gl/WYq3Lbdn3q9HxutG9?g_st=ipc","address":"4 Eleftheriou Venizelou Avenue and, Κριεζώτου 2, Αθήνα 106 71","categoryIds":["luxury-dining","rooftop-lounges"],"categories":["Luxury Dining","Rooftop Lounges"],"legacySlugs":["mappemonde-restaurant-bar-lounge-a1dc"],"distanceKm":0.39130764147008473},{"id":"luxuryDiningRestaurants_d4cce740d47c","slug":"rooftop-terrace-on-top-of-st-george-hotel-d4cc","kind":"restaurant","name":"Rooftop Terrace on top of St. George Hotel","lat":37.97925289319014,"lng":23.74214536289671,"url":"https://maps.app.goo.gl/NWNaSroxE1Lncry6A?g_st=ipc","address":"Αθήνα 106 75","categoryIds":["luxury-dining","rooftop-lounges"],"categories":["Luxury Dining","Rooftop Lounges"],"legacySlugs":["rooftop-terrace-on-top-of-st-george-hotel-9716"],"distanceKm":0.39596626410280156},{"id":"dessertsRestaurants_212bd4b3371e","slug":"desire-zacharoplasteio-212b","kind":"restaurant","name":"DESIRE Ζαχαροπλαστείο","lat":37.97875008220235,"lng":23.737643413526353,"url":"https://maps.app.goo.gl/622nuTbk44qURXdA9?g_st=ipc","address":"Δημοκρίτου 6, Αθήνα 106 71","categoryIds":["desserts"],"categories":["Dessert Shops"],"distanceKm":0.39631879486187604},{"id":"luxuryDiningRestaurants_b803a88d407f","slug":"zurbaran-athens-b803","kind":"restaurant","name":"Zurbaran Athens","lat":37.97801172701077,"lng":23.744349686117033,"url":"https://maps.app.goo.gl/rXKGxv9snP1gaFVh9?g_st=ipc","address":"Πατριάρχου Ιωακείμ 38, Αθήνα 106 75","categoryIds":["luxury-dining"],"categories":["Luxury Dining"],"distanceKm":0.4116319152953604}],"sameRegion":[],"mentionedGuides":[],"canonicalSlug":"moyseio-mpenaki-ellinikoy-politismoy-benaki-museum-of-greek-culture-4a96","enrichment":{"summary_en":"Μουσείο Μπενάκη Ελληνικού Πολιτισμού | Benaki Museum of Greek Culture is a curated restaurant in Athina 106 74 in the Must-See Attractions collection. It is connected to 161 nearby Googlementor picks to help travelers build a stronger local route.","summary_el":"Μουσείο Μπενάκη Ελληνικού Πολιτισμού | Benaki Museum of Greek Culture είναι ένα επιλεγμένο σημείο φαγητού στην περιοχή Athina 106 74 και ανήκει στη συλλογή Must-See Attractions. Συνδέεται με 161 κοντινές προτάσεις του Googlementor για πιο ολοκληρωμένη εμπειρία.","vibe_tags":["curated"],"best_for":["first-time visitors","food lovers"],"visit_moments":["lunch stop","dinner stop"],"practical_note":"Address and direct map link are available for easy turn-by-turn access.","nearby_walkable_count":161,"nearby_count_2km":617,"confidence":0.98},"areaContext":{"slug":"kolonaki","name":"Kolonaki","nameEl":"Κολωνάκι"},"intentContexts":[{"href":"/attractions/kolonaki","label":"Must-See Attractions in Kolonaki","categorySlug":"attractions","categoryName":"Must-See Attractions","areaSlug":"kolonaki","areaName":"Kolonaki","areaNameEl":"Κολωνάκι"}]},"__N_SSG":true}