{"pageProps":{"entity":{"id":"italianRestaurants_0a96069b98fe","slug":"navona-restaurant-bar-0a96","kind":"restaurant","name":"Navona Restaurant Bar","lat":40.617883104732,"lng":22.952114230685524,"url":"https://maps.app.goo.gl/oPmtz2JTaw4nxWtp6","address":"Leof. Meg. Alexandrou 2, Thessaloniki 546 40","categoryIds":["italian"],"categories":["Italian Restaurants"]},"sameCategory":[{"id":"italianRestaurants_7e579a43d1ce","slug":"dos-margaritas-7e57","kind":"restaurant","name":"Dos Margaritas","lat":40.621386723569444,"lng":22.952891023289123,"url":"https://maps.app.goo.gl/XC8KbzgVXxEiYUru8?g_st=ipc","address":"Emiliou Riadi 5, Thessaloniki 546 40","categoryIds":["italian"],"categories":["Italian Restaurants"]},{"id":"italianRestaurants_cb2ae306e209","slug":"signora-trattoria-cb2a","kind":"restaurant","name":"Signora Trattoria","lat":40.63157039493222,"lng":22.94755320492566,"url":"https://maps.app.goo.gl/QzosxSTGJyN4yoBfA?g_st=ipc","address":"P. Mela 38, Paleon Patron Germanou 19, Thessaloniki 546 22","categoryIds":["italian"],"categories":["Italian Restaurants"]},{"id":"italianRestaurants_57f0e6de9174","slug":"trattoria-santa-rita-57f0","kind":"restaurant","name":"Trattoria Santa Rita","lat":40.612086768976745,"lng":22.969846546876834,"url":"https://maps.app.goo.gl/tJ95kQkAp73h9qDi8?g_st=ipc","address":"Malakopis 19, Thessaloniki 544 53","categoryIds":["italian"],"categories":["Italian Restaurants"]},{"id":"italianRestaurants_cb35e3b45188","slug":"margherita-cb35","kind":"restaurant","name":"MARGHERITA","lat":40.631390383048206,"lng":22.94264327325537,"url":"https://maps.app.goo.gl/TiNtp5tDGN6Eji5d9?g_st=ipc","address":"Proxenou Koromila 11, Thessaloniki 546 23","categoryIds":["italian"],"categories":["Italian Restaurants"]},{"id":"italianRestaurants_7c05bdca6535","slug":"apallou-7c05","kind":"restaurant","name":"Apallou","lat":40.6319800622151,"lng":22.942842887749638,"url":"https://maps.app.goo.gl/gJ5jrWEXwAbU6ynW8?g_st=ipc","address":"Μητροπόλεως &, Karolou Ntil 10, Thessaloniki 546 23","categoryIds":["italian"],"categories":["Italian Restaurants"]},{"id":"italianRestaurants_d4a8673af302","slug":"rosticceria-di-salonicco-d4a8","kind":"restaurant","name":"Rosticceria di Salonicco","lat":40.633588139092396,"lng":22.954063296681706,"url":"https://maps.app.goo.gl/WqcXyq1eyTArWEmP6?g_st=ipc","address":"Armenopoulou 27, Thessaloniki 546 35","categoryIds":["italian"],"categories":["Italian Restaurants"]},{"id":"italianRestaurants_d3fb4b2d1274","slug":"osteria-dai-fioi-d3fb","kind":"restaurant","name":"Osteria dai Fioi","lat":40.633770916934814,"lng":22.950440152016508,"url":"https://maps.app.goo.gl/ptx8MrTs166UDsu79?g_st=ipc","address":"Leonida Iasonidou 9, Thessaloniki 546 35","categoryIds":["italian"],"categories":["Italian Restaurants"]},{"id":"cheapEatsRestaurants_284a6ef1dfeb","slug":"the-last-slice-284a","kind":"restaurant","name":"The Last Slice","lat":40.63188753569458,"lng":22.94190837965703,"url":"https://maps.app.goo.gl/iyZQfPWo4E2pskqX8?g_st=ipc","address":"Proxenou Koromila 1, Thessaloniki 546 23","categoryIds":["cheap-eats","italian"],"categories":["Gyros & Cheap Eats","Italian Restaurants"],"legacySlugs":["the-last-slice-2302"]},{"id":"cheapEatsRestaurants_8f3b208739c0","slug":"funky-s-thessaloniki-8f3b","kind":"restaurant","name":"Funky's Thessaloniki","lat":40.615543107651526,"lng":22.974915159309568,"url":"https://maps.app.goo.gl/QNUEoQzqLuXtrpVc7?g_st=ipc","address":"Grigoriou Lampraki 110, Thessaloniki 543 51","categoryIds":["cheap-eats","italian"],"categories":["Gyros & Cheap Eats","Italian Restaurants"],"legacySlugs":["funky-s-thessaloniki-ef2b"]},{"id":"italianRestaurants_60ef8fd1f6df","slug":"high-school-pizza-bar-60ef","kind":"restaurant","name":"High School Pizza Bar","lat":40.63257762535487,"lng":22.939550561883348,"url":"https://maps.app.goo.gl/CkxsQoyZaG8gTuWG9?g_st=ipc","address":"Leof. Nikis 9Α, Thessaloniki 546 24","categoryIds":["italian"],"categories":["Italian Restaurants"]},{"id":"italianRestaurants_e8e93eefa319","slug":"cena-e8e9","kind":"restaurant","name":"Cena","lat":40.63453379937182,"lng":22.938924721124444,"url":"https://maps.app.goo.gl/M6cnfrHcMrMNBhMNA?g_st=ipc","address":"Rogkoti 4, Thessaloniki 546 24","categoryIds":["italian"],"categories":["Italian Restaurants"]},{"id":"italianRestaurants_2946916b6ad2","slug":"pizza-plain-2946","kind":"restaurant","name":"Pizza Plain","lat":40.601547606224,"lng":22.970026389723678,"url":"https://maps.app.goo.gl/gJ7QpRFhLKuDpyFc9?g_st=ipc","address":"Nik. Plastira 2, Thessaloniki 542 50","categoryIds":["italian"],"categories":["Italian Restaurants"]}],"nearby":[{"id":"luxuryDiningRestaurants_be300778d86d","slug":"salonika-restaurant-bar-be30","kind":"restaurant","name":"Salonika Restaurant & Bar","lat":40.618706388830155,"lng":22.951992243395964,"url":"https://maps.app.goo.gl/m2U4xxrF3WyY7WwP7?g_st=ipc","address":"Leof. Meg. Alexandrou 2, Thessaloniki 546 40","categoryIds":["luxury-dining"],"categories":["Luxury Dining"],"distanceKm":0.09212221132254997},{"id":"familyFriendly_7f25af87c856","slug":"bikeit-7f25","kind":"restaurant","name":"BikeIT","lat":40.61873680277816,"lng":22.95194585489908,"url":"https://maps.app.goo.gl/JgmdrRTYY3tBNz6y8?g_st=ic","address":"Leof. Meg. Alexandrou 2, Thessaloniki 546 40","categoryIds":["family-friendly"],"categories":["Kid Friendly Locations"],"distanceKm":0.09598481120688068},{"id":"fishTavernasRestaurants_8c218ee54db9","slug":"trizoni-exclusive-8c21","kind":"restaurant","name":"Trizoni Exclusive","lat":40.6187461914036,"lng":22.951970459036858,"url":"https://maps.app.goo.gl/mWZS1wKdUUfV8Ris7?g_st=ipc","address":"Leof. Meg. Alexandrou 2, Thessaloniki 546 40","categoryIds":["fish-tavernas"],"categories":["Fish Tavernas"],"distanceKm":0.09673500707308916},{"id":"familyFriendly_220ccb0fa158","slug":"road-safety-park-220c","kind":"restaurant","name":"Road Safety Park","lat":40.61702068861312,"lng":22.952313879309372,"url":"https://maps.app.goo.gl/dvUGTVktdMviyjRy9?g_st=ic","address":"Leof. Meg. Alexandrou 6, Thessaloniki 546 41","categoryIds":["family-friendly"],"categories":["Kid Friendly Locations"],"distanceKm":0.09736564080426707},{"id":"coffeeBrunchRestaurants_4980bf5534c8","slug":"avenue-modern-cuisine-4980","kind":"restaurant","name":"AVENUE - Modern Cuisine","lat":40.6155426258885,"lng":22.952060123633387,"url":"https://maps.app.goo.gl/sbWsHkcndnd2Zv547?g_st=ipc","address":"Leof. Meg. Alexandrou 6, Thessaloniki 546 41","categoryIds":["coffee-brunch"],"categories":["Coffee & Brunch Spots"],"distanceKm":0.2602894416540127},{"id":"cheapEatsRestaurants_c679cc68cdf8","slug":"tost-spesial-c679","kind":"restaurant","name":"Tost Spesial","lat":40.616314670176166,"lng":22.955059124656405,"url":"https://maps.app.goo.gl/9AT6QmGaM1pLwsRb9?g_st=ipc","address":"Paraskevopoulou 12, Thessaloniki 546 40","categoryIds":["cheap-eats"],"categories":["Gyros & Cheap Eats"],"distanceKm":0.30364577174267243},{"id":"italianRestaurants_7e579a43d1ce","slug":"dos-margaritas-7e57","kind":"restaurant","name":"Dos Margaritas","lat":40.621386723569444,"lng":22.952891023289123,"url":"https://maps.app.goo.gl/XC8KbzgVXxEiYUru8?g_st=ipc","address":"Emiliou Riadi 5, Thessaloniki 546 40","categoryIds":["italian"],"categories":["Italian Restaurants"],"distanceKm":0.3950629198327905},{"id":"cheapEatsRestaurants_26918358a6af","slug":"pizza-sakis-2691","kind":"restaurant","name":"Pizza Sakis","lat":40.6189040866906,"lng":22.958041870578818,"url":"https://maps.app.goo.gl/taG7ENcMfbyzazQX7?g_st=ipc","address":"Leof. Stratou 26, Thessaloniki 546 40","categoryIds":["cheap-eats"],"categories":["Gyros & Cheap Eats"],"distanceKm":0.5130346286939487},{"id":"cheapEatsRestaurants_fccedeec0967","slug":"to-myrmigki-hot-dog-vrasta-loykanika-fcce","kind":"restaurant","name":"Το Μυρμήγκι - HOT-DOG - Βραστά Λουκάνικα","lat":40.61789526919397,"lng":22.95852389027651,"url":"https://maps.app.goo.gl/u5NXam3TJPXTBEGQ6?g_st=ipc","address":"Konstantinoupoleos 8, Thessaloniki 546 40","categoryIds":["cheap-eats"],"categories":["Gyros & Cheap Eats"],"distanceKm":0.5410059301494611},{"id":"greekRestaurants_3e3bf2271718","slug":"tiganies-schares-meat-restaurant-3e3b","kind":"restaurant","name":"Τηγανιές & Σχάρες Meat Restaurant","lat":40.62182611021091,"lng":22.95622107562596,"url":"https://maps.app.goo.gl/LQSzg3m51jKr2wvR7?g_st=ipc","address":"Λυσιμάχου Καυταντζόγλου 12, Θεσσαλονίκη 546 40","categoryIds":["greek-restaurants"],"categories":["Greek Restaurants"],"distanceKm":0.5589107298084032},{"id":"familyFriendly_70d9d42feecb","slug":"odysseas-fokas-park-70d9","kind":"restaurant","name":"Odysseas Fokas Park","lat":40.612796604966135,"lng":22.95168040124591,"url":"https://maps.app.goo.gl/yMHqMAgG61irWESX9?g_st=ipc","address":"Επιθεωρητού Δημητρίου Μισυρλή 26, Thessaloniki 542 50","categoryIds":["family-friendly"],"categories":["Kid Friendly Locations"],"distanceKm":0.5667771387204025},{"id":"familyFriendly_a5c1b620864c","slug":"pedion-areos-a5c1","kind":"restaurant","name":"Pedion Areos","lat":40.62247582832067,"lng":22.955391871168274,"url":"https://maps.app.goo.gl/hVHTxMywZzbL2Rr26?g_st=ic","address":"Eth. Aminis 28, Thessaloniki 546 21","categoryIds":["family-friendly"],"categories":["Kid Friendly Locations"],"distanceKm":0.5808015775933486},{"id":"coffeeBrunchRestaurants_395eba0202c2","slug":"orange-395e","kind":"restaurant","name":"Orange","lat":40.61657039911688,"lng":22.959405836121938,"url":"https://maps.app.goo.gl/GeBX3Ci17XiZV9go6?g_st=ipc","address":"Konstantinoupoleos 21, Thessaloniki 546 40","categoryIds":["coffee-brunch"],"categories":["Coffee & Brunch Spots"],"distanceKm":0.6325231389131628},{"id":"municipalities_6e0a80514433","slug":"kaytanzogleio-periochi-6e0a","kind":"municipality","name":"Καυτανζόγλειο περιοχή","lat":40.6157,"lng":22.9613,"region":"Θεσσαλονίκη","name_en":"Kaftanzoglio Area","region_en":"Thessaloniki","distanceKm":0.8124464249887904},{"id":"coffeeBrunchRestaurants_3f47d83b09c0","slug":"butterflies-and-hurricanes-3f47","kind":"restaurant","name":"Butterflies And Hurricanes","lat":40.61464844201882,"lng":22.960841697890658,"url":"https://maps.app.goo.gl/Gesp19RwCPBWQ9s58?g_st=ipc","address":"Pindarou 1, Thessaloniki 546 39","categoryIds":["coffee-brunch","vegetarian"],"categories":["Coffee & Brunch Spots","Vegetarian Friendly Restaurants"],"legacySlugs":["butterflies-and-hurricanes-37b6"],"distanceKm":0.8197742148806986},{"id":"municipalities_fe83c68ec29d","slug":"nea-paralia-fe83","kind":"municipality","name":"Νέα Παραλία","lat":40.6108,"lng":22.955,"region":"Θεσσαλονίκη","name_en":"Nea Paralia","region_en":"Thessaloniki","distanceKm":0.8244123560298048},{"id":"greekRestaurants_e19673ba852f","slug":"pire-kai-vradiazei-e196","kind":"restaurant","name":"Πήρε και Βραδιάζει","lat":40.6161654625719,"lng":22.96166588679185,"url":"https://maps.app.goo.gl/Y7iaetGgvQnRv1wAA?g_st=ipc","address":"Ομήρου 7, Θεσσαλονίκη 546 39","categoryIds":["greek-restaurants"],"categories":["Greek Restaurants"],"distanceKm":0.8285278396418463},{"id":"mustSeeAttractions_10253cdb4884","slug":"archaeological-museum-of-thessaloniki-1025","kind":"restaurant","name":"Archaeological Museum of Thessaloniki","lat":40.625561586478966,"lng":22.953718318827413,"url":"https://maps.app.goo.gl/MFq7CxhtGP7Gi8k59?g_st=ipc","address":"Manoli Andronikou 6, Thessaloniki 546 21","categoryIds":["attractions"],"categories":["Must-See Attractions"],"distanceKm":0.8644752371193319},{"id":"dessertsRestaurants_820e5a62f3a9","slug":"babalooka-to-aythentiko-galaktompoyreko-thessalonikis-820e","kind":"restaurant","name":"Babalooka-Το Αυθεντικό Γαλακτομπούρεκο Θεσσαλονίκης","lat":40.62123778051854,"lng":22.962627985179793,"url":"https://maps.app.goo.gl/tnzvbcbCY13DjRZe7?g_st=ipc","address":"Δίπλα στη στροφή Λαμπράκη, Leof. Kon/nou Karamanli 15, Thessaloniki 546 38","categoryIds":["desserts"],"categories":["Dessert Shops"],"distanceKm":0.9626008352234529},{"id":"dessertsRestaurants_e4f66f8adfe3","slug":"nikos-alexoudas-e4f6","kind":"restaurant","name":"Nikos Alexoudas","lat":40.610389059142975,"lng":22.958123238836652,"url":"https://maps.app.goo.gl/ifbqMFmsGqy7oaxA8?g_st=ipc","address":"Makedonias 18, Thessaloniki 546 42","categoryIds":["desserts"],"categories":["Dessert Shops"],"distanceKm":0.9755289063151105},{"id":"greekRestaurants_cc662124d683","slug":"kafe-oyzeri-alekos-cc66","kind":"restaurant","name":"Καφέ Ουζερί Αλέκος","lat":40.6091971451293,"lng":22.955175029539653,"url":"https://maps.app.goo.gl/yo3KzKF59icWfQtFA?g_st=ipc","address":"Kosma tou Εtolou 22, Thessaloniki 546 43","categoryIds":["greek-restaurants"],"categories":["Greek Restaurants"],"distanceKm":0.9997937360998637},{"id":"mustSeeAttractions_43897b8cc3d5","slug":"white-tower-of-thessaloniki-4389","kind":"restaurant","name":"White Tower of Thessaloniki","lat":40.62644387532891,"lng":22.948379384273697,"url":"https://maps.app.goo.gl/Rpx9LHfqRzCfvkCh8?g_st=ipc","address":"Thessaloniki 546 21","categoryIds":["attractions"],"categories":["Must-See Attractions"],"distanceKm":1.0027477167111545},{"id":"coffeeBrunchRestaurants_553ce2fa7675","slug":"plateia-theatroy-kafe-mpar-estiatorio-553c","kind":"restaurant","name":"Πλατεία Θεάτρου, Καφέ / Μπαρ/Εστιατόριο","lat":40.62692292313497,"lng":22.94981349501023,"url":"https://maps.app.goo.gl/bFpP1KB6naw1VbYr7?g_st=ipc","address":"Eth. Aminis 4, Thessaloniki 546 21","categoryIds":["coffee-brunch"],"categories":["Coffee & Brunch Spots"],"distanceKm":1.0237657777668097},{"id":"greekRestaurants_028889ec4c7c","slug":"kafeneion-giasemi-0288","kind":"restaurant","name":"Καφενείον Γιασεμί","lat":40.62700271205112,"lng":22.950250188903894,"url":"https://maps.app.goo.gl/igCkYjicpsFhyKi79?g_st=ipc","address":"Τσόπελα 4, Θεσσαλονίκη 546 21","categoryIds":["greek-restaurants"],"categories":["Greek Restaurants"],"distanceKm":1.0261852279652064}],"sameRegion":[],"mentionedGuides":[],"canonicalSlug":"navona-restaurant-bar-0a96","enrichment":{"summary_en":"Navona Restaurant Bar is a curated restaurant in Thessaloniki 546 40 in the Italian Restaurants collection. It is connected to 13 nearby Googlementor picks to help travelers build a stronger local route.","summary_el":"Navona Restaurant Bar είναι ένα επιλεγμένο σημείο φαγητού στην περιοχή Thessaloniki 546 40 και ανήκει στη συλλογή Italian Restaurants. Συνδέεται με 13 κοντινές προτάσεις του Googlementor για πιο ολοκληρωμένη εμπειρία.","vibe_tags":["curated"],"best_for":["first-time visitors","food lovers"],"visit_moments":["lunch stop","dinner stop"],"practical_note":"Address and direct map link are available for easy turn-by-turn access.","nearby_walkable_count":13,"nearby_count_2km":190,"confidence":0.98},"areaContext":{"slug":"kaytanzogleio-periochi","name":"Kaftanzoglio Area","nameEl":"Καυτανζόγλειο περιοχή"},"intentContexts":[{"href":"/italian/kaytanzogleio-periochi","label":"Italian Restaurants in Kaftanzoglio Area","categorySlug":"italian","categoryName":"Italian Restaurants","areaSlug":"kaytanzogleio-periochi","areaName":"Kaftanzoglio Area","areaNameEl":"Καυτανζόγλειο περιοχή"}]},"__N_SSG":true}