{"pageProps":{"entity":{"id":"coffeeBrunchRestaurants_d846b3398205","slug":"valenio-d846","kind":"restaurant","name":"Valenio","lat":40.63145586275098,"lng":22.945904864010572,"url":"https://maps.app.goo.gl/Haiqh54dCVYmVume9?g_st=ipc","address":"Iktinou 6, Thessaloniki 546 22","categoryIds":["coffee-brunch"],"categories":["Coffee & Brunch Spots"]},"sameCategory":[{"id":"coffeeBrunchRestaurants_59f3ca123c97","slug":"72h-artisanal-bakery-59f3","kind":"restaurant","name":"72H Artisanal Bakery","lat":40.630980814351275,"lng":22.946106919469365,"url":"https://maps.app.goo.gl/xY83zLTaRAhzVGBo8?g_st=ipc","address":"Paleon Patron Germanou 2, Thessaloniki 546 22","categoryIds":["coffee-brunch"],"categories":["Coffee & Brunch Spots"]},{"id":"coffeeBrunchRestaurants_cbf12f48a77e","slug":"mandarini-skg-cbf1","kind":"restaurant","name":"Mandarini_skg","lat":40.63174083169372,"lng":22.946676387172698,"url":"https://maps.app.goo.gl/CEdKb7KcdrPJwXZdA?g_st=ipc","address":"Zefxidos 6, Thessaloniki 546 22","categoryIds":["coffee-brunch"],"categories":["Coffee & Brunch Spots"]},{"id":"coffeeBrunchRestaurants_1b425a72f2b5","slug":"join-juice-bars-1b42","kind":"restaurant","name":"JOIN Juice bars","lat":40.63111893989398,"lng":22.94663938125253,"url":"https://maps.app.goo.gl/N6nKzENHvyunx5Mi6?g_st=ipc","address":"Paleon Patron Germanou 10, Thessaloniki 546 22","categoryIds":["coffee-brunch","vegetarian"],"categories":["Coffee & Brunch Spots","Vegetarian Friendly Restaurants"],"legacySlugs":["join-juice-bars-6dea"]},{"id":"coffeeBrunchRestaurants_f6927d333ac7","slug":"local-thessaloniki-f692","kind":"restaurant","name":"LOCAL Thessaloniki","lat":40.63143794324686,"lng":22.94699527001704,"url":"https://maps.app.goo.gl/RCLyEycZ8dqaLJjT6?g_st=ipc","address":"Paleon Patron Germanou 17, Thessaloniki 546 22","categoryIds":["coffee-brunch"],"categories":["Coffee & Brunch Spots"]},{"id":"coffeeBrunchRestaurants_34a8b22d1957","slug":"cin-cin-34a8","kind":"restaurant","name":"Cin Cin","lat":40.632298193619214,"lng":22.946596687138204,"url":"https://maps.app.goo.gl/n6rxkXLoJv7xWQhy9?g_st=ipc","address":"Iktinou 22, Thessaloniki 546 22","categoryIds":["coffee-brunch"],"categories":["Coffee & Brunch Spots"]},{"id":"coffeeBrunchRestaurants_ad573219eedf","slug":"ergon-agora-ad57","kind":"restaurant","name":"ERGON Agora","lat":40.63187081672803,"lng":22.94735121723834,"url":"https://maps.app.goo.gl/ozYptsUfXEMA3PdNA?g_st=ipc","address":"P. Mela 42, Thessaloniki 546 22","categoryIds":["coffee-brunch"],"categories":["Coffee & Brunch Spots"]},{"id":"coffeeBrunchRestaurants_e317c423742b","slug":"spoon-e317","kind":"restaurant","name":"Spoon","lat":40.631612141451626,"lng":22.94743751548318,"url":"https://maps.app.goo.gl/22Pm73g59e2LeoJQ7?g_st=ipc","address":"P. Mela 38, Thessaloniki 546 22","categoryIds":["coffee-brunch"],"categories":["Coffee & Brunch Spots"]},{"id":"coffeeBrunchRestaurants_9cbeb6df46a2","slug":"mlrt-sourdough-microbakery-9cbe","kind":"restaurant","name":"MLRT Sourdough microbakery","lat":40.630290634546846,"lng":22.946095540648265,"url":"https://maps.app.goo.gl/Q2XyfbaALKZttmXn7?g_st=ipc","address":"Mitropolitou Iosif 15, Thessaloniki 546 22","categoryIds":["coffee-brunch"],"categories":["Coffee & Brunch Spots"]},{"id":"coffeeBrunchRestaurants_8e7fd42757f5","slug":"koukos-8e7f","kind":"restaurant","name":"Koukos","lat":40.6303171719103,"lng":22.944717929555512,"url":"https://maps.app.goo.gl/igjo7pYZywYHB7n77?g_st=ipc","address":"Βογατσικού 10, Thessaloniki 546 22","categoryIds":["coffee-brunch"],"categories":["Coffee & Brunch Spots"]},{"id":"coffeeBrunchRestaurants_ed0ec5618011","slug":"las-ramblas-breakfast-and-coffee-brewers-skg-ed0e","kind":"restaurant","name":"Las Ramblas Breakfast and Coffee Brewers Skg","lat":40.63291948975748,"lng":22.944963559301026,"url":"https://maps.app.goo.gl/mae23zznYmk6BnJ5A?g_st=ipc","address":"Ag. Theodoras 8, Thessaloniki 546 23","categoryIds":["coffee-brunch"],"categories":["Coffee & Brunch Spots"]},{"id":"coffeeBrunchRestaurants_a1cebd140b7f","slug":"fluffy-brunch-a1ce","kind":"restaurant","name":"Fluffy Brunch","lat":40.630856001242115,"lng":22.948097521947723,"url":"https://maps.app.goo.gl/kPU1qrdrjXANCqMt7?g_st=ipc","address":"Pl. Navarinou 10, Thessaloniki 546 22","categoryIds":["coffee-brunch"],"categories":["Coffee & Brunch Spots"]},{"id":"coffeeBrunchRestaurants_24b6a5a5bc93","slug":"brunchsin-24b6","kind":"restaurant","name":"Brunchsin","lat":40.63142362221095,"lng":22.94824040063862,"url":"https://maps.app.goo.gl/oQiMBEdPePBk3uAQ9?g_st=ipc","address":"Paleon Patron Germanou 26, Thessaloniki 546 22","categoryIds":["coffee-brunch"],"categories":["Coffee & Brunch Spots"]}],"nearby":[{"id":"dessertsRestaurants_79ecf778d058","slug":"trigona-elenidis-kentro-79ec","kind":"restaurant","name":"Trigona Elenidis (Κέντρο)","lat":40.631364775002,"lng":22.945577888917885,"url":"https://maps.app.goo.gl/vemhynL6jAV74wkZA?g_st=ipc","address":"Iktinou 1, Thessaloniki 546 22","categoryIds":["desserts"],"categories":["Dessert Shops"],"distanceKm":0.02939281204616014},{"id":"dessertsRestaurants_d0ca7ccef948","slug":"choureal-choux-profiterole-d0ca","kind":"restaurant","name":"Choureál | Choux & Profiterole","lat":40.63128497514692,"lng":22.94642870495605,"url":"https://maps.app.goo.gl/a3ZWXrDCAGuMcPwA6?g_st=ipc","address":"Paleon Patron Germanou 9, Thessaloniki 546 22","categoryIds":["desserts"],"categories":["Dessert Shops"],"distanceKm":0.04811659321183893},{"id":"coffeeBrunchRestaurants_59f3ca123c97","slug":"72h-artisanal-bakery-59f3","kind":"restaurant","name":"72H Artisanal Bakery","lat":40.630980814351275,"lng":22.946106919469365,"url":"https://maps.app.goo.gl/xY83zLTaRAhzVGBo8?g_st=ipc","address":"Paleon Patron Germanou 2, Thessaloniki 546 22","categoryIds":["coffee-brunch"],"categories":["Coffee & Brunch Spots"],"distanceKm":0.055506780247864276},{"id":"burgersRestaurants_9cd59af7183c","slug":"mpiftekadiko-kyr-giorgis-9cd5","kind":"restaurant","name":"Μπιφτεκάδικο Κυρ Γιώργης","lat":40.63182341170209,"lng":22.946558572416308,"url":"https://maps.app.goo.gl/us6tkdjDeYvzDx2u6?g_st=ipc","address":"Zefxidos 4, Thessaloniki 546 22","categoryIds":["burgers"],"categories":["Burger Spots"],"distanceKm":0.06865459911556208},{"id":"coffeeBrunchRestaurants_cbf12f48a77e","slug":"mandarini-skg-cbf1","kind":"restaurant","name":"Mandarini_skg","lat":40.63174083169372,"lng":22.946676387172698,"url":"https://maps.app.goo.gl/CEdKb7KcdrPJwXZdA?g_st=ipc","address":"Zefxidos 6, Thessaloniki 546 22","categoryIds":["coffee-brunch"],"categories":["Coffee & Brunch Spots"],"distanceKm":0.0724082296725056},{"id":"coffeeBrunchRestaurants_1b425a72f2b5","slug":"join-juice-bars-1b42","kind":"restaurant","name":"JOIN Juice bars","lat":40.63111893989398,"lng":22.94663938125253,"url":"https://maps.app.goo.gl/N6nKzENHvyunx5Mi6?g_st=ipc","address":"Paleon Patron Germanou 10, Thessaloniki 546 22","categoryIds":["coffee-brunch","vegetarian"],"categories":["Coffee & Brunch Spots","Vegetarian Friendly Restaurants"],"legacySlugs":["join-juice-bars-6dea"],"distanceKm":0.0724264681212936},{"id":"cheapEatsRestaurants_6c50423bab44","slug":"hot-pot-pasteria-city-center-6c50","kind":"restaurant","name":"Hot Pot Pasteria City Center","lat":40.63116120039778,"lng":22.946781922089382,"url":"https://maps.app.goo.gl/VGaiUJdvDDnid5Kk9?g_st=ipc","address":"Paleon Patron Germanou 12, Thessaloniki 546 22","categoryIds":["cheap-eats"],"categories":["Gyros & Cheap Eats"],"distanceKm":0.08094094255575722},{"id":"asianRestaurants_829415263030","slug":"mongo-asian-food-8294","kind":"restaurant","name":"Mongo Asian Food","lat":40.63082745054034,"lng":22.945340872957278,"url":"https://maps.app.goo.gl/sb6JL78bVoxjZHir9","address":"John Kouskoura 6, Thessaloniki 546 22","categoryIds":["asian"],"categories":["Asian Restaurants"],"distanceKm":0.0845451021371859},{"id":"greekRestaurants_dd92d680950f","slug":"local-thessaloniki-dd92","kind":"restaurant","name":"LOCAL Thessaloniki","lat":40.631447319193505,"lng":22.946995352889463,"url":"https://maps.app.goo.gl/iMk8Tx82t81vQe5y5?g_st=ipc","address":"Παλαιών Πατρών Γερμανού 17, Θεσσαλονίκη 546 22","categoryIds":["greek-restaurants"],"categories":["Greek Restaurants"],"distanceKm":0.09202840534064106},{"id":"coffeeBrunchRestaurants_f6927d333ac7","slug":"local-thessaloniki-f692","kind":"restaurant","name":"LOCAL Thessaloniki","lat":40.63143794324686,"lng":22.94699527001704,"url":"https://maps.app.goo.gl/RCLyEycZ8dqaLJjT6?g_st=ipc","address":"Paleon Patron Germanou 17, Thessaloniki 546 22","categoryIds":["coffee-brunch"],"categories":["Coffee & Brunch Spots"],"distanceKm":0.09203808615003152},{"id":"vegetarianRestaurants_ae93f5705c93","slug":"mushroom-skg-ae93","kind":"restaurant","name":"mushroom skg","lat":40.63168703304935,"lng":22.946978697189547,"url":"https://maps.app.goo.gl/F7WJFJ3rEhib4fX86?g_st=ipc","address":"Zefxidos 10, Thessaloniki 546 22","categoryIds":["vegetarian"],"categories":["Vegetarian Friendly Restaurants"],"distanceKm":0.09419305901619068},{"id":"cheapEatsRestaurants_12c533aae8f8","slug":"derlicatesen-all-souvlaki-12c5","kind":"restaurant","name":"Derlicatesen all Souvlaki","lat":40.630948535574674,"lng":22.944881639476645,"url":"https://maps.app.goo.gl/nooaQmgbY9VX2WGv7?g_st=ipc","address":"John Kouskoura 3, Thessaloniki 546 22","categoryIds":["cheap-eats"],"categories":["Gyros & Cheap Eats"],"distanceKm":0.1031418380202159},{"id":"coffeeBrunchRestaurants_34a8b22d1957","slug":"cin-cin-34a8","kind":"restaurant","name":"Cin Cin","lat":40.632298193619214,"lng":22.946596687138204,"url":"https://maps.app.goo.gl/n6rxkXLoJv7xWQhy9?g_st=ipc","address":"Iktinou 22, Thessaloniki 546 22","categoryIds":["coffee-brunch"],"categories":["Coffee & Brunch Spots"],"distanceKm":0.11036782505039365},{"id":"dessertsRestaurants_9d2a4d7ae9ae","slug":"hatzifotiou-9d2a","kind":"restaurant","name":"Hatzifotiou","lat":40.632118329149435,"lng":22.94703754885986,"url":"https://maps.app.goo.gl/65SPRQQN5mowAwhw8?g_st=ipc","address":"P. Mela 37, Thessaloniki 546 22","categoryIds":["desserts"],"categories":["Dessert Shops"],"distanceKm":0.12067514902296256},{"id":"coffeeBrunchRestaurants_ad573219eedf","slug":"ergon-agora-ad57","kind":"restaurant","name":"ERGON Agora","lat":40.63187081672803,"lng":22.94735121723834,"url":"https://maps.app.goo.gl/ozYptsUfXEMA3PdNA?g_st=ipc","address":"P. Mela 42, Thessaloniki 546 22","categoryIds":["coffee-brunch"],"categories":["Coffee & Brunch Spots"],"distanceKm":0.13048389411713582},{"id":"coffeeBrunchRestaurants_e317c423742b","slug":"spoon-e317","kind":"restaurant","name":"Spoon","lat":40.631612141451626,"lng":22.94743751548318,"url":"https://maps.app.goo.gl/22Pm73g59e2LeoJQ7?g_st=ipc","address":"P. Mela 38, Thessaloniki 546 22","categoryIds":["coffee-brunch"],"categories":["Coffee & Brunch Spots"],"distanceKm":0.13049846306104695},{"id":"coffeeBrunchRestaurants_9cbeb6df46a2","slug":"mlrt-sourdough-microbakery-9cbe","kind":"restaurant","name":"MLRT Sourdough microbakery","lat":40.630290634546846,"lng":22.946095540648265,"url":"https://maps.app.goo.gl/Q2XyfbaALKZttmXn7?g_st=ipc","address":"Mitropolitou Iosif 15, Thessaloniki 546 22","categoryIds":["coffee-brunch"],"categories":["Coffee & Brunch Spots"],"distanceKm":0.13056279366661216},{"id":"dessertsRestaurants_a6a41ba19f78","slug":"exereton-a6a4","kind":"restaurant","name":"Exereton","lat":40.63128878529408,"lng":22.94431478557479,"url":"https://maps.app.goo.gl/gScJKVggjQfTPnLP8?g_st=ipc","address":"Mitropoleos 69, Thessaloniki 546 23","categoryIds":["desserts","vegetarian"],"categories":["Dessert Shops","Vegetarian Friendly Restaurants"],"legacySlugs":["exereton-e657"],"distanceKm":0.1354627236945092},{"id":"greekRestaurants_90c55ea6b27c","slug":"rogkoti-1928-90c5","kind":"restaurant","name":"Ρογκότη 1928","lat":40.63063704521069,"lng":22.947121329539414,"url":"https://maps.app.goo.gl/oYN4BameZGmdPwsE8?g_st=ipc","address":"Grigoriou Palama 8, Thessaloniki 546 22","categoryIds":["greek-restaurants"],"categories":["Greek Restaurants"],"distanceKm":0.13721459433901773},{"id":"italianRestaurants_cb2ae306e209","slug":"signora-trattoria-cb2a","kind":"restaurant","name":"Signora Trattoria","lat":40.63157039493222,"lng":22.94755320492566,"url":"https://maps.app.goo.gl/QzosxSTGJyN4yoBfA?g_st=ipc","address":"P. Mela 38, Paleon Patron Germanou 19, Thessaloniki 546 22","categoryIds":["italian"],"categories":["Italian Restaurants"],"distanceKm":0.1396808330620083},{"id":"dessertsRestaurants_07f7d8449744","slug":"tzeneral-zacharoplasteio-07f7","kind":"restaurant","name":"Tzeneral Ζαχαροπλαστείο","lat":40.631986554661324,"lng":22.94743879678818,"url":"https://maps.app.goo.gl/tBpAuNdF8KmF9aXe6?g_st=ipc","address":"P. Mela 44, Thessaloniki 546 22","categoryIds":["desserts"],"categories":["Dessert Shops"],"distanceKm":0.14226022345739237},{"id":"burgersRestaurants_0c007445e9cc","slug":"balboa-thessaloniki-0c00","kind":"restaurant","name":"Balboa Thessaloniki","lat":40.631911246314864,"lng":22.947511059222414,"url":"https://maps.app.goo.gl/Lys3ApFbCS6C7HCt8","address":"P. Mela 42, Thessaloniki 546 22","categoryIds":["burgers","cheap-eats"],"categories":["Burger Spots","Gyros & Cheap Eats"],"legacySlugs":["balboa-thessaloniki-bd4c"],"distanceKm":0.14469177727811278},{"id":"cheapEatsRestaurants_3e2ba0cbb305","slug":"jackaroo-3e2b","kind":"restaurant","name":"Jackaroo","lat":40.631343527256554,"lng":22.944174715835555,"url":"https://maps.app.goo.gl/cRpaEqK3F7inKXVy5?g_st=ipc","address":"Mitropoleos 67, Thessaloniki 546 22","categoryIds":["cheap-eats"],"categories":["Gyros & Cheap Eats"],"distanceKm":0.14653614859954056},{"id":"dessertsRestaurants_3b2fc988e719","slug":"cookie-man-3b2f","kind":"restaurant","name":"Cookie Man","lat":40.632757475000446,"lng":22.946181479303316,"url":"https://maps.app.goo.gl/WDjY5yJNSF5kSpkeA?g_st=ipc","address":"Makenzi King 8, Thessaloniki 546 22","categoryIds":["desserts"],"categories":["Dessert Shops"],"distanceKm":0.14660295277657043}],"sameRegion":[],"mentionedGuides":[],"canonicalSlug":"valenio-d846","enrichment":{"summary_en":"Valenio is a curated restaurant in Thessaloniki 546 22 in the Coffee & Brunch Spots collection. It is connected to 183 nearby Googlementor picks to help travelers build a stronger local route.","summary_el":"Valenio είναι ένα επιλεγμένο σημείο φαγητού στην περιοχή Thessaloniki 546 22 και ανήκει στη συλλογή Coffee & Brunch Spots. Συνδέεται με 183 κοντινές προτάσεις του Googlementor για πιο ολοκληρωμένη εμπειρία.","vibe_tags":["curated","daytime-favorite"],"best_for":["first-time visitors","food lovers"],"visit_moments":["early morning","late brunch"],"practical_note":"Address and direct map link are available for easy turn-by-turn access.","nearby_walkable_count":183,"nearby_count_2km":265,"confidence":0.98},"areaContext":{"slug":"ladadika","name":"Ladadika","nameEl":"Λαδάδικα"},"intentContexts":[{"href":"/brunch/ladadika","label":"Coffee & Brunch Spots in Ladadika","categorySlug":"brunch","categoryName":"Coffee & Brunch Spots","areaSlug":"ladadika","areaName":"Ladadika","areaNameEl":"Λαδάδικα"}]},"__N_SSG":true}