{"pageProps":{"payload":{"area":{"id":"municipalities_e743acc9b81e","name":"Βαρδάρης","nameEn":"Vardaris","region":"Θεσσαλονίκη","regionEn":"Thessaloniki","lat":40.6447,"lng":22.9381,"urlSlug":"vardaris","aliases":["Βαρδάρης","Vardaris","Βαρδάρης Thessaloniki","Vardaris Thessaloniki","Βαρδαρης","vardaris-e743","vardaris"]},"category":{"id":"coffee-brunch","name":"Coffee & Brunch Spots","urlSlug":"brunch","aliases":["coffee-brunch","Coffee & Brunch Spots","coffee-brunch-spots","coffee-and-brunch","brunch-spots"]},"entities":[{"entity":{"id":"coffeeBrunchRestaurants_9f516ac09de5","slug":"tsitsanki-9f51","kind":"restaurant","name":"Tsitsanki","lat":40.65105910915655,"lng":22.93545214874879,"url":"https://maps.app.goo.gl/fcosc9VFnpPap1qs5?g_st=ipc","address":"Λαγκαδά 116, Neapoli 567 27","categoryIds":["coffee-brunch"],"categories":["Coffee & Brunch Spots"]},"distanceKm":0.7415487654224096},{"entity":{"id":"coffeeBrunchRestaurants_dd910adc2566","slug":"beyond-the-walls-dd91","kind":"restaurant","name":"BEYOND The Walls","lat":40.63839199621431,"lng":22.934457510684794,"url":"https://maps.app.goo.gl/p8QR7tTcw9DAMN2e9?g_st=ipc","address":"Fragkon 2, Thessaloniki 546 26","categoryIds":["coffee-brunch"],"categories":["Coffee & Brunch Spots"]},"distanceKm":0.7657945012057712},{"entity":{"id":"coffeeBrunchRestaurants_fb908cdb56f2","slug":"beetroot-fb90","kind":"restaurant","name":"Beetroot","lat":40.637551412889685,"lng":22.939748987657307,"url":"https://maps.app.goo.gl/v2Xnqi1U2R9tS4bz7?g_st=ipc","address":"Siggrou 8, Thessaloniki 546 25","categoryIds":["coffee-brunch"],"categories":["Coffee & Brunch Spots"]},"distanceKm":0.8069714327088771},{"entity":{"id":"coffeeBrunchRestaurants_cb81e6db9390","slug":"the-caravan-cafe-brunch-cb81","kind":"restaurant","name":"The Caravan Cafe | Brunch","lat":40.637809490842486,"lng":22.9414945910073,"url":"https://maps.app.goo.gl/zZG88R3tqQ4iE2m6A?g_st=ipc","address":"Βαμβακά 3, Thessaloniki 546 31","categoryIds":["coffee-brunch"],"categories":["Coffee & Brunch Spots"]},"distanceKm":0.8179744515415562},{"entity":{"id":"coffeeBrunchRestaurants_1c6ae917ccf8","slug":"romantzo-1c6a","kind":"restaurant","name":"Romantzo","lat":40.637344096207045,"lng":22.93721658740342,"url":"https://maps.app.goo.gl/xTf6UJFe7tcY4vHU7?g_st=ipc","address":"Veroias 2, Thessaloniki 546 25","categoryIds":["coffee-brunch"],"categories":["Coffee & Brunch Spots"]},"distanceKm":0.8213284655765523},{"entity":{"id":"coffeeBrunchRestaurants_ad2114e7ac37","slug":"bannie-ad21","kind":"restaurant","name":"Bannie","lat":40.63708508226566,"lng":22.94022952790158,"url":"https://maps.app.goo.gl/Gn3B2PxeEE5tHcph8?g_st=ipc","address":"Ionos Dragoumi 35, Thessaloniki 546 25","categoryIds":["coffee-brunch"],"categories":["Coffee & Brunch Spots"]},"distanceKm":0.8655945098231465},{"entity":{"id":"coffeeBrunchRestaurants_c5fcdd8f5d50","slug":"slow-kaffe-and-wine-c5fc","kind":"restaurant","name":"Slow Kaffe and Wine","lat":40.63667930749031,"lng":22.937326259309707,"url":"https://maps.app.goo.gl/sudFiDSGGdZvwXaq8?g_st=ipc","address":"Ernestou Emprar 10, Thessaloniki 546 25","categoryIds":["coffee-brunch"],"categories":["Coffee & Brunch Spots"]},"distanceKm":0.894246578029108},{"entity":{"id":"coffeeBrunchRestaurants_fd2a487a0b78","slug":"ypsilon-fd2a","kind":"restaurant","name":"Υpsilon","lat":40.636365825174295,"lng":22.93811663555069,"url":"https://maps.app.goo.gl/7LvTZEdhDkTAMmp78?g_st=ipc","address":"Edessis 5, Thessaloniki 546 25","categoryIds":["coffee-brunch"],"categories":["Coffee & Brunch Spots"]},"distanceKm":0.926719021387634},{"entity":{"id":"coffeeBrunchRestaurants_0052077d62fc","slug":"merenda-coffee-wine-more-0052","kind":"restaurant","name":"Merenda Coffee Wine & More","lat":40.651073348117436,"lng":22.945590441346173,"url":"https://maps.app.goo.gl/AiQwHhGbA2vVd8nH7?g_st=ipc","address":"Flogiton 2, Neapoli 567 28","categoryIds":["coffee-brunch"],"categories":["Coffee & Brunch Spots"]},"distanceKm":0.949518351177041},{"entity":{"id":"coffeeBrunchRestaurants_7c923e1edd56","slug":"mi-me-lismonei-art-cafe-7c92","kind":"restaurant","name":"Mi Me Lismonei Art Café","lat":40.63629409662354,"lng":22.940981395583297,"url":"https://maps.app.goo.gl/Wi79HnpxEWDrQr5A8?g_st=ipc","address":"El. Venizelou 23, Thessaloniki 546 24","categoryIds":["coffee-brunch"],"categories":["Coffee & Brunch Spots"]},"distanceKm":0.9657950553589544},{"entity":{"id":"coffeeBrunchRestaurants_225892e0cbdd","slug":"the-garden-bar-2258","kind":"restaurant","name":"The Garden Bar","lat":40.63514609058183,"lng":22.939331222845976,"url":"https://maps.app.goo.gl/KEZ45GJ89m9DDXvb6?g_st=ipc","address":"Ag. Mina 16, Thessaloniki 546 24","categoryIds":["coffee-brunch"],"categories":["Coffee & Brunch Spots"]},"distanceKm":1.067413683804856},{"entity":{"id":"coffeeBrunchRestaurants_e22044bf3986","slug":"hue-roastery-e220","kind":"restaurant","name":"Hue Roastery","lat":40.63626725764962,"lng":22.94719442659408,"url":"https://maps.app.goo.gl/PGp8KLsttADm6bE79?g_st=ipc","address":"Filippou 38, Thessaloniki 546 31","categoryIds":["coffee-brunch"],"categories":["Coffee & Brunch Spots"]},"distanceKm":1.2116385403487298},{"entity":{"id":"coffeeBrunchRestaurants_c75ff3cb9f5e","slug":"rafiki-outdoors-c75f","kind":"restaurant","name":"Rafiki Outdoors","lat":40.63384593288072,"lng":22.94144670060357,"url":"https://maps.app.goo.gl/EDFEAtyxnASt6ymy5?g_st=ipc","address":"Tsimiski 33, Thessaloniki 546 34","categoryIds":["coffee-brunch"],"categories":["Coffee & Brunch Spots"]},"distanceKm":1.2395124433329048},{"entity":{"id":"coffeeBrunchRestaurants_eb01fc18d144","slug":"mangiare-gastro-pizza-pasta-bar-eb01","kind":"restaurant","name":"Mangiare Gastro Pizza Pasta Bar","lat":40.63353783457787,"lng":22.939678053388604,"url":"https://maps.app.goo.gl/aWDb6qE5HF6MmFreA?g_st=ipc","address":"Mitropoleos 20, Thessaloniki 546 24","categoryIds":["coffee-brunch"],"categories":["Coffee & Brunch Spots"]},"distanceKm":1.2482979860621488},{"entity":{"id":"coffeeBrunchRestaurants_7800a97fe907","slug":"limani-maritime-museum-and-restaurant-7800","kind":"restaurant","name":"Limani Maritime Museum and Restaurant","lat":40.63343048206997,"lng":22.936992932592755,"url":"https://maps.app.goo.gl/GT8Fja523tketn1A7?g_st=ipc","address":"Leof. Nikis, Thessaloniki 546 25","categoryIds":["coffee-brunch"],"categories":["Coffee & Brunch Spots"]},"distanceKm":1.2565900357318673},{"entity":{"id":"coffeeBrunchRestaurants_cd9a9f29e65b","slug":"hush-coffee-brunch-cd9a","kind":"restaurant","name":"Hush - Coffee & Brunch","lat":40.63288475409842,"lng":22.935484500094518,"url":"https://maps.app.goo.gl/doQVeKrJ5inGtSEq9?g_st=ipc","address":"First pier, Thessaloniki 546 25","categoryIds":["coffee-brunch"],"categories":["Coffee & Brunch Spots"]},"distanceKm":1.3322022518881935},{"entity":{"id":"coffeeBrunchRestaurants_92ee7041cad1","slug":"hush-coffee-brunch-92ee","kind":"restaurant","name":"Hush - Coffee & Brunch","lat":40.63288453550874,"lng":22.935483076967117,"url":"https://maps.app.goo.gl/BHbV75bnMGdxWnv68?g_st=ipc","address":"First pier, Thessaloniki 546 25","categoryIds":["coffee-brunch"],"categories":["Coffee & Brunch Spots"]},"distanceKm":1.3322461195203148},{"entity":{"id":"coffeeBrunchRestaurants_c803c29789d7","slug":"peach-boy-c803","kind":"restaurant","name":"Peach Boy","lat":40.633714458831285,"lng":22.944751777282193,"url":"https://maps.app.goo.gl/7wXxWHC7mrvUfoqf8?g_st=ipc","address":"Ermou 44, Thessaloniki 546 23","categoryIds":["coffee-brunch"],"categories":["Coffee & Brunch Spots"]},"distanceKm":1.3443083894846801},{"entity":{"id":"coffeeBrunchRestaurants_5e2abc98be89","slug":"ayli-open-air-coffee-bar-5e2a","kind":"restaurant","name":"Αυλή Open Air Coffee Bar","lat":40.65671676420057,"lng":22.939866059031072,"url":"https://maps.app.goo.gl/awEDoCCaNWaCXmC17?g_st=ipc","address":"Πάρκο, Davaki, Neapoli 567 27","categoryIds":["coffee-brunch"],"categories":["Coffee & Brunch Spots"]},"distanceKm":1.3444839461161782},{"entity":{"id":"coffeeBrunchRestaurants_3e6cfb10198f","slug":"shed-3e6c","kind":"restaurant","name":"shed","lat":40.63516182787635,"lng":22.9483681936243,"url":"https://maps.app.goo.gl/bczd7kAPu1ihwt9fA?g_st=ipc","address":"Patriarchoi Dionisii E 11, Thessaloniki 546 35","categoryIds":["coffee-brunch"],"categories":["Coffee & Brunch Spots"]},"distanceKm":1.369491339804495},{"entity":{"id":"coffeeBrunchRestaurants_3daa295f084c","slug":"olympion-cafe-bar-1951-3daa","kind":"restaurant","name":"Olympion Cafe Bar 1951","lat":40.632694674088896,"lng":22.941732044946015,"url":"https://maps.app.goo.gl/jjCCeEkXCKm7ow7v6?g_st=ipc","address":"Aristotelous Sq 10, Thessaloniki 546 23","categoryIds":["coffee-brunch"],"categories":["Coffee & Brunch Spots"]},"distanceKm":1.369657902756267},{"entity":{"id":"coffeeBrunchRestaurants_bb53d56df5ab","slug":"candybar-bb53","kind":"restaurant","name":"Candybar","lat":40.63307970052453,"lng":22.944591933924332,"url":"https://maps.app.goo.gl/Qxj6VN1pGyEntd7A9?g_st=ipc","address":"Ag. Theodoras 4, Thessaloniki 546 23","categoryIds":["coffee-brunch"],"categories":["Coffee & Brunch Spots"]},"distanceKm":1.4034345986305234},{"entity":{"id":"coffeeBrunchRestaurants_9b9341bfba14","slug":"join-juice-bars-9b93","kind":"restaurant","name":"JOIN juice bars","lat":40.646571727400875,"lng":22.92141339579847,"url":"https://maps.app.goo.gl/pSgB53k7vyQwHX78A?g_st=ipc","address":"Giannitson 61, Thessaloniki 546 27","categoryIds":["coffee-brunch"],"categories":["Coffee & Brunch Spots"]},"distanceKm":1.4231406274672602},{"entity":{"id":"coffeeBrunchRestaurants_431b964731b7","slug":"kitchen-bar-431b","kind":"restaurant","name":"Kitchen Bar","lat":40.632030588138356,"lng":22.935513540083463,"url":"https://maps.app.goo.gl/knBD4VWoUZYBGGow7?g_st=ipc","address":"Αποθήκη Β2 Α' Προβλήτα Λιμένα, Thessaloniki 541 10","categoryIds":["coffee-brunch"],"categories":["Coffee & Brunch Spots"]},"distanceKm":1.4255787083361442},{"entity":{"id":"coffeeBrunchRestaurants_1ba6faa5ef16","slug":"naked-1ba6","kind":"restaurant","name":"NAKED","lat":40.6351156138034,"lng":22.949358819047884,"url":"https://maps.app.goo.gl/tVt4qfxaTjfyP7oG8?g_st=ipc","address":"Filippou 62, Thessaloniki 546 35","categoryIds":["coffee-brunch"],"categories":["Coffee & Brunch Spots"]},"distanceKm":1.427675388862155},{"entity":{"id":"coffeeBrunchRestaurants_b487090aef38","slug":"moonkiz-cafe-b487","kind":"restaurant","name":"Moonkiz Café","lat":40.63268245780202,"lng":22.944199601012993,"url":"https://maps.app.goo.gl/34HUt3Zqr1wPaAQUA?g_st=ipc","address":"Geor. Stavrou 8, Thessaloniki 546 23","categoryIds":["coffee-brunch"],"categories":["Coffee & Brunch Spots"]},"distanceKm":1.4319773339729682},{"entity":{"id":"coffeeBrunchRestaurants_ed0ec5618011","slug":"las-ramblas-breakfast-and-coffee-brewers-skg-ed0e","kind":"restaurant","name":"Las Ramblas Breakfast and Coffee Brewers Skg","lat":40.63291948975748,"lng":22.944963559301026,"url":"https://maps.app.goo.gl/mae23zznYmk6BnJ5A?g_st=ipc","address":"Ag. Theodoras 8, Thessaloniki 546 23","categoryIds":["coffee-brunch"],"categories":["Coffee & Brunch Spots"]},"distanceKm":1.4322431867850385},{"entity":{"id":"coffeeBrunchRestaurants_5c966e24d1c8","slug":"pantheon-bar-5c96","kind":"restaurant","name":"Pantheon Bar","lat":40.631470349652666,"lng":22.942304739075517,"url":"https://maps.app.goo.gl/9EzJNfobuDEBDMXt9?g_st=ipc","address":"Proxenou Koromila 8, Thessaloniki 546 23","categoryIds":["coffee-brunch"],"categories":["Coffee & Brunch Spots"]},"distanceKm":1.5132495077714119},{"entity":{"id":"coffeeBrunchRestaurants_964653005e5d","slug":"maharaja-skg-heaven-of-shisha-9646","kind":"restaurant","name":"MAHARAJA SKG - Heaven of Shisha","lat":40.658033849704225,"lng":22.941967646222036,"url":"https://maps.app.goo.gl/Ct3Z2v1aCBYrtE5k9?g_st=ipc","address":"Agnostou Stratiotou 36, Polichni 565 33","categoryIds":["coffee-brunch"],"categories":["Coffee & Brunch Spots"]},"distanceKm":1.5181339955801083},{"entity":{"id":"coffeeBrunchRestaurants_7d9521648c08","slug":"gellissimo-biscoto-brunch-coffee-thessaloniki-7d95","kind":"restaurant","name":"Gellissimo Biscoto | Brunch • Coffee | Thessaloniki","lat":40.63140115464137,"lng":22.942410197737622,"url":"https://maps.app.goo.gl/wcnUMwvELMBCafND6?g_st=ipc","address":"Proxenou Koromila 8, Thessaloniki 546 23","categoryIds":["coffee-brunch"],"categories":["Coffee & Brunch Spots"]},"distanceKm":1.5228309287073267}],"counts":{"totalEntities":4118,"totalInArea":335,"totalInCategory":506,"totalCategoryArea":62},"relatedCategories":[{"categoryId":"cheap-eats","categorySlug":"cheap-eats","categoryName":"Gyros & Cheap Eats","count":73,"passesThreshold":true},{"categoryId":"greek-restaurants","categorySlug":"greek-restaurants","categoryName":"Greek Restaurants","count":48,"passesThreshold":true},{"categoryId":"desserts","categorySlug":"desserts","categoryName":"Dessert Shops","count":38,"passesThreshold":true},{"categoryId":"burgers","categorySlug":"burgers","categoryName":"Burger Spots","count":23,"passesThreshold":true},{"categoryId":"fish-tavernas","categorySlug":"fish-tavernas","categoryName":"Fish Tavernas","count":18,"passesThreshold":true},{"categoryId":"italian","categorySlug":"italian","categoryName":"Italian Restaurants","count":17,"passesThreshold":true},{"categoryId":"vegetarian","categorySlug":"vegetarian","categoryName":"Vegetarian Friendly Restaurants","count":13,"passesThreshold":true},{"categoryId":"asian","categorySlug":"asian-restaurants","categoryName":"Asian Restaurants","count":12,"passesThreshold":true},{"categoryId":"luxury-dining","categorySlug":"luxury-dining","categoryName":"Luxury Dining","count":10,"passesThreshold":true},{"categoryId":"attractions","categorySlug":"attractions","categoryName":"Must-See Attractions","count":9,"passesThreshold":true}],"relatedAreas":[{"areaId":"municipalities_5bc013791cf8","areaName":"Πλάκα","areaSlug":"plaka","count":142,"nearestDistanceKm":0.1263629446508417},{"areaId":"municipalities_b85b54408d92","areaName":"Θησείο","areaSlug":"thiseio","count":137,"nearestDistanceKm":0.13190824216712424},{"areaId":"municipalities_877c3bc81df5","areaName":"Σύνταγμα","areaSlug":"syntagma","count":136,"nearestDistanceKm":0.16065593503940825},{"areaId":"municipalities_4149fa79e27b","areaName":"Ακρόπολη","areaSlug":"akropoli","count":136,"nearestDistanceKm":0.27692773736814036},{"areaId":"municipalities_d7e1aaaed4f9","areaName":"Μοναστηράκι","areaSlug":"monastiraki","count":135,"nearestDistanceKm":0.05173092611255523},{"areaId":"municipalities_616efd2a0d9b","areaName":"Κουκάκι","areaSlug":"koykaki","count":135,"nearestDistanceKm":0.07224190875382393},{"areaId":"municipalities_2bcfcb8b899f","areaName":"Ψυρρή","areaSlug":"psyrri","count":135,"nearestDistanceKm":0.1010137281247451},{"areaId":"municipalities_0fd1d03201a0","areaName":"Μετς","areaSlug":"mets","count":134,"nearestDistanceKm":0.12687781171574306},{"areaId":"municipalities_0cae2c00b932","areaName":"Κολωνάκι","areaSlug":"kolonaki","count":133,"nearestDistanceKm":0.019551496670837543},{"areaId":"municipalities_0eb5ad956816","areaName":"Νέος Κόσμος","areaSlug":"neos-kosmos","count":132,"nearestDistanceKm":0.5340714379438}],"passesThreshold":true}},"__N_SSG":true}