{"pageProps":{"entity":{"id":"cheapEatsRestaurants_91979e529e27","slug":"aganaktisi-9197","kind":"restaurant","name":"Αγανάκτηση","lat":37.978045238767244,"lng":23.651711441065746,"url":"https://maps.app.goo.gl/eNiYkaAyndviywoc9?g_st=ipc","address":"Σερρών 44 &, Ταξιαρχών, Κορυδαλλός 181 20","categoryIds":["cheap-eats"],"categories":["Gyros & Cheap Eats"]},"sameCategory":[{"id":"cheapEatsRestaurants_e6d18e573896","slug":"to-kochyli-afoi-rekka-e6d1","kind":"restaurant","name":"ΤΟ ΚΟΧΥΛΙ (Αφοί Ρέκκα)","lat":37.97958803504725,"lng":23.650262049500654,"url":"https://maps.app.goo.gl/dW3a2SovSeGnxXCRA?g_st=ipc","address":"Κορυδαλλός 181 20","categoryIds":["cheap-eats"],"categories":["Gyros & Cheap Eats"]},{"id":"cheapEatsRestaurants_1416b33a5bdb","slug":"dealers-real-street-food-1416","kind":"restaurant","name":"Dealers Real Street Food","lat":37.97630275309409,"lng":23.649623466165345,"url":"https://maps.app.goo.gl/6hPX1uNfh9QEYJND7?g_st=ipc","address":"Ταξιαρχών 18, Κορυδαλλός 181 20","categoryIds":["cheap-eats"],"categories":["Gyros & Cheap Eats"]},{"id":"cheapEatsRestaurants_0e387e0faffb","slug":"panagiotis-apo-to-1970-0e38","kind":"restaurant","name":"ΠΑΝΑΓΙΩΤΗΣ από το 1970","lat":37.979572870802095,"lng":23.658766060140504,"url":"https://maps.app.goo.gl/cGoUBmVXHRpFeeeR6?g_st=ipc","address":"Γρ. Λαμπράκη 104, Κορυδαλλός 181 21","categoryIds":["cheap-eats"],"categories":["Gyros & Cheap Eats"]},{"id":"cheapEatsRestaurants_3d78bb5a465c","slug":"makis-psitopoleio-soyvlatzidiko-3d78","kind":"restaurant","name":"\"Μάκης\" Ψητοπωλείο-Σουβλατζίδικο","lat":37.97402598918491,"lng":23.643093504500488,"url":"https://maps.app.goo.gl/43quDvAwPQhkbk6t5?g_st=ipc","address":"Π. Τσαλδάρη 262, Νίκαια 184 53","categoryIds":["cheap-eats"],"categories":["Gyros & Cheap Eats"]},{"id":"cheapEatsRestaurants_194354552c25","slug":"toy-savvidi-1943","kind":"restaurant","name":"Του... Σαββίδη","lat":37.98532436234628,"lng":23.65728485284073,"url":"https://maps.app.goo.gl/NoNkrUm2DjN83eAw7?g_st=ipc","address":"Λεωφ. Ελ. Βενιζέλου 158, Αγ. Βαρβάρα 123 51","categoryIds":["cheap-eats"],"categories":["Gyros & Cheap Eats"]},{"id":"cheapEatsRestaurants_93e5a087f2a2","slug":"soyvlakia-o-mpilis-93e5","kind":"restaurant","name":"Σουβλάκια \"ο ΜΠΙΛΗΣ\"","lat":37.97112327966262,"lng":23.64443348855245,"url":"https://maps.app.goo.gl/pWZio4wYos7hfNkq6?g_st=ipc","address":"Προύσης 22, Νίκαια 184 53","categoryIds":["cheap-eats"],"categories":["Gyros & Cheap Eats"]},{"id":"cheapEatsRestaurants_5adc759d28ee","slug":"soyvlatzidiko-makedonas-5adc","kind":"restaurant","name":"ΣΟΥΒΛΑΤΖΙΔΙΚΟ ΜΑΚΕΔΟΝΑΣ","lat":37.98418614658137,"lng":23.66055565137486,"url":"https://maps.app.goo.gl/GywP2se78BN7JkRc8?g_st=ipc","address":"Γ. Γεννηματα 52, Αγ. Βαρβάρα 123 51","categoryIds":["cheap-eats"],"categories":["Gyros & Cheap Eats"]},{"id":"cheapEatsRestaurants_9166d63b45f7","slug":"enty-9166","kind":"restaurant","name":"ΕΝΤΥ","lat":37.96700050503918,"lng":23.65031239624474,"url":"https://maps.app.goo.gl/TJbtwJ75EUsRPcRt8?g_st=ipc","address":"Δημ. Καρακουλουξή 4, Νίκαια 184 54","categoryIds":["cheap-eats"],"categories":["Gyros & Cheap Eats"]}],"nearby":[{"id":"cheapEatsRestaurants_e6d18e573896","slug":"to-kochyli-afoi-rekka-e6d1","kind":"restaurant","name":"ΤΟ ΚΟΧΥΛΙ (Αφοί Ρέκκα)","lat":37.97958803504725,"lng":23.650262049500654,"url":"https://maps.app.goo.gl/dW3a2SovSeGnxXCRA?g_st=ipc","address":"Κορυδαλλός 181 20","categoryIds":["cheap-eats"],"categories":["Gyros & Cheap Eats"],"distanceKm":0.21346671535321396},{"id":"cheapEatsRestaurants_1416b33a5bdb","slug":"dealers-real-street-food-1416","kind":"restaurant","name":"Dealers Real Street Food","lat":37.97630275309409,"lng":23.649623466165345,"url":"https://maps.app.goo.gl/6hPX1uNfh9QEYJND7?g_st=ipc","address":"Ταξιαρχών 18, Κορυδαλλός 181 20","categoryIds":["cheap-eats"],"categories":["Gyros & Cheap Eats"],"distanceKm":0.26652259693187025},{"id":"burgersRestaurants_c5b9db65b8f8","slug":"ala-burger-c5b9","kind":"restaurant","name":"Ala Burger","lat":37.976136624110225,"lng":23.64953319647224,"url":"https://maps.app.goo.gl/magEHZdr4AeKTeT69?g_st=ipc","address":"Ταξιαρχών 14, Κορυδαλλός 181 20","categoryIds":["burgers"],"categories":["Burger Spots"],"distanceKm":0.28546911893898463},{"id":"dessertsRestaurants_fc8742eefd51","slug":"loukoumothers-korydallos-fc87","kind":"restaurant","name":"Loukoumothers Korydallos","lat":37.97603620585146,"lng":23.64943855450405,"url":"https://maps.app.goo.gl/vMqPzYGSApLyRm1NA?g_st=ipc","address":"Ταξιαρχών &, Καψάλη 12, Κορυδαλλός 181 20","categoryIds":["desserts"],"categories":["Dessert Shops"],"distanceKm":0.29932125645484847},{"id":"asianRestaurants_50f99f81698e","slug":"shisan-sushi-bar-50f9","kind":"restaurant","name":"Shisan Sushi Bar","lat":37.975094554437,"lng":23.656036676629217,"url":"https://maps.app.goo.gl/76f6tSxZ2NXCApc48?g_st=ipc","address":"Πλ. Παγκόσμιας Ειρήνης 4, Κορυδαλλός 181 20","categoryIds":["asian"],"categories":["Asian Restaurants"],"distanceKm":0.5013730799488426},{"id":"dessertsRestaurants_3dbefba5d853","slug":"galaktopoleio-stamoy-3dbe","kind":"restaurant","name":"Γαλακτοπωλείο ΣΤΑΜΟΥ","lat":37.98009558422181,"lng":23.657555522495652,"url":"https://maps.app.goo.gl/39ZNM4A7nfLV7BTBA?g_st=ipc","address":"Γρ. Λαμπράκη 120, Κορυδαλλός 181 21","categoryIds":["desserts"],"categories":["Dessert Shops"],"distanceKm":0.5606681368444839},{"id":"greekRestaurants_71ccb1aa4b83","slug":"taverna-o-vasilis-71cc","kind":"restaurant","name":"Ταβέρνα Ο Βασίλης","lat":37.983639078803165,"lng":23.65172200450781,"url":"https://maps.app.goo.gl/P3D4J5ff2iNtoGc99","address":"Κολοκοτρώνη 160, Κορυδαλλός 181 21","categoryIds":["greek-restaurants"],"categories":["Greek Restaurants"],"distanceKm":0.6220073214992573},{"id":"cheapEatsRestaurants_0e387e0faffb","slug":"panagiotis-apo-to-1970-0e38","kind":"restaurant","name":"ΠΑΝΑΓΙΩΤΗΣ από το 1970","lat":37.979572870802095,"lng":23.658766060140504,"url":"https://maps.app.goo.gl/cGoUBmVXHRpFeeeR6?g_st=ipc","address":"Γρ. Λαμπράκη 104, Κορυδαλλός 181 21","categoryIds":["cheap-eats"],"categories":["Gyros & Cheap Eats"],"distanceKm":0.6412321823848812}],"sameRegion":[],"mentionedGuides":[],"canonicalSlug":"aganaktisi-9197","isCanonicalEntity":true,"enrichment":{"summary_en":"Αγανάκτηση is a curated restaurant in Κορυδαλλός 181 20 in the Gyros & Cheap Eats collection. It is connected to 9 nearby Googlementor picks to help travelers build a stronger local route.","summary_el":"Αγανάκτηση είναι ένα επιλεγμένο σημείο φαγητού στην περιοχή Κορυδαλλός 181 20 και ανήκει στη συλλογή Gyros & Cheap Eats. Συνδέεται με 9 κοντινές προτάσεις του Googlementor για πιο ολοκληρωμένη εμπειρία.","vibe_tags":["curated","budget-friendly"],"best_for":["first-time visitors","food lovers","budget travelers"],"visit_moments":["lunch stop","dinner stop"],"practical_note":"Address and direct map link are available for easy turn-by-turn access.","nearby_walkable_count":9,"nearby_count_2km":27,"confidence":0.98}},"__N_SSG":true}