{"pageProps":{"entity":{"id":"mexicanRestaurants_e022afb77fe2","slug":"amigos-e022","kind":"restaurant","name":"Amigos","lat":37.94499454255761,"lng":23.71221746209658,"url":"https://maps.app.goo.gl/BHdiVv9h7dD8bkiu6?g_st=ipc","address":"Μεγ. Αλεξάνδρου 70, Νέα Σμύρνη 171 22","categoryIds":["mexican","vegetarian"],"categories":["Mexican Restaurants","Vegetarian Friendly Restaurants"],"legacySlugs":["amigos-83a2"]},"sameCategory":[{"id":"vegetarianRestaurants_de7324c496a6","slug":"fakafel-de73","kind":"restaurant","name":"Φakafel","lat":37.945977379116876,"lng":23.71063148252821,"url":"https://maps.app.goo.gl/r5AXr2ToKxBqZpAv9?g_st=ipc","address":"Φakafel","categoryIds":["vegetarian"],"categories":["Vegetarian Friendly Restaurants"]},{"id":"mexicanRestaurants_e73bac78f16d","slug":"pueblo-chido-nea-smyrni-e73b","kind":"restaurant","name":"Pueblo Chido, Nea Smyrni","lat":37.94714091435742,"lng":23.714986542388107,"url":"https://maps.app.goo.gl/MWC6uaDUm2HJ8Ved9?g_st=ipc","address":"Pueblo Chido, Nea Smyrni","categoryIds":["mexican"],"categories":["Mexican Restaurants"]},{"id":"mexicanRestaurants_ec31cb806a86","slug":"dos-banditos-ec31","kind":"restaurant","name":"Dos Banditos","lat":37.957023186399105,"lng":23.71172894880883,"url":"https://maps.app.goo.gl/A9S8uhRtFHyQhuDh6?g_st=ipc","address":"Δημοσθένους 31, Καλλιθέα 176 71","categoryIds":["mexican"],"categories":["Mexican Restaurants"]},{"id":"vegetarianRestaurants_06ce84bd30cd","slug":"mother-vegan-bistro-06ce","kind":"restaurant","name":"Mother Vegan Bistro","lat":37.962693218314804,"lng":23.721538252984118,"url":"https://maps.app.goo.gl/TZgz9fcY4M4aZZQD6?g_st=ipc","address":"Δημητρακοπούλου, Αγίου Νικολάου 95, Αθήνα 117 41","categoryIds":["vegetarian"],"categories":["Vegetarian Friendly Restaurants"]},{"id":"vegetarianRestaurants_74f8ca9bcb55","slug":"dinette-dafni-74f8","kind":"restaurant","name":"Dinette Dafni","lat":37.949260684351316,"lng":23.73612865746863,"url":"https://maps.app.goo.gl/kkxVViHsfrAhDtz38?g_st=ipc","address":"Μιχαήλ Καραολή 1-3, Αθήνα 172 35","categoryIds":["vegetarian"],"categories":["Vegetarian Friendly Restaurants"]},{"id":"mexicanRestaurants_b734434ef46c","slug":"el-burro-tacos-y-tequila-b734","kind":"restaurant","name":"El burro tacos y tequila","lat":37.962922862445566,"lng":23.7215865155236,"url":"https://maps.app.goo.gl/5kJKHTBcWjkVftX99?g_st=ipc","address":"Δημητρακοπούλου 102, Αθήνα 117 41","categoryIds":["mexican"],"categories":["Mexican Restaurants"]},{"id":"coffeeBrunchRestaurants_10b5704edcd7","slug":"karminio-all-day-eatery-10b5","kind":"restaurant","name":"KARMINIO - All Day Eatery","lat":37.963365261808825,"lng":23.721069408577183,"url":"https://maps.app.goo.gl/B47HWPSnhF6mtY1M8?g_st=ipc","address":"Βεΐκου 86, Αθήνα 117 41","categoryIds":["coffee-brunch","vegetarian"],"categories":["Coffee & Brunch Spots","Vegetarian Friendly Restaurants"],"legacySlugs":["karminio-all-day-eatery-44c1"]},{"id":"vegetarianRestaurants_663d79e21a0f","slug":"noa-poke-koukaki-663d","kind":"restaurant","name":"Noa Poke Koukaki","lat":37.962721066064105,"lng":23.72328239582356,"url":"https://maps.app.goo.gl/2BHN8JbCEv2oz4LT8?g_st=ipc","address":"Φαλήρου 84, Αθήνα 117 41","categoryIds":["vegetarian"],"categories":["Vegetarian Friendly Restaurants"]}],"nearby":[{"id":"coffeeBrunchRestaurants_2673b2efe834","slug":"fred-2673","kind":"restaurant","name":"Fred","lat":37.94562369764514,"lng":23.71066649818301,"url":"https://maps.app.goo.gl/HMmCPXK9BhvDtR538?g_st=ipc","address":"Κων/νου Παλαιολόγου 24, Νέα Σμύρνη 171 21","categoryIds":["coffee-brunch"],"categories":["Coffee & Brunch Spots"],"distanceKm":0.15293964938307755},{"id":"coffeeBrunchRestaurants_0aaa1d7425c8","slug":"o-nikos-0aaa","kind":"restaurant","name":"\"ο Νίκος\"","lat":37.94446727754758,"lng":23.71036042368455,"url":"https://maps.app.goo.gl/Hjscsj6jJP8Ehtjz8?g_st=ipc","address":"Κων/νου Παλαιολόγου 36, Νέα Σμύρνη 171 22","categoryIds":["coffee-brunch"],"categories":["Coffee & Brunch Spots"],"distanceKm":0.17307432833376063},{"id":"italianRestaurants_da11e2c73563","slug":"cavaliere-ristorante-concettuale-da11","kind":"restaurant","name":"Cavaliere Ristorante Concettuale","lat":37.944619471140975,"lng":23.71414682617668,"url":"https://maps.app.goo.gl/WcUWRBUhr7SBrvaw8?g_st=ipc","address":"Λεωφ. Ελ. Βενιζέλου 42, Νέα Σμύρνη 171 22","categoryIds":["italian"],"categories":["Italian Restaurants"],"distanceKm":0.17424817959872904},{"id":"vegetarianRestaurants_de7324c496a6","slug":"fakafel-de73","kind":"restaurant","name":"Φakafel","lat":37.945977379116876,"lng":23.71063148252821,"url":"https://maps.app.goo.gl/r5AXr2ToKxBqZpAv9?g_st=ipc","address":"Φakafel","categoryIds":["vegetarian"],"categories":["Vegetarian Friendly Restaurants"],"distanceKm":0.17687375810868652},{"id":"coffeeBrunchRestaurants_01d039eed44f","slug":"flaked-croissanterie-nea-smyrni-01d0","kind":"restaurant","name":"Flaked Croissanterie Nea Smyrni","lat":37.94664941791958,"lng":23.71226377005945,"url":"https://maps.app.goo.gl/XhDMxWuwRuMVcghH9?g_st=ipc","address":"2ας Μαΐου 10, Νέα Σμύρνη 171 21","categoryIds":["coffee-brunch"],"categories":["Coffee & Brunch Spots"],"distanceKm":0.18405854195487195},{"id":"municipalities_093f8da9eef7","slug":"nea-smyrni-093f","kind":"municipality","name":"Νέα Σμύρνη","lat":37.9456,"lng":23.7142,"aliases":["Nea Smyrni","Nea Smirni","Νεα Σμυρνη","Nea Smyrne"],"region":"Νότια Προάστια","name_en":"Nea Smyrni","region_en":"Southern Suburbs","distanceKm":0.18642581304699457},{"id":"dessertsRestaurants_90551d221579","slug":"zuccherino-9055","kind":"restaurant","name":"Zuccherino","lat":37.94670677191045,"lng":23.712370393556583,"url":"https://maps.app.goo.gl/AvtpV9edEhsRgr9r5?g_st=ipc","address":"2ας Μαΐου 12, Νέα Σμύρνη 171 21","categoryIds":["desserts"],"categories":["Dessert Shops"],"distanceKm":0.1908629044760093},{"id":"coffeeBrunchRestaurants_7990f39b9894","slug":"32-avenue-7990","kind":"restaurant","name":"32 Avenue","lat":37.946383947038974,"lng":23.714065407386308,"url":"https://maps.app.goo.gl/miSnLuSyrb5xJ1dB9?g_st=ipc","address":"2ας Μαΐου 32, Νέα Σμύρνη 171 21","categoryIds":["coffee-brunch"],"categories":["Coffee & Brunch Spots"],"distanceKm":0.22388886722281015}],"sameRegion":[],"mentionedGuides":[],"canonicalSlug":"amigos-e022","isCanonicalEntity":true,"enrichment":{"summary_en":"Amigos is a curated restaurant in Νέα Σμύρνη 171 22 in the Mexican Restaurants collection. It is connected to 21 nearby Googlementor picks to help travelers build a stronger local route.","summary_el":"Amigos είναι ένα επιλεγμένο σημείο φαγητού στην περιοχή Νέα Σμύρνη 171 22 και ανήκει στη συλλογή Mexican Restaurants. Συνδέεται με 21 κοντινές προτάσεις του Googlementor για πιο ολοκληρωμένη εμπειρία.","vibe_tags":["curated"],"best_for":["first-time visitors","food lovers"],"visit_moments":["lunch stop","dinner stop"],"practical_note":"Address and direct map link are available for easy turn-by-turn access.","nearby_walkable_count":21,"nearby_count_2km":89,"confidence":0.98}},"__N_SSG":true}