{"pageProps":{"entity":{"id":"greekRestaurants_edeac11ea4d1","slug":"amiseli-edea","kind":"restaurant","name":"Αμισέλι","lat":37.57655586774317,"lng":25.195728111727593,"url":"https://maps.app.goo.gl/CTunTWCctmqFu2mZ6?g_st=ipc","address":"Unnamed Road, Στενή 842 00","categoryIds":["greek-restaurants"],"categories":["Greek Restaurants"]},"sameCategory":[{"id":"greekRestaurants_9b03e2c7dda1","slug":"tereza-9b03","kind":"restaurant","name":"Τερέζα","lat":37.58336832133397,"lng":25.202195929124645,"url":"https://maps.app.goo.gl/zNss9ojqUKW1DC9s6?g_st=ipc","address":"Μυρσινη 842 00","categoryIds":["greek-restaurants"],"categories":["Greek Restaurants"]},{"id":"greekRestaurants_b1cf5b43462a","slug":"taverna-dyo-choria-b1cf","kind":"restaurant","name":"Ταβέρνα Δύο Χωριά","lat":37.56159903785922,"lng":25.196580993299975,"url":"https://maps.app.goo.gl/SA19Q5kF81AfcVPf6?g_st=ipc","address":"επαρχιακη οδός Τριανταριά φαλαταδου, Τήνος 842 00","categoryIds":["greek-restaurants"],"categories":["Greek Restaurants"]},{"id":"greekRestaurants_172ea4764db5","slug":"taverna-kafe-glyka-to-agnanti-172e","kind":"restaurant","name":"Ταβερνα-καφε-γλυκα το Αγνάντι","lat":37.565898907413874,"lng":25.1560402932862,"url":"https://maps.app.goo.gl/8XiQyQLYGgA9F42f6?g_st=ipc","address":"Κτικαδος 38, Δήμος Εξωμβούργου 842 00","categoryIds":["greek-restaurants"],"categories":["Greek Restaurants"]},{"id":"greekRestaurants_947625a45be1","slug":"choreytra-9476","kind":"restaurant","name":"Χορεύτρα","lat":37.57812719431085,"lng":25.148363122123474,"url":"https://maps.app.goo.gl/WmyveBjvkGgoho4z9?g_st=ipc","address":"Κάμπος 842 00","categoryIds":["greek-restaurants"],"categories":["Greek Restaurants"]},{"id":"greekRestaurants_9fd04aa91df9","slug":"katoi-sto-smardakito-9fd0","kind":"restaurant","name":"Κατώι στο Σμαρδάκιτο","lat":37.58545068761989,"lng":25.14517970131365,"url":"https://maps.app.goo.gl/uYvTXyHmVcZNJNpY7?g_st=ipc","address":"Σμαρδάκιτο 842 00","categoryIds":["greek-restaurants"],"categories":["Greek Restaurants"]},{"id":"greekRestaurants_5f9836018bd2","slug":"majorana-tinos-5f98","kind":"restaurant","name":"Majorana Tinos","lat":37.60853974046837,"lng":25.163273293292903,"url":"https://maps.app.goo.gl/e55FM2zsVXQpSNvD6?g_st=ipc","address":"Οδός Αγάπης 1, Τήνος 842 00","categoryIds":["greek-restaurants"],"categories":["Greek Restaurants"]},{"id":"greekRestaurants_fa84c80207a5","slug":"cantina-analogue-bohemian-wine-gallery-tinos-fa84","kind":"restaurant","name":"Cantina Analogue Bohemian WIne Gallery Tinos","lat":37.538912232681554,"lng":25.16067525735608,"url":"https://maps.app.goo.gl/3WjrNZFhDCFeorz98?g_st=ipc","address":"Καρολου, Βιτάλη 5, Τήνος 842 00","categoryIds":["greek-restaurants"],"categories":["Greek Restaurants"]},{"id":"greekRestaurants_5411c28e3480","slug":"myrtilo-bistro-5411","kind":"restaurant","name":"Μύρτιλο bistro","lat":37.538868934363514,"lng":25.16069378342922,"url":"https://maps.app.goo.gl/skwxRn9YNPogPQ1XA?g_st=ipc","address":"Βιτάλη, Αφεντούλη και, Τήνος 842 00","categoryIds":["greek-restaurants"],"categories":["Greek Restaurants"]}],"nearby":[{"id":"coffeeBrunchRestaurants_d86c8a19693a","slug":"kloyki-klouki-d86c","kind":"restaurant","name":"Κλούκι (Klouki)","lat":37.58260089712488,"lng":25.191149960754956,"url":"https://maps.app.goo.gl/GBkSRUkYZhjgkkFo9?g_st=ipc","address":"Φαλατάδος 842 00","categoryIds":["coffee-brunch"],"categories":["Coffee & Brunch Spots"],"distanceKm":0.7839545046877858},{"id":"greekRestaurants_9b03e2c7dda1","slug":"tereza-9b03","kind":"restaurant","name":"Τερέζα","lat":37.58336832133397,"lng":25.202195929124645,"url":"https://maps.app.goo.gl/zNss9ojqUKW1DC9s6?g_st=ipc","address":"Μυρσινη 842 00","categoryIds":["greek-restaurants"],"categories":["Greek Restaurants"],"distanceKm":0.9479847554722938},{"id":"greekRestaurants_b1cf5b43462a","slug":"taverna-dyo-choria-b1cf","kind":"restaurant","name":"Ταβέρνα Δύο Χωριά","lat":37.56159903785922,"lng":25.196580993299975,"url":"https://maps.app.goo.gl/SA19Q5kF81AfcVPf6?g_st=ipc","address":"επαρχιακη οδός Τριανταριά φαλαταδου, Τήνος 842 00","categoryIds":["greek-restaurants"],"categories":["Greek Restaurants"],"distanceKm":1.6648214545091626},{"id":"italianRestaurants_ef50c7962b4c","slug":"napule-tinos-restaurant-ef50","kind":"restaurant","name":"Napule Tinos Restaurant","lat":37.561247297622636,"lng":25.19153362351099,"url":"https://maps.app.goo.gl/KMmm7YcXtzQmk7Zh8?g_st=ipc","address":"Τριαντάρος 842 00","categoryIds":["italian","luxury-dining"],"categories":["Italian Restaurants","Luxury Dining"],"legacySlugs":["napule-tinos-restaurant-5194"],"distanceKm":1.7419157746838603},{"id":"coffeeBrunchRestaurants_1dd5e3fc998c","slug":"kafe-nai-1dd5","kind":"restaurant","name":"καφέ-ναι","lat":37.59217889938765,"lng":25.17817299063689,"url":"https://maps.app.goo.gl/fceHF61HD8ctgCdK7?g_st=ipc","address":"Unnamed Road, Volakas 842 00","categoryIds":["coffee-brunch"],"categories":["Coffee & Brunch Spots"],"distanceKm":2.326110345234003},{"id":"coffeeBrunchRestaurants_75655a70677b","slug":"krok-mesie-all-day-bistrot-proino-brunch-sto-chorio-7565","kind":"restaurant","name":"Κροκ Μεσιέ | All day Bistrot {Πρωινό & Brunch στο χωριό}","lat":37.58939959185263,"lng":25.160526432646503,"url":"https://maps.app.goo.gl/PWyPVsJkGM6y8EdR9?g_st=ipc","address":"Epar.Od. Tripotamou-Kallonis, Krokos 842 00","categoryIds":["coffee-brunch"],"categories":["Coffee & Brunch Spots"],"distanceKm":3.4149066217925186},{"id":"greekRestaurants_172ea4764db5","slug":"taverna-kafe-glyka-to-agnanti-172e","kind":"restaurant","name":"Ταβερνα-καφε-γλυκα το Αγνάντι","lat":37.565898907413874,"lng":25.1560402932862,"url":"https://maps.app.goo.gl/8XiQyQLYGgA9F42f6?g_st=ipc","address":"Κτικαδος 38, Δήμος Εξωμβούργου 842 00","categoryIds":["greek-restaurants"],"categories":["Greek Restaurants"],"distanceKm":3.6930714996590672},{"id":"greekRestaurants_947625a45be1","slug":"choreytra-9476","kind":"restaurant","name":"Χορεύτρα","lat":37.57812719431085,"lng":25.148363122123474,"url":"https://maps.app.goo.gl/WmyveBjvkGgoho4z9?g_st=ipc","address":"Κάμπος 842 00","categoryIds":["greek-restaurants"],"categories":["Greek Restaurants"],"distanceKm":4.177714498338452}],"sameRegion":[],"mentionedGuides":[],"canonicalSlug":"amiseli-edea","isCanonicalEntity":true,"enrichment":{"summary_en":"Αμισέλι is a curated restaurant in Στενή 842 00 in the Greek Restaurants collection. It is connected to 1 nearby Googlementor picks to help travelers build a stronger local route.","summary_el":"Αμισέλι είναι ένα επιλεγμένο σημείο φαγητού στην περιοχή Στενή 842 00 και ανήκει στη συλλογή Greek Restaurants. Συνδέεται με 1 κοντινές προτάσεις του Googlementor για πιο ολοκληρωμένη εμπειρία.","vibe_tags":["curated"],"best_for":["first-time visitors","food lovers"],"visit_moments":["lunch stop","dinner stop"],"practical_note":"Address and direct map link are available for easy turn-by-turn access.","nearby_walkable_count":1,"nearby_count_2km":4,"confidence":0.9}},"__N_SSG":true}