{"pageProps":{"entity":{"id":"cheapEatsRestaurants_c1994e1056ff","slug":"andoni-s-gyros-feed-c199","kind":"restaurant","name":"Andoni's Gyros Feed","lat":40.07464288630586,"lng":23.448992983256165,"url":"https://maps.app.goo.gl/L8R286xrXF2isCzv6?g_st=ipc","address":"Καλλιθέα 630 77","categoryIds":["cheap-eats"],"categories":["Gyros & Cheap Eats"]},"sameCategory":[{"id":"cheapEatsRestaurants_e78668bce22c","slug":"garry-s-e786","kind":"restaurant","name":"Garry's","lat":40.000628811076744,"lng":23.573772244228277,"url":"https://maps.app.goo.gl/AswmP29i78TmQa9F9?g_st=ipc","address":"plateia, Chaniotis 630 85","categoryIds":["cheap-eats"],"categories":["Gyros & Cheap Eats"]},{"id":"cheapEatsRestaurants_777a89009202","slug":"o-gyros-tis-nikitis-777a","kind":"restaurant","name":"Ο Γύρος της Νικήτης","lat":40.21635208465205,"lng":23.666421853120887,"url":"https://maps.app.goo.gl/tK8o5vXTSUBvD7U3A?g_st=ipc","address":"Egialou, Nikiti 630 88","categoryIds":["cheap-eats"],"categories":["Gyros & Cheap Eats"]},{"id":"burgersRestaurants_4060fc5be247","slug":"maestro-cantina-4060","kind":"restaurant","name":"Maestro Cantina","lat":40.539870288194706,"lng":23.0207573353921,"url":"https://maps.app.goo.gl/WJTaYcJdPxACzwkXA?g_st=ipc","address":"EO Thessalonikis Poligirou 32, Thermi 570 01","categoryIds":["burgers","cheap-eats"],"categories":["Burger Spots","Gyros & Cheap Eats"],"legacySlugs":["maestro-cantina-5ff9"]},{"id":"cheapEatsRestaurants_530bf90a8d2b","slug":"lordon-530b","kind":"restaurant","name":"Lordon","lat":40.546997157219394,"lng":23.020384247436283,"url":"https://maps.app.goo.gl/3FBZX7roU6fjgkTS6?g_st=ipc","address":"Πλατεία Παραμάνα 18, Thermi 570 01","categoryIds":["cheap-eats"],"categories":["Gyros & Cheap Eats"]},{"id":"cheapEatsRestaurants_0353751e2b08","slug":"grn-thermi-0353","kind":"restaurant","name":"ΓΡΝ Θέρμη","lat":40.54741782851475,"lng":23.01948092443365,"url":"https://maps.app.goo.gl/uCq2bBxGLbG7MnvB6?g_st=ipc","address":"Agiou Nikolaou 30, Thermi 570 01","categoryIds":["cheap-eats"],"categories":["Gyros & Cheap Eats"]},{"id":"cheapEatsRestaurants_ce1b9aa17757","slug":"gyrovolies-ce1b","kind":"restaurant","name":"GYROVOLIES","lat":40.50927064423355,"lng":22.925792825198258,"url":"https://maps.app.goo.gl/tcGBs6FexGiv7Ju47?g_st=ipc","address":"Eleytherias 1, Perea 570 19","categoryIds":["cheap-eats"],"categories":["Gyros & Cheap Eats"]},{"id":"cheapEatsRestaurants_5fc75ada9dd1","slug":"hot-pot-pasteria-5fc7","kind":"restaurant","name":"Hot Pot Pasteria","lat":40.555245602641975,"lng":22.992913714606928,"url":"https://maps.app.goo.gl/ZucBkKNWduhhUbyv9?g_st=ipc","address":"Mediterranean Cosmos, Thessaloniki","categoryIds":["cheap-eats"],"categories":["Gyros & Cheap Eats"]},{"id":"burgersRestaurants_54aa085a6ef8","slug":"sinners-smash-burgers-54aa","kind":"restaurant","name":"Sinners Smash Burgers","lat":40.57608642412674,"lng":22.98935981589618,"url":"https://maps.app.goo.gl/Y2NDJtMWMoJrutpZ6?g_st=ipc","address":"Στέλιου Καζαντζίδη 31, Pilea 555 35","categoryIds":["burgers","cheap-eats"],"categories":["Burger Spots","Gyros & Cheap Eats"],"legacySlugs":["sinners-smash-burgers-e79f"]}],"nearby":[{"id":"coffeeBrunchRestaurants_95ba17233631","slug":"almira-beach-bar-95ba","kind":"restaurant","name":"Almira beach bar","lat":40.072040605174976,"lng":23.452332342777385,"url":"https://maps.app.goo.gl/E5yFsVWCjLx3EVVM8?g_st=ipc","address":"Kassandra 630 77","categoryIds":["coffee-brunch"],"categories":["Coffee & Brunch Spots"],"distanceKm":0.4055440848263537},{"id":"dessertsRestaurants_3b5bf46add7e","slug":"terkenlis-3b5b","kind":"restaurant","name":"Terkenlis","lat":40.07236945700872,"lng":23.44461611117606,"url":"https://maps.app.goo.gl/HGnMQLpSqcLam8fR7?g_st=ipc","address":"Δημόσια, Θεσσαλονικής, Kallithea 630 77","categoryIds":["desserts"],"categories":["Dessert Shops"],"distanceKm":0.45011379648445154},{"id":"municipalities_c1cea04425ed","slug":"kallithea-chalkidiki-c1ce","kind":"municipality","name":"Καλλιθέα Χαλκιδική","lat":40.08,"lng":23.448,"region":"Χαλκιδική","name_en":"Kallithea Halkidiki","region_en":"Halkidiki","distanceKm":0.6016454691070804},{"id":"greekRestaurants_5f291c18ffbb","slug":"dias-restaurant-5f29","kind":"restaurant","name":"Dias Restaurant","lat":40.06967513248834,"lng":23.453446118410188,"url":"https://maps.app.goo.gl/CuNAkyg2DXjQVmd46?g_st=ipc","address":"Καλλιθέα Κασσανδρεια, Κασσανδρεία 630 77","categoryIds":["greek-restaurants"],"categories":["Greek Restaurants"],"distanceKm":0.6698600664929986},{"id":"greekRestaurants_9f92ac7d9fa1","slug":"kardamo-9f92","kind":"restaurant","name":"Kardamo","lat":40.097556175200374,"lng":23.437132587550042,"url":"https://maps.app.goo.gl/ePoWRBDG86ratDjz8?g_st=ipc","address":"Άφυτος 630 77","categoryIds":["greek-restaurants"],"categories":["Greek Restaurants"],"distanceKm":2.74035948707965},{"id":"greekRestaurants_2313eb757566","slug":"to-palio-rementzo-2313","kind":"restaurant","name":"To Palio Rementzo","lat":40.09848139695357,"lng":23.43773202901174,"url":"https://maps.app.goo.gl/2T1nNQxZML5ZNxhC9?g_st=ipc","address":"Άφυτος 630 77","categoryIds":["greek-restaurants"],"categories":["Greek Restaurants"],"distanceKm":2.8185237939981906},{"id":"fishTavernasRestaurants_fbb17c01a708","slug":"oceanides-seafood-restaurant-fbb1","kind":"restaurant","name":"Oceanides Seafood Restaurant","lat":40.10031320438252,"lng":23.437354189641624,"url":"https://maps.app.goo.gl/qubazwv6QdLJPnuv6?g_st=ipc","address":"Epar.Od. Paliouriou-Afitou, Afitos 630 77","categoryIds":["fish-tavernas"],"categories":["Fish Tavernas"],"distanceKm":3.0212575725294903},{"id":"fishTavernasRestaurants_8245d15ce972","slug":"thea-thalassa-8245","kind":"restaurant","name":"Thea Thalassa","lat":40.100933443260715,"lng":23.43657383110183,"url":"https://maps.app.goo.gl/M9XGJaEeSqKPrPLY9?g_st=ipc","address":"Greece, Afitos 630 77","categoryIds":["fish-tavernas"],"categories":["Fish Tavernas"],"distanceKm":3.108429467848455}],"sameRegion":[],"mentionedGuides":[],"canonicalSlug":"andoni-s-gyros-feed-c199","isCanonicalEntity":true,"enrichment":{"summary_en":"Andoni's Gyros Feed is a curated restaurant in Greece in the Gyros & Cheap Eats collection. It is connected to 4 nearby Googlementor picks to help travelers build a stronger local route.","summary_el":"Andoni's Gyros Feed είναι ένα επιλεγμένο σημείο φαγητού στην περιοχή Greece και ανήκει στη συλλογή Gyros & Cheap Eats. Συνδέεται με 4 κοντινές προτάσεις του Googlementor για πιο ολοκληρωμένη εμπειρία.","vibe_tags":["curated","budget-friendly"],"best_for":["first-time visitors","food lovers","budget travelers"],"visit_moments":["lunch stop","dinner stop"],"practical_note":"Address and direct map link are available for easy turn-by-turn access.","nearby_walkable_count":4,"nearby_count_2km":4,"confidence":0.98}},"__N_SSG":true}