{"pageProps":{"entity":{"id":"luxuryDiningRestaurants_737b98c16994","slug":"anthes-restaurant-737b","kind":"restaurant","name":"ANTHES RESTAURANT","lat":37.974547276465074,"lng":23.732673103940233,"url":"https://maps.app.goo.gl/RDyBCidSMuRkERcq8?g_st=ipc","address":"Σκούφου 3, Αθήνα 105 57","categoryIds":["luxury-dining"],"categories":["Luxury Dining"]},"sameCategory":[{"id":"asianRestaurants_0d95e4345c8a","slug":"sushimou-0d95","kind":"restaurant","name":"Sushimou","lat":37.97442757213257,"lng":23.73246192997683,"url":"https://maps.app.goo.gl/1y3Cs2ks6GF4C85F6?g_st=ipc","address":"Σκούφου 6, Αθήνα 105 57","categoryIds":["asian","luxury-dining"],"categories":["Asian Restaurants","Luxury Dining"],"legacySlugs":["sushimou-47da"]},{"id":"asianRestaurants_e28b11d8898b","slug":"nolan-e28b","kind":"restaurant","name":"Nolan","lat":37.97479795746223,"lng":23.732371775380916,"url":"https://maps.app.goo.gl/X3KiMCEXwDEoAj3N6?g_st=ipc","address":"Βουλής 31 - 33, Αθήνα 105 57","categoryIds":["asian","luxury-dining"],"categories":["Asian Restaurants","Luxury Dining"],"legacySlugs":["nolan-d22b"]},{"id":"luxuryDiningRestaurants_45e8a4dd5c78","slug":"metropolis-roof-garden-45e8","kind":"restaurant","name":"Metropolis Roof Garden","lat":37.97522262578899,"lng":23.732019777211896,"url":"https://maps.app.goo.gl/zUugGUWG4UDszZX58?g_st=ipc","address":"Μητροπόλεως 15, Αθήνα 105 57","categoryIds":["luxury-dining","rooftop-lounges"],"categories":["Luxury Dining","Rooftop Lounges"],"legacySlugs":["metropolis-roof-garden-f3d7"]},{"id":"luxuryDiningRestaurants_165813797a98","slug":"aneton-1658","kind":"restaurant","name":"ΑΝΕΤΟΝ","lat":37.973499757295556,"lng":23.733045100192022,"url":"https://maps.app.goo.gl/tZNVrAuGYm6zBKgh9?g_st=ipc","address":"Ναυάρχου Νικοδήμου 3, Αθήνα 105 57","categoryIds":["luxury-dining"],"categories":["Luxury Dining"]},{"id":"luxuryDiningRestaurants_bbd06feb8236","slug":"okio-restaurant-fine-dining-athens-bbd0","kind":"restaurant","name":"Okio Restaurant Fine Dining Athens","lat":37.973490463159685,"lng":23.733043418426053,"url":"https://maps.app.goo.gl/Z185a4BudLXiNxEu8?g_st=ipc","address":"Nikis 33 &, Ναυάρχου Νικοδήμου 3, Αθήνα 105 57","categoryIds":["luxury-dining"],"categories":["Luxury Dining"]},{"id":"luxuryDiningRestaurants_d7864d62c4d5","slug":"electra-roof-garden-d786","kind":"restaurant","name":"Electra Roof Garden","lat":37.97379853875271,"lng":23.731619747681133,"url":"https://maps.app.goo.gl/DRSR8qGkR5GU1Bts9?g_st=ipc","address":"Ναυάρχου Νικοδήμου 18-20, Αθήνα 105 57","categoryIds":["luxury-dining","rooftop-lounges"],"categories":["Luxury Dining","Rooftop Lounges"],"legacySlugs":["electra-roof-garden-e530"]},{"id":"luxuryDiningRestaurants_ea67b94ccce5","slug":"art-lounge-rooftop-ea67","kind":"restaurant","name":"Art Lounge Rooftop","lat":37.97343240978713,"lng":23.73349750420062,"url":"https://maps.app.goo.gl/ou4XFAAMpTQ3uTaeA?g_st=ipc","address":"Ναυάρχου Νικοδήμου 1, Αθήνα 105 57","categoryIds":["luxury-dining","rooftop-lounges"],"categories":["Luxury Dining","Rooftop Lounges"],"legacySlugs":["art-lounge-rooftop-f22b"]},{"id":"luxuryDiningRestaurants_c75b4f75eed4","slug":"geco-athens-c75b","kind":"restaurant","name":"Geco Athens","lat":37.97686179118327,"lng":23.732026538746123,"url":"https://maps.app.goo.gl/p3ytMHs2cKCwK2j76?g_st=ipc","address":"Λέκκα 14, Αθήνα 105 62","categoryIds":["luxury-dining"],"categories":["Luxury Dining"]}],"nearby":[{"id":"asianRestaurants_7b8b9814562d","slug":"pink-flamingo-dim-sum-7b8b","kind":"restaurant","name":"Pink Flamingo Dim Sum","lat":37.97460809363569,"lng":23.732494338257986,"url":"https://maps.app.goo.gl/fYsHDCdPt7Ag7nwx7?g_st=ipc","address":"Σκούφου 2-4, Αθήνα 105 57","categoryIds":["asian"],"categories":["Asian Restaurants"],"distanceKm":0.017066388846839642},{"id":"asianRestaurants_0d95e4345c8a","slug":"sushimou-0d95","kind":"restaurant","name":"Sushimou","lat":37.97442757213257,"lng":23.73246192997683,"url":"https://maps.app.goo.gl/1y3Cs2ks6GF4C85F6?g_st=ipc","address":"Σκούφου 6, Αθήνα 105 57","categoryIds":["asian","luxury-dining"],"categories":["Asian Restaurants","Luxury Dining"],"legacySlugs":["sushimou-47da"],"distanceKm":0.022798973384119875},{"id":"italianRestaurants_8dc12f0e929e","slug":"ovio-8dc1","kind":"restaurant","name":"OVIO","lat":37.974772406489194,"lng":23.732726038133688,"url":"https://maps.app.goo.gl/YsVGa9MzZPoFLxFs9?g_st=ipc","address":"Απόλλωνος 4, Αθήνα 105 57","categoryIds":["italian"],"categories":["Italian Restaurants"],"distanceKm":0.025459675797059073},{"id":"asianRestaurants_47edca6d922f","slug":"gaku-47ed","kind":"restaurant","name":"GAKU","lat":37.974764541523264,"lng":23.73278280614978,"url":"https://maps.app.goo.gl/d2jzonLKf2Au2UP28?g_st=ipc","address":"Απόλλωνος 2, Αθήνα 105 57","categoryIds":["asian"],"categories":["Asian Restaurants"],"distanceKm":0.026002089247844893},{"id":"burgersRestaurants_49b08b8052e0","slug":"birdman-49b0","kind":"restaurant","name":"Birdman","lat":37.97462442043903,"lng":23.73232607660368,"url":"https://maps.app.goo.gl/hqjbsZtLtS6aPvv9A?g_st=ipc","address":"Βουλής 35, Αθήνα 105 57","categoryIds":["burgers"],"categories":["Burger Spots"],"distanceKm":0.03160442391057983},{"id":"dessertsRestaurants_46c9cba5969e","slug":"sweet-nolan-46c9","kind":"restaurant","name":"Sweet Nolan","lat":37.9747984209274,"lng":23.73248311530336,"url":"https://maps.app.goo.gl/vVwFTAJ3a7QrKyTr5?g_st=ipc","address":"Απόλλωνος 6Β, Αθήνα 105 57","categoryIds":["desserts"],"categories":["Dessert Shops"],"distanceKm":0.03251439860173186},{"id":"coffeeBrunchRestaurants_2fddcd2fe039","slug":"neropistolo-2fdd","kind":"restaurant","name":"Neropistolo","lat":37.974517291275795,"lng":23.7322749472112,"url":"https://maps.app.goo.gl/BtaYzYAqPmjvET4H6?g_st=ipc","address":"Βουλής 35, Αθήνα 105 57","categoryIds":["coffee-brunch"],"categories":["Coffee & Brunch Spots"],"distanceKm":0.03505862622499124},{"id":"italianRestaurants_4213a3098622","slug":"ami-italian-bistrot-4213","kind":"restaurant","name":"Ami Italian Bistrot","lat":37.97469248298705,"lng":23.732316050865755,"url":"https://maps.app.goo.gl/ddcDFfjhHBSTkLzH8?g_st=ipc","address":"Βουλής, Απόλλωνος &, Αθήνα 105 57","categoryIds":["italian"],"categories":["Italian Restaurants"],"distanceKm":0.03521634928017238}],"sameRegion":[],"mentionedGuides":[],"canonicalSlug":"anthes-restaurant-737b","isCanonicalEntity":true,"enrichment":{"summary_en":"ANTHES RESTAURANT is a curated restaurant in Αθήνα 105 57 in the Luxury Dining collection. It is connected to 272 nearby Googlementor picks to help travelers build a stronger local route.","summary_el":"ANTHES RESTAURANT είναι ένα επιλεγμένο σημείο φαγητού στην περιοχή Αθήνα 105 57 και ανήκει στη συλλογή Luxury Dining. Συνδέεται με 272 κοντινές προτάσεις του Googlementor για πιο ολοκληρωμένη εμπειρία.","vibe_tags":["curated","premium-dining"],"best_for":["first-time visitors","food lovers","special occasions"],"visit_moments":["lunch stop","dinner stop"],"practical_note":"Address and direct map link are available for easy turn-by-turn access.","nearby_walkable_count":272,"nearby_count_2km":655,"confidence":0.98}},"__N_SSG":true}