{"pageProps":{"entity":{"id":"italianRestaurants_4d0287b65d26","slug":"arancini-restaurant-4d02","kind":"restaurant","name":"Arancini - Restaurant","lat":38.00362078615682,"lng":23.878168070453672,"url":"https://maps.app.goo.gl/1Y5w6FVjdG8zz4d67?g_st=ipc","address":"Λεωφ. Μαραθώνος 56, Παλλήνη 153 51","categoryIds":["italian"],"categories":["Italian Restaurants"]},"sameCategory":[{"id":"italianRestaurants_e3c2b10afd7e","slug":"bellagio-pizza-pasta-bar-e3c2","kind":"restaurant","name":"Bellagio Pizza & Pasta Bar","lat":38.005496461487304,"lng":23.82824148801167,"url":"https://maps.app.goo.gl/fzHTDB9dRXhv8Puh9?g_st=ipc","address":"Αγίου Ιωάννου 82, Αγ. Παρασκευή 153 42","categoryIds":["italian"],"categories":["Italian Restaurants"]},{"id":"italianRestaurants_206a9064f7f4","slug":"forget-about-it-206a","kind":"restaurant","name":"Forget About It","lat":38.03770860286521,"lng":23.82639404104221,"url":"https://maps.app.goo.gl/T4kAMQjZQmhxQyFN7?g_st=ipc","address":"Θέτιδος 1, Βριλήσσια 152 38","categoryIds":["italian"],"categories":["Italian Restaurants"]},{"id":"italianRestaurants_f7f3095a84cf","slug":"marika-f7f3","kind":"restaurant","name":"Μαρίκα","lat":38.01804412743968,"lng":23.809906247881305,"url":"https://maps.app.goo.gl/osUqCcuWwvgZPCpT6?g_st=ipc","address":"Αγίας Παρασκευής 109, Χαλάνδρι 152 34","categoryIds":["italian"],"categories":["Italian Restaurants"]},{"id":"italianRestaurants_3f60e58e5074","slug":"nolio-restaurant-3f60","kind":"restaurant","name":"Nolio Restaurant","lat":38.0541360368352,"lng":23.842912804517134,"url":"https://maps.app.goo.gl/yrWwCAmRFC73bnXRA?g_st=ipc","address":"Π. Τσαλδάρη 32-34, Μελίσσια 151 27","categoryIds":["italian"],"categories":["Italian Restaurants"]},{"id":"italianRestaurants_eac42fd61c0e","slug":"coupepe-eac4","kind":"restaurant","name":"COUPEPE","lat":38.059126782333124,"lng":23.858013173173166,"url":"https://maps.app.goo.gl/dhSjH71uBwFmJRQg8?g_st=ipc","address":"Ηρ. Πολυτεχνείου 43, Νέα Πεντέλη 152 39","categoryIds":["italian"],"categories":["Italian Restaurants"]},{"id":"italianRestaurants_cc723f5b71ae","slug":"aperio-cucina-vino-cc72","kind":"restaurant","name":"Aperio cucina & vino","lat":38.00607265187326,"lng":23.797703238142986,"url":"https://maps.app.goo.gl/GkHg15eafgAV4fou5?g_st=ipc","address":"Μεσογείων 258, Χολαργός 155 61","categoryIds":["italian"],"categories":["Italian Restaurants"]},{"id":"italianRestaurants_449a551f4dc8","slug":"come-a-casa-449a","kind":"restaurant","name":"Come A Casa","lat":38.020170312119056,"lng":23.798225694950606,"url":"https://maps.app.goo.gl/Go53VnWKyGjFvBK38?g_st=ipc","address":"Καραολη Δημήτριου 17, Χαλάνδρι 152 32","categoryIds":["italian"],"categories":["Italian Restaurants"]},{"id":"italianRestaurants_9e93d0527186","slug":"casareccio-trattoria-pizzeria-9e93","kind":"restaurant","name":"Casareccio trattoria pizzeria","lat":37.995258640416544,"lng":23.796024502616564,"url":"https://maps.app.goo.gl/f357srheHFN2PfBk6?g_st=ipc","address":"Ξανθίππου 84, Χολαργός 155 61","categoryIds":["italian"],"categories":["Italian Restaurants"]}],"nearby":[{"id":"cheapEatsRestaurants_e8be7933bd6e","slug":"i-love-souvlaki-e8be","kind":"restaurant","name":"I Love Souvlaki","lat":38.00365767820438,"lng":23.880036032400344,"url":"https://maps.app.goo.gl/TceiwQJnedx4muqW7?g_st=ipc","address":"Λεωφ. Μαραθώνος 72, Παλλήνη 153 51","categoryIds":["cheap-eats"],"categories":["Gyros & Cheap Eats"],"distanceKm":0.1637193307779008},{"id":"cheapEatsRestaurants_6aba6b4d71c3","slug":"cook-and-grill-pallinis-6aba","kind":"restaurant","name":"Cook And Grill Παλλήνης","lat":38.00364715720239,"lng":23.880433616458955,"url":"https://maps.app.goo.gl/KtBirzLenbmGoPCW9?g_st=ipc","address":"Λεωφ. Μαραθώνος 76, Παλλήνη 153 51","categoryIds":["cheap-eats"],"categories":["Gyros & Cheap Eats"],"distanceKm":0.19852529974345032},{"id":"municipalities_f9c272d39945","slug":"pallini-f9c2","kind":"municipality","name":"Παλλήνη","lat":38.002,"lng":23.883,"region":"Ανατολικά Προάστια","name_en":"Pallini","region_en":"Eastern Suburbs","distanceKm":0.46013407956302754},{"id":"dessertsRestaurants_811168d74e33","slug":"galaktopoleio-stamoy-8111","kind":"restaurant","name":"Γαλακτοπωλείο ΣΤΑΜΟΥ","lat":38.00342843509359,"lng":23.88465857262915,"url":"https://maps.app.goo.gl/o476BKf3dKiVdLTg6?g_st=ipc","address":"Λεωφ. Μαραθώνος, Παλλαδος Αθηνας &, Παλλήνη 153 51","categoryIds":["desserts"],"categories":["Dessert Shops"],"distanceKm":0.5690906955322003},{"id":"familyFriendly_5510b3f1c00f","slug":"the-wall-5510","kind":"restaurant","name":"THE WALL","lat":38.00928367382339,"lng":23.8721127138081,"url":"https://maps.app.goo.gl/ikBxVbssGYshQenA7?g_st=ipc","address":"Αγίου Αθανασίου 12, Παλλήνη 153 51","categoryIds":["family-friendly"],"categories":["Kid Friendly Locations"],"distanceKm":0.8233928288509975},{"id":"coffeeBrunchRestaurants_3667c08b817e","slug":"garazaki-3667","kind":"restaurant","name":"Garazaki","lat":38.00820112050225,"lng":23.859624038909082,"url":"https://maps.app.goo.gl/nhS7zheSxj71qxXFA?g_st=ipc","address":"Θεσσαλονίκης 33, Γέρακας 153 44","categoryIds":["coffee-brunch"],"categories":["Coffee & Brunch Spots"],"distanceKm":1.7027054241543826},{"id":"dessertsRestaurants_c8d21c4fe9cf","slug":"katamaya-bakery-c8d2","kind":"restaurant","name":"katamaya Bakery","lat":38.007980001797705,"lng":23.85734830290807,"url":"https://maps.app.goo.gl/ZpojSaEBYd5LNBoG9?g_st=ipc","address":"Λεωφόρος Μαραθώνος 113, Ηρώων Πολυτεχνείου 1, Γέρακας 153 44","categoryIds":["desserts"],"categories":["Dessert Shops"],"distanceKm":1.8874453696818254},{"id":"municipalities_1f26dbe948b9","slug":"pikermi-1f26","kind":"municipality","name":"Πικέρμι","lat":38,"lng":23.9,"region":"Ανατολικά Προάστια","name_en":"Pikermi","region_en":"Eastern Suburbs","distanceKm":1.954837324978664}],"sameRegion":[],"mentionedGuides":[],"canonicalSlug":"arancini-restaurant-4d02","isCanonicalEntity":true,"enrichment":{"summary_en":"Arancini - Restaurant is a curated restaurant in Παλλήνη 153 51 in the Italian Restaurants collection. It is connected to 4 nearby Googlementor picks to help travelers build a stronger local route.","summary_el":"Arancini - Restaurant είναι ένα επιλεγμένο σημείο φαγητού στην περιοχή Παλλήνη 153 51 και ανήκει στη συλλογή Italian Restaurants. Συνδέεται με 4 κοντινές προτάσεις του Googlementor για πιο ολοκληρωμένη εμπειρία.","vibe_tags":["curated"],"best_for":["first-time visitors","food lovers"],"visit_moments":["lunch stop","dinner stop"],"practical_note":"Address and direct map link are available for easy turn-by-turn access.","nearby_walkable_count":4,"nearby_count_2km":8,"confidence":0.98}},"__N_SSG":true}