{"pageProps":{"entity":{"id":"dessertsRestaurants_e4d0b6ea2a87","slug":"artos-venetis-e4d0","kind":"restaurant","name":"Artos Venetis","lat":37.97931037334658,"lng":23.723187642950915,"url":"https://maps.app.goo.gl/AnM61t5BuRJETGV27?g_st=ic","address":"Sarri 13, Athina 105 54","categoryIds":["desserts"],"categories":["Dessert Shops"]},"sameCategory":[{"id":"dessertsRestaurants_195d87455c89","slug":"ta-serbetia-stou-psyrri-195d","kind":"restaurant","name":"Ta Serbetia stou Psyrri","lat":37.97876489928662,"lng":23.725063077362762,"url":"https://maps.app.goo.gl/t2M6Ma6B3LXC2PSo6?g_st=ipc","address":"105 54, Eschilou 3, Athina 105 54","categoryIds":["desserts"],"categories":["Dessert Shops"]},{"id":"dessertsRestaurants_d00ebd9aea63","slug":"to-sermpetospito-tis-nansys-d00e","kind":"restaurant","name":"Το Σερμπετόσπιτο της Νάνσυς","lat":37.97833603994479,"lng":23.724854486877806,"url":"https://maps.app.goo.gl/uH3RaY6mJ3jPCHMHA?g_st=ipc","address":"Πλ. Ηρώων 1, Αθήνα 105 54","categoryIds":["desserts"],"categories":["Dessert Shops"]},{"id":"coffeeBrunchRestaurants_fb26a559a60b","slug":"fairytale-athens-cafe-suites-fb26","kind":"restaurant","name":"Fairytale Athens Café & Suites","lat":37.97805432206773,"lng":23.72175598680767,"url":"https://maps.app.goo.gl/4J2S3rbDjHuSFWW98?g_st=ipc","address":"Λεωκορίου 16, Αθήνα 105 54","categoryIds":["coffee-brunch","desserts"],"categories":["Coffee & Brunch Spots","Dessert Shops"],"legacySlugs":["fairytale-athens-cafe-suites-e14a"]},{"id":"dessertsRestaurants_b25f1646b2cd","slug":"zoympoyrloy-b25f","kind":"restaurant","name":"Ζουμπουρλού","lat":37.97853908270467,"lng":23.72510275526626,"url":"https://maps.app.goo.gl/Cfhdki2vmrcV7YwL6?g_st=ipc","address":"Αισχύλου 4, Αθήνα 105 54","categoryIds":["desserts"],"categories":["Dessert Shops"]},{"id":"dessertsRestaurants_64c591cf617e","slug":"l-arte-del-gelato-64c5","kind":"restaurant","name":"L'Arte del Gelato","lat":37.97831483150659,"lng":23.72508265750619,"url":"https://maps.app.goo.gl/8FCA5DcN18fwe2916?g_st=ipc","address":"Μιαούλη 26, Αθήνα 105 54","categoryIds":["desserts"],"categories":["Dessert Shops"]},{"id":"dessertsRestaurants_31563f38c3c8","slug":"little-kook-3156","kind":"restaurant","name":"Little Kook","lat":37.977733085549225,"lng":23.724289592884226,"url":"https://maps.app.goo.gl/i8dJi89C6KdUv3Qy8?g_st=ipc","address":"Καραϊσκάκη, Αθήνα 105 54","categoryIds":["desserts"],"categories":["Dessert Shops"]},{"id":"dessertsRestaurants_5f029576403e","slug":"mrsofty-5f02","kind":"restaurant","name":"MrSofty","lat":37.97794945664196,"lng":23.72507127899626,"url":"https://maps.app.goo.gl/qwbSWbdWTMN4EmVKA?g_st=ipc","address":"Miaouli 19, Athina 105 54","categoryIds":["desserts"],"categories":["Dessert Shops"]},{"id":"dessertsRestaurants_259da585070b","slug":"loukoumadaki-athens-259d","kind":"restaurant","name":"Loukoumadaki Athens","lat":37.977901135383384,"lng":23.725373600096002,"url":"https://maps.app.goo.gl/qqDCoKK1WRYwRxk99?g_st=ipc","address":"Miaouli 18, Athina 105 54","categoryIds":["desserts"],"categories":["Dessert Shops"]}],"nearby":[{"id":"coffeeBrunchRestaurants_37e37277bf11","slug":"zampano-37e3","kind":"restaurant","name":"Zampanó","lat":37.97950983062841,"lng":23.723099894539097,"url":"https://maps.app.goo.gl/mnTDWvpyMKKxYj9B8?g_st=ipc","address":"Σαρρή 18, Αθήνα 105 53","categoryIds":["coffee-brunch"],"categories":["Coffee & Brunch Spots"],"distanceKm":0.023474288482555634},{"id":"coffeeBrunchRestaurants_0cf84ce87995","slug":"tragos-monterno-kafeneio-0cf8","kind":"restaurant","name":"Τράγος - Μοντέρνο καφενείο","lat":37.978852815263814,"lng":23.723863790699163,"url":"https://maps.app.goo.gl/bBjGmrefeTQEp69R6?g_st=ipc","address":"Πλ. Αγίων Αναργύρων, Αθήνα 105 54","categoryIds":["coffee-brunch"],"categories":["Coffee & Brunch Spots"],"distanceKm":0.0781067898954149},{"id":"rooftopLoungesRestaurants_618102314dfe","slug":"momix-bar-athens-6181","kind":"restaurant","name":"MoMix Bar Athens","lat":37.97873103162127,"lng":23.723898549953017,"url":"https://maps.app.goo.gl/sokqQJABVgjaTNcT9?g_st=ipc","address":"Αγ. Αναργύρων 21, Αθήνα 105 54","categoryIds":["rooftop-lounges"],"categories":["Rooftop Lounges"],"distanceKm":0.08962359789629488},{"id":"vegetarianRestaurants_6e1c781427b5","slug":"ntao-vietnameziki-koyzina-6e1c","kind":"restaurant","name":"Ντάο Βιετναμέζικη Κουζίνα","lat":37.97853266592714,"lng":23.722814547226115,"url":"https://maps.app.goo.gl/MyM1aFjtySe38NKA9?g_st=ipc","address":"Λεπενιώτου 14, Αθήνα 105 54","categoryIds":["vegetarian"],"categories":["Vegetarian Friendly Restaurants"],"distanceKm":0.09245351905239761},{"id":"greekRestaurants_47e0fbf99993","slug":"nikitas-psyrri-47e0","kind":"restaurant","name":"Νικήτας Ψυρρή","lat":37.97869467804771,"lng":23.723980497190343,"url":"https://maps.app.goo.gl/cnKsmpXwbUi4ehMj9","address":"Αγ. Αναργύρων 19, Αθήνα 105 54","categoryIds":["greek-restaurants"],"categories":["Greek Restaurants"],"distanceKm":0.09755105901794403},{"id":"burgersRestaurants_09af19b27a7c","slug":"po-boys-bbq-09af","kind":"restaurant","name":"PO'BOYS BBQ","lat":37.97837875741083,"lng":23.723280392822467,"url":"https://maps.app.goo.gl/j39YQoSzREu8gQk77?g_st=ipc","address":"Agatharchou 12 &, Λεπενιώτου, Αθήνα 105 54","categoryIds":["burgers"],"categories":["Burger Spots"],"distanceKm":0.10390945311398853},{"id":"cheapEatsRestaurants_6df03a7d154b","slug":"to-soyvlaki-tis-sarri-6df0","kind":"restaurant","name":"το σουβλάκι της σαρρή","lat":37.978860476586924,"lng":23.722082836375154,"url":"https://maps.app.goo.gl/4dueoYmWEmQ4i8jF8?g_st=ipc","address":"Σαρρή 36, Αθήνα 105 53","categoryIds":["cheap-eats"],"categories":["Gyros & Cheap Eats"],"distanceKm":0.1089927428001181},{"id":"coffeeBrunchRestaurants_8bc5f44d74ac","slug":"kalimeres-8bc5","kind":"restaurant","name":"Kalimeres","lat":37.978483021682415,"lng":23.72389713601111,"url":"https://maps.app.goo.gl/ZPnBqVvxDVsiGKHW9?g_st=ipc","address":"Τάκη 14, Αθήνα 105 54","categoryIds":["coffee-brunch"],"categories":["Coffee & Brunch Spots"],"distanceKm":0.11104305465561956}],"sameRegion":[],"mentionedGuides":[],"canonicalSlug":"artos-venetis-e4d0","isCanonicalEntity":true,"enrichment":{"summary_en":"Artos Venetis is a curated restaurant in Athina 105 54 in the Dessert Shops collection. It is connected to 234 nearby Googlementor picks to help travelers build a stronger local route.","summary_el":"Artos Venetis είναι ένα επιλεγμένο σημείο φαγητού στην περιοχή Athina 105 54 και ανήκει στη συλλογή Dessert Shops. Συνδέεται με 234 κοντινές προτάσεις του Googlementor για πιο ολοκληρωμένη εμπειρία.","vibe_tags":["curated","sweet-stop"],"best_for":["first-time visitors","food lovers"],"visit_moments":["afternoon break","after dinner"],"practical_note":"Address and direct map link are available for easy turn-by-turn access.","nearby_walkable_count":234,"nearby_count_2km":604,"confidence":0.98}},"__N_SSG":true}