{"pageProps":{"entity":{"id":"mustSeeAttractions_ef451c3fb153","slug":"asclepieion-at-kos-ef45","kind":"restaurant","name":"Asclepieion at Kos","lat":36.87634063821304,"lng":27.25929156442587,"url":"https://maps.app.goo.gl/KY1PY5mwkiEPn6JS6?g_st=ipc","address":"Kos 853 00","categoryIds":["attractions"],"categories":["Must-See Attractions"]},"sameCategory":[{"id":"mustSeeAttractions_f86e07718582","slug":"holy-monastery-of-the-taxiarch-michael-panormitis-f86e","kind":"restaurant","name":"Holy Monastery of the Taxiarch Michael Panormitis","lat":36.548390185765086,"lng":27.846271064424094,"url":"https://maps.app.goo.gl/CBJzDDUuaoXFiWW6A?g_st=ipc","address":"Panormitis 856 00","categoryIds":["attractions"],"categories":["Must-See Attractions"]},{"id":"mustSeeAttractions_dd3b16c50b83","slug":"holy-monastery-of-saint-john-the-theologian-dd3b","kind":"restaurant","name":"Holy Monastery of Saint John the Theologian","lat":37.30929209644781,"lng":26.547790252510435,"url":"https://maps.app.goo.gl/KRvkAKujnAt5Cebt6?g_st=ipc","address":"Patmos 855 00","categoryIds":["attractions"],"categories":["Must-See Attractions"]},{"id":"mustSeeAttractions_5cb6c86470e2","slug":"holy-cave-of-the-apocalypse-5cb6","kind":"restaurant","name":"Holy Cave of the Apocalypse","lat":37.3145181446206,"lng":26.544738455388703,"url":"https://maps.app.goo.gl/WRBFuHyUphGycx6B6?g_st=ipc","address":"Patmos Municipality 855 00","categoryIds":["attractions"],"categories":["Must-See Attractions"]},{"id":"mustSeeAttractions_54fb3772eb37","slug":"archaeological-site-of-heraion-of-samos-54fb","kind":"restaurant","name":"Archaeological Site of Heraion of Samos","lat":37.67350522925315,"lng":26.88799727034567,"url":"https://maps.app.goo.gl/aSS6QjyqGgHanzsj8?g_st=ipc","address":"Pythagoreio 831 03","categoryIds":["attractions"],"categories":["Must-See Attractions"]},{"id":"mustSeeAttractions_0e0154b8338b","slug":"pythagoras-statue-0e01","kind":"restaurant","name":"Pythagoras Statue","lat":37.689752282548156,"lng":26.94490447179151,"url":"https://maps.app.goo.gl/9QY7VwS3H1acWG6g8?g_st=ipc","address":"Samos 831 03","categoryIds":["attractions"],"categories":["Must-See Attractions"]},{"id":"mustSeeAttractions_9e44fa658aa5","slug":"colossus-of-rhodes-9e44","kind":"restaurant","name":"Colossus of Rhodes","lat":36.451202414947005,"lng":28.227839764419826,"url":"https://maps.app.goo.gl/11HZKgu3Z71ViGrP9?g_st=ipc","address":"Pl. Neoriou, Rodos 851 00","categoryIds":["attractions"],"categories":["Must-See Attractions"]},{"id":"mustSeeAttractions_d121969affdc","slug":"palace-of-the-grand-master-of-the-knights-of-rhodes-d121","kind":"restaurant","name":"Palace of the Grand Master of the Knights of Rhodes","lat":36.44545330682862,"lng":28.224197135579786,"url":"https://maps.app.goo.gl/R9sce6Eydu3PYta2A?g_st=ipc","address":"Ippoton, Rodos 851 00","categoryIds":["attractions"],"categories":["Must-See Attractions"]},{"id":"mustSeeAttractions_934f36a67efa","slug":"medieval-city-of-rhodes-934f","kind":"restaurant","name":"Medieval City of Rhodes","lat":36.44472167652259,"lng":28.227519564434186,"url":"https://maps.app.goo.gl/ni4J6nqoFxCxVhof9?g_st=ipc","address":"Pl. Mouson 6, Rodos 851 00","categoryIds":["attractions"],"categories":["Must-See Attractions"]}],"nearby":[{"id":"municipalities_3aeefc631d3e","slug":"peykakia-3aee","kind":"municipality","name":"Πευκάκια","lat":36.858,"lng":27.265,"region":"Κως","name_en":"Pefkakia","region_en":"Kos","distanceKm":2.1016596839827324},{"id":"municipalities_23af7cf13cb7","slug":"kos-23af","kind":"municipality","name":"Κως","lat":36.892,"lng":27.287,"aliases":["Kos","Κώς","Κω","Κος"],"region":"Δωδεκάνησα","name_en":"Kos","region_en":"Dodecanese","distanceKm":3.0174556515816797},{"id":"greekRestaurants_a93aa32752f0","slug":"lampros-steakhouse-a93a","kind":"restaurant","name":"Lampros Steakhouse","lat":36.896322136693854,"lng":27.283402198970883,"url":"https://maps.app.goo.gl/Sh3PpX1qM4Rdx2rU8?g_st=ipc","address":"Ψαρών, Κως 853 00","categoryIds":["greek-restaurants"],"categories":["Greek Restaurants"],"distanceKm":3.087830689635928},{"id":"dessertsRestaurants_89c58fd42061","slug":"hans-gretel-kos-89c5","kind":"restaurant","name":"Hans & Gretel | Kos","lat":36.89661462547778,"lng":27.285723193546904,"url":"https://maps.app.goo.gl/rQDc5X2QHbgntYvk8?g_st=ipc","address":"Kanari 4, Kos 853 00","categoryIds":["desserts"],"categories":["Dessert Shops"],"distanceKm":3.257013668297947},{"id":"greekRestaurants_ac3620c081a5","slug":"paradosiako-mezedopoleio-patriko-patriko-ac36","kind":"restaurant","name":"Παραδοσιακό Μεζεδοπωλείο Πατρικό, Patriko","lat":36.89739810614618,"lng":27.284779736766605,"url":"https://maps.app.goo.gl/UDQufYxBg1Qoohua9?g_st=ipc","address":"Αλικαρνασσού 35, Κως 853 00","categoryIds":["greek-restaurants"],"categories":["Greek Restaurants"],"distanceKm":3.2589907497292083},{"id":"greekRestaurants_657796817a74","slug":"mom-s-kitchen-6577","kind":"restaurant","name":"MOM'S KITCHEN","lat":36.89405035289658,"lng":27.290210141099532,"url":"https://maps.app.goo.gl/ytaQukqzhdm73UXj7?g_st=ipc","address":"Ναυκλήρου 13, Κως 853 00","categoryIds":["greek-restaurants"],"categories":["Greek Restaurants"],"distanceKm":3.3822314446052877},{"id":"italianRestaurants_0e8f8291b62e","slug":"pizzeria-mamarosa-0e8f","kind":"restaurant","name":"Pizzeria MamaRosa","lat":36.899851240204136,"lng":27.283589360751858,"url":"https://maps.app.goo.gl/74rh4sPu3LvCHuk77?g_st=ipc","address":"Kanari 48, Kos 853 00","categoryIds":["italian"],"categories":["Italian Restaurants"],"distanceKm":3.3917431357886176},{"id":"italianRestaurants_3c7247930b69","slug":"pizzeria-mamarosa-3c72","kind":"restaurant","name":"Pizzeria MamaRosa","lat":36.89985042997736,"lng":27.283591451459408,"url":"https://maps.app.goo.gl/obmeLmF2dusw8e6LA?g_st=ipc","address":"Κανάρη 48, Κως 853 00","categoryIds":["italian"],"categories":["Italian Restaurants"],"distanceKm":3.39179217011208}],"sameRegion":[],"mentionedGuides":[],"canonicalSlug":"asclepieion-at-kos-ef45","isCanonicalEntity":true,"enrichment":{"summary_en":"Asclepieion at Kos is a curated restaurant in Greece in the Must-See Attractions collection. It is connected to 0 nearby Googlementor picks to help travelers build a stronger local route.","summary_el":"Asclepieion at Kos είναι ένα επιλεγμένο σημείο φαγητού στην περιοχή Greece και ανήκει στη συλλογή Must-See Attractions. Συνδέεται με 0 κοντινές προτάσεις του Googlementor για πιο ολοκληρωμένη εμπειρία.","vibe_tags":["curated"],"best_for":["first-time visitors","food lovers"],"visit_moments":["lunch stop","dinner stop"],"practical_note":"Address and direct map link are available for easy turn-by-turn access.","nearby_walkable_count":0,"nearby_count_2km":0,"confidence":0.9}},"__N_SSG":true}