{"pageProps":{"entity":{"id":"asianRestaurants_694015c62c4a","slug":"asian-house-6940","kind":"restaurant","name":"Asian House","lat":40.63703399499959,"lng":22.939883592923085,"url":"https://maps.app.goo.gl/uTVSPYHZ31yXdaY57?g_st=ipc","address":"Καποδιστρίου 7 &, Paikou, Thessaloniki 546 25","categoryIds":["asian"],"categories":["Asian Restaurants"]},"sameCategory":[{"id":"asianRestaurants_8419e93bcb2d","slug":"ikigai-the-dumpling-experience-8419","kind":"restaurant","name":"Ikigai - The Dumpling Experience","lat":40.637093410026516,"lng":22.93763984161015,"url":"https://maps.app.goo.gl/zEYfCsMm5fXf8Dd78?g_st=ipc","address":"Veroias 5, Thessaloniki 546 25","categoryIds":["asian"],"categories":["Asian Restaurants"]},{"id":"asianRestaurants_7b20ac80bba4","slug":"hanaya-sushi-7b20","kind":"restaurant","name":"Hanaya Sushi","lat":40.6345384090758,"lng":22.93892478438703,"url":"https://maps.app.goo.gl/QoHkvVMWp7YGca2T8?g_st=ipc","address":"Rogkoti 4, Thessaloniki 546 24 (Bourla-Levi Building)","categoryIds":["asian"],"categories":["Asian Restaurants"]},{"id":"asianRestaurants_50e903fa0513","slug":"empire-sushi-bar-50e9","kind":"restaurant","name":"Εmpire Sushi Bar","lat":40.63454338249302,"lng":22.937599876944155,"url":"https://maps.app.goo.gl/xtgjstGFH9sAG6Ya7?g_st=ipc","address":"Oplopiou 3, Thessaloniki 546 25","categoryIds":["asian"],"categories":["Asian Restaurants"]},{"id":"asianRestaurants_169207d89dbd","slug":"sushi-city-1692","kind":"restaurant","name":"Sushi City","lat":40.633479553417104,"lng":22.939350429758118,"url":"https://maps.app.goo.gl/zBAUew3tfQKdJ3yX9","address":"Kalapothaki 7, Thessaloniki 546 45","categoryIds":["asian"],"categories":["Asian Restaurants"]},{"id":"asianRestaurants_788113ad98ac","slug":"sushaki-greek-sushi-experience-7881","kind":"restaurant","name":"Sushaki | Greek Sushi Experience","lat":40.63309136297845,"lng":22.939152229553493,"url":"https://maps.app.goo.gl/ggCr6zagpbao1wwt9","address":"Komninon 3, Thessaloniki 546 24","categoryIds":["asian"],"categories":["Asian Restaurants"]},{"id":"asianRestaurants_829415263030","slug":"mongo-asian-food-8294","kind":"restaurant","name":"Mongo Asian Food","lat":40.63082745054034,"lng":22.945340872957278,"url":"https://maps.app.goo.gl/sb6JL78bVoxjZHir9","address":"John Kouskoura 6, Thessaloniki 546 22","categoryIds":["asian"],"categories":["Asian Restaurants"]},{"id":"asianRestaurants_5ace71fa56ea","slug":"ramen-tales-5ace","kind":"restaurant","name":"Ramen Tales","lat":40.63194421660545,"lng":22.948458874656616,"url":"https://maps.app.goo.gl/3FZQEKYHJjXKCNKcA?g_st=ipc","address":"Al. Svolou 16, Thessaloniki 546 22","categoryIds":["asian"],"categories":["Asian Restaurants"]},{"id":"asianRestaurants_41c1b197a672","slug":"wen-zhou-specialties-41c1","kind":"restaurant","name":"Wen Zhou Specialties","lat":40.63090950249029,"lng":22.94800772208168,"url":"https://maps.app.goo.gl/6cq2gTB2UTEdBKux5?g_st=ipc","address":"Grigoriou Palama 16, Thessaloniki 546 22","categoryIds":["asian"],"categories":["Asian Restaurants"]}],"nearby":[{"id":"coffeeBrunchRestaurants_ad2114e7ac37","slug":"bannie-ad21","kind":"restaurant","name":"Bannie","lat":40.63708508226566,"lng":22.94022952790158,"url":"https://maps.app.goo.gl/Gn3B2PxeEE5tHcph8?g_st=ipc","address":"Ionos Dragoumi 35, Thessaloniki 546 25","categoryIds":["coffee-brunch"],"categories":["Coffee & Brunch Spots"],"distanceKm":0.02973770998367665},{"id":"municipalities_0655c442ea28","slug":"ladadika-0655","kind":"municipality","name":"Λαδάδικα","lat":40.6375,"lng":22.9398,"region":"Θεσσαλονίκη","name_en":"Ladadika","region_en":"Thessaloniki","distanceKm":0.052295267440896645},{"id":"burgersRestaurants_d27855febf5e","slug":"cantina-manara-d278","kind":"restaurant","name":"Cantina Manara","lat":40.6371113197463,"lng":22.93922534676657,"url":"https://maps.app.goo.gl/51NLWv682h6DK989A?g_st=ipc","address":"Στοά, Ermou 1, Thessaloniki 546 25","categoryIds":["burgers","cheap-eats"],"categories":["Burger Spots","Gyros & Cheap Eats"],"legacySlugs":["cantina-manara-3308"],"distanceKm":0.05620455327747423},{"id":"coffeeBrunchRestaurants_fb908cdb56f2","slug":"beetroot-fb90","kind":"restaurant","name":"Beetroot","lat":40.637551412889685,"lng":22.939748987657307,"url":"https://maps.app.goo.gl/v2Xnqi1U2R9tS4bz7?g_st=ipc","address":"Siggrou 8, Thessaloniki 546 25","categoryIds":["coffee-brunch"],"categories":["Coffee & Brunch Spots"],"distanceKm":0.0586446353937243},{"id":"cheapEatsRestaurants_a9f190908032","slug":"i-vromiara-the-gourmet-street-food-thessaloniki-a9f1","kind":"restaurant","name":"Η Βρωμιάρα - The Gourmet Street Food | Θεσσαλονικη","lat":40.63730784042486,"lng":22.939114096509012,"url":"https://maps.app.goo.gl/Z7BYjUBJYcnFTaEm9?g_st=ipc","address":"Siggrou 7, Thessaloniki 546 25","categoryIds":["cheap-eats"],"categories":["Gyros & Cheap Eats"],"distanceKm":0.07171576005918524},{"id":"cheapEatsRestaurants_763f0b4ef33d","slug":"pizza-poselli-763f","kind":"restaurant","name":"Pízza Poselli","lat":40.63738632422352,"lng":22.938994583377827,"url":"https://maps.app.goo.gl/msSh5RZw3k81mKHWA?g_st=ipc","address":"Vilara 2, Thessaloniki 546 25","categoryIds":["cheap-eats","italian"],"categories":["Gyros & Cheap Eats","Italian Restaurants"],"legacySlugs":["pizza-poselli-5cd4"],"distanceKm":0.08462897064274383},{"id":"greekRestaurants_ef089e0b68dd","slug":"i-royga-ef08","kind":"restaurant","name":"Η Ρούγα","lat":40.63643483313158,"lng":22.940620107093462,"url":"https://maps.app.goo.gl/doL5QTrJdXUeuhcb9?g_st=ipc","address":"Καρίπη 28, Θεσσαλονίκη 546 24","categoryIds":["greek-restaurants"],"categories":["Greek Restaurants"],"distanceKm":0.09111008591390966},{"id":"coffeeBrunchRestaurants_7c923e1edd56","slug":"mi-me-lismonei-art-cafe-7c92","kind":"restaurant","name":"Mi Me Lismonei Art Café","lat":40.63629409662354,"lng":22.940981395583297,"url":"https://maps.app.goo.gl/Wi79HnpxEWDrQr5A8?g_st=ipc","address":"El. Venizelou 23, Thessaloniki 546 24","categoryIds":["coffee-brunch"],"categories":["Coffee & Brunch Spots"],"distanceKm":0.12389429211693641}],"sameRegion":[],"mentionedGuides":[],"canonicalSlug":"asian-house-6940","isCanonicalEntity":true,"enrichment":{"summary_en":"Asian House is a curated restaurant in Thessaloniki 546 25 in the Asian Restaurants collection. It is connected to 132 nearby Googlementor picks to help travelers build a stronger local route.","summary_el":"Asian House είναι ένα επιλεγμένο σημείο φαγητού στην περιοχή Thessaloniki 546 25 και ανήκει στη συλλογή Asian Restaurants. Συνδέεται με 132 κοντινές προτάσεις του Googlementor για πιο ολοκληρωμένη εμπειρία.","vibe_tags":["curated"],"best_for":["first-time visitors","food lovers"],"visit_moments":["lunch stop","dinner stop"],"practical_note":"Address and direct map link are available for easy turn-by-turn access.","nearby_walkable_count":132,"nearby_count_2km":262,"confidence":0.98}},"__N_SSG":true}