{"pageProps":{"entity":{"id":"burgersRestaurants_fe3476589c94","slug":"barbara-que-fe34","kind":"restaurant","name":"BarBara Que","lat":38.035803199648754,"lng":23.82668456854574,"url":"https://maps.app.goo.gl/qDrH9onsxTkW9iau8?g_st=ipc","address":"Εθ. Αντιστάσεως 27, Βριλήσσια 152 35","categoryIds":["burgers"],"categories":["Burger Spots"]},"sameCategory":[{"id":"burgersRestaurants_cdde40de0c45","slug":"the-burger-dudes-cdde","kind":"restaurant","name":"The Burger Dudes","lat":38.037808685524865,"lng":23.82651013380888,"url":"https://maps.app.goo.gl/nCm18QqReRW4TNmb6?g_st=ipc","address":"Θέτιδος 1, Βριλήσσια 152 35","categoryIds":["burgers"],"categories":["Burger Spots"]},{"id":"burgersRestaurants_264306258d6e","slug":"busty-s-burger-2643","kind":"restaurant","name":"Busty's Burger","lat":38.05283037769694,"lng":23.815776704443905,"url":"https://maps.app.goo.gl/ZPYfcdYHMWXyKwF16?g_st=ipc","address":"Οδός Πεντέλης, Μαρούσι 151 26","categoryIds":["burgers"],"categories":["Burger Spots"]},{"id":"burgersRestaurants_11e6ae00efca","slug":"melt-burgers-11e6","kind":"restaurant","name":"Melt Burgers","lat":38.037895872437886,"lng":23.799602975307902,"url":"https://maps.app.goo.gl/17z1ma6NXSDvgsM2A?g_st=ipc","address":"Λεωφ. Κηφισίας 59, Μαρούσι 151 24","categoryIds":["burgers"],"categories":["Burger Spots"]},{"id":"burgersRestaurants_b5cd5e9d8f33","slug":"comet-street-gourmet-athens-b5cd","kind":"restaurant","name":"Comet Street Gourmet Athens","lat":38.05458806834009,"lng":23.84252767987863,"url":"https://maps.app.goo.gl/7yT5TAqAFBttQ8yZ7?g_st=ipc","address":"Σωκράτους 3, Μελίσσια 151 27","categoryIds":["burgers"],"categories":["Burger Spots"]},{"id":"burgersRestaurants_ceb67d2517dd","slug":"godgilla-umami-street-food-ceb6","kind":"restaurant","name":"Godgilla umami street food","lat":38.056565975998105,"lng":23.814008768575892,"url":"https://maps.app.goo.gl/WyovvCKHo17WtrPb8?g_st=ipc","address":"Γεωρ. Κοτζιά 2, Μαρούσι 151 26","categoryIds":["burgers","cheap-eats"],"categories":["Burger Spots","Gyros & Cheap Eats"],"legacySlugs":["godgilla-umami-street-food-784d"]},{"id":"burgersRestaurants_c336eb92f70f","slug":"benjamin-burger-house-c336","kind":"restaurant","name":"Benjamin Burger House","lat":38.02349485615921,"lng":23.79940305236398,"url":"https://maps.app.goo.gl/1oUJJNhHwJDfzkoK6?g_st=ipc","address":"Ανδρέα Γκίνη 8-12, Χαλάνδρι 152 33","categoryIds":["burgers"],"categories":["Burger Spots"]},{"id":"burgersRestaurants_a6200663c2fc","slug":"enkelt-eatery-drinkery-a620","kind":"restaurant","name":"Enkelt Eatery Drinkery","lat":38.02213524779596,"lng":23.799867459817303,"url":"https://maps.app.goo.gl/vHwx7oKoUfgScAFL9?g_st=ipc","address":"Ανδρέα Παπανδρέου 9, Χαλάνδρι 152 34","categoryIds":["burgers"],"categories":["Burger Spots"]},{"id":"burgersRestaurants_3d23e4017c79","slug":"f-smashing-marousi-delivery-take-away-only-3d23","kind":"restaurant","name":"F* Smashing Marousi (Delivery & Take away Only!)","lat":38.05659414043942,"lng":23.807978426457023,"url":"https://maps.app.goo.gl/YDf78cc6DThEFAdSA?g_st=ipc","address":"Π. Κυριακού 18, Μαρούσι 151 24","categoryIds":["burgers"],"categories":["Burger Spots"]}],"nearby":[{"id":"cheapEatsRestaurants_26f9a7f050c1","slug":"the-handmade-souvlaki-ascension-26f9","kind":"restaurant","name":"The Handmade souvlaki Ascension","lat":38.035547141118364,"lng":23.82691676685056,"url":"https://maps.app.goo.gl/bx6SursnbZv26g7m7?g_st=ic","address":"Eth. Antistaseos 26, Vrilissia 152 35","categoryIds":["cheap-eats"],"categories":["Gyros & Cheap Eats"],"distanceKm":0.034988991397386135},{"id":"dessertsRestaurants_6ff752e919a0","slug":"nana-gioti-6ff7","kind":"restaurant","name":"Nana Gioti","lat":38.03608519844928,"lng":23.825679872970344,"url":"https://maps.app.goo.gl/AeWy5Es4sYdLyFSs7?g_st=ic","address":"Leof. Pentelis 24, Vrilissia 152 35","categoryIds":["desserts"],"categories":["Dessert Shops"],"distanceKm":0.09341134729525759},{"id":"coffeeBrunchRestaurants_4c5186ad6b82","slug":"the-roosters-vrilissia-4c51","kind":"restaurant","name":"The Roosters Vrilissia","lat":38.037656279094364,"lng":23.82632315275067,"url":"https://maps.app.goo.gl/Ujy91XzzUb5AuEK38?g_st=ipc","address":"Θέτιδος 1 &, Ομήρου 2, Βριλήσσια 152 38","categoryIds":["coffee-brunch"],"categories":["Coffee & Brunch Spots"],"distanceKm":0.20846996563554157},{"id":"cheapEatsRestaurants_8375fe8079e7","slug":"umami-8375","kind":"restaurant","name":"umami","lat":38.03544459297975,"lng":23.82429599041442,"url":"https://maps.app.goo.gl/f1Pk44iqYYgPwZeK9?g_st=ipc","address":"Λεωφ. Πεντέλης 7A, Βριλήσσια 152 35","categoryIds":["cheap-eats"],"categories":["Gyros & Cheap Eats"],"distanceKm":0.2129586988800829},{"id":"italianRestaurants_206a9064f7f4","slug":"forget-about-it-206a","kind":"restaurant","name":"Forget About It","lat":38.03770860286521,"lng":23.82639404104221,"url":"https://maps.app.goo.gl/T4kAMQjZQmhxQyFN7?g_st=ipc","address":"Θέτιδος 1, Βριλήσσια 152 38","categoryIds":["italian"],"categories":["Italian Restaurants"],"distanceKm":0.21339351834023568},{"id":"burgersRestaurants_cdde40de0c45","slug":"the-burger-dudes-cdde","kind":"restaurant","name":"The Burger Dudes","lat":38.037808685524865,"lng":23.82651013380888,"url":"https://maps.app.goo.gl/nCm18QqReRW4TNmb6?g_st=ipc","address":"Θέτιδος 1, Βριλήσσια 152 35","categoryIds":["burgers"],"categories":["Burger Spots"],"distanceKm":0.2235225166550018},{"id":"coffeeBrunchRestaurants_a0c4a7f4af97","slug":"oi-pites-tis-giagias-eyridikis-a0c4","kind":"restaurant","name":"Οι πίτες της γιαγιάς Ευριδίκης","lat":38.03426712689994,"lng":23.833618598910473,"url":"https://maps.app.goo.gl/SZ38YLhtn9HgUGAZ9?g_st=ipc","address":"Κύπρου 25, Βριλήσσια 152 35","categoryIds":["coffee-brunch"],"categories":["Coffee & Brunch Spots"],"distanceKm":0.6308513900100637},{"id":"dessertsRestaurants_86ff71ff4014","slug":"galaktopoleio-stamoy-chalandri-attikis-86ff","kind":"restaurant","name":"Γαλακτοπωλείο ΣΤΑΜΟΥ, Χαλάνδρι Αττικής","lat":38.03271950189133,"lng":23.82056453380515,"url":"https://maps.app.goo.gl/rfjXhvBFEFZmw45z9?g_st=ipc","address":"Λεωφ. Πεντέλης 139, Χαλάνδρι 152 43","categoryIds":["desserts"],"categories":["Dessert Shops"],"distanceKm":0.6362977570084258}],"sameRegion":[],"mentionedGuides":[],"canonicalSlug":"barbara-que-fe34","isCanonicalEntity":true,"enrichment":{"summary_en":"BarBara Que is a curated restaurant in Βριλήσσια 152 35 in the Burger Spots collection. It is connected to 9 nearby Googlementor picks to help travelers build a stronger local route.","summary_el":"BarBara Que είναι ένα επιλεγμένο σημείο φαγητού στην περιοχή Βριλήσσια 152 35 και ανήκει στη συλλογή Burger Spots. Συνδέεται με 9 κοντινές προτάσεις του Googlementor για πιο ολοκληρωμένη εμπειρία.","vibe_tags":["curated"],"best_for":["first-time visitors","food lovers"],"visit_moments":["lunch stop","dinner stop"],"practical_note":"Address and direct map link are available for easy turn-by-turn access.","nearby_walkable_count":9,"nearby_count_2km":30,"confidence":0.98}},"__N_SSG":true}