{"pageProps":{"entity":{"id":"cheapEatsRestaurants_45ca9e952a78","slug":"bella-vista-45ca","kind":"restaurant","name":"Bella Vista","lat":37.96390003095981,"lng":23.626189441266973,"url":"https://maps.app.goo.gl/C4Pcs9AmY91g2TWr8?g_st=ipc","address":"Κωνσταντινουπόλεως 65, Κερατσίνι 187 56","categoryIds":["cheap-eats"],"categories":["Gyros & Cheap Eats"]},"sameCategory":[{"id":"burgersRestaurants_4906276397a1","slug":"godgilla-keratsini-4906","kind":"restaurant","name":"GODGILLA ΚΕΡΑΤΣΙΝΙ","lat":37.95895954039208,"lng":23.62512429010796,"url":"https://maps.app.goo.gl/XPM5TwgWvpZmGQUh6?g_st=ipc","address":"Θεόφραστου 54, Κερατσίνι 187 56","categoryIds":["burgers","cheap-eats"],"categories":["Burger Spots","Gyros & Cheap Eats"],"legacySlugs":["godgilla-keratsini-e67b"]},{"id":"cheapEatsRestaurants_06c18b2e0a28","slug":"o-polyvios-06c1","kind":"restaurant","name":"ο Πολύβιος","lat":37.94989609662676,"lng":23.635292950073545,"url":"https://maps.app.goo.gl/hykabQee4Gtqnvuk9?g_st=ipc","address":"Αγίου Δημητρίου 28, Πειραιάς 185 45","categoryIds":["cheap-eats"],"categories":["Gyros & Cheap Eats"]},{"id":"cheapEatsRestaurants_93e5a087f2a2","slug":"soyvlakia-o-mpilis-93e5","kind":"restaurant","name":"Σουβλάκια \"ο ΜΠΙΛΗΣ\"","lat":37.97112327966262,"lng":23.64443348855245,"url":"https://maps.app.goo.gl/pWZio4wYos7hfNkq6?g_st=ipc","address":"Προύσης 22, Νίκαια 184 53","categoryIds":["cheap-eats"],"categories":["Gyros & Cheap Eats"]},{"id":"cheapEatsRestaurants_a7b0441198ed","slug":"kempaptzidikon-aivali-nikaia-a7b0","kind":"restaurant","name":"Κεμπαπτζίδικον Αϊβαλί Νίκαια","lat":37.97771284812105,"lng":23.63690051700111,"url":"https://maps.app.goo.gl/v85fF9CDnUXK4e4e6?g_st=ipc","address":"Ελλησπόντου 43, Νίκαια 184 51","categoryIds":["cheap-eats"],"categories":["Gyros & Cheap Eats"]},{"id":"cheapEatsRestaurants_3d78bb5a465c","slug":"makis-psitopoleio-soyvlatzidiko-3d78","kind":"restaurant","name":"\"Μάκης\" Ψητοπωλείο-Σουβλατζίδικο","lat":37.97402598918491,"lng":23.643093504500488,"url":"https://maps.app.goo.gl/43quDvAwPQhkbk6t5?g_st=ipc","address":"Π. Τσαλδάρη 262, Νίκαια 184 53","categoryIds":["cheap-eats"],"categories":["Gyros & Cheap Eats"]},{"id":"cheapEatsRestaurants_e1efa6cc4eb9","slug":"kebab-hub-e1ef","kind":"restaurant","name":"KEBAB HUB","lat":37.96544893408382,"lng":23.64762675898248,"url":"https://maps.app.goo.gl/1jU1MDHhWUfkjuNTA?g_st=ipc","address":"Εφέσου 49, Νίκαια 184 50","categoryIds":["cheap-eats"],"categories":["Gyros & Cheap Eats"]},{"id":"cheapEatsRestaurants_9166d63b45f7","slug":"enty-9166","kind":"restaurant","name":"ΕΝΤΥ","lat":37.96700050503918,"lng":23.65031239624474,"url":"https://maps.app.goo.gl/TJbtwJ75EUsRPcRt8?g_st=ipc","address":"Δημ. Καρακουλουξή 4, Νίκαια 184 54","categoryIds":["cheap-eats"],"categories":["Gyros & Cheap Eats"]},{"id":"cheapEatsRestaurants_1416b33a5bdb","slug":"dealers-real-street-food-1416","kind":"restaurant","name":"Dealers Real Street Food","lat":37.97630275309409,"lng":23.649623466165345,"url":"https://maps.app.goo.gl/6hPX1uNfh9QEYJND7?g_st=ipc","address":"Ταξιαρχών 18, Κορυδαλλός 181 20","categoryIds":["cheap-eats"],"categories":["Gyros & Cheap Eats"]}],"nearby":[{"id":"dessertsRestaurants_2ce344200b32","slug":"artozacharoplasteia-gavriilidis-2ce3","kind":"restaurant","name":"Αρτοζαχαροπλαστεία Γαβριηλίδης","lat":37.964134303993816,"lng":23.626317751280503,"url":"https://maps.app.goo.gl/JyTzpkU2ifwrGv839?g_st=ipc","address":"Λεωφ. Σαλαμίνος 71, Κερατσίνι 187 56","categoryIds":["desserts"],"categories":["Dessert Shops"],"distanceKm":0.028374768918914942},{"id":"fishTavernasRestaurants_0d1e86dc9c98","slug":"psarotaverna-o-vasilis-0d1e","kind":"restaurant","name":"ΨΑΡΟΤΑΒΕΡΝΑ \"Ο ΒΑΣΙΛΗΣ\"","lat":37.963242750995164,"lng":23.620073628540776,"url":"https://maps.app.goo.gl/aW7neYrejPJDa4ZB6?g_st=ipc","address":"Κουντουριώτου 12, Κερατσίνι 187 56","categoryIds":["fish-tavernas"],"categories":["Fish Tavernas"],"distanceKm":0.5411092090808415},{"id":"burgersRestaurants_4906276397a1","slug":"godgilla-keratsini-4906","kind":"restaurant","name":"GODGILLA ΚΕΡΑΤΣΙΝΙ","lat":37.95895954039208,"lng":23.62512429010796,"url":"https://maps.app.goo.gl/XPM5TwgWvpZmGQUh6?g_st=ipc","address":"Θεόφραστου 54, Κερατσίνι 187 56","categoryIds":["burgers","cheap-eats"],"categories":["Burger Spots","Gyros & Cheap Eats"],"legacySlugs":["godgilla-keratsini-e67b"],"distanceKm":0.5572374560573778},{"id":"municipalities_14b2964f3eeb","slug":"keratsini-14b2","kind":"municipality","name":"Κερατσίνι","lat":37.9639,"lng":23.6194,"aliases":["Κερατσινι"],"region":"Πειραιάς","name_en":"Keratsini","region_en":"Piraeus","distanceKm":0.5952025721489301},{"id":"fishTavernasRestaurants_8d6cb659e1a2","slug":"psarokokkalo-tis-annas-8d6c","kind":"restaurant","name":"ΨΑΡΟΚΟΚΚΑΛΟ ΤΗΣ ΑΝΝΑΣ","lat":37.969120176200505,"lng":23.623070103225206,"url":"https://maps.app.goo.gl/Fqinu6WnUcLK6Pe87?g_st=ipc","address":"Τσακάλωφ, Βίκτωρος Ουγκώ και, Κερατσίνι 187 57","categoryIds":["fish-tavernas"],"categories":["Fish Tavernas"],"distanceKm":0.6416395459212898},{"id":"coffeeBrunchRestaurants_80f636c96420","slug":"azimouthio-80f6","kind":"restaurant","name":"Azimouthio","lat":37.968862186258185,"lng":23.621767789991836,"url":"https://maps.app.goo.gl/5pGu2NryRiA9Qcms5?g_st=ipc","address":"Ταϋγέτου 4, Κερατσίνι 187 57","categoryIds":["coffee-brunch"],"categories":["Coffee & Brunch Spots"],"distanceKm":0.6743082777488856},{"id":"dessertsRestaurants_1148b5deca52","slug":"galaktopoleio-stamoy-1148","kind":"restaurant","name":"Γαλακτοπωλείο ΣΤΑΜΟΥ","lat":37.9652037202668,"lng":23.635596413779496,"url":"https://maps.app.goo.gl/rrTmftHWRasbJb7aA?g_st=ipc","address":"Πέτρου Ράλλη 438, Νίκαια 184 51","categoryIds":["desserts"],"categories":["Dessert Shops"],"distanceKm":0.8373078144480539},{"id":"dessertsRestaurants_bd4141abfc88","slug":"paylakis-zacharoplasteio-bd41","kind":"restaurant","name":"Παυλάκης Ζαχαροπλαστείο","lat":37.95571450585217,"lng":23.63113250439145,"url":"https://maps.app.goo.gl/uG9ew76UW6orfg278?g_st=ipc","address":"Σπάρτης 129, Πειραιάς 185 46","categoryIds":["desserts"],"categories":["Dessert Shops"],"distanceKm":1.0080905948277032}],"sameRegion":[],"mentionedGuides":[],"canonicalSlug":"bella-vista-45ca","isCanonicalEntity":true,"enrichment":{"summary_en":"Bella Vista is a curated restaurant in Κερατσίνι 187 56 in the Gyros & Cheap Eats collection. It is connected to 6 nearby Googlementor picks to help travelers build a stronger local route.","summary_el":"Bella Vista είναι ένα επιλεγμένο σημείο φαγητού στην περιοχή Κερατσίνι 187 56 και ανήκει στη συλλογή Gyros & Cheap Eats. Συνδέεται με 6 κοντινές προτάσεις του Googlementor για πιο ολοκληρωμένη εμπειρία.","vibe_tags":["curated","budget-friendly"],"best_for":["first-time visitors","food lovers","budget travelers"],"visit_moments":["lunch stop","dinner stop"],"practical_note":"Address and direct map link are available for easy turn-by-turn access.","nearby_walkable_count":6,"nearby_count_2km":26,"confidence":0.98}},"__N_SSG":true}