{"pageProps":{"entity":{"id":"fishTavernasRestaurants_f065f7059030","slug":"binelikia-f065","kind":"restaurant","name":"Binelikia","lat":37.83942195557314,"lng":24.93605561916826,"url":"https://maps.app.goo.gl/g7MbV8Cu1pjFFz8b7?g_st=ipc","address":"Νειμποριό, Andros 845 00","categoryIds":["fish-tavernas"],"categories":["Fish Tavernas"]},"sameCategory":[{"id":"fishTavernasRestaurants_61c64ce0663b","slug":"lithodomi-61c6","kind":"restaurant","name":"Λιθοδομή","lat":37.7730077055442,"lng":24.95123511430265,"url":"https://maps.app.goo.gl/AdyzF8weXRZVC15f6?g_st=ipc","address":"Αλίκης Ψάλτη, Ormos Korthiou 845 02","categoryIds":["fish-tavernas"],"categories":["Fish Tavernas"]},{"id":"fishTavernasRestaurants_58477da61988","slug":"oti-kalo-5847","kind":"restaurant","name":"Oti Kalo","lat":37.8562893028016,"lng":24.785922766571392,"url":"https://maps.app.goo.gl/NHF5wztHFXbNzzkG6?g_st=ipc","address":"Μπατσί 845 01","categoryIds":["fish-tavernas"],"categories":["Fish Tavernas"]},{"id":"fishTavernasRestaurants_4dd45c710873","slug":"stamatis-tavern-4dd4","kind":"restaurant","name":"Stamatis Tavern","lat":37.85607023280217,"lng":24.78575728988094,"url":"https://maps.app.goo.gl/mBX3JbJMAWJA4x3Y7?g_st=ipc","address":"Κυκλάδων Ανδρος, Mpatsi 845 03","categoryIds":["fish-tavernas"],"categories":["Fish Tavernas"]},{"id":"fishTavernasRestaurants_b2dc1ce51a26","slug":"mastello-b2dc","kind":"restaurant","name":"Mastello","lat":37.85819226338292,"lng":24.78588365168363,"url":"https://maps.app.goo.gl/6pEnXsNrPXAaNQPu8?g_st=ipc","address":"Μπατσί 845 01","categoryIds":["fish-tavernas"],"categories":["Fish Tavernas"]},{"id":"fishTavernasRestaurants_d5a2190de0c2","slug":"tama-d5a2","kind":"restaurant","name":"Táma","lat":37.651655752579366,"lng":25.051591259144875,"url":"https://maps.app.goo.gl/FhoWaSrsyrypuExG8?g_st=ipc","address":"Όρμος Πανόρμου 842 01","categoryIds":["fish-tavernas"],"categories":["Fish Tavernas"]},{"id":"fishTavernasRestaurants_5745f4ec9e6d","slug":"to-thalassaki-5745","kind":"restaurant","name":"To Θαλασσάκι","lat":37.615230690872465,"lng":25.0428843541274,"url":"https://maps.app.goo.gl/eqUQ8oiZuscvzKLaA?g_st=ipc","address":"bay, Isternia 842 01","categoryIds":["fish-tavernas"],"categories":["Fish Tavernas"]},{"id":"fishTavernasRestaurants_980522cd3e49","slug":"allou-yialou-9805","kind":"restaurant","name":"Allou Yialou","lat":37.446952094396515,"lng":24.900261999085988,"url":"https://maps.app.goo.gl/fZarxkpuFnFbzYFR6?g_st=ipc","address":"Κίνι 841 00","categoryIds":["fish-tavernas"],"categories":["Fish Tavernas"]},{"id":"fishTavernasRestaurants_721ec670613c","slug":"ora-baresto-721e","kind":"restaurant","name":"ORA baresto","lat":37.398407848807196,"lng":24.87840275006321,"url":"https://maps.app.goo.gl/gop1o8sLeZBAttGy7?g_st=ipc","address":"Επαρχιακή Οδός Ερμούπολης-Φοίνικων,Φοίνικας 841 00 ΣΥΡΟΣ, 841 00","categoryIds":["fish-tavernas","greek-restaurants"],"categories":["Fish Tavernas","Greek Restaurants"],"legacySlugs":["ora-baresto-aeef"]}],"nearby":[{"id":"municipalities_3cbd90a19d63","slug":"andros-3cbd","kind":"municipality","name":"Άνδρος","lat":37.8333,"lng":24.9333,"region":"Κυκλάδες","name_en":"Andros","region_en":"Cyclades","distanceKm":0.7224641307825588},{"id":"greekRestaurants_718e14a085bf","slug":"fofo-cycladic-gastronomy-718e","kind":"restaurant","name":"Fofo Cycladic Gastronomy","lat":37.82353783239752,"lng":24.928189313412695,"url":"https://maps.app.goo.gl/2iPebnrW2ztaiYfU7?g_st=ipc","address":"Επαρ.Οδ. Άνδρου-Σταυροπέδας, Λιβάδια 845 00","categoryIds":["greek-restaurants"],"categories":["Greek Restaurants"],"distanceKm":1.8965373853886232},{"id":"dessertsRestaurants_1d7df040c53a","slug":"zacharoplasteio-za-i-ris-zairis-pastry-patisserie-gelateria-1d7d","kind":"restaurant","name":"ΖΑΧΑΡΟΠΛΑΣΤΕΙΟ \"ΖΑ'Ι'ΡΗΣ\" ZAIRIS-PASTRY Patisserie Gelateria","lat":37.82579583533186,"lng":24.91462125689678,"url":"https://maps.app.goo.gl/QbRR2HA2G4VUjkbb9?g_st=ipc","address":"ΜΕΣΣΑΡΙΑ, ΑΝΔΡΟΣ - MESSARIA, ANDROS, KYKLADES 845 00","categoryIds":["desserts"],"categories":["Dessert Shops"],"distanceKm":2.416442092784037},{"id":"greekRestaurants_9335e3ff6212","slug":"sea-satin-nino-9335","kind":"restaurant","name":"SEA SATIN NINO","lat":37.773197007055956,"lng":24.950818318342087,"url":"https://maps.app.goo.gl/h3BaucesVrSWHYau5?g_st=ipc","address":"Pedestrian Walk Way, Ormos, Korthi 845 02","categoryIds":["greek-restaurants"],"categories":["Greek Restaurants"],"distanceKm":7.477218951728265},{"id":"fishTavernasRestaurants_61c64ce0663b","slug":"lithodomi-61c6","kind":"restaurant","name":"Λιθοδομή","lat":37.7730077055442,"lng":24.95123511430265,"url":"https://maps.app.goo.gl/AdyzF8weXRZVC15f6?g_st=ipc","address":"Αλίκης Ψάλτη, Ormos Korthiou 845 02","categoryIds":["fish-tavernas"],"categories":["Fish Tavernas"],"distanceKm":7.504370943340586},{"id":"greekRestaurants_86110571add2","slug":"to-mpalkoni-toy-aigaioy-8611","kind":"restaurant","name":"Το Μπαλκόνι του Αιγαίου","lat":37.83554332996387,"lng":24.812413866994714,"url":"https://maps.app.goo.gl/7HaLWB594ALzDwtp7?g_st=ipc","address":"ΑΠΡΟΒΑΤΟ, Άνω Απροβατου 845 01","categoryIds":["greek-restaurants"],"categories":["Greek Restaurants"],"distanceKm":10.866362732716565},{"id":"fishTavernasRestaurants_58477da61988","slug":"oti-kalo-5847","kind":"restaurant","name":"Oti Kalo","lat":37.8562893028016,"lng":24.785922766571392,"url":"https://maps.app.goo.gl/NHF5wztHFXbNzzkG6?g_st=ipc","address":"Μπατσί 845 01","categoryIds":["fish-tavernas"],"categories":["Fish Tavernas"],"distanceKm":13.315062705472634},{"id":"fishTavernasRestaurants_4dd45c710873","slug":"stamatis-tavern-4dd4","kind":"restaurant","name":"Stamatis Tavern","lat":37.85607023280217,"lng":24.78575728988094,"url":"https://maps.app.goo.gl/mBX3JbJMAWJA4x3Y7?g_st=ipc","address":"Κυκλάδων Ανδρος, Mpatsi 845 03","categoryIds":["fish-tavernas"],"categories":["Fish Tavernas"],"distanceKm":13.326061212287048}],"sameRegion":[],"mentionedGuides":[],"canonicalSlug":"binelikia-f065","isCanonicalEntity":true,"enrichment":{"summary_en":"Binelikia is a curated restaurant in Andros 845 00 in the Fish Tavernas collection. It is connected to 1 nearby Googlementor picks to help travelers build a stronger local route.","summary_el":"Binelikia είναι ένα επιλεγμένο σημείο φαγητού στην περιοχή Andros 845 00 και ανήκει στη συλλογή Fish Tavernas. Συνδέεται με 1 κοντινές προτάσεις του Googlementor για πιο ολοκληρωμένη εμπειρία.","vibe_tags":["curated","seafood-local"],"best_for":["first-time visitors","food lovers"],"visit_moments":["lunch stop","dinner stop"],"practical_note":"Address and direct map link are available for easy turn-by-turn access.","nearby_walkable_count":1,"nearby_count_2km":2,"confidence":0.9}},"__N_SSG":true}