{"pageProps":{"entity":{"id":"greekRestaurants_b44de7a44b82","slug":"breath-of-zorbas-b44d","kind":"restaurant","name":"Breath of Zorbas","lat":38.75308739240382,"lng":20.721497707378486,"url":"https://maps.app.goo.gl/qhkhSbqR6wdTPs2u6?g_st=ipc","address":"Ανάσα του Ζορμπά, Νικιάνα 311 00","categoryIds":["greek-restaurants"],"categories":["Greek Restaurants"]},"sameCategory":[{"id":"greekRestaurants_a07fccbcdfe3","slug":"taverna-o-minas-a07f","kind":"restaurant","name":"Ταβέρνα Ο Μηνάς","lat":38.745408998983734,"lng":20.72626254060498,"url":"https://maps.app.goo.gl/CMgtZcma5cpMYi7v9?g_st=ipc","address":"Νικιάνα 311 00","categoryIds":["greek-restaurants"],"categories":["Greek Restaurants"]},{"id":"greekRestaurants_6942525c12c1","slug":"the-barrel-restaurant-6942","kind":"restaurant","name":"The Barrel Restaurant","lat":38.70813316851677,"lng":20.712139832547678,"url":"https://maps.app.goo.gl/pBSGBnhjGPMcZiCm9?g_st=ipc","address":"Παραλία Νυδρίου, Νυδρί 310 84","categoryIds":["greek-restaurants"],"categories":["Greek Restaurants"]},{"id":"greekRestaurants_90eadbf70442","slug":"basilico-restaurant-nidri-lefkada-90ea","kind":"restaurant","name":"Basilico Restaurant Nidri Lefkada","lat":38.70626000795254,"lng":20.709794846088023,"url":"https://maps.app.goo.gl/cefnGXGEhd1wv2Dc8?g_st=ipc","address":"Ακτή Αριστοτέλη Ωνάση 34, Νυδρί 310 84","categoryIds":["greek-restaurants"],"categories":["Greek Restaurants"]},{"id":"greekRestaurants_0ef8cfb2d853","slug":"kolokythas-oikogeneiaki-taverna-0ef8","kind":"restaurant","name":"ΚΟΛΟΚΥΘΑΣ Οικογενειακή Ταβέρνα","lat":38.79965914314924,"lng":20.740469326628666,"url":"https://maps.app.goo.gl/DdneXWByi7dQmATLA?g_st=ipc","address":"Πλαγια αιτολοκαρνανιας Πλαγιά, Πλαγιά 300 02","categoryIds":["greek-restaurants"],"categories":["Greek Restaurants"]},{"id":"greekRestaurants_b0e6188690d8","slug":"taverna-pantazis-b0e6","kind":"restaurant","name":"Ταβέρνα Πανταζής","lat":38.70139865323847,"lng":20.691084581555593,"url":"https://maps.app.goo.gl/Jen92tnRfBazNiWcA?g_st=ipc","address":"Μεγάλο Αυλάκι, Αγ. Χριστόφορος 311 00","categoryIds":["greek-restaurants"],"categories":["Greek Restaurants"]},{"id":"greekRestaurants_5b79ce0986b5","slug":"taverna-dimitris-5b79","kind":"restaurant","name":"Ταβέρνα Δημήτρης","lat":38.701351826545626,"lng":20.6910843134411,"url":"https://maps.app.goo.gl/g9mTBjMTZaLgmLJV6?g_st=ipc","address":"Μεγάλο Αυλάκι, Αγ. Χριστόφορος 311 00","categoryIds":["greek-restaurants"],"categories":["Greek Restaurants"]},{"id":"greekRestaurants_711020d4f316","slug":"pardalo-katsiki-7110","kind":"restaurant","name":"Παρδαλό Κατσίκι","lat":38.76029753827684,"lng":20.64847159329693,"url":"https://maps.app.goo.gl/8pTbVRTApz74Yc7Y6?g_st=ipc","address":"Καρυά 310 80","categoryIds":["greek-restaurants"],"categories":["Greek Restaurants"]},{"id":"greekRestaurants_3b8a788327c2","slug":"pavlos-taverna-3b8a","kind":"restaurant","name":"Pavlos Taverna","lat":38.68581647887406,"lng":20.688297137443023,"url":"https://maps.app.goo.gl/ihQGJVLaCRwDgTPC6?g_st=ipc","address":"38°41'09.1\"N 20°41'17.3\"E, Χαραδιάτικα 311 00","categoryIds":["greek-restaurants"],"categories":["Greek Restaurants"]}],"nearby":[{"id":"greekRestaurants_a07fccbcdfe3","slug":"taverna-o-minas-a07f","kind":"restaurant","name":"Ταβέρνα Ο Μηνάς","lat":38.745408998983734,"lng":20.72626254060498,"url":"https://maps.app.goo.gl/CMgtZcma5cpMYi7v9?g_st=ipc","address":"Νικιάνα 311 00","categoryIds":["greek-restaurants"],"categories":["Greek Restaurants"],"distanceKm":0.9485312910627387},{"id":"fishTavernasRestaurants_1f52f6889767","slug":"ta-kanioria-tavern-1f52","kind":"restaurant","name":"Ta Kanioria Tavern","lat":38.79179727346099,"lng":20.720165771019264,"url":"https://maps.app.goo.gl/EbWqYiGwVkKbLu5h6?g_st=ipc","address":"Λυγιά 311 00","categoryIds":["fish-tavernas"],"categories":["Fish Tavernas"],"distanceKm":4.305890877843795},{"id":"greekRestaurants_6942525c12c1","slug":"the-barrel-restaurant-6942","kind":"restaurant","name":"The Barrel Restaurant","lat":38.70813316851677,"lng":20.712139832547678,"url":"https://maps.app.goo.gl/pBSGBnhjGPMcZiCm9?g_st=ipc","address":"Παραλία Νυδρίου, Νυδρί 310 84","categoryIds":["greek-restaurants"],"categories":["Greek Restaurants"],"distanceKm":5.064160332680943},{"id":"greekRestaurants_90eadbf70442","slug":"basilico-restaurant-nidri-lefkada-90ea","kind":"restaurant","name":"Basilico Restaurant Nidri Lefkada","lat":38.70626000795254,"lng":20.709794846088023,"url":"https://maps.app.goo.gl/cefnGXGEhd1wv2Dc8?g_st=ipc","address":"Ακτή Αριστοτέλη Ωνάση 34, Νυδρί 310 84","categoryIds":["greek-restaurants"],"categories":["Greek Restaurants"],"distanceKm":5.305001795200509},{"id":"greekRestaurants_0ef8cfb2d853","slug":"kolokythas-oikogeneiaki-taverna-0ef8","kind":"restaurant","name":"ΚΟΛΟΚΥΘΑΣ Οικογενειακή Ταβέρνα","lat":38.79965914314924,"lng":20.740469326628666,"url":"https://maps.app.goo.gl/DdneXWByi7dQmATLA?g_st=ipc","address":"Πλαγια αιτολοκαρνανιας Πλαγιά, Πλαγιά 300 02","categoryIds":["greek-restaurants"],"categories":["Greek Restaurants"],"distanceKm":5.43341475029694},{"id":"greekRestaurants_b0e6188690d8","slug":"taverna-pantazis-b0e6","kind":"restaurant","name":"Ταβέρνα Πανταζής","lat":38.70139865323847,"lng":20.691084581555593,"url":"https://maps.app.goo.gl/Jen92tnRfBazNiWcA?g_st=ipc","address":"Μεγάλο Αυλάκι, Αγ. Χριστόφορος 311 00","categoryIds":["greek-restaurants"],"categories":["Greek Restaurants"],"distanceKm":6.3241103402181515},{"id":"greekRestaurants_5b79ce0986b5","slug":"taverna-dimitris-5b79","kind":"restaurant","name":"Ταβέρνα Δημήτρης","lat":38.701351826545626,"lng":20.6910843134411,"url":"https://maps.app.goo.gl/g9mTBjMTZaLgmLJV6?g_st=ipc","address":"Μεγάλο Αυλάκι, Αγ. Χριστόφορος 311 00","categoryIds":["greek-restaurants"],"categories":["Greek Restaurants"],"distanceKm":6.328852934165027},{"id":"greekRestaurants_711020d4f316","slug":"pardalo-katsiki-7110","kind":"restaurant","name":"Παρδαλό Κατσίκι","lat":38.76029753827684,"lng":20.64847159329693,"url":"https://maps.app.goo.gl/8pTbVRTApz74Yc7Y6?g_st=ipc","address":"Καρυά 310 80","categoryIds":["greek-restaurants"],"categories":["Greek Restaurants"],"distanceKm":6.382724938936631}],"sameRegion":[],"mentionedGuides":[],"canonicalSlug":"breath-of-zorbas-b44d","isCanonicalEntity":true,"enrichment":{"summary_en":"Breath of Zorbas is a curated restaurant in Νικιάνα 311 00 in the Greek Restaurants collection. It is connected to 0 nearby Googlementor picks to help travelers build a stronger local route.","summary_el":"Breath of Zorbas είναι ένα επιλεγμένο σημείο φαγητού στην περιοχή Νικιάνα 311 00 και ανήκει στη συλλογή Greek Restaurants. Συνδέεται με 0 κοντινές προτάσεις του Googlementor για πιο ολοκληρωμένη εμπειρία.","vibe_tags":["curated"],"best_for":["first-time visitors","food lovers"],"visit_moments":["lunch stop","dinner stop"],"practical_note":"Address and direct map link are available for easy turn-by-turn access.","nearby_walkable_count":0,"nearby_count_2km":1,"confidence":0.9}},"__N_SSG":true}