{"pageProps":{"entity":{"id":"coffeeBrunchRestaurants_b83fc8a35279","slug":"byrek-b83f","kind":"restaurant","name":"Byrek","lat":40.604437611308434,"lng":22.958000236614392,"url":"https://maps.app.goo.gl/hxd33pfTMwrTNJ6K6?g_st=ic","address":"Petrou Sindika 46, Thessaloniki 542 48","categoryIds":["coffee-brunch"],"categories":["Coffee & Brunch Spots"]},"sameCategory":[{"id":"coffeeBrunchRestaurants_f80aae297d57","slug":"the-coffee-rawsters-f80a","kind":"restaurant","name":"The Coffee Rawsters","lat":40.605074813300206,"lng":22.958339804305506,"url":"https://maps.app.goo.gl/6bHEuH2VrUaoPjxN6?g_st=ipc","address":"Delfon 117, Thessaloniki 546 44","categoryIds":["coffee-brunch"],"categories":["Coffee & Brunch Spots"]},{"id":"coffeeBrunchRestaurants_b086083463ae","slug":"join-juice-bars-b086","kind":"restaurant","name":"JOIN juice bars","lat":40.60107511267006,"lng":22.949804539088774,"url":"https://maps.app.goo.gl/LQXcNjB3LwE4q56r7?g_st=ipc","address":"Marias Kallas 1, Thessaloniki 546 45","categoryIds":["coffee-brunch","vegetarian"],"categories":["Coffee & Brunch Spots","Vegetarian Friendly Restaurants"],"legacySlugs":["join-juice-bars-124c"]},{"id":"coffeeBrunchRestaurants_7f4ca735b5ec","slug":"laterna-7f4c","kind":"restaurant","name":"Laterna","lat":40.597256928464596,"lng":22.96766795433404,"url":"https://maps.app.goo.gl/UuEUGrB58srruWFPA?g_st=ipc","address":"Voulgari 64, Thessaloniki 542 49","categoryIds":["coffee-brunch"],"categories":["Coffee & Brunch Spots"]},{"id":"coffeeBrunchRestaurants_3f47d83b09c0","slug":"butterflies-and-hurricanes-3f47","kind":"restaurant","name":"Butterflies And Hurricanes","lat":40.61464844201882,"lng":22.960841697890658,"url":"https://maps.app.goo.gl/Gesp19RwCPBWQ9s58?g_st=ipc","address":"Pindarou 1, Thessaloniki 546 39","categoryIds":["coffee-brunch","vegetarian"],"categories":["Coffee & Brunch Spots","Vegetarian Friendly Restaurants"],"legacySlugs":["butterflies-and-hurricanes-37b6"]},{"id":"coffeeBrunchRestaurants_4980bf5534c8","slug":"avenue-modern-cuisine-4980","kind":"restaurant","name":"AVENUE - Modern Cuisine","lat":40.6155426258885,"lng":22.952060123633387,"url":"https://maps.app.goo.gl/sbWsHkcndnd2Zv547?g_st=ipc","address":"Leof. Meg. Alexandrou 6, Thessaloniki 546 41","categoryIds":["coffee-brunch"],"categories":["Coffee & Brunch Spots"]},{"id":"coffeeBrunchRestaurants_395eba0202c2","slug":"orange-395e","kind":"restaurant","name":"Orange","lat":40.61657039911688,"lng":22.959405836121938,"url":"https://maps.app.goo.gl/GeBX3Ci17XiZV9go6?g_st=ipc","address":"Konstantinoupoleos 21, Thessaloniki 546 40","categoryIds":["coffee-brunch"],"categories":["Coffee & Brunch Spots"]},{"id":"coffeeBrunchRestaurants_346744718646","slug":"thegia-more-than-a-bakery-3467","kind":"restaurant","name":"ΘΕΓΙΑ more than a bakery","lat":40.59152214019956,"lng":22.948474846251315,"url":"https://maps.app.goo.gl/Rk9qKb5jkoYV7x6HA?g_st=ipc","address":"Themistokli Sofouli 65, Kalamaria 551 31","categoryIds":["coffee-brunch"],"categories":["Coffee & Brunch Spots"]},{"id":"coffeeBrunchRestaurants_9fa36f8be04c","slug":"rou-leisure-gatherings-9fa3","kind":"restaurant","name":"Rou Leisure Gatherings","lat":40.612773277438485,"lng":22.97595730543709,"url":"https://maps.app.goo.gl/GxRckrquv1sShJp28?g_st=ipc","address":"Praxagora 22, Thessaloniki 543 51","categoryIds":["coffee-brunch"],"categories":["Coffee & Brunch Spots"]}],"nearby":[{"id":"coffeeBrunchRestaurants_f80aae297d57","slug":"the-coffee-rawsters-f80a","kind":"restaurant","name":"The Coffee Rawsters","lat":40.605074813300206,"lng":22.958339804305506,"url":"https://maps.app.goo.gl/6bHEuH2VrUaoPjxN6?g_st=ipc","address":"Delfon 117, Thessaloniki 546 44","categoryIds":["coffee-brunch"],"categories":["Coffee & Brunch Spots"],"distanceKm":0.07643307745287935},{"id":"vegetarianRestaurants_afbddf6d4612","slug":"falaifel-afbd","kind":"restaurant","name":"Falaifel","lat":40.605220221287475,"lng":22.958853196988702,"url":"https://maps.app.goo.gl/GhD8UrgWEeP9DmB59?g_st=ipc","address":"Geor. Drosini 12, Thessaloniki 546 44","categoryIds":["vegetarian"],"categories":["Vegetarian Friendly Restaurants"],"distanceKm":0.11295129241193888},{"id":"cheapEatsRestaurants_35033892194c","slug":"souvlaki-street-3503","kind":"restaurant","name":"Souvlaki Street","lat":40.60499215993171,"lng":22.95914208357667,"url":"https://maps.app.goo.gl/8hPpQdZA8iNRAksd7?g_st=ipc","address":"Geor. Drosini 14, Thessaloniki 546 44","categoryIds":["cheap-eats"],"categories":["Gyros & Cheap Eats"],"distanceKm":0.11443130156677352},{"id":"cheapEatsRestaurants_0368efbccc32","slug":"grill-junior-0368","kind":"restaurant","name":"Grill Junior","lat":40.60286928963285,"lng":22.956953349868357,"url":"https://maps.app.goo.gl/KmNipqE8jJT8qrZ17?g_st=ipc","address":"Thermopilon 31, Thessaloniki 542 48","categoryIds":["cheap-eats"],"categories":["Gyros & Cheap Eats"],"distanceKm":0.1955066068034808},{"id":"municipalities_8679714322fe","slug":"martioy-8679","kind":"municipality","name":"Μαρτίου","lat":40.6024,"lng":22.9596,"region":"Θεσσαλονίκη","name_en":"Martiou","region_en":"Thessaloniki","distanceKm":0.26377101502324257},{"id":"asianRestaurants_e9c045aff53d","slug":"sushaki-greek-sushi-experience-e9c0","kind":"restaurant","name":"Sushaki | Greek Sushi Experience","lat":40.60428165420744,"lng":22.954061100104322,"url":"https://maps.app.goo.gl/Tfd55EpuS182EpUw7","address":"Petrou Sindika 11, Thessaloniki 546 43","categoryIds":["asian"],"categories":["Asian Restaurants"],"distanceKm":0.33300010669711694},{"id":"cheapEatsRestaurants_6567e814aa5e","slug":"o-gyros-toy-michali-6567","kind":"restaurant","name":"Ο Γύρος του Μιχάλη","lat":40.60335488153119,"lng":22.961687059004745,"url":"https://maps.app.goo.gl/sNmZpvpUx9Yt5Avj6?g_st=ipc","address":"Makedonias 105, Thessaloniki 542 48","categoryIds":["cheap-eats"],"categories":["Gyros & Cheap Eats"],"distanceKm":0.3337230435672905},{"id":"burgersRestaurants_35e7234b2904","slug":"burger-house-pangeo-35e7","kind":"restaurant","name":"Burger House \"Pangèo\"","lat":40.6072060637355,"lng":22.960414958738784,"url":"https://maps.app.goo.gl/gtiPjSQBMAP3UP1C9?g_st=ic","address":"Mark. Mpotsari 49, Thessaloniki 546 44","categoryIds":["burgers"],"categories":["Burger Spots"],"distanceKm":0.36921414415638293}],"sameRegion":[],"mentionedGuides":[],"canonicalSlug":"byrek-b83f","isCanonicalEntity":true,"enrichment":{"summary_en":"Byrek is a curated restaurant in Thessaloniki 542 48 in the Coffee & Brunch Spots collection. It is connected to 26 nearby Googlementor picks to help travelers build a stronger local route.","summary_el":"Byrek είναι ένα επιλεγμένο σημείο φαγητού στην περιοχή Thessaloniki 542 48 και ανήκει στη συλλογή Coffee & Brunch Spots. Συνδέεται με 26 κοντινές προτάσεις του Googlementor για πιο ολοκληρωμένη εμπειρία.","vibe_tags":["curated","daytime-favorite"],"best_for":["first-time visitors","food lovers"],"visit_moments":["early morning","late brunch"],"practical_note":"Address and direct map link are available for easy turn-by-turn access.","nearby_walkable_count":26,"nearby_count_2km":99,"confidence":0.98}},"__N_SSG":true}