{"pageProps":{"entity":{"id":"greekRestaurants_ccfa82da91ec","slug":"cafe-avissinia-ccfa","kind":"restaurant","name":"Cafe Avissinia","lat":37.97665935435758,"lng":23.723658874040776,"url":"https://maps.app.goo.gl/vKinr3WBQjy8EYru8","address":"Κυνέτου 7, Αθήνα 105 55","categoryIds":["greek-restaurants","rooftop-lounges"],"categories":["Greek Restaurants","Rooftop Lounges"],"legacySlugs":["cafe-avissinia-a6f3"]},"sameCategory":[{"id":"rooftopLoungesRestaurants_8a3b6090d0ba","slug":"buena-vista-social-bar-8a3b","kind":"restaurant","name":"Buena Vista Social Bar","lat":37.97675314568566,"lng":23.72345728050679,"url":"https://maps.app.goo.gl/q9TPDZzxPX6Gn6hv8?g_st=ipc","address":"Αγίου Φιλίππου 7, Αθήνα 105 55","categoryIds":["rooftop-lounges"],"categories":["Rooftop Lounges"]},{"id":"greekRestaurants_e684531e1c90","slug":"to-kyklamino-e684","kind":"restaurant","name":"Το Κυκλάμινο","lat":37.976681511235476,"lng":23.724107441529995,"url":"https://maps.app.goo.gl/9UGJoEFr8WGupZtP9","address":"Πλ. Αβησσυνίας 3, Αθήνα 105 55","categoryIds":["greek-restaurants"],"categories":["Greek Restaurants"]},{"id":"greekRestaurants_72a09df578ee","slug":"a-little-taste-of-home-restaurant-72a0","kind":"restaurant","name":"A Little Taste of Home Restaurant","lat":37.976779798219894,"lng":23.722967824354946,"url":"https://maps.app.goo.gl/GmHsbFa1YEmR2kef9","address":"Άστιγγος 8, Αθήνα 105 55","categoryIds":["greek-restaurants"],"categories":["Greek Restaurants"]},{"id":"rooftopLoungesRestaurants_fd2aeb4fbf06","slug":"couleur-locale-fd2a","kind":"restaurant","name":"Couleur Locale","lat":37.97665657873508,"lng":23.724495249053955,"url":"https://maps.app.goo.gl/xcPngBCfpyfPpqpi9?g_st=ipc","address":"Νορμανού 3, Αθήνα 105 55","categoryIds":["rooftop-lounges"],"categories":["Rooftop Lounges"]},{"id":"rooftopLoungesRestaurants_d2b2d3a1881c","slug":"luv-n-roll-house-tattoo-piercing-studio-athens-d2b2","kind":"restaurant","name":"LUV N ROLL HOUSE Tattoo & Piercing Studio | Athens","lat":37.977424235887426,"lng":23.72409772692034,"url":"https://maps.app.goo.gl/wef8tXnuzgY2o9iBA?g_st=ipc","address":"Καραϊσκάκη 14, Αθήνα 105 54","categoryIds":["rooftop-lounges"],"categories":["Rooftop Lounges"]},{"id":"coffeeBrunchRestaurants_988f2cbbbd9c","slug":"liystor-988f","kind":"restaurant","name":"LIYSTOR","lat":37.97700032542266,"lng":23.724753676313323,"url":"https://maps.app.goo.gl/7douBXS6i4VTSVMM9?g_st=ipc","address":"Ερμού 92-94, Αθήνα 105 54","categoryIds":["coffee-brunch","rooftop-lounges"],"categories":["Coffee & Brunch Spots","Rooftop Lounges"],"legacySlugs":["liystor-484f"]},{"id":"greekRestaurants_0c30703c94b5","slug":"krasopoylio-toy-kokkora-0c30","kind":"restaurant","name":"Κρασοπουλιο του Κοκκορα","lat":37.97774968772063,"lng":23.724156040305374,"url":"https://maps.app.goo.gl/FdPM4DDLKYaXnaei6","address":"Αισώπου 4, Αθήνα 105 54","categoryIds":["greek-restaurants"],"categories":["Greek Restaurants"]},{"id":"coffeeBrunchRestaurants_10001909d6f1","slug":"attic-urban-rooftop-1000","kind":"restaurant","name":"Attic Urban Rooftop","lat":37.97687145726863,"lng":23.725410732994586,"url":"https://maps.app.goo.gl/9Zyy977FxxHx9dgc9?g_st=ipc","address":"Ερμού 86, Αθήνα 105 54","categoryIds":["coffee-brunch","rooftop-lounges"],"categories":["Coffee & Brunch Spots","Rooftop Lounges"],"legacySlugs":["attic-urban-rooftop-7332"]}],"nearby":[{"id":"cheapEatsRestaurants_087b1f7ae690","slug":"potato-king-087b","kind":"restaurant","name":"Potato King","lat":37.97675298586362,"lng":23.723457601026865,"url":"https://maps.app.goo.gl/7oETcHQJwsjd3Q6S9?g_st=ipc","address":"Αγίου Φιλίππου 7, Αθήνα 105 55","categoryIds":["cheap-eats"],"categories":["Gyros & Cheap Eats"],"distanceKm":0.020484773179174187},{"id":"rooftopLoungesRestaurants_8a3b6090d0ba","slug":"buena-vista-social-bar-8a3b","kind":"restaurant","name":"Buena Vista Social Bar","lat":37.97675314568566,"lng":23.72345728050679,"url":"https://maps.app.goo.gl/q9TPDZzxPX6Gn6hv8?g_st=ipc","address":"Αγίου Φιλίππου 7, Αθήνα 105 55","categoryIds":["rooftop-lounges"],"categories":["Rooftop Lounges"],"distanceKm":0.020518000136467814},{"id":"greekRestaurants_e684531e1c90","slug":"to-kyklamino-e684","kind":"restaurant","name":"Το Κυκλάμινο","lat":37.976681511235476,"lng":23.724107441529995,"url":"https://maps.app.goo.gl/9UGJoEFr8WGupZtP9","address":"Πλ. Αβησσυνίας 3, Αθήνα 105 55","categoryIds":["greek-restaurants"],"categories":["Greek Restaurants"],"distanceKm":0.03939435560694628},{"id":"vegetarianRestaurants_f6b4938b2d93","slug":"happy-blender-f6b4","kind":"restaurant","name":"HAPPY BLENDER","lat":37.97632639671211,"lng":23.72337814744719,"url":"https://maps.app.goo.gl/CNcvWTpCEhrBWFrb6?g_st=ipc","address":"Ηφαίστου 39, Αθήνα 105 55","categoryIds":["vegetarian"],"categories":["Vegetarian Friendly Restaurants"],"distanceKm":0.04445412592554947},{"id":"greekRestaurants_72a09df578ee","slug":"a-little-taste-of-home-restaurant-72a0","kind":"restaurant","name":"A Little Taste of Home Restaurant","lat":37.976779798219894,"lng":23.722967824354946,"url":"https://maps.app.goo.gl/GmHsbFa1YEmR2kef9","address":"Άστιγγος 8, Αθήνα 105 55","categoryIds":["greek-restaurants"],"categories":["Greek Restaurants"],"distanceKm":0.06203388204663645},{"id":"luxuryDiningRestaurants_34782393fe41","slug":"makris-athens-fine-dining-restaurant-3478","kind":"restaurant","name":"Makris Athens Fine Dining Restaurant","lat":37.97675780023075,"lng":23.722883040179465,"url":"https://maps.app.goo.gl/3itc1dgDWbdcs6649?g_st=ipc","address":"Astiggos 10, Ερμού 119, Αθήνα 105 55","categoryIds":["luxury-dining"],"categories":["Luxury Dining"],"distanceKm":0.06887775555367694},{"id":"rooftopLoungesRestaurants_fd2aeb4fbf06","slug":"couleur-locale-fd2a","kind":"restaurant","name":"Couleur Locale","lat":37.97665657873508,"lng":23.724495249053955,"url":"https://maps.app.goo.gl/xcPngBCfpyfPpqpi9?g_st=ipc","address":"Νορμανού 3, Αθήνα 105 55","categoryIds":["rooftop-lounges"],"categories":["Rooftop Lounges"],"distanceKm":0.07330948858910515},{"id":"burgersRestaurants_de31086328e0","slug":"balboa-athens-de31","kind":"restaurant","name":"Balboa Athens","lat":37.977044741999016,"lng":23.724391193177723,"url":"https://maps.app.goo.gl/xqbjAq65izWtnBT18?g_st=ipc","address":"Αρτέμιδος 1-3, Αθήνα 105 54","categoryIds":["burgers"],"categories":["Burger Spots"],"distanceKm":0.07717839592505539}],"sameRegion":[],"mentionedGuides":[],"canonicalSlug":"cafe-avissinia-ccfa","isCanonicalEntity":false,"enrichment":{"summary_en":"Cafe Avissinia is a curated restaurant in Αθήνα 105 55 in the Greek Restaurants collection. It is connected to 270 nearby Googlementor picks to help travelers build a stronger local route.","summary_el":"Cafe Avissinia είναι ένα επιλεγμένο σημείο φαγητού στην περιοχή Αθήνα 105 55 και ανήκει στη συλλογή Greek Restaurants. Συνδέεται με 270 κοντινές προτάσεις του Googlementor για πιο ολοκληρωμένη εμπειρία.","vibe_tags":["curated","city-views"],"best_for":["first-time visitors","food lovers"],"visit_moments":["golden hour","night out"],"practical_note":"Address and direct map link are available for easy turn-by-turn access.","nearby_walkable_count":270,"nearby_count_2km":614,"confidence":0.98}},"__N_SSG":true}