{"pageProps":{"entity":{"id":"luxuryDiningRestaurants_81dc67aec549","slug":"cantina-81dc","kind":"restaurant","name":"Cantina","lat":36.97219283235427,"lng":24.74596680838354,"url":"https://maps.app.goo.gl/LgALa3qo2pc4x9pP6?g_st=ipc","address":"Seralia, Kastro 840 03","categoryIds":["luxury-dining"],"categories":["Luxury Dining"]},"sameCategory":[{"id":"luxuryDiningRestaurants_bc521e15ad20","slug":"bostani-bar-restaurant-bc52","kind":"restaurant","name":"Bostani Bar & Restaurant","lat":36.983114036475556,"lng":24.733935585542696,"url":"https://maps.app.goo.gl/s5s1BcxwRoxjRnrv7?g_st=ipc","address":"Poulati, Sifnos 840 03","categoryIds":["luxury-dining"],"categories":["Luxury Dining"]},{"id":"luxuryDiningRestaurants_bfd21fa32b8e","slug":"perivoli-restaurant-bfd2","kind":"restaurant","name":"Perivoli Restaurant","lat":36.98184971359456,"lng":24.72167247742077,"url":"https://maps.app.goo.gl/iAutDnpTgMPkufBt7?g_st=ipc","address":"Αρτεμώνας 840 03","categoryIds":["luxury-dining"],"categories":["Luxury Dining"]},{"id":"fishTavernasRestaurants_c2965cc0335d","slug":"maiolica-sifnos-c296","kind":"restaurant","name":"Maiòlica Sifnos","lat":36.93201088219794,"lng":24.731152746803176,"url":"https://maps.app.goo.gl/RsiuxKtR7W21BNnb8?g_st=ipc","address":"Πλατύς Γιαλός 840 03","categoryIds":["fish-tavernas","luxury-dining"],"categories":["Fish Tavernas","Luxury Dining"],"legacySlugs":["maiolica-sifnos-5a94"]},{"id":"luxuryDiningRestaurants_9f9cf29a5760","slug":"makris-milos-fine-dining-restaurant-9f9c","kind":"restaurant","name":"Makris Milos Fine Dining Restaurant","lat":36.744626545035004,"lng":24.481317634143164,"url":"https://maps.app.goo.gl/DyjWXnMeBVwqWcfy6?g_st=ipc","address":"Mytakas, Island 848 00","categoryIds":["luxury-dining"],"categories":["Luxury Dining"]},{"id":"luxuryDiningRestaurants_162c7c269249","slug":"mario-restaurant-162c","kind":"restaurant","name":"Mario Restaurant","lat":37.091334008503296,"lng":25.156686500869714,"url":"https://maps.app.goo.gl/XvstBKLEfdRFvAHv7?g_st=ipc","address":"Λιβάδια, Paros 844 00","categoryIds":["luxury-dining"],"categories":["Luxury Dining"]},{"id":"luxuryDiningRestaurants_1787918aabcc","slug":"matsuhisa-paros-1787","kind":"restaurant","name":"Matsuhisa Paros","lat":37.122332088945846,"lng":25.232444794394056,"url":"https://maps.app.goo.gl/MmRAPTUjpZ9ev73JA?g_st=ipc","address":"Avant Mar Hotel, Paros 844 01","categoryIds":["luxury-dining"],"categories":["Luxury Dining"]},{"id":"luxuryDiningRestaurants_daff556d4496","slug":"barbarossa-restaurant-daff","kind":"restaurant","name":"Barbarossa Restaurant","lat":37.12519351534626,"lng":25.23748367778552,"url":"https://maps.app.goo.gl/cdTNGtzo6JQDuLoVA?g_st=ipc","address":"Παλιό Λιμάνι Νάουσας, Limanaki, Naousa 844 01","categoryIds":["luxury-dining"],"categories":["Luxury Dining"]},{"id":"fishTavernasRestaurants_9bf6858efa20","slug":"siparos-seaside-restaurant-9bf6","kind":"restaurant","name":"Siparos Seaside Restaurant","lat":37.12641356420799,"lng":25.266629540061626,"url":"https://maps.app.goo.gl/Y5FqpWpLwoZYaHni9?g_st=ipc","address":"Ξιφαρά 844 01","categoryIds":["fish-tavernas","luxury-dining"],"categories":["Fish Tavernas","Luxury Dining"],"legacySlugs":["siparos-seaside-restaurant-0493"]}],"nearby":[{"id":"fishTavernasRestaurants_ce3871da46c4","slug":"captain-george-ce38","kind":"restaurant","name":"Captain George","lat":36.972680765040145,"lng":24.746232108057637,"url":"https://maps.app.goo.gl/XvLMJtYJDb2Y3mQR7?g_st=ipc","address":"Κάστρο 840 03","categoryIds":["fish-tavernas"],"categories":["Fish Tavernas"],"distanceKm":0.05915350903803842},{"id":"greekRestaurants_ff320530ac97","slug":"stiadi-restaurant-ff32","kind":"restaurant","name":"STIADI RESTAURANT","lat":36.97561287483543,"lng":24.743588724806322,"url":"https://maps.app.goo.gl/GtrgABFRG3Uq2rKP9?g_st=ipc","address":"Κάστρο 840 03","categoryIds":["greek-restaurants"],"categories":["Greek Restaurants"],"distanceKm":0.4350296056628695},{"id":"luxuryDiningRestaurants_bc521e15ad20","slug":"bostani-bar-restaurant-bc52","kind":"restaurant","name":"Bostani Bar & Restaurant","lat":36.983114036475556,"lng":24.733935585542696,"url":"https://maps.app.goo.gl/s5s1BcxwRoxjRnrv7?g_st=ipc","address":"Poulati, Sifnos 840 03","categoryIds":["luxury-dining"],"categories":["Luxury Dining"],"distanceKm":1.6176909908206423},{"id":"greekRestaurants_21f1a58b70a1","slug":"drimoni-21f1","kind":"restaurant","name":"Δριμόνι","lat":36.97111592359732,"lng":24.726882746663012,"url":"https://maps.app.goo.gl/FjBr963bhTreLrq66?g_st=ipc","address":"Απολλωνία 840 03","categoryIds":["greek-restaurants"],"categories":["Greek Restaurants"],"distanceKm":1.6996004297876002},{"id":"dessertsRestaurants_816e027b7bd3","slug":"yfes-816e","kind":"restaurant","name":"Yfes","lat":36.971257014168174,"lng":24.72665696440793,"url":"https://maps.app.goo.gl/9np4LKVixhfHWSEt6?g_st=ipc","address":"Απολλωνία 840 03","categoryIds":["desserts"],"categories":["Dessert Shops"],"distanceKm":1.7185862397526692},{"id":"greekRestaurants_abbc05eb93be","slug":"estiatorio-lempesis-abbc","kind":"restaurant","name":"Εστιατόριο Λεμπέσης","lat":36.97977476107011,"lng":24.72663670780289,"url":"https://maps.app.goo.gl/uu2dJGd3dS7HNDiS6?g_st=ipc","address":"Αρτεμώνας 840 03","categoryIds":["greek-restaurants"],"categories":["Greek Restaurants"],"distanceKm":1.9129370477317897},{"id":"italianRestaurants_25eccdd64c34","slug":"mamma-mia-sifnos-apollonia-25ec","kind":"restaurant","name":"Mamma Mia - Sifnos - Apollonia","lat":36.97495083578174,"lng":24.7241131412881,"url":"https://maps.app.goo.gl/88fvareZPz1tuDRy7?g_st=ipc","address":"Απολλωνία 840 03","categoryIds":["italian"],"categories":["Italian Restaurants"],"distanceKm":1.965445480167725},{"id":"greekRestaurants_7921aa5472db","slug":"kafeneio-drakakis-7921","kind":"restaurant","name":"KAFENEIO DRAKAKIS","lat":36.972959258998515,"lng":24.723737653225438,"url":"https://maps.app.goo.gl/HT6hzXp5huwaTTHm7?g_st=ipc","address":"Απολλωνία 840 03","categoryIds":["greek-restaurants"],"categories":["Greek Restaurants"],"distanceKm":1.976592570665784}],"sameRegion":[],"mentionedGuides":[],"canonicalSlug":"cantina-81dc","isCanonicalEntity":true,"enrichment":{"summary_en":"Cantina is a curated restaurant in Kastro 840 03 in the Luxury Dining collection. It is connected to 2 nearby Googlementor picks to help travelers build a stronger local route.","summary_el":"Cantina είναι ένα επιλεγμένο σημείο φαγητού στην περιοχή Kastro 840 03 και ανήκει στη συλλογή Luxury Dining. Συνδέεται με 2 κοντινές προτάσεις του Googlementor για πιο ολοκληρωμένη εμπειρία.","vibe_tags":["curated","premium-dining"],"best_for":["first-time visitors","food lovers","special occasions"],"visit_moments":["lunch stop","dinner stop"],"practical_note":"Address and direct map link are available for easy turn-by-turn access.","nearby_walkable_count":2,"nearby_count_2km":11,"confidence":0.9}},"__N_SSG":true}