{"pageProps":{"entity":{"id":"dessertsRestaurants_d0ca7ccef948","slug":"choureal-choux-profiterole-d0ca","kind":"restaurant","name":"Choureál | Choux & Profiterole","lat":40.63128497514692,"lng":22.94642870495605,"url":"https://maps.app.goo.gl/a3ZWXrDCAGuMcPwA6?g_st=ipc","address":"Paleon Patron Germanou 9, Thessaloniki 546 22","categoryIds":["desserts"],"categories":["Dessert Shops"]},"sameCategory":[{"id":"dessertsRestaurants_79ecf778d058","slug":"trigona-elenidis-kentro-79ec","kind":"restaurant","name":"Trigona Elenidis (Κέντρο)","lat":40.631364775002,"lng":22.945577888917885,"url":"https://maps.app.goo.gl/vemhynL6jAV74wkZA?g_st=ipc","address":"Iktinou 1, Thessaloniki 546 22","categoryIds":["desserts"],"categories":["Dessert Shops"]},{"id":"dessertsRestaurants_9d2a4d7ae9ae","slug":"hatzifotiou-9d2a","kind":"restaurant","name":"Hatzifotiou","lat":40.632118329149435,"lng":22.94703754885986,"url":"https://maps.app.goo.gl/65SPRQQN5mowAwhw8?g_st=ipc","address":"P. Mela 37, Thessaloniki 546 22","categoryIds":["desserts"],"categories":["Dessert Shops"]},{"id":"dessertsRestaurants_07f7d8449744","slug":"tzeneral-zacharoplasteio-07f7","kind":"restaurant","name":"Tzeneral Ζαχαροπλαστείο","lat":40.631986554661324,"lng":22.94743879678818,"url":"https://maps.app.goo.gl/tBpAuNdF8KmF9aXe6?g_st=ipc","address":"P. Mela 44, Thessaloniki 546 22","categoryIds":["desserts"],"categories":["Dessert Shops"]},{"id":"dessertsRestaurants_9bbc0c355797","slug":"agapame-to-katsikisio-gala-9bbc","kind":"restaurant","name":"Αγαπάμε το κατσικίσιο γάλα","lat":40.63062994509152,"lng":22.947679865531065,"url":"https://maps.app.goo.gl/U3wBWwpBXDhPzkpc6?g_st=ipc","address":"P. Mela 28, Thessaloniki 546 22","categoryIds":["desserts"],"categories":["Dessert Shops"]},{"id":"dessertsRestaurants_af6c4ad80b58","slug":"senol-af6c","kind":"restaurant","name":"Senol","lat":40.631655999978115,"lng":22.9479848979778,"url":"https://maps.app.goo.gl/TQFwjdg19bCqCfpz8?g_st=ipc","address":"Paleon Patron Germanou 23, Thessaloniki 546 22","categoryIds":["desserts"],"categories":["Dessert Shops"]},{"id":"dessertsRestaurants_ba34dec40f28","slug":"magoa-patisserie-chocolaterie-ba34","kind":"restaurant","name":"Magoa Patisserie-Chocolaterie","lat":40.63172247185242,"lng":22.9482457723652,"url":"https://maps.app.goo.gl/M7r6TuYWcBQ1KPRT8?g_st=ipc","address":"Paleon Patron Germanou 29, Thessaloniki 546 22","categoryIds":["desserts"],"categories":["Dessert Shops"]},{"id":"dessertsRestaurants_3b2fc988e719","slug":"cookie-man-3b2f","kind":"restaurant","name":"Cookie Man","lat":40.632757475000446,"lng":22.946181479303316,"url":"https://maps.app.goo.gl/WDjY5yJNSF5kSpkeA?g_st=ipc","address":"Makenzi King 8, Thessaloniki 546 22","categoryIds":["desserts"],"categories":["Dessert Shops"]},{"id":"dessertsRestaurants_a6a41ba19f78","slug":"exereton-a6a4","kind":"restaurant","name":"Exereton","lat":40.63128878529408,"lng":22.94431478557479,"url":"https://maps.app.goo.gl/gScJKVggjQfTPnLP8?g_st=ipc","address":"Mitropoleos 69, Thessaloniki 546 23","categoryIds":["desserts","vegetarian"],"categories":["Dessert Shops","Vegetarian Friendly Restaurants"],"legacySlugs":["exereton-e657"]}],"nearby":[{"id":"coffeeBrunchRestaurants_1b425a72f2b5","slug":"join-juice-bars-1b42","kind":"restaurant","name":"JOIN Juice bars","lat":40.63111893989398,"lng":22.94663938125253,"url":"https://maps.app.goo.gl/N6nKzENHvyunx5Mi6?g_st=ipc","address":"Paleon Patron Germanou 10, Thessaloniki 546 22","categoryIds":["coffee-brunch","vegetarian"],"categories":["Coffee & Brunch Spots","Vegetarian Friendly Restaurants"],"legacySlugs":["join-juice-bars-6dea"],"distanceKm":0.025630652011977464},{"id":"cheapEatsRestaurants_6c50423bab44","slug":"hot-pot-pasteria-city-center-6c50","kind":"restaurant","name":"Hot Pot Pasteria City Center","lat":40.63116120039778,"lng":22.946781922089382,"url":"https://maps.app.goo.gl/VGaiUJdvDDnid5Kk9?g_st=ipc","address":"Paleon Patron Germanou 12, Thessaloniki 546 22","categoryIds":["cheap-eats"],"categories":["Gyros & Cheap Eats"],"distanceKm":0.03283125102156253},{"id":"coffeeBrunchRestaurants_59f3ca123c97","slug":"72h-artisanal-bakery-59f3","kind":"restaurant","name":"72H Artisanal Bakery","lat":40.630980814351275,"lng":22.946106919469365,"url":"https://maps.app.goo.gl/xY83zLTaRAhzVGBo8?g_st=ipc","address":"Paleon Patron Germanou 2, Thessaloniki 546 22","categoryIds":["coffee-brunch"],"categories":["Coffee & Brunch Spots"],"distanceKm":0.04337338544759784},{"id":"coffeeBrunchRestaurants_d846b3398205","slug":"valenio-d846","kind":"restaurant","name":"Valenio","lat":40.63145586275098,"lng":22.945904864010572,"url":"https://maps.app.goo.gl/Haiqh54dCVYmVume9?g_st=ipc","address":"Iktinou 6, Thessaloniki 546 22","categoryIds":["coffee-brunch"],"categories":["Coffee & Brunch Spots"],"distanceKm":0.04811659321183893},{"id":"coffeeBrunchRestaurants_f6927d333ac7","slug":"local-thessaloniki-f692","kind":"restaurant","name":"LOCAL Thessaloniki","lat":40.63143794324686,"lng":22.94699527001704,"url":"https://maps.app.goo.gl/RCLyEycZ8dqaLJjT6?g_st=ipc","address":"Paleon Patron Germanou 17, Thessaloniki 546 22","categoryIds":["coffee-brunch"],"categories":["Coffee & Brunch Spots"],"distanceKm":0.050746506008605044},{"id":"greekRestaurants_dd92d680950f","slug":"local-thessaloniki-dd92","kind":"restaurant","name":"LOCAL Thessaloniki","lat":40.631447319193505,"lng":22.946995352889463,"url":"https://maps.app.goo.gl/iMk8Tx82t81vQe5y5?g_st=ipc","address":"Παλαιών Πατρών Γερμανού 17, Θεσσαλονίκη 546 22","categoryIds":["greek-restaurants"],"categories":["Greek Restaurants"],"distanceKm":0.05111193161859437},{"id":"coffeeBrunchRestaurants_cbf12f48a77e","slug":"mandarini-skg-cbf1","kind":"restaurant","name":"Mandarini_skg","lat":40.63174083169372,"lng":22.946676387172698,"url":"https://maps.app.goo.gl/CEdKb7KcdrPJwXZdA?g_st=ipc","address":"Zefxidos 6, Thessaloniki 546 22","categoryIds":["coffee-brunch"],"categories":["Coffee & Brunch Spots"],"distanceKm":0.05482909603246501},{"id":"burgersRestaurants_9cd59af7183c","slug":"mpiftekadiko-kyr-giorgis-9cd5","kind":"restaurant","name":"Μπιφτεκάδικο Κυρ Γιώργης","lat":40.63182341170209,"lng":22.946558572416308,"url":"https://maps.app.goo.gl/us6tkdjDeYvzDx2u6?g_st=ipc","address":"Zefxidos 4, Thessaloniki 546 22","categoryIds":["burgers"],"categories":["Burger Spots"],"distanceKm":0.06086615868393148}],"sameRegion":[],"mentionedGuides":[],"canonicalSlug":"choureal-choux-profiterole-d0ca","isCanonicalEntity":true,"enrichment":{"summary_en":"Choureál | Choux & Profiterole is a curated restaurant in Thessaloniki 546 22 in the Dessert Shops collection. It is connected to 172 nearby Googlementor picks to help travelers build a stronger local route.","summary_el":"Choureál | Choux & Profiterole είναι ένα επιλεγμένο σημείο φαγητού στην περιοχή Thessaloniki 546 22 και ανήκει στη συλλογή Dessert Shops. Συνδέεται με 172 κοντινές προτάσεις του Googlementor για πιο ολοκληρωμένη εμπειρία.","vibe_tags":["curated","sweet-stop"],"best_for":["first-time visitors","food lovers"],"visit_moments":["afternoon break","after dinner"],"practical_note":"Address and direct map link are available for easy turn-by-turn access.","nearby_walkable_count":172,"nearby_count_2km":266,"confidence":0.98}},"__N_SSG":true}