{"pageProps":{"entity":{"id":"dessertsRestaurants_fb9eb4b1bad8","slug":"chou-chouro-fb9e","kind":"restaurant","name":"Chou-Chouro","lat":37.10481340685538,"lng":25.376412266991043,"url":"https://maps.app.goo.gl/Phd5ZDeXAdM1ZXne8?g_st=ipc","address":"Castle Area, Naxos 843 00","categoryIds":["desserts"],"categories":["Dessert Shops"]},"sameCategory":[{"id":"dessertsRestaurants_394832dca619","slug":"waffle-house-3948","kind":"restaurant","name":"Waffle House","lat":37.10467061317303,"lng":25.375709513413007,"url":"https://maps.app.goo.gl/HYZR2GPUwwpWpFCz6?g_st=ipc","address":"Naxos 843 00","categoryIds":["desserts"],"categories":["Dessert Shops"]},{"id":"dessertsRestaurants_c2d46d4f052a","slug":"aktaion-pastry-ice-cream-downtown-c2d4","kind":"restaurant","name":"Aktaion Pastry & Ice Cream | Downtown","lat":37.105490385586045,"lng":25.375549550238706,"url":"https://maps.app.goo.gl/WWUz17HUPNByCsTf9?g_st=ipc","address":"Π. Πρωτοπαπαδάκη, Naxos 843 00","categoryIds":["desserts"],"categories":["Dessert Shops"]},{"id":"dessertsRestaurants_eb323a6e2ce5","slug":"aktaion-eb32","kind":"restaurant","name":"Aktaíon","lat":37.10978039540428,"lng":25.383810454464182,"url":"https://maps.app.goo.gl/2DJ9CavskAENKDWQ6?g_st=ipc","address":"Naxou, Krinides 843 00","categoryIds":["desserts"],"categories":["Dessert Shops"]},{"id":"coffeeBrunchRestaurants_4d900c72bc80","slug":"caffe-greco-4d90","kind":"restaurant","name":"Caffe Greco","lat":37.06283829210554,"lng":25.482179694372245,"url":"https://maps.app.goo.gl/bvxkDLgLP2gCrEDeA?g_st=ipc","address":"Χαλκείο 843 02","categoryIds":["coffee-brunch","desserts"],"categories":["Coffee & Brunch Spots","Dessert Shops"],"legacySlugs":["caffe-greco-cc34"]},{"id":"dessertsRestaurants_8e6cc5f0cd66","slug":"xilofournos-8e6c","kind":"restaurant","name":"Xilofournos","lat":37.08496749131104,"lng":25.244272132832048,"url":"https://maps.app.goo.gl/rAbxWJidxPCZz1CF9?g_st=ipc","address":"Epar.Od. Naoussas-Marpissas, Paros 844 01","categoryIds":["desserts"],"categories":["Dessert Shops"]},{"id":"coffeeBrunchRestaurants_aba1a76a9734","slug":"batistas-bakery-aba1","kind":"restaurant","name":"Batistas Bakery","lat":37.120044252975426,"lng":25.241091509858137,"url":"https://maps.app.goo.gl/VX68GiVxifYLzhWu6?g_st=ipc","address":"Naousa 844 01","categoryIds":["coffee-brunch","desserts"],"categories":["Coffee & Brunch Spots","Dessert Shops"],"legacySlugs":["batistas-bakery-29b6"]},{"id":"coffeeBrunchRestaurants_409a1c00e009","slug":"fasolas-gastrokafeneio-409a","kind":"restaurant","name":"Fasolas Gastrokafeneio","lat":37.05047829842748,"lng":25.497802752574465,"url":"https://maps.app.goo.gl/s28qFqLPN9on9SZy8?g_st=ipc","address":"Filoti 843 02","categoryIds":["coffee-brunch","desserts"],"categories":["Coffee & Brunch Spots","Dessert Shops"],"legacySlugs":["fasolas-gastrokafeneio-d95b"]},{"id":"dessertsRestaurants_0565a393e110","slug":"sweet-smelling-kitchen-0565","kind":"restaurant","name":"Sweet Smelling Kitchen","lat":37.05574111764851,"lng":25.209011772952916,"url":"https://maps.app.goo.gl/S3vicBhUXPLLmBEK6?g_st=ipc","address":"ΧΩΡΙΟ ΛΕΥΚΕΣ Τ.Θ. 50104, Paros 844 00","categoryIds":["desserts"],"categories":["Dessert Shops"]}],"nearby":[{"id":"dessertsRestaurants_394832dca619","slug":"waffle-house-3948","kind":"restaurant","name":"Waffle House","lat":37.10467061317303,"lng":25.375709513413007,"url":"https://maps.app.goo.gl/HYZR2GPUwwpWpFCz6?g_st=ipc","address":"Naxos 843 00","categoryIds":["desserts"],"categories":["Dessert Shops"],"distanceKm":0.064312257507165},{"id":"coffeeBrunchRestaurants_a5bfbc32c87f","slug":"hurmas-all-day-bistro-restaurant-a5bf","kind":"restaurant","name":"HURMAS | All Day Bistro & Restaurant","lat":37.105038240518304,"lng":25.37570759141786,"url":"https://maps.app.goo.gl/69BkMU2pWVao3FWX7?g_st=ipc","address":"Protopapadaki, Naxos 843 00","categoryIds":["coffee-brunch"],"categories":["Coffee & Brunch Spots"],"distanceKm":0.06730698916940903},{"id":"municipalities_e677bfcb95e3","slug":"naxos-e677","kind":"municipality","name":"Νάξος","lat":37.1042,"lng":25.3772,"aliases":["Naxos","Νάξιον","Ναξος"],"region":"Κυκλάδες","name_en":"Naxos","region_en":"Cyclades","distanceKm":0.09763400672841861},{"id":"coffeeBrunchRestaurants_e00fbc861ff8","slug":"avaton-1739-coffee-wine-roof-e00f","kind":"restaurant","name":"AVATON 1739 - Coffee & Wine Roof","lat":37.10529514165084,"lng":25.377380277769117,"url":"https://maps.app.goo.gl/31ofe6z6fLcDE8U48?g_st=ipc","address":"Kastro, Naxos 843 00","categoryIds":["coffee-brunch","rooftop-lounges"],"categories":["Coffee & Brunch Spots","Rooftop Lounges"],"legacySlugs":["avaton-1739-coffee-wine-roof-741d"],"distanceKm":0.1011862047633881},{"id":"dessertsRestaurants_c2d46d4f052a","slug":"aktaion-pastry-ice-cream-downtown-c2d4","kind":"restaurant","name":"Aktaion Pastry & Ice Cream | Downtown","lat":37.105490385586045,"lng":25.375549550238706,"url":"https://maps.app.goo.gl/WWUz17HUPNByCsTf9?g_st=ipc","address":"Π. Πρωτοπαπαδάκη, Naxos 843 00","categoryIds":["desserts"],"categories":["Dessert Shops"],"distanceKm":0.10733059981759817},{"id":"cheapEatsRestaurants_4dbaa21f0de9","slug":"yasouvlaki-4dba","kind":"restaurant","name":"Yasouvlaki!","lat":37.104045402591176,"lng":25.37553445494035,"url":"https://maps.app.goo.gl/B6fuRTJ3jQNZCZMJ8?g_st=ipc","address":"Naxos 843 00","categoryIds":["cheap-eats"],"categories":["Gyros & Cheap Eats"],"distanceKm":0.11555467212721826},{"id":"rooftopLoungesRestaurants_b11d5369fcab","slug":"swing-cocktail-bar-naxos-b11d","kind":"restaurant","name":"Swing Cocktail Bar Naxos","lat":37.10397730324002,"lng":25.375517434266428,"url":"https://maps.app.goo.gl/wrFubAW9MXvR6z5Y6?g_st=ipc","address":"Protopapadaki, Naxos 843 00","categoryIds":["rooftop-lounges"],"categories":["Rooftop Lounges"],"distanceKm":0.12223270589680621},{"id":"fishTavernasRestaurants_d7e3e1315391","slug":"sarris-tavern-d7e3","kind":"restaurant","name":"Sarris Tavern","lat":37.10364861622317,"lng":25.37580990635783,"url":"https://maps.app.goo.gl/AXzYwLeXrYvTjRri8?g_st=ipc","address":"Sarris Tavern 8, Naxos 843 00","categoryIds":["fish-tavernas"],"categories":["Fish Tavernas"],"distanceKm":0.14010240655308676}],"sameRegion":[],"mentionedGuides":[],"canonicalSlug":"chou-chouro-fb9e","isCanonicalEntity":true,"enrichment":{"summary_en":"Chou-Chouro is a curated restaurant in Naxos 843 00 in the Dessert Shops collection. It is connected to 29 nearby Googlementor picks to help travelers build a stronger local route.","summary_el":"Chou-Chouro είναι ένα επιλεγμένο σημείο φαγητού στην περιοχή Naxos 843 00 και ανήκει στη συλλογή Dessert Shops. Συνδέεται με 29 κοντινές προτάσεις του Googlementor για πιο ολοκληρωμένη εμπειρία.","vibe_tags":["curated","sweet-stop"],"best_for":["first-time visitors","food lovers"],"visit_moments":["afternoon break","after dinner"],"practical_note":"Address and direct map link are available for easy turn-by-turn access.","nearby_walkable_count":29,"nearby_count_2km":31,"confidence":0.98}},"__N_SSG":true}