{"pageProps":{"entity":{"id":"cheapEatsRestaurants_360554fc9fc3","slug":"christos-3605","kind":"restaurant","name":"Christos","lat":40.63147006963023,"lng":22.952399705195514,"url":"https://maps.app.goo.gl/NQPjMfCoN4AKJD3m8?g_st=ipc","address":"Egnatia 150, Thessaloniki 546 21","categoryIds":["cheap-eats"],"categories":["Gyros & Cheap Eats"]},"sameCategory":[{"id":"cheapEatsRestaurants_59b46ad1098f","slug":"gouda-luck-59b4","kind":"restaurant","name":"Gouda luck","lat":40.632030062154726,"lng":22.9512395674924,"url":"https://maps.app.goo.gl/w5kby75ZDPeF56mp7?g_st=ic","address":"Egnatia 144, Thessaloniki 546 22","categoryIds":["cheap-eats"],"categories":["Gyros & Cheap Eats"]},{"id":"cheapEatsRestaurants_14153fc76d40","slug":"because-bagel-1415","kind":"restaurant","name":"Because Bagel","lat":40.63057520882739,"lng":22.951254328665513,"url":"https://maps.app.goo.gl/F867e4fDb8YFQcHN9?g_st=ipc","address":"Al. Svolou 41, Thessaloniki 546 21","categoryIds":["cheap-eats","coffee-brunch"],"categories":["Gyros & Cheap Eats","Coffee & Brunch Spots"],"legacySlugs":["because-bagel-f384"]},{"id":"cheapEatsRestaurants_3f9006febdb5","slug":"life-and-chicken-3f90","kind":"restaurant","name":"Life And Chicken","lat":40.63311964993022,"lng":22.951739765062324,"url":"https://maps.app.goo.gl/fczSwQFG8SAVzjsu7?g_st=ipc","address":"Κέντρο, Θεσσαλονίκη, Patriarchou Ioakim 26, Thessaloniki 546 35","categoryIds":["cheap-eats"],"categories":["Gyros & Cheap Eats"]},{"id":"cheapEatsRestaurants_76d0caaa7f9f","slug":"giok-balik-76d0","kind":"restaurant","name":"Giok Balik","lat":40.62972191102995,"lng":22.952456612586893,"url":"https://maps.app.goo.gl/1CjK5eGEVn2bdjxz8?g_st=ipc","address":"Eth. Aminis 34, Thessaloniki 546 21","categoryIds":["cheap-eats"],"categories":["Gyros & Cheap Eats"]},{"id":"cheapEatsRestaurants_1133d517c2b8","slug":"sun-do-each-1133","kind":"restaurant","name":"SUN DO EACH","lat":40.629855288469905,"lng":22.95097907140209,"url":"https://maps.app.goo.gl/ZU1we2eajmmkHarSA?g_st=ipc","address":"Pl. Ippodromiou 12, Thessaloniki 546 21","categoryIds":["cheap-eats"],"categories":["Gyros & Cheap Eats"]},{"id":"cheapEatsRestaurants_3bf8a692d929","slug":"argophageio-3bf8","kind":"restaurant","name":"Argophageío","lat":40.631121382402085,"lng":22.94963262184118,"url":"https://maps.app.goo.gl/hi9XxDarzuTKvZmD8?g_st=ipc","address":"Apellou 6, Thessaloniki 546 22","categoryIds":["cheap-eats"],"categories":["Gyros & Cheap Eats"]},{"id":"cheapEatsRestaurants_3a84f1e5b6b2","slug":"pizza-chris-3a84","kind":"restaurant","name":"Pizza Chris","lat":40.634238789767664,"lng":22.952894059300746,"url":"https://maps.app.goo.gl/rMq3J3GrNZNoRMpZ9?g_st=ipc","address":"Armenopoulou 17, Thessaloniki 546 35","categoryIds":["cheap-eats"],"categories":["Gyros & Cheap Eats"]},{"id":"cheapEatsRestaurants_7ae963e72327","slug":"last-bite-7ae9","kind":"restaurant","name":"LAST BITE","lat":40.63432876296427,"lng":22.95290522955353,"url":"https://maps.app.goo.gl/qLtPEtu7Ux91nEnP8?g_st=ipc","address":"Kiriakou Manolaki 1, Thessaloniki 546 35","categoryIds":["cheap-eats","desserts"],"categories":["Gyros & Cheap Eats","Dessert Shops"],"legacySlugs":["last-bite-cc54"]}],"nearby":[{"id":"fishTavernasRestaurants_58ab1d4f1af2","slug":"ouzerie-lola-58ab","kind":"restaurant","name":"Ouzerie Lola","lat":40.63145175292193,"lng":22.952078380847976,"url":"https://maps.app.goo.gl/idPwmz3cDUMQDRf87?g_st=ipc","address":"Agapinou 10, Thessaloniki 546 21","categoryIds":["fish-tavernas"],"categories":["Fish Tavernas"],"distanceKm":0.027192100757740336},{"id":"vegetarianRestaurants_43af59721fc8","slug":"omg-in-skg-43af","kind":"restaurant","name":"OMG in SKG","lat":40.63186182844344,"lng":22.953097770969947,"url":"https://maps.app.goo.gl/b6twRtPbJbTuXUe26?g_st=ipc","address":"Episkopou Kitrous Nikolaou 1, Thessaloniki 546 35","categoryIds":["vegetarian"],"categories":["Vegetarian Friendly Restaurants"],"distanceKm":0.07326483363467291},{"id":"mustSeeAttractions_6c182d5c56d9","slug":"arch-of-galerius-6c18","kind":"restaurant","name":"Arch of Galerius","lat":40.6322250425038,"lng":22.95175086035539,"url":"https://maps.app.goo.gl/VHhyUKPZMLXo4AeBA?g_st=ipc","address":"Egnatia 144, Thessaloniki 546 22","categoryIds":["attractions"],"categories":["Must-See Attractions"],"distanceKm":0.10022704260878133},{"id":"burgersRestaurants_d933f81e3617","slug":"pass-the-smashed-d933","kind":"restaurant","name":"Pass The Smashed","lat":40.63217264797822,"lng":22.953233528916606,"url":"https://maps.app.goo.gl/gnzc1t32pqqQF6sQ7?g_st=ic","address":"Episkopou Kitrous Nikolaou 2, Thessaloniki 546 35","categoryIds":["burgers"],"categories":["Burger Spots"],"distanceKm":0.1051393940820226},{"id":"cheapEatsRestaurants_59b46ad1098f","slug":"gouda-luck-59b4","kind":"restaurant","name":"Gouda luck","lat":40.632030062154726,"lng":22.9512395674924,"url":"https://maps.app.goo.gl/w5kby75ZDPeF56mp7?g_st=ic","address":"Egnatia 144, Thessaloniki 546 22","categoryIds":["cheap-eats"],"categories":["Gyros & Cheap Eats"],"distanceKm":0.11602526264687556},{"id":"asianRestaurants_aa56878cf133","slug":"nagomi-jpn-aa56","kind":"restaurant","name":"Nagomi Jpn","lat":40.63061239454344,"lng":22.951225233616498,"url":"https://maps.app.goo.gl/8UyTpuy2ncGK15GJ6?g_st=ic","address":"Al. Svolou 41, Thessaloniki 546 22","categoryIds":["asian","desserts"],"categories":["Asian Restaurants","Dessert Shops"],"legacySlugs":["nagomi-jpn-eccd"],"distanceKm":0.13754380008870193},{"id":"cheapEatsRestaurants_14153fc76d40","slug":"because-bagel-1415","kind":"restaurant","name":"Because Bagel","lat":40.63057520882739,"lng":22.951254328665513,"url":"https://maps.app.goo.gl/F867e4fDb8YFQcHN9?g_st=ipc","address":"Al. Svolou 41, Thessaloniki 546 21","categoryIds":["cheap-eats","coffee-brunch"],"categories":["Gyros & Cheap Eats","Coffee & Brunch Spots"],"legacySlugs":["because-bagel-f384"],"distanceKm":0.13872063498209494},{"id":"dessertsRestaurants_9d142e026cde","slug":"gelati-e-amore-9d14","kind":"restaurant","name":"Gelati e Amore","lat":40.63013548543496,"lng":22.951618020186764,"url":"https://maps.app.goo.gl/vMrAJXJCUj5tn2mDA?g_st=ipc","address":"Al. Svolou 44, Thessaloniki 546 21","categoryIds":["desserts"],"categories":["Dessert Shops"],"distanceKm":0.16239963355142314}],"sameRegion":[],"mentionedGuides":[],"canonicalSlug":"christos-3605","isCanonicalEntity":true,"enrichment":{"summary_en":"Christos is a curated restaurant in Thessaloniki 546 21 in the Gyros & Cheap Eats collection. It is connected to 126 nearby Googlementor picks to help travelers build a stronger local route.","summary_el":"Christos είναι ένα επιλεγμένο σημείο φαγητού στην περιοχή Thessaloniki 546 21 και ανήκει στη συλλογή Gyros & Cheap Eats. Συνδέεται με 126 κοντινές προτάσεις του Googlementor για πιο ολοκληρωμένη εμπειρία.","vibe_tags":["curated","budget-friendly"],"best_for":["first-time visitors","food lovers","budget travelers"],"visit_moments":["lunch stop","dinner stop"],"practical_note":"Address and direct map link are available for easy turn-by-turn access.","nearby_walkable_count":126,"nearby_count_2km":268,"confidence":0.98}},"__N_SSG":true}