{"pageProps":{"entity":{"id":"vegetarianRestaurants_617b8834cbfd","slug":"city-bliss-617b","kind":"restaurant","name":"City Bliss","lat":37.962615845106846,"lng":23.696852638288863,"url":"https://maps.app.goo.gl/yu97jv8qaY2BF8AQ8?g_st=ipc","address":"Κύπρου 14, Ταύρος Αττικής 177 78","categoryIds":["vegetarian"],"categories":["Vegetarian Friendly Restaurants"]},"sameCategory":[{"id":"coffeeBrunchRestaurants_10b5704edcd7","slug":"karminio-all-day-eatery-10b5","kind":"restaurant","name":"KARMINIO - All Day Eatery","lat":37.963365261808825,"lng":23.721069408577183,"url":"https://maps.app.goo.gl/B47HWPSnhF6mtY1M8?g_st=ipc","address":"Βεΐκου 86, Αθήνα 117 41","categoryIds":["coffee-brunch","vegetarian"],"categories":["Coffee & Brunch Spots","Vegetarian Friendly Restaurants"],"legacySlugs":["karminio-all-day-eatery-44c1"]},{"id":"vegetarianRestaurants_06ce84bd30cd","slug":"mother-vegan-bistro-06ce","kind":"restaurant","name":"Mother Vegan Bistro","lat":37.962693218314804,"lng":23.721538252984118,"url":"https://maps.app.goo.gl/TZgz9fcY4M4aZZQD6?g_st=ipc","address":"Δημητρακοπούλου, Αγίου Νικολάου 95, Αθήνα 117 41","categoryIds":["vegetarian"],"categories":["Vegetarian Friendly Restaurants"]},{"id":"vegetarianRestaurants_de7324c496a6","slug":"fakafel-de73","kind":"restaurant","name":"Φakafel","lat":37.945977379116876,"lng":23.71063148252821,"url":"https://maps.app.goo.gl/r5AXr2ToKxBqZpAv9?g_st=ipc","address":"Φakafel","categoryIds":["vegetarian"],"categories":["Vegetarian Friendly Restaurants"]},{"id":"coffeeBrunchRestaurants_4c997e8e7df4","slug":"the-place-secret-yard-4c99","kind":"restaurant","name":"The Place Secret Yard","lat":37.979297007842895,"lng":23.7118945584477,"url":"https://maps.app.goo.gl/H2MApFAjiqUyTf7B8?g_st=ipc","address":"Τριπτολέμου 26, Αθήνα 118 54","categoryIds":["coffee-brunch","vegetarian"],"categories":["Coffee & Brunch Spots","Vegetarian Friendly Restaurants"],"legacySlugs":["the-place-secret-yard-0734"]},{"id":"vegetarianRestaurants_663d79e21a0f","slug":"noa-poke-koukaki-663d","kind":"restaurant","name":"Noa Poke Koukaki","lat":37.962721066064105,"lng":23.72328239582356,"url":"https://maps.app.goo.gl/2BHN8JbCEv2oz4LT8?g_st=ipc","address":"Φαλήρου 84, Αθήνα 117 41","categoryIds":["vegetarian"],"categories":["Vegetarian Friendly Restaurants"]},{"id":"mexicanRestaurants_e022afb77fe2","slug":"amigos-e022","kind":"restaurant","name":"Amigos","lat":37.94499454255761,"lng":23.71221746209658,"url":"https://maps.app.goo.gl/BHdiVv9h7dD8bkiu6?g_st=ipc","address":"Μεγ. Αλεξάνδρου 70, Νέα Σμύρνη 171 22","categoryIds":["mexican","vegetarian"],"categories":["Mexican Restaurants","Vegetarian Friendly Restaurants"],"legacySlugs":["amigos-83a2"]},{"id":"cheapEatsRestaurants_ccda7a47a1b9","slug":"falafel-bar-to-revithi-ccda","kind":"restaurant","name":"falafel bar ΤΟ ΡΕΒΙΘΙ","lat":37.96631483519238,"lng":23.7261110398094,"url":"https://maps.app.goo.gl/4FqJYg2raYZvXHja7?g_st=ipc","address":"Παρθενώνος 1, Αθήνα 117 42","categoryIds":["cheap-eats","vegetarian"],"categories":["Gyros & Cheap Eats","Vegetarian Friendly Restaurants"],"legacySlugs":["falafel-bar-to-revithi-dec0"]},{"id":"vegetarianRestaurants_c67e718a73e4","slug":"calibra-votanikos-c67e","kind":"restaurant","name":"CALIBRA - Votanikos","lat":37.98303566126477,"lng":23.711367796488275,"url":"https://maps.app.goo.gl/aPvyrqA5tYdbUuhP8?g_st=ipc","address":"CALIBRA - Votanikos","categoryIds":["vegetarian"],"categories":["Vegetarian Friendly Restaurants"]}],"nearby":[{"id":"cheapEatsRestaurants_2631e9cf6c33","slug":"andreas-2631","kind":"restaurant","name":"Ανδρέας","lat":37.96513210122869,"lng":23.697946357808643,"url":"https://maps.app.goo.gl/FLdq6c6WUqhHtMqK9?g_st=ipc","address":"Χρυσοστόμου Σμύρνης 52, Ταύρος Αττικής 177 78","categoryIds":["cheap-eats"],"categories":["Gyros & Cheap Eats"],"distanceKm":0.2957677191600438},{"id":"coffeeBrunchRestaurants_e8ba4bec6d9a","slug":"zatopek-book-cafe-e8ba","kind":"restaurant","name":"Zatopek book cafe","lat":37.95902409225205,"lng":23.698098106664805,"url":"https://maps.app.goo.gl/2WQxsGPEDfG7d62UA?g_st=ipc","address":"Π. Τσαλδάρη 209, Καλλιθέα 176 76","categoryIds":["coffee-brunch"],"categories":["Coffee & Brunch Spots"],"distanceKm":0.41404169591491485},{"id":"greekRestaurants_0a00e5cfcbb9","slug":"motosako-0a00","kind":"restaurant","name":"ΜΟΤΟΣΑΚΟ","lat":37.961601438829575,"lng":23.703084593129155,"url":"https://maps.app.goo.gl/EvRoWXo4KNzPYiSL9","address":"Π. Τσαλδάρη 157, Καλλιθέα 176 76","categoryIds":["greek-restaurants"],"categories":["Greek Restaurants"],"distanceKm":0.5578657307354794},{"id":"coffeeBrunchRestaurants_85d40f2fead5","slug":"koyl-athens-koul-athens-85d4","kind":"restaurant","name":"Κούλ Άθενς (Koul Athens)","lat":37.962653742021914,"lng":23.705449559299996,"url":"https://maps.app.goo.gl/nrAGHFNRzBKSDpfL9?g_st=ipc","address":"P. Tsaldari 129, Kallithea 176 76","categoryIds":["coffee-brunch"],"categories":["Coffee & Brunch Spots"],"distanceKm":0.7536817012360222},{"id":"greekRestaurants_9f70b553963a","slug":"mezeklikia-9f70","kind":"restaurant","name":"Μεζεκλίκια","lat":37.956254016920724,"lng":23.6929814615304,"url":"https://maps.app.goo.gl/SnbVYFRKtMTWopt79","address":"Π. Τσαλδάρη 277, Καλλιθέα 176 75","categoryIds":["greek-restaurants"],"categories":["Greek Restaurants"],"distanceKm":0.7846051245439637},{"id":"coffeeBrunchRestaurants_2d5ab042fd9b","slug":"acera-the-brunch-project-2d5a","kind":"restaurant","name":"Acera The Brunch Project","lat":37.95687155697196,"lng":23.702731169430688,"url":"https://maps.app.goo.gl/evNfcdJQ34R2FXQR8?g_st=ipc","address":"Μαντζαγριωτάκη 105, Καλλιθέα 176 76","categoryIds":["coffee-brunch"],"categories":["Coffee & Brunch Spots"],"distanceKm":0.8207287515060222},{"id":"cheapEatsRestaurants_69740415da3d","slug":"best-taste-6974","kind":"restaurant","name":"Best Taste","lat":37.96738306337228,"lng":23.70591216193093,"url":"https://maps.app.goo.gl/kwZdwHs4BAKbQ5T69?g_st=ipc","address":"Αθηνοδώρου 23, Αθήνα 118 53","categoryIds":["cheap-eats"],"categories":["Gyros & Cheap Eats"],"distanceKm":0.9548553863614162},{"id":"cheapEatsRestaurants_d3888472f0b3","slug":"crepa-holic-kallithea-d388","kind":"restaurant","name":"Crepa Holic Kallithea","lat":37.95367992559356,"lng":23.699030666898533,"url":"https://maps.app.goo.gl/bLUgt75SSMUYsoXCA?g_st=ipc","address":"Λεωφ. Ελ. Βενιζέλου 185, Καλλιθέα 176 73","categoryIds":["cheap-eats"],"categories":["Gyros & Cheap Eats"],"distanceKm":1.0118111400238712}],"sameRegion":[],"mentionedGuides":[],"canonicalSlug":"city-bliss-617b","isCanonicalEntity":true,"enrichment":{"summary_en":"City Bliss is a curated restaurant in Ταύρος Αττικής 177 78 in the Vegetarian Friendly Restaurants collection. It is connected to 5 nearby Googlementor picks to help travelers build a stronger local route.","summary_el":"City Bliss είναι ένα επιλεγμένο σημείο φαγητού στην περιοχή Ταύρος Αττικής 177 78 και ανήκει στη συλλογή Vegetarian Friendly Restaurants. Συνδέεται με 5 κοντινές προτάσεις του Googlementor για πιο ολοκληρωμένη εμπειρία.","vibe_tags":["curated"],"best_for":["first-time visitors","food lovers"],"visit_moments":["lunch stop","dinner stop"],"practical_note":"Address and direct map link are available for easy turn-by-turn access.","nearby_walkable_count":5,"nearby_count_2km":49,"confidence":0.98}},"__N_SSG":true}