{"pageProps":{"entity":{"id":"burgersRestaurants_2cfc1007d530","slug":"criminal-taste-smash-burger-2cfc","kind":"restaurant","name":"Criminal Taste - Smash Burger","lat":37.98830387219437,"lng":23.758246415299563,"url":"https://maps.app.goo.gl/bjsnq9fK7qPHgAum7?g_st=ipc","address":"Πανόρμου 10, Αθήνα 115 23","categoryIds":["burgers"],"categories":["Burger Spots"]},"sameCategory":[{"id":"burgersRestaurants_01b4e6c2697b","slug":"smashtag-01b4","kind":"restaurant","name":"SmashTag","lat":37.97799517923772,"lng":23.75631086140523,"url":"https://maps.app.goo.gl/Yu7VLwDA42Wp7pZo8","address":"Michalakopoulou 68, Athina 115 28","categoryIds":["burgers"],"categories":["Burger Spots"]},{"id":"burgersRestaurants_2bbfe567ce4d","slug":"taz-smash-burger-2bbf","kind":"restaurant","name":"Taz Smash Burger","lat":37.9974813634221,"lng":23.768005845039937,"url":"https://maps.app.goo.gl/Ms7N2dUnnPDHDSW29?g_st=ipc","address":"Περικλή Σταύρου 3, Αθήνα 115 24","categoryIds":["burgers"],"categories":["Burger Spots"]},{"id":"burgersRestaurants_bfe01035e2db","slug":"agora-select-bfe0","kind":"restaurant","name":"Agora Select","lat":37.97626574663726,"lng":23.751456733864202,"url":"https://maps.app.goo.gl/GxR6tX8MHegtVPLA7?g_st=ipc","address":"Χατζηγιάννη Μέξη 8 και, Κων/νου Βεντήρη 9, Αθήνα 115 28","categoryIds":["burgers","greek-restaurants"],"categories":["Burger Spots","Greek Restaurants"],"legacySlugs":["agora-select-aecd"]},{"id":"burgersRestaurants_349cb9dc8b75","slug":"smash-n-bun-349c","kind":"restaurant","name":"Smash'n Bun","lat":37.97817483675376,"lng":23.745292656199194,"url":"https://maps.app.goo.gl/4n21xowaSG1Zg8d79?g_st=ipc","address":"Πατριάρχου Ιωακείμ 48, Αθήνα 106 76","categoryIds":["burgers"],"categories":["Burger Spots"]},{"id":"burgersRestaurants_c839a7ca9229","slug":"prigkipas-c839","kind":"restaurant","name":"Πρiγκιπας","lat":37.983677017107105,"lng":23.73451147367233,"url":"https://maps.app.goo.gl/fEvt3vsxx19nFxqw8?g_st=ipc","address":"Χαρ. Τρικούπη 23, Αθήνα 106 81","categoryIds":["burgers","cheap-eats"],"categories":["Burger Spots","Gyros & Cheap Eats"],"legacySlugs":["prigkipas-f678"]},{"id":"burgersRestaurants_293449c2193c","slug":"exberg-2934","kind":"restaurant","name":"Exberg","lat":37.985722017039464,"lng":23.73377568835493,"url":"https://maps.app.goo.gl/671QPGYqt87fhozt8?g_st=ipc","address":"Θεμιστοκλέους 56, Αθήνα 106 81","categoryIds":["burgers"],"categories":["Burger Spots"]},{"id":"burgersRestaurants_a48e075150a2","slug":"greasy-spoon-athens-a48e","kind":"restaurant","name":"Greasy Spoon Athens","lat":37.971165228067136,"lng":23.74653583168114,"url":"https://maps.app.goo.gl/jy3gfbvNXVipSkrJA?g_st=ic","address":"Archelaou 14, Athina 116 35","categoryIds":["burgers"],"categories":["Burger Spots"]},{"id":"burgersRestaurants_7ee34e05dcb7","slug":"x11-burgers-7ee3","kind":"restaurant","name":"X11 Burgers","lat":37.97115113774925,"lng":23.746564304670212,"url":"https://maps.app.goo.gl/kMJu1ePUZJzGwAJdA?g_st=ipc","address":"Αρχελάου 14, Αθήνα 116 35","categoryIds":["burgers"],"categories":["Burger Spots"]}],"nearby":[{"id":"asianRestaurants_01d2fd8409bc","slug":"siam-thai-food-01d2","kind":"restaurant","name":"Siam Thai Food","lat":37.98765776292927,"lng":23.75850606152562,"url":"https://maps.app.goo.gl/V19mHCb8LHh8jNgz6?g_st=ipc","address":"Βατοπεδίου 6, Αθήνα 115 23","categoryIds":["asian"],"categories":["Asian Restaurants"],"distanceKm":0.07536143010057933},{"id":"cheapEatsRestaurants_f3cf5026ad57","slug":"peinirli-ionias-f3cf","kind":"restaurant","name":"Πεϊνιρλί Ιωνίας","lat":37.98758471065417,"lng":23.75770179070527,"url":"https://maps.app.goo.gl/SXittnYdkLPeQRb17?g_st=ipc","address":"Πανόρμου 3, Αθήνα 115 22","categoryIds":["cheap-eats"],"categories":["Gyros & Cheap Eats"],"distanceKm":0.09312804437221903},{"id":"greekRestaurants_b1c00c9474af","slug":"agora-b1c0","kind":"restaurant","name":"AGORA","lat":37.98712790409338,"lng":23.757368207050618,"url":"https://maps.app.goo.gl/UKN5PTfDAJ43RhcT7","address":"31, Χρήστου Βουρνάζου str, Αθήνα 115 21","categoryIds":["greek-restaurants"],"categories":["Greek Restaurants"],"distanceKm":0.15173024951085345},{"id":"vegetarianRestaurants_8d2c7b9eb78e","slug":"naanstop-indian-cuisine-8d2c","kind":"restaurant","name":"NaanStop Indian Cuisine","lat":37.98689020299092,"lng":23.76047169895521,"url":"https://maps.app.goo.gl/FunBo9MHcx5NDxcQ7?g_st=ipc","address":"Λεωφ. Αλεξάνδρας 223, Αθήνα 115 23","categoryIds":["vegetarian"],"categories":["Vegetarian Friendly Restaurants"],"distanceKm":0.2504831849848873},{"id":"cheapEatsRestaurants_4873355e0fc6","slug":"delicious-pitta-queen-4873","kind":"restaurant","name":"Delicious Pitta Queen","lat":37.99092416121966,"lng":23.759496408597567,"url":"https://maps.app.goo.gl/1JBJ1wwqkW21Ww447?g_st=ipc","address":"Πανόρμου 36, Αθήνα 115 23","categoryIds":["cheap-eats"],"categories":["Gyros & Cheap Eats"],"distanceKm":0.3112749088527851},{"id":"greekRestaurants_b44e1eb1d480","slug":"oinomageireio-to-trifylli-b44e","kind":"restaurant","name":"Οινομαγειρείο «Το Τριφύλλι»","lat":37.98741582684548,"lng":23.752997875166535,"url":"https://maps.app.goo.gl/ZaG4vxaqPUZoyUEH7","address":"Παναθηναϊκού 7, Αθήνα 115 21","categoryIds":["greek-restaurants"],"categories":["Greek Restaurants"],"distanceKm":0.4704479379826292},{"id":"asianRestaurants_6980a2c0f36c","slug":"rawbata-6980","kind":"restaurant","name":"RawBata","lat":37.991621984562435,"lng":23.76287776299424,"url":"https://maps.app.goo.gl/j57HrF6nf6youYLV8","address":"Lakonias 33, Athina 115 23","categoryIds":["asian"],"categories":["Asian Restaurants"],"distanceKm":0.548504901774032},{"id":"dessertsRestaurants_82392100ef3d","slug":"galaktopoleio-stamoy-8239","kind":"restaurant","name":"Γαλακτοπωλείο ΣΤΑΜΟΥ","lat":37.99247877904618,"lng":23.761668631710492,"url":"https://maps.app.goo.gl/118TMc1zY2E2HRzEA?g_st=ipc","address":"Πανόρμου 62, Αθήνα 115 23","categoryIds":["desserts"],"categories":["Dessert Shops"],"distanceKm":0.5526754478724634}],"sameRegion":[],"mentionedGuides":[],"canonicalSlug":"criminal-taste-smash-burger-2cfc","isCanonicalEntity":true,"enrichment":{"summary_en":"Criminal Taste - Smash Burger is a curated restaurant in Αθήνα 115 23 in the Burger Spots collection. It is connected to 19 nearby Googlementor picks to help travelers build a stronger local route.","summary_el":"Criminal Taste - Smash Burger είναι ένα επιλεγμένο σημείο φαγητού στην περιοχή Αθήνα 115 23 και ανήκει στη συλλογή Burger Spots. Συνδέεται με 19 κοντινές προτάσεις του Googlementor για πιο ολοκληρωμένη εμπειρία.","vibe_tags":["curated"],"best_for":["first-time visitors","food lovers"],"visit_moments":["lunch stop","dinner stop"],"practical_note":"Address and direct map link are available for easy turn-by-turn access.","nearby_walkable_count":19,"nearby_count_2km":144,"confidence":0.98}},"__N_SSG":true}