{"pageProps":{"entity":{"id":"italianRestaurants_fae68809d6c4","slug":"deluxe-pizza-fae6","kind":"restaurant","name":"Deluxe Pizza","lat":40.09497571247146,"lng":23.785047733849556,"url":"https://maps.app.goo.gl/GPBVkCTKG7m2uSNw7?g_st=ipc","address":"Ιωάννη Καρρά, Neos Marmaras 630 81","categoryIds":["italian"],"categories":["Italian Restaurants"]},"sameCategory":[{"id":"italianRestaurants_733e26d4376e","slug":"capri-nuovo-733e","kind":"restaurant","name":"Capri Nuovo","lat":40.21248872613691,"lng":23.671364142442222,"url":"https://maps.app.goo.gl/rZCcxBdEfxEpaj619?g_st=ipc","address":"Egialou, Nikiti 630 88","categoryIds":["italian"],"categories":["Italian Restaurants"]},{"id":"coffeeBrunchRestaurants_546a0710ab1d","slug":"alexandros-cafe-restaurant-bar-546a","kind":"restaurant","name":"Alexandros Cafe Restaurant Bar","lat":40.21526877453814,"lng":23.66789134136706,"url":"https://maps.app.goo.gl/3iczx4sTEWWz3ZCY9?g_st=ipc","address":"Egialou 30, Nikiti 630 88","categoryIds":["coffee-brunch","italian"],"categories":["Coffee & Brunch Spots","Italian Restaurants"],"legacySlugs":["alexandros-cafe-restaurant-bar-ffaa"]},{"id":"burgersRestaurants_21be773739d0","slug":"brothers-in-law-smash-n-pasta-thermi-21be","kind":"restaurant","name":"Brothers in Law Smash 'n' Pasta Thermi","lat":40.5561230976469,"lng":23.012690012150046,"url":"https://maps.app.goo.gl/tDetHtpfpgzNvuNC7?g_st=ipc","address":"5 χλμ, Χαρ. Θέρμης 1ο χλμ, Thermi 570 01","categoryIds":["burgers","italian"],"categories":["Burger Spots","Italian Restaurants"],"legacySlugs":["brothers-in-law-smash-n-pasta-thermi-6cb6"]},{"id":"italianRestaurants_2c8b66244f29","slug":"tonino-esperienza-italiana-2c8b","kind":"restaurant","name":"Tonino Esperienza Italiana","lat":40.56132998598623,"lng":23.004796368106923,"url":"https://maps.app.goo.gl/bZQiMSEwbhVFBxUd8?g_st=ipc","address":"Χαρ. Θέρμης, Thermi 570 01","categoryIds":["italian"],"categories":["Italian Restaurants"]},{"id":"italianRestaurants_26ce0faec041","slug":"raffaele-pizza-pasta-26ce","kind":"restaurant","name":"Raffaele Pizza & Pasta","lat":40.609052469541666,"lng":22.97944908191486,"url":"https://maps.app.goo.gl/t8jAxdhgPG7fRJcE7?g_st=ipc","address":"Αμφιπόλεως 45, Thessaloniki 544 54","categoryIds":["italian"],"categories":["Italian Restaurants"]},{"id":"italianRestaurants_2946916b6ad2","slug":"pizza-plain-2946","kind":"restaurant","name":"Pizza Plain","lat":40.601547606224,"lng":22.970026389723678,"url":"https://maps.app.goo.gl/gJ7QpRFhLKuDpyFc9?g_st=ipc","address":"Nik. Plastira 2, Thessaloniki 542 50","categoryIds":["italian"],"categories":["Italian Restaurants"]},{"id":"italianRestaurants_f98055a56a7f","slug":"tonino-pizzeria-napoletana-f980","kind":"restaurant","name":"Tonino Pizzeria Napoletana","lat":40.58464427596488,"lng":22.951802816992593,"url":"https://maps.app.goo.gl/zebuXsdGAEsViD2MA?g_st=ipc","address":"Iereos Papanikola 13-15, Kalamaria 551 31","categoryIds":["italian"],"categories":["Italian Restaurants"]},{"id":"cheapEatsRestaurants_8f3b208739c0","slug":"funky-s-thessaloniki-8f3b","kind":"restaurant","name":"Funky's Thessaloniki","lat":40.615543107651526,"lng":22.974915159309568,"url":"https://maps.app.goo.gl/QNUEoQzqLuXtrpVc7?g_st=ipc","address":"Grigoriou Lampraki 110, Thessaloniki 543 51","categoryIds":["cheap-eats","italian"],"categories":["Gyros & Cheap Eats","Italian Restaurants"],"legacySlugs":["funky-s-thessaloniki-ef2b"]}],"nearby":[{"id":"coffeeBrunchRestaurants_05e087fe1230","slug":"molos-05e0","kind":"restaurant","name":"Molos","lat":40.09415334263866,"lng":23.78475325827316,"url":"https://maps.app.goo.gl/b3KTgBobUtSzbYRQ8?g_st=ipc","address":"25is Martiou 20, Neos Marmaras 630 81","categoryIds":["coffee-brunch"],"categories":["Coffee & Brunch Spots"],"distanceKm":0.09481205541335858},{"id":"fishTavernasRestaurants_6e9e7a8ffef9","slug":"ta-kymata-fresh-fish-seafood-restaurant-6e9e","kind":"restaurant","name":"Ta Kymata - Fresh Fish & Seafood Restaurant","lat":40.09465479356917,"lng":23.781009690936443,"url":"https://maps.app.goo.gl/2y3hfnQFk6jPWzpm7?g_st=ipc","address":"Ιωάννη, Karra, Neos Marmaras 630 81","categoryIds":["fish-tavernas"],"categories":["Fish Tavernas"],"distanceKm":0.34533210317743324},{"id":"coffeeBrunchRestaurants_e74c2a6900af","slug":"kohi-beach-e74c","kind":"restaurant","name":"Kohi beach","lat":40.074443417965654,"lng":23.790085630034497,"url":"https://maps.app.goo.gl/JVA5L8YnHzkTjoQq5?g_st=ipc","address":"PORTO KARRAS, Neos Marmaras 630 81","categoryIds":["coffee-brunch"],"categories":["Coffee & Brunch Spots"],"distanceKm":2.3229681604365955},{"id":"wineriesVineyards_99bb64a2c9e6","slug":"domaine-porto-carras-new-era-99bb","kind":"restaurant","name":"Domaine Porto Carras new era","lat":40.072188356104746,"lng":23.80576582498951,"url":"https://maps.app.goo.gl/huHWpFUEXo8827o1A?g_st=ipc","address":"Σιθωνία 630 81","categoryIds":["wineries-vineyards"],"categories":["Wineries & Vineyards"],"distanceKm":3.0866052255902323},{"id":"fishTavernasRestaurants_c1e639fcf77c","slug":"panos-fish-tavern-c1e6","kind":"restaurant","name":"Panos Fish Tavern","lat":40.02825871317535,"lng":23.814126287287745,"url":"https://maps.app.goo.gl/77jkhaQtjejhyNVk9?g_st=ipc","address":"63081, Neos Marmaras 630 81","categoryIds":["fish-tavernas"],"categories":["Fish Tavernas"],"distanceKm":7.820457399328014},{"id":"coffeeBrunchRestaurants_7e71dcad1f15","slug":"sinaloa-beach-club-7e71","kind":"restaurant","name":"Sinaloa Beach Club","lat":40.02439528883169,"lng":23.83477732325125,"url":"https://maps.app.goo.gl/5y3h9wHEBbAE7ydNA?g_st=ipc","address":"Neos Marmaras 630 81","categoryIds":["coffee-brunch"],"categories":["Coffee & Brunch Spots"],"distanceKm":8.916621864984107},{"id":"greekRestaurants_43468164bfe6","slug":"gorgona-i-poylman-4346","kind":"restaurant","name":"Γοργόνα ή Πούλμαν","lat":40.18844887866331,"lng":23.799070114643,"url":"https://maps.app.goo.gl/eCPfEYcm6XmwdGov6?g_st=ipc","address":"Βουρβουρού 630 78","categoryIds":["greek-restaurants"],"categories":["Greek Restaurants"],"distanceKm":10.461864436772979},{"id":"fishTavernasRestaurants_89407965d754","slug":"bubo-8940","kind":"restaurant","name":"Bubo","lat":40.19122023224205,"lng":23.803994678989536,"url":"https://maps.app.goo.gl/oD1rDfLpCw74E1w19?g_st=ipc","address":"5RR3+FH, Sithonia 630 78","categoryIds":["fish-tavernas"],"categories":["Fish Tavernas"],"distanceKm":10.822406418881739}],"sameRegion":[],"mentionedGuides":[],"canonicalSlug":"deluxe-pizza-fae6","isCanonicalEntity":true,"enrichment":{"summary_en":"Deluxe Pizza is a curated restaurant in Neos Marmaras 630 81 in the Italian Restaurants collection. It is connected to 2 nearby Googlementor picks to help travelers build a stronger local route.","summary_el":"Deluxe Pizza είναι ένα επιλεγμένο σημείο φαγητού στην περιοχή Neos Marmaras 630 81 και ανήκει στη συλλογή Italian Restaurants. Συνδέεται με 2 κοντινές προτάσεις του Googlementor για πιο ολοκληρωμένη εμπειρία.","vibe_tags":["curated"],"best_for":["first-time visitors","food lovers"],"visit_moments":["lunch stop","dinner stop"],"practical_note":"Address and direct map link are available for easy turn-by-turn access.","nearby_walkable_count":2,"nearby_count_2km":2,"confidence":0.9}},"__N_SSG":true}