{"pageProps":{"entity":{"id":"cheapEatsRestaurants_58791178b56b","slug":"draminos-5879","kind":"restaurant","name":"Δραμινός","lat":38.03491475648599,"lng":23.754928540856955,"url":"https://maps.app.goo.gl/uhi56PKbCSVGMvqf8?g_st=ipc","address":"Σινώπης 62, Νέα Ιωνία 142 33","categoryIds":["cheap-eats"],"categories":["Gyros & Cheap Eats"]},"sameCategory":[{"id":"cheapEatsRestaurants_59fb21ba5f98","slug":"hobos-street-grill-59fb","kind":"restaurant","name":"Hobos Street Grill","lat":38.04249747641086,"lng":23.753515339761147,"url":"https://maps.app.goo.gl/YHJtEHPvQRVXwD3F7?g_st=ipc","address":"Λεωφ. Ηρακλείου 254, Νέα Ιωνία 142 31","categoryIds":["cheap-eats"],"categories":["Gyros & Cheap Eats"]},{"id":"cheapEatsRestaurants_7b6d49968714","slug":"nikos-o-kalavrytinos-7b6d","kind":"restaurant","name":"Νίκος ο Καλαβρυτινός","lat":38.024001161887576,"lng":23.75301292455858,"url":"https://maps.app.goo.gl/cmE54PPQGsdzvzgz5?g_st=ipc","address":"Εκάβης 63, Γαλάτσι 111 46","categoryIds":["cheap-eats"],"categories":["Gyros & Cheap Eats"]},{"id":"burgersRestaurants_08ca7d0bda51","slug":"koutsi-katsika-street-food-nea-filadelfeia-08ca","kind":"restaurant","name":"Koutsi Katsika Street Food Νέα Φιλαδέλφεια","lat":38.03629712914596,"lng":23.73867302573474,"url":"https://maps.app.goo.gl/XqS8cuX3SxVKDWRr8?g_st=ipc","address":"Λεωφ. Δεκελείας 109, Νέα Φιλαδέλφεια Αττικής 143 41","categoryIds":["burgers","cheap-eats"],"categories":["Burger Spots","Gyros & Cheap Eats"],"legacySlugs":["koutsi-katsika-street-food-nea-filadelfeia-2553"]},{"id":"cheapEatsRestaurants_cbf0a0d9c1b3","slug":"lamprinaki-cbf0","kind":"restaurant","name":"Λαμπρινάκι","lat":38.0224148920344,"lng":23.747555518536878,"url":"https://maps.app.goo.gl/M5T9Z6KajRqpaNBA7?g_st=ipc","address":"Τράλλεων 67, Αθήνα 111 42","categoryIds":["cheap-eats"],"categories":["Gyros & Cheap Eats"]},{"id":"cheapEatsRestaurants_708ba2b3a806","slug":"eyripidis-1955-708b","kind":"restaurant","name":"Ευριπίδης 1955","lat":38.03354736852586,"lng":23.737489018536408,"url":"https://maps.app.goo.gl/oALQiKiSKqqQt7VE8?g_st=ipc","address":"Λεωφ. Δεκελείας 83, Νέα Φιλαδέλφεια Αττικής 143 41","categoryIds":["cheap-eats"],"categories":["Gyros & Cheap Eats"]},{"id":"asianRestaurants_b60f010973e9","slug":"street-wok-b60f","kind":"restaurant","name":"Street wok","lat":38.03415849667832,"lng":23.737420165783373,"url":"https://maps.app.goo.gl/Cza8DpNsdEHX73EB8?g_st=ipc","address":"Βρυούλων 4, Νέα Φιλαδέλφεια Αττικής 143 41","categoryIds":["asian","cheap-eats"],"categories":["Asian Restaurants","Gyros & Cheap Eats"],"legacySlugs":["street-wok-ae06"]},{"id":"cheapEatsRestaurants_93852e0ca98a","slug":"i-vromiara-the-gourmet-street-food-nea-filadelfeia-9385","kind":"restaurant","name":"Η Βρωμιάρα - The Gourmet Street Food - Νεα Φιλαδέλφεια","lat":38.03438911435279,"lng":23.73692338806855,"url":"https://maps.app.goo.gl/Q23dgN65gryr9fpi7?g_st=ipc","address":"Βρυούλων 5, Νέα Φιλαδέλφεια Αττικής 143 41","categoryIds":["cheap-eats"],"categories":["Gyros & Cheap Eats"]},{"id":"cheapEatsRestaurants_8e920e95e567","slug":"slum-it-8e92","kind":"restaurant","name":"Slum it","lat":38.034971479219536,"lng":23.73628101866516,"url":"https://maps.app.goo.gl/m2fyvmtGXXiGevuC6?g_st=ipc","address":"Βρυούλων 15, Νέα Φιλαδέλφεια Αττικής 143 41","categoryIds":["cheap-eats"],"categories":["Gyros & Cheap Eats"]}],"nearby":[{"id":"municipalities_a312b31dd129","slug":"nea-ionia-a312","kind":"municipality","name":"Νέα Ιωνία","lat":38.0357,"lng":23.7573,"aliases":["Nea Ionia","Νεα Ιωνια"],"region":"Βόρεια Προάστια","name_en":"Nea Ionia","region_en":"Northern Suburbs","distanceKm":0.22530122430429017},{"id":"dessertsRestaurants_b154c59ad342","slug":"zacharoplasteio-ta-gioylia-b154","kind":"restaurant","name":"Ζαχαροπλαστείο Τα Γιούλια","lat":38.03375679792758,"lng":23.760132906851105,"url":"https://maps.app.goo.gl/c3VhnGmj4UK6Mp8j6?g_st=ipc","address":"Αναγεννήσεως 49-51, Νέα Ιωνία 142 33","categoryIds":["desserts"],"categories":["Dessert Shops"],"distanceKm":0.47364480708109413},{"id":"coffeeBrunchRestaurants_a5983b685dbd","slug":"to-peinirli-tis-neas-ionias-a598","kind":"restaurant","name":"To Peinirli tis Neas Ionias","lat":38.039553570278855,"lng":23.75782693390007,"url":"https://maps.app.goo.gl/Dgayt5WtWZw7apFh8?g_st=ic","address":"Ramnountos 76, Nea Ionia 142 34","categoryIds":["coffee-brunch"],"categories":["Coffee & Brunch Spots"],"distanceKm":0.5748873528708662},{"id":"fishTavernasRestaurants_391097bf7912","slug":"mezedopoleio-psarotaverna-karavidas-3910","kind":"restaurant","name":"Μεζεδοπωλείο Ψαροταβέρνα Καραβίδας","lat":38.03096216854331,"lng":23.75947032164881,"url":"https://maps.app.goo.gl/JGxgiBHhNLEpm7F8A?g_st=ipc","address":"Δεμιρδεσίου 89, Νέα Ιωνία 142 33","categoryIds":["fish-tavernas"],"categories":["Fish Tavernas"],"distanceKm":0.5927897879126318},{"id":"greekRestaurants_5791bc32c9f3","slug":"steki-patakia-5791","kind":"restaurant","name":"Στέκι Πατακιά","lat":38.03119466857524,"lng":23.76015883612339,"url":"https://maps.app.goo.gl/cYha3bisyCdwkZ4aA","address":"Δεμιρδεσίου 93, Νέα Ιωνία 142 33","categoryIds":["greek-restaurants"],"categories":["Greek Restaurants"],"distanceKm":0.6172143739383449},{"id":"coffeeBrunchRestaurants_e705f1112f3d","slug":"dimitra-goynaridi-e705","kind":"restaurant","name":"Δήμητρα Γουναρίδη","lat":38.04165697380787,"lng":23.75123284178688,"url":"https://maps.app.goo.gl/b5dp6jq3caW91FoHA?g_st=ipc","address":"Ευαγγελικής Σχολής 5, Νέα Ιωνία 142 31","categoryIds":["coffee-brunch"],"categories":["Coffee & Brunch Spots"],"distanceKm":0.8165815115293449},{"id":"cheapEatsRestaurants_59fb21ba5f98","slug":"hobos-street-grill-59fb","kind":"restaurant","name":"Hobos Street Grill","lat":38.04249747641086,"lng":23.753515339761147,"url":"https://maps.app.goo.gl/YHJtEHPvQRVXwD3F7?g_st=ipc","address":"Λεωφ. Ηρακλείου 254, Νέα Ιωνία 142 31","categoryIds":["cheap-eats"],"categories":["Gyros & Cheap Eats"],"distanceKm":0.8521948741494688},{"id":"dessertsRestaurants_265283fa47ed","slug":"zacharoplasteio-ta-gioylia-2652","kind":"restaurant","name":"Ζαχαροπλαστείο Τα Γιούλια","lat":38.04320708683717,"lng":23.75268041981327,"url":"https://maps.app.goo.gl/yT8dXGYHeqfAeL4K8?g_st=ipc","address":"Μεσολογγίου 24, Νέα Ιωνία 142 31","categoryIds":["desserts"],"categories":["Dessert Shops"],"distanceKm":0.9428501382817476}],"sameRegion":[],"mentionedGuides":[],"canonicalSlug":"draminos-5879","isCanonicalEntity":true,"enrichment":{"summary_en":"Δραμινός is a curated restaurant in Νέα Ιωνία 142 33 in the Gyros & Cheap Eats collection. It is connected to 5 nearby Googlementor picks to help travelers build a stronger local route.","summary_el":"Δραμινός είναι ένα επιλεγμένο σημείο φαγητού στην περιοχή Νέα Ιωνία 142 33 και ανήκει στη συλλογή Gyros & Cheap Eats. Συνδέεται με 5 κοντινές προτάσεις του Googlementor για πιο ολοκληρωμένη εμπειρία.","vibe_tags":["curated","budget-friendly"],"best_for":["first-time visitors","food lovers","budget travelers"],"visit_moments":["lunch stop","dinner stop"],"practical_note":"Address and direct map link are available for easy turn-by-turn access.","nearby_walkable_count":5,"nearby_count_2km":61,"confidence":0.98}},"__N_SSG":true}