{"pageProps":{"entity":{"id":"mexicanRestaurants_b72fb964f683","slug":"el-burrito-o-mikros-gaidaros-b72f","kind":"restaurant","name":"El Burrito \"Ο μικρός γάιδαρος\"","lat":40.62900649727638,"lng":22.94570753133818,"url":"https://maps.app.goo.gl/vzHGYj8eJe66F2838?g_st=ipc","address":"Chrisostomou Smirnis 5, Thessaloniki 546 22","categoryIds":["mexican"],"categories":["Mexican Restaurants"]},"sameCategory":[{"id":"cheapEatsRestaurants_abf9ebdbbc06","slug":"taco-mazama-californian-style-mexican-street-food-abf9","kind":"restaurant","name":"Taco Mazama (Californian Style Mexican Street Food)","lat":40.63149354851285,"lng":22.94839774432504,"url":"https://maps.app.goo.gl/zE2aLejbpEyQpDvq8?g_st=ipc","address":"Paleon Patron Germanou 28, Thessaloniki 546 22","categoryIds":["cheap-eats","mexican"],"categories":["Gyros & Cheap Eats","Mexican Restaurants"],"legacySlugs":["taco-mazama-californian-style-mexican-street-food-77e6"]},{"id":"mexicanRestaurants_d80043a5b99e","slug":"la-sirena-d800","kind":"restaurant","name":"La Sirena","lat":40.63444270479013,"lng":22.93646283547866,"url":"https://maps.app.goo.gl/vjssVZ1V39bo4zex6","address":"Fasianou 1, Thessaloniki 546 25","categoryIds":["mexican"],"categories":["Mexican Restaurants"]},{"id":"cheapEatsRestaurants_4ad6c8183391","slug":"crats-mexican-4ad6","kind":"restaurant","name":"Crats Mexican","lat":40.646440943227944,"lng":22.920915607467233,"url":"https://maps.app.goo.gl/L84rScHZkgehJUri7?g_st=ipc","address":"Giannitson 61, Thessaloniki 546 27","categoryIds":["cheap-eats","mexican"],"categories":["Gyros & Cheap Eats","Mexican Restaurants"],"legacySlugs":["crats-mexican-d628"]},{"id":"mexicanRestaurants_09c0e00bc62f","slug":"picante-mexican-cocktail-bar-09c0","kind":"restaurant","name":"Picante Mexican - Cocktail Bar","lat":39.54688963792196,"lng":19.912527827268715,"url":"https://maps.app.goo.gl/gry6ZeCUAGqm9E3X7?g_st=ipc","address":"Benitses 490 84","categoryIds":["mexican"],"categories":["Mexican Restaurants"]},{"id":"mexicanRestaurants_fa8ffda60946","slug":"balero-fa8f","kind":"restaurant","name":"Balero","lat":38.08846033344393,"lng":23.813655936317737,"url":"https://maps.app.goo.gl/z2SGuye5ZYrGd3Ft7?g_st=ipc","address":"Χαρ. Τρικούπη 162, Νέα Ερυθραία 145 62","categoryIds":["mexican"],"categories":["Mexican Restaurants"]},{"id":"burgersRestaurants_a0d6a061aa9e","slug":"mvp-restaurant-a0d6","kind":"restaurant","name":"MVP RESTAURANT","lat":38.08823770971798,"lng":23.816227663317804,"url":"https://maps.app.goo.gl/JjXo3mQwSBz49WBp9?g_st=ipc","address":"Χαρ. Τρικούπη 127, Νέα Ερυθραία 146 71","categoryIds":["burgers","mexican"],"categories":["Burger Spots","Mexican Restaurants"],"legacySlugs":["mvp-restaurant-4dab"]},{"id":"mexicanRestaurants_1c335621a1fd","slug":"pueblo-chido-kifisia-1c33","kind":"restaurant","name":"Pueblo Chido Κηφισιά","lat":38.07488654501822,"lng":23.81927628386729,"url":"https://maps.app.goo.gl/gFj6AV1Bf67kw6hdA?g_st=ipc","address":"Κολοκοτρώνη 37, Κηφισιά 145 62","categoryIds":["mexican"],"categories":["Mexican Restaurants"]},{"id":"mexicanRestaurants_9321a8ed4f82","slug":"ancho-mexican-grill-9321","kind":"restaurant","name":"Ancho Mexican Grill","lat":38.072302577774266,"lng":23.812957916990147,"url":"https://maps.app.goo.gl/9YG5PfTVGoHqdG8N9?g_st=ipc","address":"Κασσαβέτη 9, Κηφισιά 145 62","categoryIds":["mexican"],"categories":["Mexican Restaurants"]}],"nearby":[{"id":"luxuryDiningRestaurants_cef26dabbaec","slug":"moldee-bar-restaurant-cef2","kind":"restaurant","name":"Moldee Bar Restaurant","lat":40.629517298749846,"lng":22.945471093260796,"url":"https://maps.app.goo.gl/NUgNPs38t8Wn1YP49?g_st=ipc","address":"Proksenou Koromila &, Mitropolitou Iosif 8, Thessaloniki 546 22","categoryIds":["luxury-dining"],"categories":["Luxury Dining"],"distanceKm":0.0602013062301026},{"id":"greekRestaurants_e2d4737d2e6a","slug":"deka-trapezia-e2d4","kind":"restaurant","name":"Δέκα Τραπέζια","lat":40.62814201457264,"lng":22.946897711090458,"url":"https://maps.app.goo.gl/rmRGahPcj5NACQVp9?g_st=ipc","address":"Στρ. Καλλάρη 4, Θεσσαλονίκη 546 22","categoryIds":["greek-restaurants"],"categories":["Greek Restaurants"],"distanceKm":0.13902703205479816},{"id":"dessertsRestaurants_ff4e4669779d","slug":"bombolo-ff4e","kind":"restaurant","name":"BOMBOLO","lat":40.628931168792896,"lng":22.947385328416402,"url":"https://maps.app.goo.gl/KrVfLWu1YhMe94yS8?g_st=ipc","address":"Mitropoleos 88, Thessaloniki 546 22","categoryIds":["desserts"],"categories":["Dessert Shops"],"distanceKm":0.14183770779508748},{"id":"coffeeBrunchRestaurants_9cbeb6df46a2","slug":"mlrt-sourdough-microbakery-9cbe","kind":"restaurant","name":"MLRT Sourdough microbakery","lat":40.630290634546846,"lng":22.946095540648265,"url":"https://maps.app.goo.gl/Q2XyfbaALKZttmXn7?g_st=ipc","address":"Mitropolitou Iosif 15, Thessaloniki 546 22","categoryIds":["coffee-brunch"],"categories":["Coffee & Brunch Spots"],"distanceKm":0.14649581328467154},{"id":"greekRestaurants_5db983812e0a","slug":"to-elliniko-5db9","kind":"restaurant","name":"Το Ελληνικό","lat":40.62835209292357,"lng":22.947350658434885,"url":"https://maps.app.goo.gl/xnCJBuGfhotgXpup6?g_st=ipc","address":"Στρ. Καλλάρη 9, Θεσσαλονίκη 546 22","categoryIds":["greek-restaurants"],"categories":["Greek Restaurants"],"distanceKm":0.15659796935069825},{"id":"coffeeBrunchRestaurants_8e7fd42757f5","slug":"koukos-8e7f","kind":"restaurant","name":"Koukos","lat":40.6303171719103,"lng":22.944717929555512,"url":"https://maps.app.goo.gl/igjo7pYZywYHB7n77?g_st=ipc","address":"Βογατσικού 10, Thessaloniki 546 22","categoryIds":["coffee-brunch"],"categories":["Coffee & Brunch Spots"],"distanceKm":0.16797182284926054},{"id":"greekRestaurants_8e1d134cbe5a","slug":"diavasi-8e1d","kind":"restaurant","name":"Διάβαση","lat":40.629392533313,"lng":22.947707172796427,"url":"https://maps.app.goo.gl/MvYkV7ZoB8ykDseV7?g_st=ipc","address":"Π. Μελά 13, Θεσσαλονίκη 546 22","categoryIds":["greek-restaurants"],"categories":["Greek Restaurants"],"distanceKm":0.17412411288956792},{"id":"fishTavernasRestaurants_d45de4d8396f","slug":"marea-sea-spirit-d45d","kind":"restaurant","name":"MAREA sea spirit","lat":40.628341964657956,"lng":22.947576121389986,"url":"https://maps.app.goo.gl/Ck1Kd1PfuHwFhziJ6?g_st=ipc","address":"Margariti Lori 13, Thessaloniki 546 22","categoryIds":["fish-tavernas"],"categories":["Fish Tavernas"],"distanceKm":0.1741461615326717}],"sameRegion":[],"mentionedGuides":[],"canonicalSlug":"el-burrito-o-mikros-gaidaros-b72f","isCanonicalEntity":true,"enrichment":{"summary_en":"El Burrito \"Ο μικρός γάιδαρος\" is a curated restaurant in Thessaloniki 546 22 in the Mexican Restaurants collection. It is connected to 145 nearby Googlementor picks to help travelers build a stronger local route.","summary_el":"El Burrito \"Ο μικρός γάιδαρος\" είναι ένα επιλεγμένο σημείο φαγητού στην περιοχή Thessaloniki 546 22 και ανήκει στη συλλογή Mexican Restaurants. Συνδέεται με 145 κοντινές προτάσεις του Googlementor για πιο ολοκληρωμένη εμπειρία.","vibe_tags":["curated"],"best_for":["first-time visitors","food lovers"],"visit_moments":["lunch stop","dinner stop"],"practical_note":"Address and direct map link are available for easy turn-by-turn access.","nearby_walkable_count":145,"nearby_count_2km":267,"confidence":0.98}},"__N_SSG":true}