{"pageProps":{"entity":{"id":"cheapEatsRestaurants_56207a3913eb","slug":"elvis-soyvlakia-5620","kind":"restaurant","name":"Ελβις Σουβλακια","lat":37.96785045064934,"lng":23.7436306831368,"url":"https://maps.app.goo.gl/umPfqHULRVG9njbt5?g_st=ipc","address":"Αρχιμήδους 1-5, Αθήνα 116 35","categoryIds":["cheap-eats"],"categories":["Gyros & Cheap Eats"]},"sameCategory":[{"id":"cheapEatsRestaurants_eaa51e908f69","slug":"to-pikantiko-eaa5","kind":"restaurant","name":"Το Πικάντικο","lat":37.967862602711925,"lng":23.74738582728181,"url":"https://maps.app.goo.gl/s2djMEVxUXSybams9?g_st=ipc","address":"Ευτυχίδου 23, Αθήνα 116 34","categoryIds":["cheap-eats"],"categories":["Gyros & Cheap Eats"]},{"id":"cheapEatsRestaurants_f61ee90e96c0","slug":"mikra-asia-kebap-pagrati-f61e","kind":"restaurant","name":"Mikra Asia kebap Pagrati","lat":37.96824148094212,"lng":23.7487971975962,"url":"https://maps.app.goo.gl/4TKpFuTdcwscVBCg8?g_st=ipc","address":"Πλ. Μεσολογγίου 2-4, Αθήνα 116 34","categoryIds":["cheap-eats"],"categories":["Gyros & Cheap Eats"]},{"id":"cheapEatsRestaurants_78307b191873","slug":"piggy-popoylo-7830","kind":"restaurant","name":"Piggy - Πόπουλο","lat":37.97132961125026,"lng":23.74642727932896,"url":"https://maps.app.goo.gl/cPZpCzgEKX45Ej6G8?g_st=ipc","address":"Αρχελάου 16, Αθήνα 116 35","categoryIds":["cheap-eats"],"categories":["Gyros & Cheap Eats"]},{"id":"burgersRestaurants_333f3b6e6592","slug":"chicken-queen-333f","kind":"restaurant","name":"Chicken Queen","lat":37.96764787341708,"lng":23.749271201498335,"url":"https://maps.app.goo.gl/y9qpEuxuYdxvEzYY9?g_st=ipc","address":"Ευτυχίδου 47, Αθήνα 116 34","categoryIds":["burgers","cheap-eats"],"categories":["Burger Spots","Gyros & Cheap Eats"],"legacySlugs":["chicken-queen-b3b7"]},{"id":"cheapEatsRestaurants_72bd27acb0a5","slug":"alexandrino-kempap-pagkrati-72bd","kind":"restaurant","name":"Αλεξανδρινό Κεμπάπ - Παγκράτι","lat":37.9678577883098,"lng":23.74996983153058,"url":"https://maps.app.goo.gl/kBQE51oPhVR5sCDu5?g_st=ipc","address":"Υμηττού 90 &, Ιφικράτους, Αθήνα 116 34","categoryIds":["cheap-eats"],"categories":["Gyros & Cheap Eats"]},{"id":"cheapEatsRestaurants_a825d27fc97c","slug":"i-pita-toy-karafla-a825","kind":"restaurant","name":"Η ΠΙΤΑ ΤΟΥ ΚΑΡΑΦΛΑ","lat":37.96232693388551,"lng":23.744677303486494,"url":"https://maps.app.goo.gl/sAGKAGj6UyDLWwiq7?g_st=ipc","address":"Φιλολάου 142, Αθήνα 116 32","categoryIds":["cheap-eats"],"categories":["Gyros & Cheap Eats"]},{"id":"cheapEatsRestaurants_f4243fccdc09","slug":"i-thraka-f424","kind":"restaurant","name":"Η Θράκα","lat":37.96908730439045,"lng":23.752466160817594,"url":"https://maps.app.goo.gl/P6rYV5DBevfNLik18?g_st=ipc","address":"Υμηττού 58, Αθήνα 116 34","categoryIds":["cheap-eats"],"categories":["Gyros & Cheap Eats"]},{"id":"cheapEatsRestaurants_ba468327c890","slug":"pita-pan-ba46","kind":"restaurant","name":"Πίτα Παν","lat":37.973982654052946,"lng":23.750253307976614,"url":"https://maps.app.goo.gl/WYXA6LyZWmcPcu219?g_st=ipc","address":"Ιοφώντος 33, Αθήνα 116 34","categoryIds":["cheap-eats"],"categories":["Gyros & Cheap Eats"]}],"nearby":[{"id":"coffeeBrunchRestaurants_baef4762247d","slug":"chelsea-hotel-baef","kind":"restaurant","name":"Chelsea Hotel","lat":37.96781479364914,"lng":23.743723733421092,"url":"https://maps.app.goo.gl/biMezA2mUN6mNc886?g_st=ipc","address":"Αρχιμήδους, Πρόκλου και, Αθήνα 116 35","categoryIds":["coffee-brunch"],"categories":["Coffee & Brunch Spots"],"distanceKm":0.009069470362291223},{"id":"italianRestaurants_858265b3f822","slug":"cosa-nostra-fresca-pasta-pagrati-8582","kind":"restaurant","name":"Cosa Nostra Fresca Pasta Pagrati","lat":37.96783594678004,"lng":23.743332676630974,"url":"https://maps.app.goo.gl/CdMX5E6yxNBbvoYs8?g_st=ipc","address":"Αρχιμήδους 8, Αθήνα 116 35","categoryIds":["italian","vegetarian"],"categories":["Italian Restaurants","Vegetarian Friendly Restaurants"],"legacySlugs":["cosa-nostra-fresca-pasta-pagrati-5ddd"],"distanceKm":0.026173344570560624},{"id":"greekRestaurants_1ce7ef86a93e","slug":"vyrinis-1ce7","kind":"restaurant","name":"ΒΥΡΙΝΗΣ","lat":37.96743484356373,"lng":23.742810422529566,"url":"https://maps.app.goo.gl/1Xuvp6z7zeGEESxk7","address":"Αρχιμήδους 11, Αθήνα 116 35","categoryIds":["greek-restaurants"],"categories":["Greek Restaurants"],"distanceKm":0.0854753791504939},{"id":"italianRestaurants_2ca02a129667","slug":"luma-2ca0","kind":"restaurant","name":"Luma","lat":37.967195735298965,"lng":23.74306872996665,"url":"https://maps.app.goo.gl/csSJRksdwNoDcqqE7?g_st=ipc","address":"Φερεκύδου 2, Αθήνα 116 35","categoryIds":["italian"],"categories":["Italian Restaurants"],"distanceKm":0.08790167860532942},{"id":"burgersRestaurants_15242c3b8b89","slug":"mpear-1524","kind":"restaurant","name":"MPEAR","lat":37.96750105563297,"lng":23.744555646756957,"url":"https://maps.app.goo.gl/yKgLKc4LFJhxaawY6","address":"Ευφράνορος 8, Athina 116 35","categoryIds":["burgers"],"categories":["Burger Spots"],"distanceKm":0.08991078123564661},{"id":"coffeeBrunchRestaurants_f1796bb2ea7c","slug":"plegma-coffee-living-f179","kind":"restaurant","name":"Plegma Coffee & Living","lat":37.96746994485961,"lng":23.74467734312101,"url":"https://maps.app.goo.gl/CJbmBuxNwPN6MCH98?g_st=ipc","address":"Plegma Coffee & Living","categoryIds":["coffee-brunch"],"categories":["Coffee & Brunch Spots"],"distanceKm":0.1010373099423151},{"id":"luxuryDiningRestaurants_b24cda2a3b29","slug":"soil-restaurant-b24c","kind":"restaurant","name":"Soil Restaurant","lat":37.96695852322669,"lng":23.743066634939197,"url":"https://maps.app.goo.gl/6F5c77DnjsqmPiiS8?g_st=ipc","address":"Φερεκύδου 5, Αθήνα 116 35","categoryIds":["luxury-dining"],"categories":["Luxury Dining"],"distanceKm":0.1108200725131863},{"id":"asianRestaurants_29ff4585bb4b","slug":"koi-sushi-bar-pangrati-29ff","kind":"restaurant","name":"Koi Sushi Bar | Pangrati","lat":37.96792632318897,"lng":23.745129343308996,"url":"https://maps.app.goo.gl/jArTQMm2HTtNhyqu6?g_st=ipc","address":"Ευτυχίδου 10, Αθήνα 116 35","categoryIds":["asian"],"categories":["Asian Restaurants"],"distanceKm":0.13164489200831453}],"sameRegion":[],"mentionedGuides":[],"canonicalSlug":"elvis-soyvlakia-5620","isCanonicalEntity":true,"enrichment":{"summary_en":"Ελβις Σουβλακια is a curated restaurant in Αθήνα 116 35 in the Gyros & Cheap Eats collection. It is connected to 65 nearby Googlementor picks to help travelers build a stronger local route.","summary_el":"Ελβις Σουβλακια είναι ένα επιλεγμένο σημείο φαγητού στην περιοχή Αθήνα 116 35 και ανήκει στη συλλογή Gyros & Cheap Eats. Συνδέεται με 65 κοντινές προτάσεις του Googlementor για πιο ολοκληρωμένη εμπειρία.","vibe_tags":["curated","budget-friendly"],"best_for":["first-time visitors","food lovers","budget travelers"],"visit_moments":["lunch stop","dinner stop"],"practical_note":"Address and direct map link are available for easy turn-by-turn access.","nearby_walkable_count":65,"nearby_count_2km":492,"confidence":0.98}},"__N_SSG":true}