{"pageProps":{"entity":{"id":"mustSeeAttractions_f8a8945256eb","slug":"ethnikos-drymos-parnithas-f8a8","kind":"restaurant","name":"Εθνικός Δρυμός Πάρνηθας","lat":38.15998271976968,"lng":23.71947970128565,"url":"https://maps.app.goo.gl/vhNTNbS2nJx1YD8n8?g_st=ipc","address":"Πάρνηθα 136 72","categoryIds":["attractions"],"categories":["Must-See Attractions"]},"sameCategory":[{"id":"mustSeeAttractions_54efa8dcf204","slug":"olympiako-stadio-athinon-54ef","kind":"restaurant","name":"Ολυμπιακό Στάδιο Αθηνών","lat":38.035910568153284,"lng":23.786973025948996,"url":"https://maps.app.goo.gl/8fas6bpPgSs2neZj8?g_st=ipc","address":"Λεωφ. Ολυμπιονίκου Σπύρου Λούη 1, Μαρούσι 151 23","categoryIds":["attractions"],"categories":["Must-See Attractions"]},{"id":"monasteriesChurches_9012455a363d","slug":"iera-moni-dafnioy-9012","kind":"restaurant","name":"Ιερά Μονή Δαφνίου","lat":38.012995167161115,"lng":23.63601896606369,"url":"https://maps.app.goo.gl/idE6eKcfBqTpZbE78?g_st=ipc","address":"Ιερά Οδός, Χαϊδάρι 124 61","categoryIds":["monasteries-churches","attractions"],"categories":["Monasteries & Spiritual Sites","Must-See Attractions"],"legacySlugs":["iera-moni-dafnioy-2115"]},{"id":"mustSeeAttractions_5d23953463e8","slug":"ethniko-archaiologiko-moyseio-5d23","kind":"restaurant","name":"Εθνικό Αρχαιολογικό Μουσείο","lat":37.989024298697544,"lng":23.73276057362421,"url":"https://maps.app.goo.gl/yMXMdhRrheqLTtjc9?g_st=ipc","address":"28ης Οκτωβρίου 44, Αθήνα 106 82","categoryIds":["attractions"],"categories":["Must-See Attractions"]},{"id":"mustSeeAttractions_0e9341b94f04","slug":"lykavittos-0e93","kind":"restaurant","name":"Λυκαβηττός","lat":37.98323503241099,"lng":23.746500382209337,"url":"https://maps.app.goo.gl/muvvb7CTCn3yFhWj6?g_st=ipc","address":"Σαρανταπήχου, Μονοπατι Λυκαβηττου &, Αθήνα 114 71","categoryIds":["attractions"],"categories":["Must-See Attractions"]},{"id":"monasteriesChurches_caa9124a394d","slug":"ieros-naos-agion-isidoron-lykavittoy-caa9","kind":"restaurant","name":"Ιερός Ναός Αγίων Ισιδώρων Λυκαβηττού","lat":37.982296617522,"lng":23.742795127887568,"url":"https://maps.app.goo.gl/vi4b8bvA5jdYKcqf9?g_st=ipc","address":"Μονοπατι Λυκαβηττου, Αθήνα 114 71","categoryIds":["monasteries-churches","attractions"],"categories":["Monasteries & Spiritual Sites","Must-See Attractions"],"legacySlugs":["ieros-naos-agion-isidoron-lykavittoy-361f"]},{"id":"mustSeeAttractions_9d5443f043f5","slug":"bibliotheke-9d54","kind":"restaurant","name":"Bibliothēkē","lat":37.98086714889517,"lng":23.732640659233777,"url":"https://maps.app.goo.gl/Tia41NbJ94S1YJYNA?g_st=ipc","address":"Athens 106 79","categoryIds":["attractions"],"categories":["Must-See Attractions"]},{"id":"mustSeeAttractions_4c1bed18d9f3","slug":"academy-of-athens-4c1b","kind":"restaurant","name":"Academy of Athens","lat":37.980052000475574,"lng":23.73401307902472,"url":"https://maps.app.goo.gl/ggPZ2e3QeajFYXJX8?g_st=ipc","address":"Panepistimiou 28, Athina 106 79","categoryIds":["attractions"],"categories":["Must-See Attractions"]},{"id":"mustSeeAttractions_48ddcd3e9742","slug":"megaro-moysikis-athinon-48dd","kind":"restaurant","name":"Μέγαρο Μουσικής Αθηνών","lat":37.98113320826234,"lng":23.754226747419665,"url":"https://maps.app.goo.gl/fcKT8gTb8XfWLvDa7?g_st=ipc","address":"Βασιλίσσης Σοφίας, Πέτρου Κόκκαλη &, Αθήνα","categoryIds":["attractions"],"categories":["Must-See Attractions"]}],"nearby":[{"id":"coffeeBrunchRestaurants_ba1c57c3e046","slug":"katafygio-mpafi-ba1c","kind":"restaurant","name":"Καταφύγιο Μπάφι","lat":38.16746990651998,"lng":23.726972151660846,"url":"https://maps.app.goo.gl/h8ni4KMpRSPF4Zzu5?g_st=ipc","address":"Πάρνηθος, Αθήνα 136 72","categoryIds":["coffee-brunch"],"categories":["Coffee & Brunch Spots"],"distanceKm":1.059337989057665},{"id":"greekRestaurants_3985a63bf69c","slug":"taverna-pappas-3985","kind":"restaurant","name":"Ταβέρνα Παππάς","lat":38.13707378465122,"lng":23.751130974888763,"url":"https://maps.app.goo.gl/cf1v4bYNnpWbWW7u9","address":"Θεσσαλονίκης 2, Αχαρνές 136 76","categoryIds":["greek-restaurants"],"categories":["Greek Restaurants"],"distanceKm":3.76157569499794},{"id":"dessertsRestaurants_0891a505b36b","slug":"galaktopoleio-stamoy-0891","kind":"restaurant","name":"Γαλακτοπωλείο Στάμου","lat":38.11472562186031,"lng":23.74537333629416,"url":"https://maps.app.goo.gl/4FRYPvoU2rB5btZX8?g_st=ipc","address":"Θρακομακεδόνων 154, Αχαρνές 136 79","categoryIds":["desserts"],"categories":["Dessert Shops"],"distanceKm":5.518435653719631},{"id":"familyFriendly_d9ebf8b00250","slug":"athlitiko-parko-parnithas-kai-moyseio-palaion-epaggelmaton-d9eb","kind":"restaurant","name":"Αθλητικό Πάρκο Πάρνηθας και Μουσείο Παλαιών Επαγγελμάτων","lat":38.11083610723094,"lng":23.69169674427175,"url":"https://maps.app.goo.gl/J7UHi8dDFoMJKKUh7?g_st=ipc","address":"Ρόδων, Άνω Λιόσια 133 43","categoryIds":["family-friendly"],"categories":["Kid Friendly Locations"],"distanceKm":5.980730087165215},{"id":"greekRestaurants_5d8a4cf10a66","slug":"o-laios-taverna-5d8a","kind":"restaurant","name":"Ο Λάιος Ταβέρνα","lat":38.10626654490386,"lng":23.736261492242534,"url":"https://maps.app.goo.gl/r5ZTDusqKfZ21E9b8","address":"Λεωφ. Κωνσταντίνου Καραμανλή 6, Αχαρνές 136 72","categoryIds":["greek-restaurants"],"categories":["Greek Restaurants"],"distanceKm":6.150670178275708},{"id":"monasteriesChurches_03a62bb89dba","slug":"iera-moni-agioy-kyprianoy-03a6","kind":"restaurant","name":"Ιερά Μονή Αγίου Κυπριανού","lat":38.11439120183363,"lng":23.677888094487148,"url":"https://maps.app.goo.gl/4CSBCi4A57QqcY1JA?g_st=ipc","address":"μονη, Αγ. Κυπριανού, Φυλή 133 51","categoryIds":["monasteries-churches"],"categories":["Monasteries & Spiritual Sites"],"distanceKm":6.239553134145314},{"id":"monasteriesChurches_680860666634","slug":"iera-moni-koimiseos-tis-theotokoy-kleiston-6808","kind":"restaurant","name":"Ιερά Μονή Κοιμήσεως της Θεοτόκου Κλειστών","lat":38.13109301050575,"lng":23.65695380658108,"url":"https://maps.app.goo.gl/BjSRHN6tAZGnfJ9p8?g_st=ipc","address":"Φυλή 133 41","categoryIds":["monasteries-churches"],"categories":["Monasteries & Spiritual Sites"],"distanceKm":6.341633454578181},{"id":"greekRestaurants_5df0a2118a6f","slug":"agios-merkoyrios-5df0","kind":"restaurant","name":"Άγιος Μερκούριος","lat":38.1455087216868,"lng":23.79177367608356,"url":"https://maps.app.goo.gl/WBkCLkjPiQY1AwSH6","address":"Ά Φυλακιο Πυροσβεστικής, ΒΑΡΥΜΠΟΜΠΗ 136 73","categoryIds":["greek-restaurants"],"categories":["Greek Restaurants"],"distanceKm":6.523049369202895}],"sameRegion":[],"mentionedGuides":[],"canonicalSlug":"ethnikos-drymos-parnithas-f8a8","isCanonicalEntity":true,"enrichment":{"summary_en":"Εθνικός Δρυμός Πάρνηθας is a curated restaurant in Greece in the Must-See Attractions collection. It is connected to 0 nearby Googlementor picks to help travelers build a stronger local route.","summary_el":"Εθνικός Δρυμός Πάρνηθας είναι ένα επιλεγμένο σημείο φαγητού στην περιοχή Greece και ανήκει στη συλλογή Must-See Attractions. Συνδέεται με 0 κοντινές προτάσεις του Googlementor για πιο ολοκληρωμένη εμπειρία.","vibe_tags":["curated"],"best_for":["first-time visitors","food lovers"],"visit_moments":["lunch stop","dinner stop"],"practical_note":"Address and direct map link are available for easy turn-by-turn access.","nearby_walkable_count":0,"nearby_count_2km":1,"confidence":0.9}},"__N_SSG":true}