{"pageProps":{"entity":{"id":"cheapEatsRestaurants_949277637a55","slug":"grill-105-street-9492","kind":"restaurant","name":"Grill 105 Street","lat":40.63849961526695,"lng":22.950253004997894,"url":"https://maps.app.goo.gl/ZgMdxKzTjuAureyV8?g_st=ic","address":"Kassandrou 105, Thessaloniki 546 33","categoryIds":["cheap-eats"],"categories":["Gyros & Cheap Eats"]},"sameCategory":[{"id":"cheapEatsRestaurants_6f8bdca7e315","slug":"aigli-24h-crepe-toast-coffee-bougatsa-6f8b","kind":"restaurant","name":"\"AIGLI\" 24h CREPE-toast-coffee-BOUGATSA","lat":40.638115571761915,"lng":22.948717629555613,"url":"https://maps.app.goo.gl/LWSzARXmcX6GhcQdA?g_st=ipc","address":"Ag. Dimitriou 89, Thessaloniki 546 33","categoryIds":["cheap-eats"],"categories":["Gyros & Cheap Eats"]},{"id":"cheapEatsRestaurants_963344db5c1c","slug":"mimis-9633","kind":"restaurant","name":"Mimis","lat":40.63706330748784,"lng":22.950306559309492,"url":"https://maps.app.goo.gl/m8WS13tHpdvSyxE99?g_st=ipc","address":"Ag. Dimitriou 126, Thessaloniki 546 35","categoryIds":["cheap-eats"],"categories":["Gyros & Cheap Eats"]},{"id":"cheapEatsRestaurants_f0f66d3f1d3f","slug":"hot-dog-land-f0f6","kind":"restaurant","name":"HOT DOG Land","lat":40.63820917018459,"lng":22.947895316027907,"url":"https://maps.app.goo.gl/Y7VQCwH5JjChrXDb9?g_st=ipc","address":"Ag. Dimitriou 100, Thessaloniki 546 31","categoryIds":["cheap-eats"],"categories":["Gyros & Cheap Eats"]},{"id":"cheapEatsRestaurants_c01da58dabd8","slug":"pizza-romea-c01d","kind":"restaurant","name":"Pizza Romea","lat":40.636170436374,"lng":22.952743400099628,"url":"https://maps.app.goo.gl/jsFLzjxU7rbpCatGA?g_st=ipc","address":"Ag. Dimitriou 135, Thessaloniki 546 35","categoryIds":["cheap-eats"],"categories":["Gyros & Cheap Eats"]},{"id":"burgersRestaurants_c3d0c3efec16","slug":"ohmami-street-food-thessaloniki-c3d0","kind":"restaurant","name":"Ohmami - Street Food / Thessaloniki","lat":40.63556199320903,"lng":22.947562092920837,"url":"https://maps.app.goo.gl/NzN9wf8WYr2rjWbd7","address":"Patriarchoi Dionisii E 1, Thessaloniki 546 31","categoryIds":["burgers","cheap-eats"],"categories":["Burger Spots","Gyros & Cheap Eats"],"legacySlugs":["ohmami-street-food-thessaloniki-b6d7"]},{"id":"cheapEatsRestaurants_aa2a8e3577a2","slug":"liga-ke-kala-aa2a","kind":"restaurant","name":"Liga ke kala","lat":40.63627784998205,"lng":22.954179728027064,"url":"https://maps.app.goo.gl/KNAkyJUgnkqkuPQs9?g_st=ipc","address":"Kassandrou 132, Thessaloniki 546 34","categoryIds":["cheap-eats"],"categories":["Gyros & Cheap Eats"]},{"id":"cheapEatsRestaurants_8af2c5ab8db1","slug":"paperbag-street-food-8af2","kind":"restaurant","name":"PAPERBAG || street food","lat":40.634629758562504,"lng":22.948314502108076,"url":"https://maps.app.goo.gl/EppjR6X5bpodm5MR7?g_st=ipc","address":"Achiropiitou 2, Thessaloniki 546 35","categoryIds":["cheap-eats"],"categories":["Gyros & Cheap Eats"]},{"id":"cheapEatsRestaurants_5cdb8c7a5460","slug":"favela-bit-bazar-5cdb","kind":"restaurant","name":"FAVELA Bit Bazar","lat":40.63897345242983,"lng":22.94448760793796,"url":"https://maps.app.goo.gl/Pr2NGoHPa59C1JPVA?g_st=ipc","address":"Olympou 72, Thessaloniki 546 31","categoryIds":["cheap-eats"],"categories":["Gyros & Cheap Eats"]}],"nearby":[{"id":"greekRestaurants_0c9a78977f40","slug":"nea-folia-0c9a","kind":"restaurant","name":"Νέα Φωλιά","lat":40.63831468853848,"lng":22.95095515507328,"url":"https://maps.app.goo.gl/RoPE5F5QLpWFB4rcA?g_st=ipc","address":"Αριστομένους 4, Θεσσαλονίκη 546 34","categoryIds":["greek-restaurants"],"categories":["Greek Restaurants"],"distanceKm":0.0627134228396503},{"id":"dessertsRestaurants_eb88db21bc35","slug":"dorkada-eb88","kind":"restaurant","name":"Dorkada","lat":40.63877718781837,"lng":22.949276397393735,"url":"https://maps.app.goo.gl/56EQSujX5a55tWkk6?g_st=ipc","address":"Kassandrou 66, Thessaloniki 546 33","categoryIds":["desserts"],"categories":["Dessert Shops"],"distanceKm":0.08799503919611217},{"id":"cheapEatsRestaurants_6f8bdca7e315","slug":"aigli-24h-crepe-toast-coffee-bougatsa-6f8b","kind":"restaurant","name":"\"AIGLI\" 24h CREPE-toast-coffee-BOUGATSA","lat":40.638115571761915,"lng":22.948717629555613,"url":"https://maps.app.goo.gl/LWSzARXmcX6GhcQdA?g_st=ipc","address":"Ag. Dimitriou 89, Thessaloniki 546 33","categoryIds":["cheap-eats"],"categories":["Gyros & Cheap Eats"],"distanceKm":0.13640963136537948},{"id":"greekRestaurants_f55cb9debc6f","slug":"iliopetra-f55c","kind":"restaurant","name":"Ηλιόπετρα","lat":40.637407844896174,"lng":22.95118029752211,"url":"https://maps.app.goo.gl/twTSSnJJWA1rop578?g_st=ipc","address":"Αισχύλου 5, Θεσσαλονίκη 546 34","categoryIds":["greek-restaurants"],"categories":["Greek Restaurants"],"distanceKm":0.14442972791849573},{"id":"cheapEatsRestaurants_963344db5c1c","slug":"mimis-9633","kind":"restaurant","name":"Mimis","lat":40.63706330748784,"lng":22.950306559309492,"url":"https://maps.app.goo.gl/m8WS13tHpdvSyxE99?g_st=ipc","address":"Ag. Dimitriou 126, Thessaloniki 546 35","categoryIds":["cheap-eats"],"categories":["Gyros & Cheap Eats"],"distanceKm":0.15977405451983479},{"id":"cheapEatsRestaurants_f0f66d3f1d3f","slug":"hot-dog-land-f0f6","kind":"restaurant","name":"HOT DOG Land","lat":40.63820917018459,"lng":22.947895316027907,"url":"https://maps.app.goo.gl/Y7VQCwH5JjChrXDb9?g_st=ipc","address":"Ag. Dimitriou 100, Thessaloniki 546 31","categoryIds":["cheap-eats"],"categories":["Gyros & Cheap Eats"],"distanceKm":0.2015430770187519},{"id":"dessertsRestaurants_e8be0b820869","slug":"sarantis-bakery-patisserie-e8be","kind":"restaurant","name":"Σαράντης Bakery Patisserie","lat":40.63827380747778,"lng":22.947664759270584,"url":"https://maps.app.goo.gl/RefSjsyuU49WN5f89?g_st=ipc","address":"Ag. Dimitriou 98, Thessaloniki 546 31","categoryIds":["desserts"],"categories":["Dessert Shops"],"distanceKm":0.21983123419303788},{"id":"greekRestaurants_429218289710","slug":"ta-mikra-kalyvia-4292","kind":"restaurant","name":"Τα μικρά Καλύβια","lat":40.63664047814548,"lng":22.951162513295422,"url":"https://maps.app.goo.gl/Z39MqbdKvPEFnvnK6?g_st=ipc","address":"Ἁγ. Δημητρίου 136, Θεσσαλονίκη 546 35","categoryIds":["greek-restaurants"],"categories":["Greek Restaurants"],"distanceKm":0.22051198128248503}],"sameRegion":[],"mentionedGuides":[],"canonicalSlug":"grill-105-street-9492","isCanonicalEntity":true,"enrichment":{"summary_en":"Grill 105 Street is a curated restaurant in Thessaloniki 546 33 in the Gyros & Cheap Eats collection. It is connected to 87 nearby Googlementor picks to help travelers build a stronger local route.","summary_el":"Grill 105 Street είναι ένα επιλεγμένο σημείο φαγητού στην περιοχή Thessaloniki 546 33 και ανήκει στη συλλογή Gyros & Cheap Eats. Συνδέεται με 87 κοντινές προτάσεις του Googlementor για πιο ολοκληρωμένη εμπειρία.","vibe_tags":["curated","budget-friendly"],"best_for":["first-time visitors","food lovers","budget travelers"],"visit_moments":["lunch stop","dinner stop"],"practical_note":"Address and direct map link are available for easy turn-by-turn access.","nearby_walkable_count":87,"nearby_count_2km":265,"confidence":0.98}},"__N_SSG":true}