{"pageProps":{"entity":{"id":"cheapEatsRestaurants_6c50423bab44","slug":"hot-pot-pasteria-city-center-6c50","kind":"restaurant","name":"Hot Pot Pasteria City Center","lat":40.63116120039778,"lng":22.946781922089382,"url":"https://maps.app.goo.gl/VGaiUJdvDDnid5Kk9?g_st=ipc","address":"Paleon Patron Germanou 12, Thessaloniki 546 22","categoryIds":["cheap-eats"],"categories":["Gyros & Cheap Eats"]},"sameCategory":[{"id":"burgersRestaurants_0c007445e9cc","slug":"balboa-thessaloniki-0c00","kind":"restaurant","name":"Balboa Thessaloniki","lat":40.631911246314864,"lng":22.947511059222414,"url":"https://maps.app.goo.gl/Lys3ApFbCS6C7HCt8","address":"P. Mela 42, Thessaloniki 546 22","categoryIds":["burgers","cheap-eats"],"categories":["Burger Spots","Gyros & Cheap Eats"],"legacySlugs":["balboa-thessaloniki-bd4c"]},{"id":"cheapEatsRestaurants_89af7e3d3903","slug":"dakee-spot-89af","kind":"restaurant","name":"Dakee spot","lat":40.6322179094533,"lng":22.947351485022043,"url":"https://maps.app.goo.gl/rccueDiq6UHSWjB86?g_st=ipc","address":"P. Mela 48, Thessaloniki 546 22","categoryIds":["cheap-eats"],"categories":["Gyros & Cheap Eats"]},{"id":"cheapEatsRestaurants_abf9ebdbbc06","slug":"taco-mazama-californian-style-mexican-street-food-abf9","kind":"restaurant","name":"Taco Mazama (Californian Style Mexican Street Food)","lat":40.63149354851285,"lng":22.94839774432504,"url":"https://maps.app.goo.gl/zE2aLejbpEyQpDvq8?g_st=ipc","address":"Paleon Patron Germanou 28, Thessaloniki 546 22","categoryIds":["cheap-eats","mexican"],"categories":["Gyros & Cheap Eats","Mexican Restaurants"],"legacySlugs":["taco-mazama-californian-style-mexican-street-food-77e6"]},{"id":"cheapEatsRestaurants_12c533aae8f8","slug":"derlicatesen-all-souvlaki-12c5","kind":"restaurant","name":"Derlicatesen all Souvlaki","lat":40.630948535574674,"lng":22.944881639476645,"url":"https://maps.app.goo.gl/nooaQmgbY9VX2WGv7?g_st=ipc","address":"John Kouskoura 3, Thessaloniki 546 22","categoryIds":["cheap-eats"],"categories":["Gyros & Cheap Eats"]},{"id":"cheapEatsRestaurants_3e2ba0cbb305","slug":"jackaroo-3e2b","kind":"restaurant","name":"Jackaroo","lat":40.631343527256554,"lng":22.944174715835555,"url":"https://maps.app.goo.gl/cRpaEqK3F7inKXVy5?g_st=ipc","address":"Mitropoleos 67, Thessaloniki 546 22","categoryIds":["cheap-eats"],"categories":["Gyros & Cheap Eats"]},{"id":"cheapEatsRestaurants_3bf8a692d929","slug":"argophageio-3bf8","kind":"restaurant","name":"Argophageío","lat":40.631121382402085,"lng":22.94963262184118,"url":"https://maps.app.goo.gl/hi9XxDarzuTKvZmD8?g_st=ipc","address":"Apellou 6, Thessaloniki 546 22","categoryIds":["cheap-eats"],"categories":["Gyros & Cheap Eats"]},{"id":"cheapEatsRestaurants_c606c6424912","slug":"cong-vietasian-street-food-c606","kind":"restaurant","name":"Cong | Vietasian Street Food","lat":40.63147206727124,"lng":22.942501320363125,"url":"https://maps.app.goo.gl/gyhw2UWMtxWKgMui6?g_st=ipc","address":"Proxenou Koromila 9, Thessaloniki 546 23","categoryIds":["cheap-eats"],"categories":["Gyros & Cheap Eats"]},{"id":"cheapEatsRestaurants_09ba201c7611","slug":"yum-tree-09ba","kind":"restaurant","name":"Yum Tree","lat":40.62786595411914,"lng":22.947554429551257,"url":"https://maps.app.goo.gl/8t8Wb8QaYGPzQ1F76?g_st=ipc","address":"Dim. Gounari 5, Thessaloniki 546 22","categoryIds":["cheap-eats","desserts"],"categories":["Gyros & Cheap Eats","Dessert Shops"],"legacySlugs":["yum-tree-9cb3"]}],"nearby":[{"id":"coffeeBrunchRestaurants_1b425a72f2b5","slug":"join-juice-bars-1b42","kind":"restaurant","name":"JOIN Juice bars","lat":40.63111893989398,"lng":22.94663938125253,"url":"https://maps.app.goo.gl/N6nKzENHvyunx5Mi6?g_st=ipc","address":"Paleon Patron Germanou 10, Thessaloniki 546 22","categoryIds":["coffee-brunch","vegetarian"],"categories":["Coffee & Brunch Spots","Vegetarian Friendly Restaurants"],"legacySlugs":["join-juice-bars-6dea"],"distanceKm":0.01291401445867551},{"id":"dessertsRestaurants_d0ca7ccef948","slug":"choureal-choux-profiterole-d0ca","kind":"restaurant","name":"Choureál | Choux & Profiterole","lat":40.63128497514692,"lng":22.94642870495605,"url":"https://maps.app.goo.gl/a3ZWXrDCAGuMcPwA6?g_st=ipc","address":"Paleon Patron Germanou 9, Thessaloniki 546 22","categoryIds":["desserts"],"categories":["Dessert Shops"],"distanceKm":0.03283125102156253},{"id":"coffeeBrunchRestaurants_f6927d333ac7","slug":"local-thessaloniki-f692","kind":"restaurant","name":"LOCAL Thessaloniki","lat":40.63143794324686,"lng":22.94699527001704,"url":"https://maps.app.goo.gl/RCLyEycZ8dqaLJjT6?g_st=ipc","address":"Paleon Patron Germanou 17, Thessaloniki 546 22","categoryIds":["coffee-brunch"],"categories":["Coffee & Brunch Spots"],"distanceKm":0.035652230986189005},{"id":"greekRestaurants_dd92d680950f","slug":"local-thessaloniki-dd92","kind":"restaurant","name":"LOCAL Thessaloniki","lat":40.631447319193505,"lng":22.946995352889463,"url":"https://maps.app.goo.gl/iMk8Tx82t81vQe5y5?g_st=ipc","address":"Παλαιών Πατρών Γερμανού 17, Θεσσαλονίκη 546 22","categoryIds":["greek-restaurants"],"categories":["Greek Restaurants"],"distanceKm":0.03655932614578848},{"id":"coffeeBrunchRestaurants_59f3ca123c97","slug":"72h-artisanal-bakery-59f3","kind":"restaurant","name":"72H Artisanal Bakery","lat":40.630980814351275,"lng":22.946106919469365,"url":"https://maps.app.goo.gl/xY83zLTaRAhzVGBo8?g_st=ipc","address":"Paleon Patron Germanou 2, Thessaloniki 546 22","categoryIds":["coffee-brunch"],"categories":["Coffee & Brunch Spots"],"distanceKm":0.06039036854856755},{"id":"vegetarianRestaurants_ae93f5705c93","slug":"mushroom-skg-ae93","kind":"restaurant","name":"mushroom skg","lat":40.63168703304935,"lng":22.946978697189547,"url":"https://maps.app.goo.gl/F7WJFJ3rEhib4fX86?g_st=ipc","address":"Zefxidos 10, Thessaloniki 546 22","categoryIds":["vegetarian"],"categories":["Vegetarian Friendly Restaurants"],"distanceKm":0.060782146280810176},{"id":"greekRestaurants_90c55ea6b27c","slug":"rogkoti-1928-90c5","kind":"restaurant","name":"Ρογκότη 1928","lat":40.63063704521069,"lng":22.947121329539414,"url":"https://maps.app.goo.gl/oYN4BameZGmdPwsE8?g_st=ipc","address":"Grigoriou Palama 8, Thessaloniki 546 22","categoryIds":["greek-restaurants"],"categories":["Greek Restaurants"],"distanceKm":0.06494086034817186},{"id":"coffeeBrunchRestaurants_cbf12f48a77e","slug":"mandarini-skg-cbf1","kind":"restaurant","name":"Mandarini_skg","lat":40.63174083169372,"lng":22.946676387172698,"url":"https://maps.app.goo.gl/CEdKb7KcdrPJwXZdA?g_st=ipc","address":"Zefxidos 6, Thessaloniki 546 22","categoryIds":["coffee-brunch"],"categories":["Coffee & Brunch Spots"],"distanceKm":0.06506444123805241}],"sameRegion":[],"mentionedGuides":[],"canonicalSlug":"hot-pot-pasteria-city-center-6c50","isCanonicalEntity":true,"enrichment":{"summary_en":"Hot Pot Pasteria City Center is a curated restaurant in Thessaloniki 546 22 in the Gyros & Cheap Eats collection. It is connected to 171 nearby Googlementor picks to help travelers build a stronger local route.","summary_el":"Hot Pot Pasteria City Center είναι ένα επιλεγμένο σημείο φαγητού στην περιοχή Thessaloniki 546 22 και ανήκει στη συλλογή Gyros & Cheap Eats. Συνδέεται με 171 κοντινές προτάσεις του Googlementor για πιο ολοκληρωμένη εμπειρία.","vibe_tags":["curated","budget-friendly"],"best_for":["first-time visitors","food lovers","budget travelers"],"visit_moments":["lunch stop","dinner stop"],"practical_note":"Address and direct map link are available for easy turn-by-turn access.","nearby_walkable_count":171,"nearby_count_2km":266,"confidence":0.98}},"__N_SSG":true}