{"pageProps":{"entity":{"id":"coffeeBrunchRestaurants_377e5b2b94af","slug":"hyper-astro-bar-377e","kind":"restaurant","name":"Hyper Astro Bar","lat":37.976752074692875,"lng":23.726360654614314,"url":"https://maps.app.goo.gl/fFtwoCRNKsTccdUb7?g_st=ipc","address":"Ερμού 78, & Αθηνάς 2, Αθήνα 105 51","categoryIds":["coffee-brunch","rooftop-lounges"],"categories":["Coffee & Brunch Spots","Rooftop Lounges"],"legacySlugs":["hyper-astro-bar-304d"]},"sameCategory":[{"id":"coffeeBrunchRestaurants_10001909d6f1","slug":"attic-urban-rooftop-1000","kind":"restaurant","name":"Attic Urban Rooftop","lat":37.97687145726863,"lng":23.725410732994586,"url":"https://maps.app.goo.gl/9Zyy977FxxHx9dgc9?g_st=ipc","address":"Ερμού 86, Αθήνα 105 54","categoryIds":["coffee-brunch","rooftop-lounges"],"categories":["Coffee & Brunch Spots","Rooftop Lounges"],"legacySlugs":["attic-urban-rooftop-7332"]},{"id":"coffeeBrunchRestaurants_988f2cbbbd9c","slug":"liystor-988f","kind":"restaurant","name":"LIYSTOR","lat":37.97700032542266,"lng":23.724753676313323,"url":"https://maps.app.goo.gl/7douBXS6i4VTSVMM9?g_st=ipc","address":"Ερμού 92-94, Αθήνα 105 54","categoryIds":["coffee-brunch","rooftop-lounges"],"categories":["Coffee & Brunch Spots","Rooftop Lounges"],"legacySlugs":["liystor-484f"]},{"id":"coffeeBrunchRestaurants_f33248e61009","slug":"prasini-tenta-lykavittos-f332","kind":"restaurant","name":"Πράσινη Τέντα, Λυκαβηττός","lat":37.980853849375265,"lng":23.74311999324442,"url":"https://maps.app.goo.gl/Ra6VkFbWmNNsbYnu8?g_st=ipc","address":"Μονοπάτι Λυκαβηττού, Αθήνα 114 71","categoryIds":["coffee-brunch","rooftop-lounges"],"categories":["Coffee & Brunch Spots","Rooftop Lounges"],"legacySlugs":["prasini-tenta-lykavittos-3190"]},{"id":"coffeeBrunchRestaurants_21280d2fc2ee","slug":"telescope-cafe-bar-restaurant-2128","kind":"restaurant","name":"Telescope Cafe Bar Restaurant","lat":38.00692418431941,"lng":23.65623593846488,"url":"https://maps.app.goo.gl/qq7xzW7bEsPcyJT1A?g_st=ipc","address":"Φιλικής Εταιρείας, Χαϊδάρι 124 61","categoryIds":["coffee-brunch","rooftop-lounges"],"categories":["Coffee & Brunch Spots","Rooftop Lounges"],"legacySlugs":["telescope-cafe-bar-restaurant-0981"]},{"id":"coffeeBrunchRestaurants_22ed699a380f","slug":"mosaic-milos-22ed","kind":"restaurant","name":"Mosaic Milos","lat":36.74431276131015,"lng":24.421917244173116,"url":"https://maps.app.goo.gl/5Mzweh8YnbTNhVaQ9?g_st=ipc","address":"Plaka 848 00","categoryIds":["coffee-brunch","rooftop-lounges"],"categories":["Coffee & Brunch Spots","Rooftop Lounges"],"legacySlugs":["mosaic-milos-55f4"]},{"id":"coffeeBrunchRestaurants_e00fbc861ff8","slug":"avaton-1739-coffee-wine-roof-e00f","kind":"restaurant","name":"AVATON 1739 - Coffee & Wine Roof","lat":37.10529514165084,"lng":25.377380277769117,"url":"https://maps.app.goo.gl/31ofe6z6fLcDE8U48?g_st=ipc","address":"Kastro, Naxos 843 00","categoryIds":["coffee-brunch","rooftop-lounges"],"categories":["Coffee & Brunch Spots","Rooftop Lounges"],"legacySlugs":["avaton-1739-coffee-wine-roof-741d"]},{"id":"coffeeBrunchRestaurants_38190cc1f3e8","slug":"morrison-the-premium-rooftop-3819","kind":"restaurant","name":"Morrison • The Premium Rooftop","lat":40.60821540217915,"lng":22.998740403846558,"url":"https://maps.app.goo.gl/WNgG79yhRyL6k5GA9?g_st=ipc","address":"17is Noemvriou 87, Pilea 555 35","categoryIds":["coffee-brunch","rooftop-lounges"],"categories":["Coffee & Brunch Spots","Rooftop Lounges"],"legacySlugs":["morrison-the-premium-rooftop-2f03"]},{"id":"rooftopLoungesRestaurants_24e545264e5c","slug":"ms-24e5","kind":"restaurant","name":"MS","lat":37.97691417323162,"lng":23.726058429208038,"url":"https://maps.app.goo.gl/bs3sf3hsdSxC6Beo9?g_st=ipc","address":"Athinas 1 &, Ερμού, Αθήνα 105 54","categoryIds":["rooftop-lounges"],"categories":["Rooftop Lounges"]}],"nearby":[{"id":"dessertsRestaurants_722e1b739382","slug":"iceroll-722e","kind":"restaurant","name":"IceRoll","lat":37.97685958783748,"lng":23.726327595889753,"url":"https://maps.app.goo.gl/8LHJovnHdYJkvDpY9?g_st=ipc","address":"Αθηνάς 2, Αθήνα 105 51","categoryIds":["desserts"],"categories":["Dessert Shops"],"distanceKm":0.012301064510782254},{"id":"rooftopLoungesRestaurants_24e545264e5c","slug":"ms-24e5","kind":"restaurant","name":"MS","lat":37.97691417323162,"lng":23.726058429208038,"url":"https://maps.app.goo.gl/bs3sf3hsdSxC6Beo9?g_st=ipc","address":"Athinas 1 &, Ερμού, Αθήνα 105 54","categoryIds":["rooftop-lounges"],"categories":["Rooftop Lounges"],"distanceKm":0.03204082587649651},{"id":"coffeeBrunchRestaurants_dda6cb75ebfa","slug":"snob-athens-luxury-rooms-espresso-gastro-bar-dda6","kind":"restaurant","name":"SNOB Athens Luxury Rooms & Espresso Gastro Bar","lat":37.97706349386115,"lng":23.726726410113187,"url":"https://maps.app.goo.gl/Z7rJpaKMWG44Coit8?g_st=ipc","address":"Αγίας Ειρήνης 17, Αθήνα 105 51","categoryIds":["coffee-brunch"],"categories":["Coffee & Brunch Spots"],"distanceKm":0.04718971121882909},{"id":"municipalities_d7e1aaaed4f9","slug":"monastiraki-d7e1","kind":"municipality","name":"Μοναστηράκι","lat":37.9763,"lng":23.7265,"aliases":["Monastiraci"],"region":"Κέντρο Αθήνας","name_en":"Monastiraki","region_en":"Athens Center","distanceKm":0.05173092611255523},{"id":"cheapEatsRestaurants_3d671140dfef","slug":"o-thanasis-kempap-monastiraki-3d67","kind":"restaurant","name":"Ο Θανάσης κεμπάπ Μοναστηράκι","lat":37.976291478347854,"lng":23.726486093222853,"url":"https://maps.app.goo.gl/1dqXX7TB1pvVovcv8?g_st=ipc","address":"Μητροπόλεως 69, Αθήνα 105 55","categoryIds":["cheap-eats"],"categories":["Gyros & Cheap Eats"],"distanceKm":0.05238283976132475},{"id":"rooftopLoungesRestaurants_18ce337fd426","slug":"a-for-athens-18ce","kind":"restaurant","name":"A for Athens","lat":37.97687634031922,"lng":23.725767271545557,"url":"https://maps.app.goo.gl/Vq5qVpsf9STrBATY9?g_st=ipc","address":"Μιαούλη 2-4, Αθήνα 105 54","categoryIds":["rooftop-lounges"],"categories":["Rooftop Lounges"],"distanceKm":0.05381451764751495},{"id":"mustSeeAttractions_241beda98c80","slug":"plateia-monastirakioy-241b","kind":"restaurant","name":"Πλατεία Μοναστηρακίου","lat":37.97640816584317,"lng":23.725886410870196,"url":"https://maps.app.goo.gl/BWatUxUvLvu5LHMP9?g_st=ipc","address":"Απόλλωνος 21, Αθήνα 105 57","categoryIds":["attractions"],"categories":["Must-See Attractions"],"distanceKm":0.056482320025324544},{"id":"vegetarianRestaurants_6103b84128cb","slug":"vegan-tour-athens-6103","kind":"restaurant","name":"Vegan tour Athens","lat":37.97635862482565,"lng":23.725860112285382,"url":"https://maps.app.goo.gl/HNSYbNbjWA38vytK7?g_st=ipc","address":"Πλ. Μοναστηρακίου, Αθήνα 105 55","categoryIds":["vegetarian"],"categories":["Vegetarian Friendly Restaurants"],"distanceKm":0.06195857204011911}],"sameRegion":[],"mentionedGuides":[],"canonicalSlug":"hyper-astro-bar-377e","isCanonicalEntity":true,"enrichment":{"summary_en":"Hyper Astro Bar is a curated restaurant in Αθήνα 105 51 in the Coffee & Brunch Spots collection. It is connected to 301 nearby Googlementor picks to help travelers build a stronger local route.","summary_el":"Hyper Astro Bar είναι ένα επιλεγμένο σημείο φαγητού στην περιοχή Αθήνα 105 51 και ανήκει στη συλλογή Coffee & Brunch Spots. Συνδέεται με 301 κοντινές προτάσεις του Googlementor για πιο ολοκληρωμένη εμπειρία.","vibe_tags":["curated","daytime-favorite","city-views"],"best_for":["first-time visitors","food lovers"],"visit_moments":["early morning","late brunch"],"practical_note":"Address and direct map link are available for easy turn-by-turn access.","nearby_walkable_count":301,"nearby_count_2km":635,"confidence":0.98}},"__N_SSG":true}