{"pageProps":{"entity":{"id":"monasteriesChurches_37c0d5b10bef","slug":"ieros-mitropolitikos-naos-eyaggelismoy-tis-theotokoy-37c0","kind":"restaurant","name":"Ιερός Μητροπολιτικός Ναός Ευαγγελισμού της Θεοτόκου","lat":37.975376487881356,"lng":23.72984816695813,"url":"https://maps.app.goo.gl/MUAqskRD72AoRTQJA?g_st=ipc","address":"E056 105, Αθήνα 118 54","categoryIds":["monasteries-churches"],"categories":["Monasteries & Spiritual Sites"]},"sameCategory":[{"id":"monasteriesChurches_33b82b7e9f7b","slug":"ieros-panepistimiakos-naos-eisodion-tis-theotokoy-kapnikarea-33b8","kind":"restaurant","name":"Ιερός Πανεπιστημιακός Ναός Εισοδίων της Θεοτόκου (Καπνικαρέα)","lat":37.97637980025147,"lng":23.72861650689245,"url":"https://maps.app.goo.gl/7LkLpxAa7L7V3fr8A?g_st=ipc","address":"Πλ. Καπνικαρέας 3, Αθήνα 105 63","categoryIds":["monasteries-churches"],"categories":["Monasteries & Spiritual Sites"]},{"id":"monasteriesChurches_d3d098c448a4","slug":"ieros-naos-agias-eirinis-d3d0","kind":"restaurant","name":"Ιερός Ναός Αγίας Ειρήνης","lat":37.977134855411386,"lng":23.727779375021544,"url":"https://maps.app.goo.gl/JehgGspdoWfwue8w5?g_st=ipc","address":"Αιόλου 36, Αθήνα 105 60","categoryIds":["monasteries-churches"],"categories":["Monasteries & Spiritual Sites"]},{"id":"monasteriesChurches_8533fc9b9b94","slug":"ieros-naos-agion-anargyron-kolokynthi-metochion-panagioy-tafoy-8533","kind":"restaurant","name":"Ιερός Ναός Αγίων Αναργύρων Κολοκύνθη - Μετόχιον Παναγίου Τάφου","lat":37.97293435768165,"lng":23.728208879310362,"url":"https://maps.app.goo.gl/nKcEJuoZ25jXrQqeA?g_st=ipc","address":"Ερεχθέως 18, Αθήνα 105 56","categoryIds":["monasteries-churches"],"categories":["Monasteries & Spiritual Sites"]},{"id":"monasteriesChurches_10f29f7ed669","slug":"ieros-naos-agioy-nikolaoy-ragkava-10f2","kind":"restaurant","name":"Ιερός Ναός Αγίου Νικολάου Ραγκαβά","lat":37.972457611954724,"lng":23.729131060991204,"url":"https://maps.app.goo.gl/HnQHckK1xrE13jmu5?g_st=ipc","address":"Πρυτανείου 1, Αθήνα 105 58","categoryIds":["monasteries-churches"],"categories":["Monasteries & Spiritual Sites"]},{"id":"monasteriesChurches_3b14e4e4fde2","slug":"ieros-naos-agias-sofias-akropoleos-3b14","kind":"restaurant","name":"Ιερός Ναός Αγίας Σοφίας Ακροπόλεως","lat":37.96969305070506,"lng":23.72539590621987,"url":"https://maps.app.goo.gl/GdJWue7opw56LmEv9?g_st=ipc","address":"Διονυσίου Αρεοπαγίτου 45, Αθήνα 117 42","categoryIds":["monasteries-churches"],"categories":["Monasteries & Spiritual Sites"]},{"id":"monasteriesChurches_4b11b4e1cf5d","slug":"ieros-naos-agioy-dionysioy-areopagitoy-polioychoy-athinon-4b11","kind":"restaurant","name":"Ιερός Ναός Αγίου Διονυσίου Αρεοπαγίτου, Πολιούχου Αθηνών","lat":37.97972265813733,"lng":23.73873188558116,"url":"https://maps.app.goo.gl/m2sqAvFCJXsVJyjB8?g_st=ipc","address":"Σκουφά 34, Αθήνα 106 72","categoryIds":["monasteries-churches"],"categories":["Monasteries & Spiritual Sites"]},{"id":"monasteriesChurches_70c088ccf077","slug":"ieros-naos-agias-foteinis-ilisoy-70c0","kind":"restaurant","name":"Ιερός Ναός Αγίας Φωτεινής Ιλισού","lat":37.96759253152895,"lng":23.734352593011444,"url":"https://maps.app.goo.gl/jdAdCNX9K2HoSujs9?g_st=ipc","address":"Αρδηττού 3, Αθήνα 105 57","categoryIds":["monasteries-churches"],"categories":["Monasteries & Spiritual Sites"]},{"id":"monasteriesChurches_526ec40757ea","slug":"ieros-naos-agias-marinas-thiseioy-526e","kind":"restaurant","name":"Ιερός Ναός Αγίας Μαρίνας Θησείου","lat":37.97369230338061,"lng":23.718995271203244,"url":"https://maps.app.goo.gl/RzkAj7rMQNDfRMKN8?g_st=ipc","address":"Αγίας Μαρίνας 1, Αθήνα 118 51","categoryIds":["monasteries-churches"],"categories":["Monasteries & Spiritual Sites"]}],"nearby":[{"id":"luxuryDiningRestaurants_2a500f95083c","slug":"the-zillers-rooftop-gastronomy-2a50","kind":"restaurant","name":"The Zillers Rooftop Gastronomy","lat":37.97561073825588,"lng":23.729618727455946,"url":"https://maps.app.goo.gl/3rX2B6EznK5THCsX9?g_st=ipc","address":"Μητροπόλεως 54, Αθήνα 105 63","categoryIds":["luxury-dining","rooftop-lounges"],"categories":["Luxury Dining","Rooftop Lounges"],"legacySlugs":["the-zillers-rooftop-gastronomy-deda"],"distanceKm":0.03290768915187528},{"id":"coffeeBrunchRestaurants_af73cfd62392","slug":"the-zillers-pastry-bar-af73","kind":"restaurant","name":"The Zillers Pastry Bar","lat":37.97475815330705,"lng":23.729657937121086,"url":"https://maps.app.goo.gl/F16LXUX65PanPNx76?g_st=ipc","address":"Παλαιολόγου Μπενιζέλου 6, Αθήνα 105 56","categoryIds":["coffee-brunch"],"categories":["Coffee & Brunch Spots"],"distanceKm":0.07074862996627464},{"id":"cheapEatsRestaurants_3392ef0104b3","slug":"focacceria-napul-e-3392","kind":"restaurant","name":"Focacceria Napul’e","lat":37.97562561163699,"lng":23.730612422068372,"url":"https://maps.app.goo.gl/1Z8wuAKBZ1px7oFG6?g_st=ipc","address":"Πετράκη 30, Αθήνα 105 63","categoryIds":["cheap-eats"],"categories":["Gyros & Cheap Eats"],"distanceKm":0.07249017782710963},{"id":"rooftopLoungesRestaurants_dccec8a54ab2","slug":"taratsa-athens-dcce","kind":"restaurant","name":"Taratsa Athens","lat":37.97577225088555,"lng":23.729185158634564,"url":"https://maps.app.goo.gl/jwnF2SS5G6PYqRPf9?g_st=ipc","address":"Μητροπόλεως 60, Αθήνα 105 63","categoryIds":["rooftop-lounges"],"categories":["Rooftop Lounges"],"distanceKm":0.07289607312135671},{"id":"coffeeBrunchRestaurants_d761c46075d4","slug":"le-petit-village-d761","kind":"restaurant","name":"Le Petit Village","lat":37.97573184070448,"lng":23.730557151684366,"url":"https://maps.app.goo.gl/yQDokn8qrofNRvbN9?g_st=ipc","address":"Φωκίωνος 2, Αθήνα 105 63","categoryIds":["coffee-brunch"],"categories":["Coffee & Brunch Spots"],"distanceKm":0.07364223680224755},{"id":"cheapEatsRestaurants_fb9d26e8cad9","slug":"meat-the-greek-fb9d","kind":"restaurant","name":"Meat the Greek","lat":37.97583452449836,"lng":23.730527268129777,"url":"https://maps.app.goo.gl/4GCcGcuQpLTaTXZf8?g_st=ipc","address":"Φωκίωνος 2-4, Αθήνα 105 63","categoryIds":["cheap-eats"],"categories":["Gyros & Cheap Eats"],"distanceKm":0.07834010637340241},{"id":"gyrosSouvlakiRestaurants_514910b62a38","slug":"souvlaki-monastiraki-5149","kind":"restaurant","name":"Souvlaki Monastiraki","lat":37.975,"lng":23.729,"url":"https://maps.app.goo.gl/sample29","address":"Mitropoleos 2, Athina 105 63","categoryIds":["cheap-eats"],"categories":["Gyros & Cheap Eats"],"distanceKm":0.08532040539012926},{"id":"burgersRestaurants_72777d81b2c1","slug":"cadillac-burgers-7277","kind":"restaurant","name":"Cadillac Burgers","lat":37.97549144814891,"lng":23.728731411277973,"url":"https://maps.app.goo.gl/tbzr2ePrf29seJBFA?g_st=ipc","address":"Μνησικλέους 6, Αθήνα 105 56","categoryIds":["burgers"],"categories":["Burger Spots"],"distanceKm":0.09871716882962125}],"sameRegion":[],"mentionedGuides":[],"canonicalSlug":"ieros-mitropolitikos-naos-eyaggelismoy-tis-theotokoy-37c0","isCanonicalEntity":true,"enrichment":{"summary_en":"Ιερός Μητροπολιτικός Ναός Ευαγγελισμού της Θεοτόκου is a curated restaurant in Αθήνα 118 54 in the Monasteries & Spiritual Sites collection. It is connected to 315 nearby Googlementor picks to help travelers build a stronger local route.","summary_el":"Ιερός Μητροπολιτικός Ναός Ευαγγελισμού της Θεοτόκου είναι ένα επιλεγμένο σημείο φαγητού στην περιοχή Αθήνα 118 54 και ανήκει στη συλλογή Monasteries & Spiritual Sites. Συνδέεται με 315 κοντινές προτάσεις του Googlementor για πιο ολοκληρωμένη εμπειρία.","vibe_tags":["curated"],"best_for":["first-time visitors","food lovers"],"visit_moments":["lunch stop","dinner stop"],"practical_note":"Address and direct map link are available for easy turn-by-turn access.","nearby_walkable_count":315,"nearby_count_2km":661,"confidence":0.98}},"__N_SSG":true}