{"pageProps":{"entity":{"id":"municipalities_a8cf7f89f0ad","slug":"imerovigli-a8cf","kind":"municipality","name":"Ημεροβίγλι","lat":36.4352,"lng":25.4235,"region":"Σαντορίνη","name_en":"Imerovigli","region_en":"Santorini"},"sameCategory":[],"nearby":[{"id":"greekRestaurants_77983275c7e1","slug":"mama-lena-7798","kind":"restaurant","name":"Mama Lena","lat":36.433282969378894,"lng":25.42330569423746,"url":"https://maps.app.goo.gl/ouhG9hPgQz5MamWj7?g_st=ipc","address":"Imerovigli 847 00","categoryIds":["greek-restaurants"],"categories":["Greek Restaurants"],"distanceKm":0.21387165237556127},{"id":"luxuryDiningRestaurants_20e2fea855d8","slug":"varoulko-santorini-within-grace-hotel-20e2","kind":"restaurant","name":"Varoulko Santorini (within Grace Hotel)","lat":36.432959672130295,"lng":25.420955482423597,"url":"https://maps.app.goo.gl/8GTiiHfZwjCgosfT6?g_st=ipc","address":"Imerovigli Thira, Santorini 847 00","categoryIds":["luxury-dining"],"categories":["Luxury Dining"],"distanceKm":0.33745352804555284},{"id":"luxuryDiningRestaurants_60ed304175f8","slug":"koukoumavlos-restaurant-60ed","kind":"restaurant","name":"Koukoumavlos Restaurant","lat":36.43146159101605,"lng":25.424418520966256,"url":"https://maps.app.goo.gl/uc1kbLbBqgnUhLot7?g_st=ipc","address":"Imerovigli 847 00","categoryIds":["luxury-dining"],"categories":["Luxury Dining"],"distanceKm":0.42373605528228575},{"id":"fishTavernasRestaurants_088f1a113b0b","slug":"afropsaro-santorini-088f","kind":"restaurant","name":"Afropsaro Santorini","lat":36.44373697181477,"lng":25.4260466585142,"url":"https://maps.app.goo.gl/ocoYehgdG9tZzoCd6?g_st=ipc","address":"Imerovigli 847 00","categoryIds":["fish-tavernas","luxury-dining"],"categories":["Fish Tavernas","Luxury Dining"],"legacySlugs":["afropsaro-santorini-da47"],"distanceKm":0.9762208905907405},{"id":"fishTavernasRestaurants_f0432a23e1ec","slug":"roza-s-f043","kind":"restaurant","name":"Roza's","lat":36.43483486218363,"lng":25.4369605787624,"url":"https://maps.app.goo.gl/E5GA7Cu7XS5a5jut9?g_st=ipc","address":"Vourvoulos Santorini Island, 847 00","categoryIds":["fish-tavernas"],"categories":["Fish Tavernas"],"distanceKm":1.2048644580951393},{"id":"wineriesVineyards_21a74b37ed66","slug":"vassaltis-vineyards-21a7","kind":"restaurant","name":"Vassaltis Vineyards","lat":36.44254790219748,"lng":25.43767809168264,"url":"https://maps.app.goo.gl/2AtdngotJUgMkr7o8?g_st=ipc","address":"Περιφερειακή οδός, Βουρβούλος 847 00","categoryIds":["wineries-vineyards"],"categories":["Wineries & Vineyards"],"distanceKm":1.50869781213026},{"id":"luxuryDiningRestaurants_a54c6ec9f1fa","slug":"selene-restaurant-a54c","kind":"restaurant","name":"Selene Restaurant","lat":36.4214954695669,"lng":25.43077555199888,"url":"https://maps.app.goo.gl/WMAKe6khJLqtbDgo7?g_st=ipc","address":"Old catholic monastery, Thira 847 00","categoryIds":["luxury-dining"],"categories":["Luxury Dining"],"distanceKm":1.6570745905304496},{"id":"fishTavernasRestaurants_2d350f785ac9","slug":"triana-tavern-2d35","kind":"restaurant","name":"Triana Tavern","lat":36.42013344956067,"lng":25.432032180485958,"url":"https://maps.app.goo.gl/FwBmnh2RPeVaK64U6?g_st=ipc","address":"25is Martiou 405, Thira 847 00","categoryIds":["fish-tavernas"],"categories":["Fish Tavernas"],"distanceKm":1.8410397988094551}],"sameRegion":[{"id":"municipalities_1eedf0b4b9bd","slug":"perissa-1eed","kind":"municipality","name":"Περίσσα","lat":36.3536,"lng":25.4739,"region":"Σαντορίνη","name_en":"Perissa","region_en":"Santorini"},{"id":"municipalities_4a175944114f","slug":"kamari-4a17","kind":"municipality","name":"Καμάρι","lat":36.3711,"lng":25.4804,"region":"Σαντορίνη","name_en":"Kamari","region_en":"Santorini"},{"id":"municipalities_55c07bf61bfe","slug":"oia-55c0","kind":"municipality","name":"Οία","lat":36.461,"lng":25.375,"region":"Σαντορίνη","name_en":"Oia","region_en":"Santorini"},{"id":"municipalities_d0dfb358cefd","slug":"fira-d0df","kind":"municipality","name":"Φηρά","lat":36.4167,"lng":25.4326,"region":"Σαντορίνη","name_en":"Fira","region_en":"Santorini"}],"mentionedGuides":[],"canonicalSlug":"imerovigli-a8cf","isCanonicalEntity":true,"enrichment":{"summary_en":"Ημεροβίγλι is a curated neighborhood area in Σαντορίνη. It is connected to 3 nearby Googlementor picks to help travelers build a stronger local route.","summary_el":"Ημεροβίγλι είναι ένα επιλεγμένο σημείο ενδιαφέροντος στην περιοχή Σαντορίνη. Συνδέεται με 3 κοντινές προτάσεις του Googlementor για πιο ολοκληρωμένη εμπειρία.","vibe_tags":["local-neighborhood","base-for-exploring"],"best_for":["first-time visitors","walk-and-explore days","return visitors"],"visit_moments":["late morning walks","sunset exploration"],"practical_note":"3 curated places are within walkable distance from this area center.","nearby_walkable_count":3,"nearby_count_2km":9,"confidence":0.55}},"__N_SSG":true}