{"pageProps":{"entity":{"id":"burgersRestaurants_23f9084c3497","slug":"jazz-burger-bar-neo-irakleio-23f9","kind":"restaurant","name":"Jazz Burger Bar Νέο Ηρακλειο","lat":38.04095396558123,"lng":23.776308567252247,"url":"https://maps.app.goo.gl/K4k635ezwzDGdDJB9?g_st=ic","address":"Marinou Antipa 59, Iraklio 141 21","categoryIds":["burgers"],"categories":["Burger Spots"]},"sameCategory":[{"id":"burgersRestaurants_5f190c7a3636","slug":"jazz-burger-bar-neo-irakleio-5f19","kind":"restaurant","name":"Jazz Burger Bar Νέο Ηρακλειο","lat":38.04095577978939,"lng":23.776308324847815,"url":"https://maps.app.goo.gl/hv2UknNHtTHVpeFG6?g_st=ipc","address":"Μαρίνου Αντύπα 59, Ηράκλειο 141 21","categoryIds":["burgers"],"categories":["Burger Spots"]},{"id":"burgersRestaurants_b7d172dd6af6","slug":"serial-grillers-b7d1","kind":"restaurant","name":"Serial Grillers","lat":38.04771274952107,"lng":23.76539665009085,"url":"https://maps.app.goo.gl/DKedv8F3cHKd27me9?g_st=ipc","address":"Νεότητος 4, Ηράκλειο 141 22","categoryIds":["burgers"],"categories":["Burger Spots"]},{"id":"burgersRestaurants_11e6ae00efca","slug":"melt-burgers-11e6","kind":"restaurant","name":"Melt Burgers","lat":38.037895872437886,"lng":23.799602975307902,"url":"https://maps.app.goo.gl/17z1ma6NXSDvgsM2A?g_st=ipc","address":"Λεωφ. Κηφισίας 59, Μαρούσι 151 24","categoryIds":["burgers"],"categories":["Burger Spots"]},{"id":"burgersRestaurants_7c38d294a0a4","slug":"pax-burgers-chalandri-7c38","kind":"restaurant","name":"PAX Burgers Chalandri","lat":38.0226758104374,"lng":23.797664927683787,"url":"https://maps.app.goo.gl/vTHoe9jC12FnQ9ZE9?g_st=ipc","address":"Κολοκοτρώνη 18, Χαλάνδρι 152 33","categoryIds":["burgers"],"categories":["Burger Spots"]},{"id":"burgersRestaurants_34e5b1f181ce","slug":"pax-burgers-chalandri-34e5","kind":"restaurant","name":"PAX Burgers Chalandri","lat":38.02267566012985,"lng":23.79766474992644,"url":"https://maps.app.goo.gl/AiwVzM3dHvcwWDhh9?g_st=ic","address":"Kolokotroni 18, Chalandri 152 33","categoryIds":["burgers"],"categories":["Burger Spots"]},{"id":"burgersRestaurants_c336eb92f70f","slug":"benjamin-burger-house-c336","kind":"restaurant","name":"Benjamin Burger House","lat":38.02349485615921,"lng":23.79940305236398,"url":"https://maps.app.goo.gl/1oUJJNhHwJDfzkoK6?g_st=ipc","address":"Ανδρέα Γκίνη 8-12, Χαλάνδρι 152 33","categoryIds":["burgers"],"categories":["Burger Spots"]},{"id":"burgersRestaurants_ec4983f25d99","slug":"nob-burger-ec49","kind":"restaurant","name":"NOB Burger","lat":38.02272062579597,"lng":23.79844865880115,"url":"https://maps.app.goo.gl/wpfmqU8MnEBtDwTH8?g_st=ic","address":"Κολοκοτρώνη 15 &, Gyftopoulou 10, Chalandri 152 33","categoryIds":["burgers"],"categories":["Burger Spots"]},{"id":"burgersRestaurants_a6200663c2fc","slug":"enkelt-eatery-drinkery-a620","kind":"restaurant","name":"Enkelt Eatery Drinkery","lat":38.02213524779596,"lng":23.799867459817303,"url":"https://maps.app.goo.gl/vHwx7oKoUfgScAFL9?g_st=ipc","address":"Ανδρέα Παπανδρέου 9, Χαλάνδρι 152 34","categoryIds":["burgers"],"categories":["Burger Spots"]}],"nearby":[{"id":"burgersRestaurants_5f190c7a3636","slug":"jazz-burger-bar-neo-irakleio-5f19","kind":"restaurant","name":"Jazz Burger Bar Νέο Ηρακλειο","lat":38.04095577978939,"lng":23.776308324847815,"url":"https://maps.app.goo.gl/hv2UknNHtTHVpeFG6?g_st=ipc","address":"Μαρίνου Αντύπα 59, Ηράκλειο 141 21","categoryIds":["burgers"],"categories":["Burger Spots"],"distanceKm":0.00020284460316141763},{"id":"cheapEatsRestaurants_f3077615404b","slug":"kantina-o-alekos-f307","kind":"restaurant","name":"Καντίνα \"ο Αλεκος\"","lat":38.04208740467577,"lng":23.77486464859004,"url":"https://maps.app.goo.gl/4oCtgVQEesHACQsu8?g_st=ipc","address":"Μαρίνου Αντύπα 47, Ηράκλειο 141 21","categoryIds":["cheap-eats"],"categories":["Gyros & Cheap Eats"],"distanceKm":0.17853141376746404},{"id":"cheapEatsRestaurants_5f9d5dd343a6","slug":"ypoyrgeio-geyseon-soyvlaki-psita-5f9d","kind":"restaurant","name":"ΥΠΟΥΡΓΕΙΟ ΓΕΥΣΕΩΝ-Σουβλάκι,Ψητά","lat":38.04303394507047,"lng":23.771779772357615,"url":"https://maps.app.goo.gl/LCrvDRPpRco2nVuF9?g_st=ipc","address":"Φιλοθέης 67, Ηράκλειο 141 21","categoryIds":["cheap-eats","greek-restaurants"],"categories":["Gyros & Cheap Eats","Greek Restaurants"],"legacySlugs":["ypoyrgeio-geyseon-soyvlaki-psita-5023"],"distanceKm":0.45911016735840426},{"id":"luxuryDiningRestaurants_bbebf7e68168","slug":"moo-casa-steak-lobster-bbeb","kind":"restaurant","name":"MOO CASA steak & lobster","lat":38.04344953562119,"lng":23.772025529553066,"url":"https://maps.app.goo.gl/HwBgLRsMdgFuqNJTA?g_st=ipc","address":"Marinou Antipa 66, Iraklio 141 21","categoryIds":["luxury-dining"],"categories":["Luxury Dining"],"distanceKm":0.4665673459392941},{"id":"luxuryDiningRestaurants_8a047703e0fb","slug":"afropsaro-8a04","kind":"restaurant","name":"Αφρόψαρο","lat":38.04349613246651,"lng":23.771888846159882,"url":"https://maps.app.goo.gl/g7jbxhgYDYFvpnKX6?g_st=ipc","address":"Μαρίνου Αντύπα 62-66, Ηράκλειο 141 21","categoryIds":["luxury-dining"],"categories":["Luxury Dining"],"distanceKm":0.4792804751072445},{"id":"familyFriendly_20cf4ac4b119","slug":"freeline-athens-inline-skating-school-20cf","kind":"restaurant","name":"Freeline - Athens Inline Skating School","lat":38.04178979504894,"lng":23.783943829723313,"url":"https://maps.app.goo.gl/eikiyDUe7JH1ESeMA?g_st=ipc","address":"Μαρούσι 151 23","categoryIds":["family-friendly"],"categories":["Kid Friendly Locations"],"distanceKm":0.675073768036927},{"id":"familyFriendly_ca1b21e5d960","slug":"planet-physics-ca1b","kind":"restaurant","name":"Planet Physics","lat":38.03717219186782,"lng":23.78478282955737,"url":"https://maps.app.goo.gl/zXVMtXNDFGQx4jhn7?g_st=ipc","address":"Located in: Olympic Indoor Hall Nikos Galis, Leof. Olimpionikou Spirou Loui, Marousi 151 23","categoryIds":["family-friendly"],"categories":["Kid Friendly Locations"],"distanceKm":0.8529994819001387},{"id":"dessertsRestaurants_8a66394cff02","slug":"andrias-8a66","kind":"restaurant","name":"Ανδριάς","lat":38.031915217615015,"lng":23.776449986064225,"url":"https://maps.app.goo.gl/UyXFW37fEx8CzcR76?g_st=ipc","address":"Λεωφ. Καποδιστρίου 92, Νέα Ιωνία 142 35","categoryIds":["desserts"],"categories":["Dessert Shops"],"distanceKm":1.0051392262884384}],"sameRegion":[],"mentionedGuides":[],"canonicalSlug":"jazz-burger-bar-neo-irakleio-23f9","isCanonicalEntity":true,"enrichment":{"summary_en":"Jazz Burger Bar Νέο Ηρακλειο is a curated restaurant in Iraklio 141 21 in the Burger Spots collection. It is connected to 6 nearby Googlementor picks to help travelers build a stronger local route.","summary_el":"Jazz Burger Bar Νέο Ηρακλειο είναι ένα επιλεγμένο σημείο φαγητού στην περιοχή Iraklio 141 21 και ανήκει στη συλλογή Burger Spots. Συνδέεται με 6 κοντινές προτάσεις του Googlementor για πιο ολοκληρωμένη εμπειρία.","vibe_tags":["curated"],"best_for":["first-time visitors","food lovers"],"visit_moments":["lunch stop","dinner stop"],"practical_note":"Address and direct map link are available for easy turn-by-turn access.","nearby_walkable_count":6,"nearby_count_2km":35,"confidence":0.98}},"__N_SSG":true}