{"pageProps":{"entity":{"id":"cheapEatsRestaurants_ff6ed582468d","slug":"kantina-mpoylis-ff6e","kind":"restaurant","name":"Καντίνα Μπούλης","lat":37.99687794724643,"lng":23.669076776828845,"url":"https://maps.app.goo.gl/xe2rY6uCMrsoqN6Z6?g_st=ipc","address":"Δελφών 1, Αιγάλεω 122 43","categoryIds":["cheap-eats"],"categories":["Gyros & Cheap Eats"]},"sameCategory":[{"id":"cheapEatsRestaurants_e88cecd313d4","slug":"kempatzidiko-o-nikos-e88c","kind":"restaurant","name":"Κεμπατζίδικο ο Νίκος","lat":37.99463818746986,"lng":23.672052339400672,"url":"https://maps.app.goo.gl/aSgB8uZ7Vn2JHks67?g_st=ipc","address":"Πλ. Δαβάκη 2, Αιγάλεω 122 44","categoryIds":["cheap-eats"],"categories":["Gyros & Cheap Eats"]},{"id":"cheapEatsRestaurants_85d33bf344bd","slug":"psistaria-mparmpa-q-85d3","kind":"restaurant","name":"Ψησταριά ΜΠΑΡΜΠΑ-Q","lat":38.00370912884522,"lng":23.671659527057734,"url":"https://maps.app.goo.gl/hUJucEmJmMyQKCdo7?g_st=ipc","address":"Ηρακλείτου 68, Αιγάλεω 122 43","categoryIds":["cheap-eats"],"categories":["Gyros & Cheap Eats"]},{"id":"cheapEatsRestaurants_11ca527f21ff","slug":"story-streat-11ca","kind":"restaurant","name":"Story Streat","lat":37.99310908999883,"lng":23.678421408504626,"url":"https://maps.app.goo.gl/qwnqmZVR9fGMGk1GA?g_st=ipc","address":"Θηβών 395, Αιγάλεω 122 42","categoryIds":["cheap-eats"],"categories":["Gyros & Cheap Eats"]},{"id":"cheapEatsRestaurants_507a873fe8bb","slug":"kuke-feel-conocido-507a","kind":"restaurant","name":"KUKE feel conocido","lat":37.991254650701244,"lng":23.678569756355024,"url":"https://maps.app.goo.gl/YPqbR69SY4YBXH98A?g_st=ipc","address":"Μαρκ. Μπότσαρη 12, Αιγάλεω 122 41","categoryIds":["cheap-eats"],"categories":["Gyros & Cheap Eats"]},{"id":"cheapEatsRestaurants_eb9e5b7b1e69","slug":"nostimies-eb9e","kind":"restaurant","name":"Νοστιμιές","lat":38.006695342963845,"lng":23.664393083804136,"url":"https://maps.app.goo.gl/dWSfhPqcebsnfQNf9?g_st=ipc","address":"Γεωργίου Καραϊσκάκη 73 & Σάμου, Χαϊδάρι 124 61","categoryIds":["cheap-eats"],"categories":["Gyros & Cheap Eats"]},{"id":"cheapEatsRestaurants_50faa8efdb7a","slug":"alexandrino-50fa","kind":"restaurant","name":"Αλεξανδρινό","lat":37.988352964195414,"lng":23.66083903239818,"url":"https://maps.app.goo.gl/29w8wVCTHrf1eEoi7?g_st=ipc","address":"143, Λεωφ. Μεγ. Αλεξάνδρου 141, Αγ. Βαρβάρα 123 51","categoryIds":["cheap-eats"],"categories":["Gyros & Cheap Eats"]},{"id":"cheapEatsRestaurants_78dd0823b695","slug":"psitopoleio-peloponnisos-psita-soyvlas-thivon-78dd","kind":"restaurant","name":"ΨΗΤΟΠΩΛΕΙΟ ΠΕΛΟΠΟΝΝΗΣΟΣ (ΨΗΤΑ ΣΟΥΒΛΑΣ ΘΗΒΩΝ)","lat":38.00117940953343,"lng":23.684942285189337,"url":"https://maps.app.goo.gl/TuyE1q1NNNhTr3Vo6?g_st=ipc","address":"Θηβών 531, Αιγάλεω 122 43","categoryIds":["cheap-eats"],"categories":["Gyros & Cheap Eats"]},{"id":"cheapEatsRestaurants_5adc759d28ee","slug":"soyvlatzidiko-makedonas-5adc","kind":"restaurant","name":"ΣΟΥΒΛΑΤΖΙΔΙΚΟ ΜΑΚΕΔΟΝΑΣ","lat":37.98418614658137,"lng":23.66055565137486,"url":"https://maps.app.goo.gl/GywP2se78BN7JkRc8?g_st=ipc","address":"Γ. Γεννηματα 52, Αγ. Βαρβάρα 123 51","categoryIds":["cheap-eats"],"categories":["Gyros & Cheap Eats"]}],"nearby":[{"id":"dessertsRestaurants_785eeca94828","slug":"zacharoplasteia-kosmikon-ag-marina-iera-odos-335-785e","kind":"restaurant","name":"ΖΑΧΑΡΟΠΛΑΣΤΕΙΑ ΚΟΣΜΙΚΟΝ ΑΓ.ΜΑΡΙΝΑ ΙΕΡΑ ΟΔΟΣ 335","lat":37.997674954706554,"lng":23.667015535582053,"url":"https://maps.app.goo.gl/dYPUKHVLHxCx5BKd6?g_st=ipc","address":"Ιερά Οδός 335, Αγ. Βαρβάρα 123 51","categoryIds":["desserts"],"categories":["Dessert Shops"],"distanceKm":0.20118918294360275},{"id":"cheapEatsRestaurants_e88cecd313d4","slug":"kempatzidiko-o-nikos-e88c","kind":"restaurant","name":"Κεμπατζίδικο ο Νίκος","lat":37.99463818746986,"lng":23.672052339400672,"url":"https://maps.app.goo.gl/aSgB8uZ7Vn2JHks67?g_st=ipc","address":"Πλ. Δαβάκη 2, Αιγάλεω 122 44","categoryIds":["cheap-eats"],"categories":["Gyros & Cheap Eats"],"distanceKm":0.36057226562061506},{"id":"coffeeBrunchRestaurants_44bd3c6a7140","slug":"theoria-tou-house-44bd","kind":"restaurant","name":"Theoria Tou House","lat":37.99483558716702,"lng":23.67242611231958,"url":"https://maps.app.goo.gl/xJYXm4QXBt9wx7wx5?g_st=ipc","address":"Πλ. Δαβάκη 1, Αιγάλεω 122 44","categoryIds":["coffee-brunch","desserts"],"categories":["Coffee & Brunch Spots","Dessert Shops"],"legacySlugs":["theoria-tou-house-74b7"],"distanceKm":0.37109783162436516},{"id":"dessertsRestaurants_ba6234463276","slug":"maron-ba62","kind":"restaurant","name":"Μαρόν","lat":37.99449617488293,"lng":23.67314837817293,"url":"https://maps.app.goo.gl/V3oLNwTqi4An5qFb8?g_st=ipc","address":"Ιερά Οδός 287, Αιγάλεω 122 44","categoryIds":["desserts"],"categories":["Dessert Shops"],"distanceKm":0.44433890862048964},{"id":"coffeeBrunchRestaurants_639c2aabee9d","slug":"qahwa-chaidari-639c","kind":"restaurant","name":"Qahwa Chaidari","lat":38.00126380773835,"lng":23.663252642859884,"url":"https://maps.app.goo.gl/vAwUeBwjnVB6oM6A7?g_st=ipc","address":"Στρ. Καραϊσκάκη 12, Χαϊδάρι 124 61","categoryIds":["coffee-brunch"],"categories":["Coffee & Brunch Spots"],"distanceKm":0.7058875561553528},{"id":"greekRestaurants_b6bacb590b9a","slug":"to-yiasemi-food-wine-experience-b6ba","kind":"restaurant","name":"To Yiasemi Food & Wine Experience","lat":38.00142234618658,"lng":23.662754824513232,"url":"https://maps.app.goo.gl/72YzkYeb6xxkDt68A","address":"Στρ. Καραϊσκάκη 1, Β, Χαϊδάρι 124 61","categoryIds":["greek-restaurants"],"categories":["Greek Restaurants"],"distanceKm":0.7498045768116982},{"id":"cheapEatsRestaurants_85d33bf344bd","slug":"psistaria-mparmpa-q-85d3","kind":"restaurant","name":"Ψησταριά ΜΠΑΡΜΠΑ-Q","lat":38.00370912884522,"lng":23.671659527057734,"url":"https://maps.app.goo.gl/hUJucEmJmMyQKCdo7?g_st=ipc","address":"Ηρακλείτου 68, Αιγάλεω 122 43","categoryIds":["cheap-eats"],"categories":["Gyros & Cheap Eats"],"distanceKm":0.792588125434319},{"id":"greekRestaurants_2f9a21e4ef01","slug":"pesto-ki-egine-2f9a","kind":"restaurant","name":"Πέστο Κι Έγινε","lat":38.00286560260897,"lng":23.663110435533067,"url":"https://maps.app.goo.gl/xWbZXEXeN5pg16TG9","address":"Στρ. Καραϊσκάκη 17, Χαϊδάρι 124 61","categoryIds":["greek-restaurants"],"categories":["Greek Restaurants"],"distanceKm":0.8465183129694445}],"sameRegion":[],"mentionedGuides":[],"canonicalSlug":"kantina-mpoylis-ff6e","isCanonicalEntity":true,"enrichment":{"summary_en":"Καντίνα Μπούλης is a curated restaurant in Αιγάλεω 122 43 in the Gyros & Cheap Eats collection. It is connected to 7 nearby Googlementor picks to help travelers build a stronger local route.","summary_el":"Καντίνα Μπούλης είναι ένα επιλεγμένο σημείο φαγητού στην περιοχή Αιγάλεω 122 43 και ανήκει στη συλλογή Gyros & Cheap Eats. Συνδέεται με 7 κοντινές προτάσεις του Googlementor για πιο ολοκληρωμένη εμπειρία.","vibe_tags":["curated","budget-friendly"],"best_for":["first-time visitors","food lovers","budget travelers"],"visit_moments":["lunch stop","dinner stop"],"practical_note":"Address and direct map link are available for easy turn-by-turn access.","nearby_walkable_count":7,"nearby_count_2km":34,"confidence":0.98}},"__N_SSG":true}