{"pageProps":{"entity":{"id":"municipalities_5a61c4b30038","slug":"kordelio-eyosmos-5a61","kind":"municipality","name":"Κορδελιό - Ευόσμος","lat":40.6708,"lng":22.8819,"region":"Δυτική Θεσσαλονίκη","name_en":"Kordelio - Evosmos","region_en":"West Thessaloniki"},"sameCategory":[],"nearby":[{"id":"municipalities_fd387f77da75","slug":"eleytherio-kordelio-fd38","kind":"municipality","name":"Ελευθέριο - Κορδελιό","lat":40.6717,"lng":22.8936,"region":"Δυτική Θεσσαλονίκη","name_en":"Eleftherio - Kordelio","region_en":"West Thessaloniki","distanceKm":0.9918055024547523},{"id":"italianRestaurants_78702cadc159","slug":"pizzicato-osteria-7870","kind":"restaurant","name":"Pizzicato Osteria","lat":40.669954093386394,"lng":22.89587107388144,"url":"https://maps.app.goo.gl/FjcCcP1uvC3Gxrju5?g_st=ipc","address":"Eth. Antistaseos 79, Eleftherio Kordelio 563 34","categoryIds":["italian"],"categories":["Italian Restaurants"],"distanceKm":1.182043151622473},{"id":"greekRestaurants_b101b37c957d","slug":"ladokolla-apo-to-kordelio-sto-charmankioi-b101","kind":"restaurant","name":"Λαδόκολλα - Από το Κορδελιό στο Χαρμάνκιοϊ","lat":40.66651626452892,"lng":22.8973438821838,"url":"https://maps.app.goo.gl/CWnRci4QKtgu8y7y6?g_st=ipc","address":"Μεγ. Αλεξάνδρου 31, Ελευθέριο Κορδελιό 563 34","categoryIds":["greek-restaurants"],"categories":["Greek Restaurants"],"distanceKm":1.3869053509935265},{"id":"cheapEatsRestaurants_260862299166","slug":"dia-cheiros-aretoy-2608","kind":"restaurant","name":"Δια Χειρός Αρέτου","lat":40.66705307967295,"lng":22.898083719400002,"url":"https://maps.app.goo.gl/Ce9N11e1dVKsZ2t17?g_st=ipc","address":"Kon/nou Karamanli 37, Eleftherio Kordelio 563 34","categoryIds":["cheap-eats"],"categories":["Gyros & Cheap Eats"],"distanceKm":1.4271072516556007},{"id":"greekRestaurants_1519d05a3bce","slug":"mantemi-casual-dining-1519","kind":"restaurant","name":"ΜΑΝΤΕΜΙ | Casual Dining","lat":40.67409229961713,"lng":22.905893700060766,"url":"https://maps.app.goo.gl/A7GLofJnsBowRAkj8?g_st=ipc","address":"Meandrou 79, Evosmos 562 24","categoryIds":["greek-restaurants"],"categories":["Greek Restaurants"],"distanceKm":2.0563707767166557},{"id":"greekRestaurants_726e02b8b685","slug":"anama-726e","kind":"restaurant","name":"Anama","lat":40.67309178488354,"lng":22.90614317972579,"url":"https://maps.app.goo.gl/Bt17EdhYtg5pRDnb8?g_st=ipc","address":"Κολοκοτρώνη 10, Εύοσμος 562 24","categoryIds":["greek-restaurants"],"categories":["Greek Restaurants"],"distanceKm":2.060397317268947},{"id":"cheapEatsRestaurants_f921d077e63d","slug":"psitopoleio-nikos-f921","kind":"restaurant","name":"Ψητοπωλείο \"ΝΙΚΟΣ\"","lat":40.66963563529277,"lng":22.908013940571315,"url":"https://maps.app.goo.gl/LAQoYu8du3ZFbwSR7?g_st=ipc","address":"Meg. Alexandrou 56, Evosmos 562 24","categoryIds":["cheap-eats"],"categories":["Gyros & Cheap Eats"],"distanceKm":2.206209494231957},{"id":"italianRestaurants_5c52a29bf906","slug":"raffaele-pizza-pasta-5c52","kind":"restaurant","name":"Raffaele Pizza & Pasta","lat":40.66835766189394,"lng":22.909237229764354,"url":"https://maps.app.goo.gl/aQ6nFJz5CrVrnaNv6","address":"P. Mela 8, Evosmos 562 24","categoryIds":["italian"],"categories":["Italian Restaurants"],"distanceKm":2.321538802019258}],"sameRegion":[{"id":"municipalities_2ba5701b87ab","slug":"ampelokipoi-menemeni-2ba5","kind":"municipality","name":"Αμπελόκηποι - Μενεμένη","lat":40.6589,"lng":22.9083,"region":"Δυτική Θεσσαλονίκη","name_en":"Ampelokipoi - Menemeni","region_en":"West Thessaloniki"},{"id":"municipalities_52e9dfbeced3","slug":"neapoli-sykies-52e9","kind":"municipality","name":"Νεάπολη - Συκιές","lat":40.653,"lng":22.958,"region":"Δυτική Θεσσαλονίκη","name_en":"Neapoli - Sykies","region_en":"West Thessaloniki"},{"id":"municipalities_96e3494c5454","slug":"polichni-96e3","kind":"municipality","name":"Πολίχνη","lat":40.6694,"lng":22.9481,"region":"Δυτική Θεσσαλονίκη","name_en":"Polichni","region_en":"West Thessaloniki"},{"id":"municipalities_9d384c0445ca","slug":"stayroypoli-9d38","kind":"municipality","name":"Σταυρούπολη","lat":40.6667,"lng":22.9333,"region":"Δυτική Θεσσαλονίκη","name_en":"Stavroupoli","region_en":"West Thessaloniki"},{"id":"municipalities_fd387f77da75","slug":"eleytherio-kordelio-fd38","kind":"municipality","name":"Ελευθέριο - Κορδελιό","lat":40.6717,"lng":22.8936,"region":"Δυτική Θεσσαλονίκη","name_en":"Eleftherio - Kordelio","region_en":"West Thessaloniki"}],"mentionedGuides":[],"canonicalSlug":"kordelio-eyosmos-5a61","isCanonicalEntity":true,"enrichment":{"summary_en":"Κορδελιό - Ευόσμος is a curated neighborhood area in Δυτική Θεσσαλονίκη. It is connected to 0 nearby Googlementor picks to help travelers build a stronger local route.","summary_el":"Κορδελιό - Ευόσμος είναι ένα επιλεγμένο σημείο ενδιαφέροντος στην περιοχή Δυτική Θεσσαλονίκη. Συνδέεται με 0 κοντινές προτάσεις του Googlementor για πιο ολοκληρωμένη εμπειρία.","vibe_tags":["local-neighborhood","base-for-exploring"],"best_for":["first-time visitors","walk-and-explore days","return visitors"],"visit_moments":["late morning walks","sunset exploration"],"practical_note":"0 curated places are within walkable distance from this area center.","nearby_walkable_count":0,"nearby_count_2km":4,"confidence":0.55}},"__N_SSG":true}