{"pageProps":{"entity":{"id":"municipalities_08be13136639","slug":"korydallos-08be","kind":"municipality","name":"Κορυδαλλός","lat":37.9844,"lng":23.6476,"aliases":["Koridallos"],"region":"Δυτικά Προάστια","name_en":"Korydallos","region_en":"Western Suburbs"},"sameCategory":[],"nearby":[{"id":"greekRestaurants_71ccb1aa4b83","slug":"taverna-o-vasilis-71cc","kind":"restaurant","name":"Ταβέρνα Ο Βασίλης","lat":37.983639078803165,"lng":23.65172200450781,"url":"https://maps.app.goo.gl/P3D4J5ff2iNtoGc99","address":"Κολοκοτρώνη 160, Κορυδαλλός 181 21","categoryIds":["greek-restaurants"],"categories":["Greek Restaurants"],"distanceKm":0.37103628447549797},{"id":"cheapEatsRestaurants_e6d18e573896","slug":"to-kochyli-afoi-rekka-e6d1","kind":"restaurant","name":"ΤΟ ΚΟΧΥΛΙ (Αφοί Ρέκκα)","lat":37.97958803504725,"lng":23.650262049500654,"url":"https://maps.app.goo.gl/dW3a2SovSeGnxXCRA?g_st=ipc","address":"Κορυδαλλός 181 20","categoryIds":["cheap-eats"],"categories":["Gyros & Cheap Eats"],"distanceKm":0.5837215971148871},{"id":"cheapEatsRestaurants_91979e529e27","slug":"aganaktisi-9197","kind":"restaurant","name":"Αγανάκτηση","lat":37.978045238767244,"lng":23.651711441065746,"url":"https://maps.app.goo.gl/eNiYkaAyndviywoc9?g_st=ipc","address":"Σερρών 44 &, Ταξιαρχών, Κορυδαλλός 181 20","categoryIds":["cheap-eats"],"categories":["Gyros & Cheap Eats"],"distanceKm":0.7931952472852846},{"id":"cheapEatsRestaurants_194354552c25","slug":"toy-savvidi-1943","kind":"restaurant","name":"Του... Σαββίδη","lat":37.98532436234628,"lng":23.65728485284073,"url":"https://maps.app.goo.gl/NoNkrUm2DjN83eAw7?g_st=ipc","address":"Λεωφ. Ελ. Βενιζέλου 158, Αγ. Βαρβάρα 123 51","categoryIds":["cheap-eats"],"categories":["Gyros & Cheap Eats"],"distanceKm":0.8549897511752393},{"id":"cheapEatsRestaurants_1416b33a5bdb","slug":"dealers-real-street-food-1416","kind":"restaurant","name":"Dealers Real Street Food","lat":37.97630275309409,"lng":23.649623466165345,"url":"https://maps.app.goo.gl/6hPX1uNfh9QEYJND7?g_st=ipc","address":"Ταξιαρχών 18, Κορυδαλλός 181 20","categoryIds":["cheap-eats"],"categories":["Gyros & Cheap Eats"],"distanceKm":0.9176730874405684},{"id":"burgersRestaurants_c5b9db65b8f8","slug":"ala-burger-c5b9","kind":"restaurant","name":"Ala Burger","lat":37.976136624110225,"lng":23.64953319647224,"url":"https://maps.app.goo.gl/magEHZdr4AeKTeT69?g_st=ipc","address":"Ταξιαρχών 14, Κορυδαλλός 181 20","categoryIds":["burgers"],"categories":["Burger Spots"],"distanceKm":0.9343372656139207},{"id":"dessertsRestaurants_fc8742eefd51","slug":"loukoumothers-korydallos-fc87","kind":"restaurant","name":"Loukoumothers Korydallos","lat":37.97603620585146,"lng":23.64943855450405,"url":"https://maps.app.goo.gl/vMqPzYGSApLyRm1NA?g_st=ipc","address":"Ταξιαρχών &, Καψάλη 12, Κορυδαλλός 181 20","categoryIds":["desserts"],"categories":["Dessert Shops"],"distanceKm":0.9438688088305159},{"id":"dessertsRestaurants_3dbefba5d853","slug":"galaktopoleio-stamoy-3dbe","kind":"restaurant","name":"Γαλακτοπωλείο ΣΤΑΜΟΥ","lat":37.98009558422181,"lng":23.657555522495652,"url":"https://maps.app.goo.gl/39ZNM4A7nfLV7BTBA?g_st=ipc","address":"Γρ. Λαμπράκη 120, Κορυδαλλός 181 21","categoryIds":["desserts"],"categories":["Dessert Shops"],"distanceKm":0.9951960616903631}],"sameRegion":[{"id":"municipalities_2d28cc1df46e","slug":"agioi-anargyroi-2d28","kind":"municipality","name":"Άγιοι Ανάργυροι","lat":38.04,"lng":23.73,"region":"Δυτικά Προάστια","name_en":"Agioi Anargyroi","region_en":"Western Suburbs"},{"id":"municipalities_40326566c574","slug":"nikaia-4032","kind":"municipality","name":"Νίκαια","lat":37.9667,"lng":23.6472,"aliases":["Nikaia","Nikea"],"region":"Δυτικά Προάστια","name_en":"Nikaia","region_en":"Western Suburbs"},{"id":"municipalities_5aa1ce67a878","slug":"chaidari-5aa1","kind":"municipality","name":"Χαϊδάρι","lat":38.0117,"lng":23.6689,"aliases":["Xaidari","Haidari"],"region":"Δυτικά Προάστια","name_en":"Chaidari","region_en":"Western Suburbs"},{"id":"municipalities_6d3b56c27da3","slug":"peristeri-6d3b","kind":"municipality","name":"Περιστέρι","lat":38.015,"lng":23.7035,"aliases":["Peristeria"],"region":"Δυτικά Προάστια","name_en":"Peristeri","region_en":"Western Suburbs"},{"id":"municipalities_786b92402462","slug":"aigaleo-786b","kind":"municipality","name":"Αιγάλεω","lat":38.0089,"lng":23.6825,"aliases":["Aigaleo","Egaleo"],"region":"Δυτικά Προάστια","name_en":"Aigaleo","region_en":"Western Suburbs"},{"id":"municipalities_856f4c0ff4e6","slug":"agia-varvara-856f","kind":"municipality","name":"Αγία Βαρβάρα","lat":38.0065,"lng":23.6715,"region":"Δυτικά Προάστια","name_en":"Agia Varvara","region_en":"Western Suburbs"},{"id":"municipalities_88064bcfc221","slug":"kamatero-8806","kind":"municipality","name":"Καματερό","lat":38.05,"lng":23.72,"region":"Δυτικά Προάστια","name_en":"Kamatero","region_en":"Western Suburbs"},{"id":"municipalities_aa49daff0d15","slug":"petroypoli-aa49","kind":"municipality","name":"Πετρούπολη","lat":38.0333,"lng":23.6833,"region":"Δυτικά Προάστια","name_en":"Petroupoli","region_en":"Western Suburbs"}],"mentionedGuides":[],"canonicalSlug":"korydallos-08be","isCanonicalEntity":true,"enrichment":{"summary_en":"Κορυδαλλός is a curated neighborhood area in Δυτικά Προάστια. It is connected to 3 nearby Googlementor picks to help travelers build a stronger local route.","summary_el":"Κορυδαλλός είναι ένα επιλεγμένο σημείο ενδιαφέροντος στην περιοχή Δυτικά Προάστια. Συνδέεται με 3 κοντινές προτάσεις του Googlementor για πιο ολοκληρωμένη εμπειρία.","vibe_tags":["local-neighborhood","base-for-exploring"],"best_for":["first-time visitors","walk-and-explore days","return visitors"],"visit_moments":["late morning walks","sunset exploration"],"practical_note":"3 curated places are within walkable distance from this area center.","nearby_walkable_count":3,"nearby_count_2km":23,"confidence":0.55}},"__N_SSG":true}