{"pageProps":{"entity":{"id":"greekRestaurants_9d808a2d74ce","slug":"krokodeilos-9d80","kind":"restaurant","name":"Κροκόδειλος","lat":36.54308732348962,"lng":26.343405441539794,"url":"https://maps.app.goo.gl/dNbrA36bRneAQ4R88?g_st=ipc","address":"Επαρ.Οδ. Λειβάδιων-Βαθύς, Λιβάδια 859 00","categoryIds":["greek-restaurants"],"categories":["Greek Restaurants"]},"sameCategory":[{"id":"greekRestaurants_836c2ffc58fd","slug":"to-gerani-836c","kind":"restaurant","name":"Το Γεράνι","lat":36.54308410706101,"lng":26.342679449404006,"url":"https://maps.app.goo.gl/uDHS2p6qbdnAvE7M7?g_st=ipc","address":"Επαρ.Οδ. Λειβάδιων-Βαθύς, Λιβάδια 859 00","categoryIds":["greek-restaurants"],"categories":["Greek Restaurants"]},{"id":"greekRestaurants_1eb270eb5f4f","slug":"ageri-restaurant-1eb2","kind":"restaurant","name":"Ageri restaurant","lat":36.545373863016174,"lng":26.35247532810791,"url":"https://maps.app.goo.gl/rQHUiQxR5nqHhzwq6?g_st=ipc","address":"Αστυπάλαια 859 00","categoryIds":["greek-restaurants"],"categories":["Greek Restaurants"]},{"id":"greekRestaurants_826ee6f6b42a","slug":"ducato-di-astypalea-826e","kind":"restaurant","name":"Ducato Di Astypalea","lat":36.54536940615809,"lng":26.35248428420808,"url":"https://maps.app.goo.gl/ZfS2feMAKcarSRzQ7?g_st=ipc","address":"Χώρα, Δωδεκάνησα 859 00","categoryIds":["greek-restaurants"],"categories":["Greek Restaurants"]},{"id":"greekRestaurants_9c87341404e8","slug":"to-stenaki-toy-koykla-to-stenaki-toy-koukla-9c87","kind":"restaurant","name":"Το στενάκι του Κούκλα.(to stenaki toy Koukla)","lat":36.545265395977154,"lng":26.35261447161412,"url":"https://maps.app.goo.gl/SnNzgQyWmVDaVzEZ8?g_st=ipc","address":"Astypalaia Chora myloi, Αστυπάλαια 859 00","categoryIds":["greek-restaurants"],"categories":["Greek Restaurants"]},{"id":"greekRestaurants_25653bac7b54","slug":"paradosiako-kafeneio-to-kafeneio-toy-moyggoy-2565","kind":"restaurant","name":"Παραδοσιακό Καφενείο (To Καφενείο του Μουγγού)","lat":36.5453974756151,"lng":26.35310123253182,"url":"https://maps.app.goo.gl/gijNGaC27DHdZSCLA?g_st=ipc","address":"Αστυπάλαιας, Αστυπάλαια 859 00","categoryIds":["greek-restaurants"],"categories":["Greek Restaurants"]},{"id":"greekRestaurants_869806f17064","slug":"apanemia-8698","kind":"restaurant","name":"Απανεμιά","lat":36.54479553075043,"lng":26.354427413382332,"url":"https://maps.app.goo.gl/rmFvvL97zEvLD4fw7?g_st=ipc","address":"Αστυπάλαια 859 00","categoryIds":["greek-restaurants"],"categories":["Greek Restaurants"]},{"id":"greekRestaurants_0b3881d28de7","slug":"kafeneio-karai-0b38","kind":"restaurant","name":"Καφενείο Καράι","lat":36.54472153605894,"lng":26.355418637517822,"url":"https://maps.app.goo.gl/y4D61qmZahwjDV357?g_st=ipc","address":"Αστυπάλαια 859 00","categoryIds":["greek-restaurants"],"categories":["Greek Restaurants"]},{"id":"greekRestaurants_204f253dd532","slug":"antikastro-204f","kind":"restaurant","name":"antikastro","lat":36.54911350601486,"lng":26.354501637797917,"url":"https://maps.app.goo.gl/WHQ2qixYWioNZMKp6?g_st=ipc","address":"Πέρα Γιαλός, Αστυπάλαια 859 00","categoryIds":["greek-restaurants"],"categories":["Greek Restaurants"]}],"nearby":[{"id":"greekRestaurants_836c2ffc58fd","slug":"to-gerani-836c","kind":"restaurant","name":"Το Γεράνι","lat":36.54308410706101,"lng":26.342679449404006,"url":"https://maps.app.goo.gl/uDHS2p6qbdnAvE7M7?g_st=ipc","address":"Επαρ.Οδ. Λειβάδιων-Βαθύς, Λιβάδια 859 00","categoryIds":["greek-restaurants"],"categories":["Greek Restaurants"],"distanceKm":0.06485752403659607},{"id":"coffeeBrunchRestaurants_64018e74309c","slug":"meltemi-6401","kind":"restaurant","name":"Meltemi","lat":36.545359250189506,"lng":26.352356416685993,"url":"https://maps.app.goo.gl/nFrvN47758pZXWzT8?g_st=ipc","address":"Astypalaia 859 00","categoryIds":["coffee-brunch","desserts"],"categories":["Coffee & Brunch Spots","Dessert Shops"],"legacySlugs":["meltemi-57c8"],"distanceKm":0.8385813972850075},{"id":"greekRestaurants_1eb270eb5f4f","slug":"ageri-restaurant-1eb2","kind":"restaurant","name":"Ageri restaurant","lat":36.545373863016174,"lng":26.35247532810791,"url":"https://maps.app.goo.gl/rQHUiQxR5nqHhzwq6?g_st=ipc","address":"Αστυπάλαια 859 00","categoryIds":["greek-restaurants"],"categories":["Greek Restaurants"],"distanceKm":0.849201733452145},{"id":"greekRestaurants_826ee6f6b42a","slug":"ducato-di-astypalea-826e","kind":"restaurant","name":"Ducato Di Astypalea","lat":36.54536940615809,"lng":26.35248428420808,"url":"https://maps.app.goo.gl/ZfS2feMAKcarSRzQ7?g_st=ipc","address":"Χώρα, Δωδεκάνησα 859 00","categoryIds":["greek-restaurants"],"categories":["Greek Restaurants"],"distanceKm":0.8498170573154517},{"id":"greekRestaurants_9c87341404e8","slug":"to-stenaki-toy-koykla-to-stenaki-toy-koukla-9c87","kind":"restaurant","name":"Το στενάκι του Κούκλα.(to stenaki toy Koukla)","lat":36.545265395977154,"lng":26.35261447161412,"url":"https://maps.app.goo.gl/SnNzgQyWmVDaVzEZ8?g_st=ipc","address":"Astypalaia Chora myloi, Αστυπάλαια 859 00","categoryIds":["greek-restaurants"],"categories":["Greek Restaurants"],"distanceKm":0.8575864563819121},{"id":"italianRestaurants_964eabf93843","slug":"pablo-pasta-corner-964e","kind":"restaurant","name":"Pablo Pasta Corner","lat":36.545609138218644,"lng":26.3527289228981,"url":"https://maps.app.goo.gl/oiQQ7oLzNp1QAEmS9?g_st=ipc","address":"G9W3+63, Astipalea 859 00","categoryIds":["italian"],"categories":["Italian Restaurants"],"distanceKm":0.8788366488317992},{"id":"greekRestaurants_25653bac7b54","slug":"paradosiako-kafeneio-to-kafeneio-toy-moyggoy-2565","kind":"restaurant","name":"Παραδοσιακό Καφενείο (To Καφενείο του Μουγγού)","lat":36.5453974756151,"lng":26.35310123253182,"url":"https://maps.app.goo.gl/gijNGaC27DHdZSCLA?g_st=ipc","address":"Αστυπάλαιας, Αστυπάλαια 859 00","categoryIds":["greek-restaurants"],"categories":["Greek Restaurants"],"distanceKm":0.9034493118302527},{"id":"municipalities_d2bf66140ab6","slug":"astypalaia-d2bf","kind":"municipality","name":"Αστυπάλαια","lat":36.55,"lng":26.35,"region":"Δωδεκάνησα","name_en":"Astypalaia","region_en":"Dodecanese","distanceKm":0.9684354544002027}],"sameRegion":[],"mentionedGuides":[],"canonicalSlug":"krokodeilos-9d80","isCanonicalEntity":true,"enrichment":{"summary_en":"Κροκόδειλος is a curated restaurant in Λιβάδια 859 00 in the Greek Restaurants collection. It is connected to 1 nearby Googlementor picks to help travelers build a stronger local route.","summary_el":"Κροκόδειλος είναι ένα επιλεγμένο σημείο φαγητού στην περιοχή Λιβάδια 859 00 και ανήκει στη συλλογή Greek Restaurants. Συνδέεται με 1 κοντινές προτάσεις του Googlementor για πιο ολοκληρωμένη εμπειρία.","vibe_tags":["curated"],"best_for":["first-time visitors","food lovers"],"visit_moments":["lunch stop","dinner stop"],"practical_note":"Address and direct map link are available for easy turn-by-turn access.","nearby_walkable_count":1,"nearby_count_2km":13,"confidence":0.9}},"__N_SSG":true}