{"pageProps":{"entity":{"id":"wineriesVineyards_fdc81e37eccd","slug":"ktima-grampsa-grampsas-winery-restaurant-fdc8","kind":"restaurant","name":"Κτήμα Γράμψα ( Grampsas Winery & Restaurant)","lat":37.75447353990938,"lng":20.823574548385672,"url":"https://maps.app.goo.gl/m1RiUmNLtuMu1JHV9?g_st=ipc","address":"Lagopodo 290 92","categoryIds":["wineries-vineyards"],"categories":["Wineries & Vineyards"]},"sameCategory":[{"id":"wineriesVineyards_a7f0cdaf8e6a","slug":"ktima-merkoyri-a7f0","kind":"restaurant","name":"Κτήμα Μερκούρη","lat":37.676880743241625,"lng":21.30977411314664,"url":"https://maps.app.goo.gl/xmLZkxqWeDCDbXeVA?g_st=ipc","address":"M8G5+FM, Κορακοχώρι 271 00","categoryIds":["wineries-vineyards"],"categories":["Wineries & Vineyards"]},{"id":"wineriesVineyards_76d903b57c64","slug":"orealios-gaea-vine-growers-of-robola-76d9","kind":"restaurant","name":"Orealios Gaea - Vine Growers of Robola","lat":38.16303564266763,"lng":20.590291534978753,"url":"https://maps.app.goo.gl/nZzm6EuiZsKmkSxr7?g_st=ipc","address":"Valsamata 281 00","categoryIds":["wineries-vineyards"],"categories":["Wineries & Vineyards"]},{"id":"wineriesVineyards_9e37380a5d2e","slug":"achaia-klaoys-9e37","kind":"restaurant","name":"Αχάια Κλάους","lat":38.1969102747539,"lng":21.769694421982503,"url":"https://maps.app.goo.gl/wH7qQkNGXbSkx9SY7?g_st=ipc","address":"Πετρωτό 262 23","categoryIds":["wineries-vineyards"],"categories":["Wineries & Vineyards"]},{"id":"wineriesVineyards_2f6094ec16d1","slug":"parparoysis-oinopoiia-2f60","kind":"restaurant","name":"ΠΑΡΠΑΡΟΥΣΗΣ ΟΙΝΟΠΟΙΙΑ","lat":38.283502229311324,"lng":21.768505095628893,"url":"https://maps.app.goo.gl/1mV7U2hRvYf1jzfb9?g_st=ipc","address":"Πολυκαστης, Πάτρα 264 42","categoryIds":["wineries-vineyards"],"categories":["Wineries & Vineyards"]},{"id":"wineriesVineyards_8d14b59ec1a3","slug":"ampelones-rira-rira-vineyards-8d14","kind":"restaurant","name":"Αμπελώνες Ρίρα - Rira Vineyards","lat":38.29370777982869,"lng":22.008479102079523,"url":"https://maps.app.goo.gl/wH1yAZZ9D7nhcAqLA?g_st=ipc","address":"ΠΕΟ, Ν.Ε.Ο. Πατρών - Αθηνών, Νέος Ερινεός 250 09","categoryIds":["wineries-vineyards"],"categories":["Wineries & Vineyards"]},{"id":"wineriesVineyards_b10486ff2d64","slug":"rouvalis-wines-oinoforos-a-e-b104","kind":"restaurant","name":"ROUVALIS WINES (ΟΙΝΟΦΟΡΟΣ Α.Ε.)","lat":38.22055000984663,"lng":22.089166676944025,"url":"https://maps.app.goo.gl/znCHsxFPu7zWUC1b9?g_st=ipc","address":"Αίγιο 251 00","categoryIds":["wineries-vineyards"],"categories":["Wineries & Vineyards"]},{"id":"wineriesVineyards_84ebef8f5b21","slug":"ktima-mega-spilaio-84eb","kind":"restaurant","name":"Κτήμα Μέγα Σπήλαιο","lat":38.112838077733514,"lng":22.169404735261367,"url":"https://maps.app.goo.gl/qGAsm3q6PmBPN3TK6?g_st=ipc","address":"Επαρ.Οδ. Πούντας - Καλαβρύτων, Egialia 250 01","categoryIds":["wineries-vineyards"],"categories":["Wineries & Vineyards"]},{"id":"wineriesVineyards_f80526daec5c","slug":"oinopoieio-tetramythos-f805","kind":"restaurant","name":"Οινοποιείο Τετράμυθος","lat":38.13861434975287,"lng":22.235631269922283,"url":"https://maps.app.goo.gl/n9FxLvDHw2tR949F6?g_st=ipc","address":"8ο ΧΛΜ ΕΠΑΡΧΙΑΚΗΣ ΟΔΟΥ, Επαρ.Οδ. Πούντας - Καλαβρύτων, Άνω Διακοπτό 250 03","categoryIds":["wineries-vineyards"],"categories":["Wineries & Vineyards"]}],"nearby":[{"id":"greekRestaurants_2f52a7e9d852","slug":"to-perivoli-toy-oyranoy-2f52","kind":"restaurant","name":"Το Περιβόλι του Ουρανού","lat":37.75066406986317,"lng":20.81144889930085,"url":"https://maps.app.goo.gl/Bxqpj1UNd4GdkRJ99?g_st=ipc","address":"Λαγώποδο 290 92","categoryIds":["greek-restaurants"],"categories":["Greek Restaurants"],"distanceKm":1.1471319370975137},{"id":"greekRestaurants_e73aaa95127b","slug":"paradosiaki-taverna-to-piroynaki-e73a","kind":"restaurant","name":"Παραδοσιακή Ταβέρνα Το Πηρουνάκι","lat":37.775396020007214,"lng":20.812027974617365,"url":"https://maps.app.goo.gl/fGjWbBB2hRjDmHD9A?g_st=ipc","address":"Ζάκυνθος, Λαγκαδάκια 290 92","categoryIds":["greek-restaurants"],"categories":["Greek Restaurants"],"distanceKm":2.5382393556324856},{"id":"greekRestaurants_0508aab0e4db","slug":"ampelostrates-0508","kind":"restaurant","name":"Αμπελοστράτες","lat":37.74910381219431,"lng":20.775003142233945,"url":"https://maps.app.goo.gl/dcPreoTjacUfw2gE7?g_st=ipc","address":"Κοιλιωμένος 290 92","categoryIds":["greek-restaurants"],"categories":["Greek Restaurants"],"distanceKm":4.311868168732506},{"id":"coffeeBrunchRestaurants_4e218b55f113","slug":"madisons-kitchen-bar-4e21","kind":"restaurant","name":"Madisons Kitchen Bar","lat":37.78371523709895,"lng":20.898097278049377,"url":"https://maps.app.goo.gl/Anc3Yu4uRzD8XagR9?g_st=ipc","address":"Lomvardou 36, Zakinthos 291 00","categoryIds":["coffee-brunch"],"categories":["Coffee & Brunch Spots"],"distanceKm":7.313011384752256},{"id":"coffeeBrunchRestaurants_ebff8d600624","slug":"jenkins-lounge-eatery-ebff","kind":"restaurant","name":"Jenkins Lounge Eatery","lat":37.786543893628924,"lng":20.898568985854595,"url":"https://maps.app.goo.gl/1TG8uMAi1MTZQgiY8?g_st=ipc","address":"Psaron 3, Zakinthos 291 00","categoryIds":["coffee-brunch"],"categories":["Coffee & Brunch Spots"],"distanceKm":7.494513375541756},{"id":"municipalities_baf5b688aa1e","slug":"zakynthos-baf5","kind":"municipality","name":"Ζάκυνθος","lat":37.787,"lng":20.899,"aliases":["Zakynthos","Zante","Ζακύνθη","Ζακύνθια","Ζακυνθος","Ζακυνθο"],"region":"Ιόνιο","name_en":"Zakynthos","region_en":"Ionian Islands","distanceKm":7.551995384489876},{"id":"luxuryDiningRestaurants_297c60e6e419","slug":"prosilio-restaurant-297c","kind":"restaurant","name":"Prosilio Restaurant","lat":37.788001222025756,"lng":20.899925444650034,"url":"https://maps.app.goo.gl/ubyLMAurXvicrjVq5?g_st=ipc","address":"Ag. Panton 15, Zakinthos 291 00","categoryIds":["luxury-dining"],"categories":["Luxury Dining"],"distanceKm":7.676906552421153},{"id":"luxuryDiningRestaurants_889a9d30e511","slug":"melia-fine-dining-889a","kind":"restaurant","name":"Melia fine dining","lat":37.828072825552965,"lng":20.841384143587636,"url":"https://maps.app.goo.gl/vE8rWsiQpSVYvijD9?g_st=ipc","address":"Τραγάκι 291 00","categoryIds":["luxury-dining"],"categories":["Luxury Dining"],"distanceKm":8.332153004557536}],"sameRegion":[],"mentionedGuides":[],"canonicalSlug":"ktima-grampsa-grampsas-winery-restaurant-fdc8","isCanonicalEntity":true,"enrichment":{"summary_en":"Κτήμα Γράμψα ( Grampsas Winery & Restaurant) is a curated restaurant in Greece in the Wineries & Vineyards collection. It is connected to 0 nearby Googlementor picks to help travelers build a stronger local route.","summary_el":"Κτήμα Γράμψα ( Grampsas Winery & Restaurant) είναι ένα επιλεγμένο σημείο φαγητού στην περιοχή Greece και ανήκει στη συλλογή Wineries & Vineyards. Συνδέεται με 0 κοντινές προτάσεις του Googlementor για πιο ολοκληρωμένη εμπειρία.","vibe_tags":["curated","wine-moment"],"best_for":["first-time visitors","food lovers"],"visit_moments":["lunch stop","dinner stop"],"practical_note":"Address and direct map link are available for easy turn-by-turn access.","nearby_walkable_count":0,"nearby_count_2km":1,"confidence":0.9}},"__N_SSG":true}