{"pageProps":{"entity":{"id":"municipalities_20d3dae1213c","slug":"larisa-20d3","kind":"municipality","name":"Λάρισα","lat":39.64,"lng":22.42,"aliases":["Larissa","Λάρισσα","Λαρισα"],"region":"Θεσσαλία","name_en":"Larissa","region_en":"Thessaly"},"sameCategory":[],"nearby":[{"id":"italianRestaurants_f83f25bf777f","slug":"nonna-rossa-f83f","kind":"restaurant","name":"Nonna Rossa","lat":39.64111484868426,"lng":22.41428751769153,"url":"https://maps.app.goo.gl/ETYecXBUFzQCRmS47?g_st=ipc","address":"Skilosofou 9, Larisa 412 21","categoryIds":["italian"],"categories":["Italian Restaurants"],"distanceKm":0.5046066640245452},{"id":"familyFriendly_ba29547bfcac","slug":"ktima-vrysi-polychoros-ekdiloseon-ba29","kind":"restaurant","name":"Κτήμα Βρύση - Πολυχώρος εκδηλώσεων","lat":39.776305858514846,"lng":22.305702369995416,"url":"https://maps.app.goo.gl/Jsmn7XMyr6zE6XDc6?g_st=ipc","address":"Τύρναβος 401 00","categoryIds":["family-friendly"],"categories":["Kid Friendly Locations"],"distanceKm":18.036553061869338},{"id":"municipalities_778d49aa06b7","slug":"agia-778d","kind":"municipality","name":"Αγιά","lat":39.7333,"lng":22.757,"region":"Θεσσαλία","name_en":"Agia","region_en":"Thessaly","distanceKm":30.646431268047866},{"id":"municipalities_50332bb56229","slug":"elassona-5033","kind":"municipality","name":"Ελασσόνα","lat":39.89,"lng":22.19,"region":"Θεσσαλία","name_en":"Elassona","region_en":"Thessaly","distanceKm":34.047505584703586},{"id":"municipalities_aea600bb9138","slug":"farsala-aea6","kind":"municipality","name":"Φάρσαλα","lat":39.3,"lng":22.3833,"region":"Θεσσαλία","name_en":"Farsala","region_en":"Thessaly","distanceKm":37.937295555208934},{"id":"municipalities_719868db1f0f","slug":"karditsa-7198","kind":"municipality","name":"Καρδίτσα","lat":39.3667,"lng":21.9167,"region":"Θεσσαλία","name_en":"Karditsa","region_en":"Thessaly","distanceKm":52.80290254716483},{"id":"municipalities_8f859bc809a7","slug":"volos-8f85","kind":"municipality","name":"Βόλος","lat":39.36,"lng":22.95,"aliases":["Βολος"],"region":"Θεσσαλία","name_en":"Volos","region_en":"Thessaly","distanceKm":55.11137688385016},{"id":"municipalities_b4d73a932ebe","slug":"trikala-b4d7","kind":"municipality","name":"Τρίκαλα","lat":39.555,"lng":21.767,"region":"Θεσσαλία","name_en":"Trikala","region_en":"Thessaly","distanceKm":56.741787265299386}],"sameRegion":[{"id":"municipalities_15e687326170","slug":"kastraki-15e6","kind":"municipality","name":"Καστράκι","lat":39.7156,"lng":21.6303,"aliases":["Καστρακι"],"region":"Θεσσαλία","name_en":"Kastraki","region_en":"Thessaly"},{"id":"municipalities_2909a9376e1f","slug":"pilio-2909","kind":"municipality","name":"Πήλιο","lat":39.4167,"lng":23.0833,"aliases":["Πηλιο"],"region":"Θεσσαλία","name_en":"Pelion","region_en":"Thessaly"},{"id":"municipalities_3345708eb61e","slug":"portaria-3345","kind":"municipality","name":"Πορταριά","lat":39.3931,"lng":23.0681,"aliases":["Πορταρια"],"region":"Θεσσαλία","name_en":"Portaria","region_en":"Thessaly"},{"id":"municipalities_3598a91927f2","slug":"makrinitsa-3598","kind":"municipality","name":"Μακρινίτσα","lat":39.3858,"lng":23.0556,"aliases":["Μακρινιτσα","Balcony of Pelion"],"region":"Θεσσαλία","name_en":"Makrinitsa","region_en":"Thessaly"},{"id":"municipalities_50332bb56229","slug":"elassona-5033","kind":"municipality","name":"Ελασσόνα","lat":39.89,"lng":22.19,"region":"Θεσσαλία","name_en":"Elassona","region_en":"Thessaly"},{"id":"municipalities_5a21ee6d3ece","slug":"skopelos-5a21","kind":"municipality","name":"Σκόπελος","lat":39.121,"lng":23.725,"region":"Θεσσαλία","name_en":"Skopelos","region_en":"Thessaly"},{"id":"municipalities_719868db1f0f","slug":"karditsa-7198","kind":"municipality","name":"Καρδίτσα","lat":39.3667,"lng":21.9167,"region":"Θεσσαλία","name_en":"Karditsa","region_en":"Thessaly"},{"id":"municipalities_778d49aa06b7","slug":"agia-778d","kind":"municipality","name":"Αγιά","lat":39.7333,"lng":22.757,"region":"Θεσσαλία","name_en":"Agia","region_en":"Thessaly"}],"mentionedGuides":[{"slug":"tap-water-safe-greece-el","title":"Είναι Ασφαλές να Πίνετε Νερό Βρύσης στην Ελλάδα;"},{"slug":"tap-water-safe-greece","title":"Is Tap Water Safe to Drink in Greece?"}],"canonicalSlug":"larisa-20d3","isCanonicalEntity":true,"enrichment":{"summary_en":"Λάρισα is a curated neighborhood area in Θεσσαλία. It is connected to 1 nearby Googlementor picks to help travelers build a stronger local route.","summary_el":"Λάρισα είναι ένα επιλεγμένο σημείο ενδιαφέροντος στην περιοχή Θεσσαλία. Συνδέεται με 1 κοντινές προτάσεις του Googlementor για πιο ολοκληρωμένη εμπειρία.","vibe_tags":["local-neighborhood","base-for-exploring"],"best_for":["first-time visitors","walk-and-explore days","return visitors"],"visit_moments":["late morning walks","sunset exploration"],"practical_note":"1 curated places are within walkable distance from this area center.","nearby_walkable_count":1,"nearby_count_2km":1,"confidence":0.55}},"__N_SSG":true}