{"pageProps":{"entity":{"id":"coffeeBrunchRestaurants_fb20c8dc39dd","slug":"louiza-athens-fb20","kind":"restaurant","name":"Louiza Athens","lat":37.95836602961577,"lng":23.722700242324212,"url":"https://maps.app.goo.gl/wDYFkKSw6y1KG4Ye8?g_st=ic","address":"Sfiggos 13, Athina 117 45","categoryIds":["coffee-brunch"],"categories":["Coffee & Brunch Spots"]},"sameCategory":[{"id":"coffeeBrunchRestaurants_191c759a08b3","slug":"roasting-warehouse-athens-191c","kind":"restaurant","name":"Roasting Warehouse Athens","lat":37.95668706209458,"lng":23.722828304668056,"url":"https://maps.app.goo.gl/fwCy3n7FRVzPEXwR8?g_st=ipc","address":"Ντελακρουά 2, Αθήνα 117 45","categoryIds":["coffee-brunch"],"categories":["Coffee & Brunch Spots"]},{"id":"coffeeBrunchRestaurants_0f49d35a64cc","slug":"naif-0f49","kind":"restaurant","name":"Naif","lat":37.95731969922388,"lng":23.71935175462416,"url":"https://maps.app.goo.gl/5eapXgYffcfJThv49?g_st=ipc","address":"Ευρυδάμαντος 15, Αθήνα 117 45","categoryIds":["coffee-brunch"],"categories":["Coffee & Brunch Spots"]},{"id":"coffeeBrunchRestaurants_3ad613746740","slug":"lalos-3ad6","kind":"restaurant","name":"Lalos","lat":37.95653694094431,"lng":23.71832970107999,"url":"https://maps.app.goo.gl/EWRQ18pu1HkgSHMM9?g_st=ipc","address":"Ευρυδάμαντος 19, Αθήνα 117 45","categoryIds":["coffee-brunch"],"categories":["Coffee & Brunch Spots"]},{"id":"coffeeBrunchRestaurants_6154e62b6cd6","slug":"mpel-rey-6154","kind":"restaurant","name":"Μπελ Ρεϋ","lat":37.96239606904346,"lng":23.722769926662476,"url":"https://maps.app.goo.gl/zGZShvHird8bq92Q9?g_st=ipc","address":"Φαλήρου 88, Αθήνα 117 41","categoryIds":["coffee-brunch"],"categories":["Coffee & Brunch Spots"]},{"id":"coffeeBrunchRestaurants_43a4eab28734","slug":"omsom-koukaki-43a4","kind":"restaurant","name":"Omsom koukaki","lat":37.96237188971574,"lng":23.719324269228586,"url":"https://maps.app.goo.gl/JSsTgH7xa3anCw4c9?g_st=ipc","address":"Βεΐκου 110, Αθήνα 117 41","categoryIds":["coffee-brunch"],"categories":["Coffee & Brunch Spots"]},{"id":"coffeeBrunchRestaurants_c191ebb5fd6a","slug":"teras-athens-c191","kind":"restaurant","name":"Teras Athens","lat":37.96132522695651,"lng":23.727704519576132,"url":"https://maps.app.goo.gl/Q7ocWz9NPgB5Zoaa6?g_st=ipc","address":"Θεοδώρητου Βρεσθένης 45, Αθήνα 117 43","categoryIds":["coffee-brunch"],"categories":["Coffee & Brunch Spots"]},{"id":"coffeeBrunchRestaurants_946f8ff0112c","slug":"hippy-hippo-946f","kind":"restaurant","name":"Hippy Hippo","lat":37.96338312245576,"lng":23.724161260955565,"url":"https://maps.app.goo.gl/dGXFqUaPgJg6izKF7?g_st=ipc","address":"Αναστασίου Ζίννη 37, Αθήνα 117 41","categoryIds":["coffee-brunch"],"categories":["Coffee & Brunch Spots"]},{"id":"coffeeBrunchRestaurants_10b5704edcd7","slug":"karminio-all-day-eatery-10b5","kind":"restaurant","name":"KARMINIO - All Day Eatery","lat":37.963365261808825,"lng":23.721069408577183,"url":"https://maps.app.goo.gl/B47HWPSnhF6mtY1M8?g_st=ipc","address":"Βεΐκου 86, Αθήνα 117 41","categoryIds":["coffee-brunch","vegetarian"],"categories":["Coffee & Brunch Spots","Vegetarian Friendly Restaurants"],"legacySlugs":["karminio-all-day-eatery-44c1"]}],"nearby":[{"id":"greekRestaurants_c2d712c3a636","slug":"louiza-athens-c2d7","kind":"restaurant","name":"Louiza Athens","lat":37.958439423665176,"lng":23.722755568163475,"url":"https://maps.app.goo.gl/QPXwcnn7KEEcjqBb9","address":"Σφιγγός 13, Αθήνα 117 45","categoryIds":["greek-restaurants"],"categories":["Greek Restaurants"],"distanceKm":0.00949371046875225},{"id":"rooftopLoungesRestaurants_eff063b05a76","slug":"premiere-restaurant-eff0","kind":"restaurant","name":"Premiere Restaurant","lat":37.95933669311001,"lng":23.721893436588108,"url":"https://maps.app.goo.gl/xdoJybpRxJKYAgbKA?g_st=ipc","address":"Λεωφ. Ανδρέα Συγγρού 89-93, Αθήνα 117 45","categoryIds":["rooftop-lounges"],"categories":["Rooftop Lounges"],"distanceKm":0.12904585214932127},{"id":"greekRestaurants_e9888507556f","slug":"fita-e988","kind":"restaurant","name":"Φιτα","lat":37.959800125380376,"lng":23.723270363621033,"url":"https://maps.app.goo.gl/dz2YxasHy4LnBQ668","address":"Ντουρμ 1, Αθήνα 117 45","categoryIds":["greek-restaurants"],"categories":["Greek Restaurants"],"distanceKm":0.16711424577254005},{"id":"coffeeBrunchRestaurants_191c759a08b3","slug":"roasting-warehouse-athens-191c","kind":"restaurant","name":"Roasting Warehouse Athens","lat":37.95668706209458,"lng":23.722828304668056,"url":"https://maps.app.goo.gl/fwCy3n7FRVzPEXwR8?g_st=ipc","address":"Ντελακρουά 2, Αθήνα 117 45","categoryIds":["coffee-brunch"],"categories":["Coffee & Brunch Spots"],"distanceKm":0.187029981260028},{"id":"cheapEatsRestaurants_d758a1864776","slug":"tomas-marios-ovelistirio-d758","kind":"restaurant","name":"ΤΟΜΑΣ ΜΑΡΙΟΣ ΟΒΕΛΙΣΤΗΡΙΟ","lat":37.95740701533671,"lng":23.72476747255489,"url":"https://maps.app.goo.gl/B8R43v1kbWhoCBdJ9?g_st=ipc","address":"Μήτρου Σαρκουδίνου 49, Αθήνα 117 44","categoryIds":["cheap-eats"],"categories":["Gyros & Cheap Eats"],"distanceKm":0.2102847311388039},{"id":"cheapEatsRestaurants_4de598be41da","slug":"johnie-hot-dog-syggroy-4de5","kind":"restaurant","name":"Johnie Hot Dog Συγγρού","lat":37.959239923680194,"lng":23.71954717101243,"url":"https://maps.app.goo.gl/WUCUWAGV3GyPBumi7?g_st=ipc","address":"Λεωφ. Ανδρέα Συγγρού 136, Καλλιθέα 176 71","categoryIds":["cheap-eats"],"categories":["Gyros & Cheap Eats"],"distanceKm":0.2930177617090313},{"id":"coffeeBrunchRestaurants_0f49d35a64cc","slug":"naif-0f49","kind":"restaurant","name":"Naif","lat":37.95731969922388,"lng":23.71935175462416,"url":"https://maps.app.goo.gl/5eapXgYffcfJThv49?g_st=ipc","address":"Ευρυδάμαντος 15, Αθήνα 117 45","categoryIds":["coffee-brunch"],"categories":["Coffee & Brunch Spots"],"distanceKm":0.3157868265898519},{"id":"coffeeBrunchRestaurants_3ad613746740","slug":"lalos-3ad6","kind":"restaurant","name":"Lalos","lat":37.95653694094431,"lng":23.71832970107999,"url":"https://maps.app.goo.gl/EWRQ18pu1HkgSHMM9?g_st=ipc","address":"Ευρυδάμαντος 19, Αθήνα 117 45","categoryIds":["coffee-brunch"],"categories":["Coffee & Brunch Spots"],"distanceKm":0.43381262812544485}],"sameRegion":[],"mentionedGuides":[{"slug":"tap-water-safe-greece-el","title":"Είναι Ασφαλές να Πίνετε Νερό Βρύσης στην Ελλάδα;"},{"slug":"tap-water-safe-greece","title":"Is Tap Water Safe to Drink in Greece?"},{"slug":"traveling-to-greece-on-a-budget-el","title":"Ταξιδι στην Ελλαδα με μικρο budget"},{"slug":"traveling-to-greece-on-a-budget","title":"Traveling to Greece on a Budget"}],"canonicalSlug":"louiza-athens-fb20","isCanonicalEntity":true,"enrichment":{"summary_en":"Louiza Athens is a curated restaurant in Athina 117 45 in the Coffee & Brunch Spots collection. It is connected to 33 nearby Googlementor picks to help travelers build a stronger local route.","summary_el":"Louiza Athens είναι ένα επιλεγμένο σημείο φαγητού στην περιοχή Athina 117 45 και ανήκει στη συλλογή Coffee & Brunch Spots. Συνδέεται με 33 κοντινές προτάσεις του Googlementor για πιο ολοκληρωμένη εμπειρία.","vibe_tags":["curated","daytime-favorite"],"best_for":["first-time visitors","food lovers"],"visit_moments":["early morning","late brunch"],"practical_note":"Address and direct map link are available for easy turn-by-turn access.","nearby_walkable_count":33,"nearby_count_2km":261,"confidence":0.98}},"__N_SSG":true}