{"pageProps":{"entity":{"id":"mustSeeAttractions_0e9341b94f04","slug":"lykavittos-0e93","kind":"restaurant","name":"Λυκαβηττός","lat":37.98323503241099,"lng":23.746500382209337,"url":"https://maps.app.goo.gl/muvvb7CTCn3yFhWj6?g_st=ipc","address":"Σαρανταπήχου, Μονοπατι Λυκαβηττου &, Αθήνα 114 71","categoryIds":["attractions"],"categories":["Must-See Attractions"]},"sameCategory":[{"id":"monasteriesChurches_caa9124a394d","slug":"ieros-naos-agion-isidoron-lykavittoy-caa9","kind":"restaurant","name":"Ιερός Ναός Αγίων Ισιδώρων Λυκαβηττού","lat":37.982296617522,"lng":23.742795127887568,"url":"https://maps.app.goo.gl/vi4b8bvA5jdYKcqf9?g_st=ipc","address":"Μονοπατι Λυκαβηττου, Αθήνα 114 71","categoryIds":["monasteries-churches","attractions"],"categories":["Monasteries & Spiritual Sites","Must-See Attractions"],"legacySlugs":["ieros-naos-agion-isidoron-lykavittoy-361f"]},{"id":"mustSeeAttractions_48ddcd3e9742","slug":"megaro-moysikis-athinon-48dd","kind":"restaurant","name":"Μέγαρο Μουσικής Αθηνών","lat":37.98113320826234,"lng":23.754226747419665,"url":"https://maps.app.goo.gl/fcKT8gTb8XfWLvDa7?g_st=ipc","address":"Βασιλίσσης Σοφίας, Πέτρου Κόκκαλη &, Αθήνα","categoryIds":["attractions"],"categories":["Must-See Attractions"]},{"id":"mustSeeAttractions_4e1c093b1a30","slug":"vyzantino-kai-christianiko-moyseio-4e1c","kind":"restaurant","name":"Βυζαντινό και Χριστιανικό Μουσείο","lat":37.9753760157153,"lng":23.744611863575788,"url":"https://maps.app.goo.gl/jffFuAXc3Vq1DSsD8?g_st=ipc","address":"Λεωφ. Βασιλίσσης Σοφίας 22, Αθήνα 106 75","categoryIds":["attractions"],"categories":["Must-See Attractions"]},{"id":"mustSeeAttractions_4a961e3001a5","slug":"moyseio-mpenaki-ellinikoy-politismoy-benaki-museum-of-greek-culture-4a96","kind":"restaurant","name":"Μουσείο Μπενάκη Ελληνικού Πολιτισμού | Benaki Museum of Greek Culture","lat":37.97595332142378,"lng":23.740446335275582,"url":"https://maps.app.goo.gl/tPkYqHsHmRpbKSaX9?g_st=ipc","address":"Koumpari 1, Athina 106 74","categoryIds":["attractions"],"categories":["Must-See Attractions"]},{"id":"mustSeeAttractions_4c1bed18d9f3","slug":"academy-of-athens-4c1b","kind":"restaurant","name":"Academy of Athens","lat":37.980052000475574,"lng":23.73401307902472,"url":"https://maps.app.goo.gl/ggPZ2e3QeajFYXJX8?g_st=ipc","address":"Panepistimiou 28, Athina 106 79","categoryIds":["attractions"],"categories":["Must-See Attractions"]},{"id":"mustSeeAttractions_67d5b49dcf96","slug":"votaniko-moyseio-ethnikoy-kipoy-67d5","kind":"restaurant","name":"Βοτανικό Μουσείο Εθνικού Κήπου","lat":37.97408914636613,"lng":23.7389299048779,"url":"https://maps.app.goo.gl/jXVzy7hmkNKGbif26?g_st=ipc","address":"Λεωφ. Βασιλίσσης Σοφίας, Αθήνα 105 57","categoryIds":["attractions"],"categories":["Must-See Attractions"]},{"id":"mustSeeAttractions_7e14ccbc774d","slug":"voyli-ton-ellinon-7e14","kind":"restaurant","name":"Βουλή των Ελλήνων","lat":37.97534017568183,"lng":23.73691601580171,"url":"https://maps.app.goo.gl/unRrdoEdMtGJhBhX8?g_st=ipc","address":"Μέγαρο, Βουλής, Αθήνα 100 21","categoryIds":["attractions"],"categories":["Must-See Attractions"]},{"id":"mustSeeAttractions_9d5443f043f5","slug":"bibliotheke-9d54","kind":"restaurant","name":"Bibliothēkē","lat":37.98086714889517,"lng":23.732640659233777,"url":"https://maps.app.goo.gl/Tia41NbJ94S1YJYNA?g_st=ipc","address":"Athens 106 79","categoryIds":["attractions"],"categories":["Must-See Attractions"]}],"nearby":[{"id":"luxuryDiningRestaurants_44502c11c3d7","slug":"orizontes-lycabettus-4450","kind":"restaurant","name":"Orizontes Lycabettus","lat":37.98180885773441,"lng":23.743545726263044,"url":"https://maps.app.goo.gl/aRWFTJLNa9obfB379?g_st=ipc","address":"Αριστίππου 1, Αθήνα 106 76","categoryIds":["luxury-dining","rooftop-lounges"],"categories":["Luxury Dining","Rooftop Lounges"],"legacySlugs":["orizontes-lycabettus-8840"],"distanceKm":0.30365666993735924},{"id":"monasteriesChurches_55ac212b36ef","slug":"ieros-naos-agioy-georgioy-lykavittoy-55ac","kind":"restaurant","name":"Ιερός Ναός Αγίου Γεωργίου Λυκαβηττού","lat":37.981958638170035,"lng":23.74338468366007,"url":"https://maps.app.goo.gl/V1br63hybrfVnEiCA?g_st=ipc","address":"Αθήνα 114 71","categoryIds":["monasteries-churches"],"categories":["Monasteries & Spiritual Sites"],"distanceKm":0.30775231546849735},{"id":"monasteriesChurches_caa9124a394d","slug":"ieros-naos-agion-isidoron-lykavittoy-caa9","kind":"restaurant","name":"Ιερός Ναός Αγίων Ισιδώρων Λυκαβηττού","lat":37.982296617522,"lng":23.742795127887568,"url":"https://maps.app.goo.gl/vi4b8bvA5jdYKcqf9?g_st=ipc","address":"Μονοπατι Λυκαβηττου, Αθήνα 114 71","categoryIds":["monasteries-churches","attractions"],"categories":["Monasteries & Spiritual Sites","Must-See Attractions"],"legacySlugs":["ieros-naos-agion-isidoron-lykavittoy-361f"],"distanceKm":0.34109387313851985},{"id":"coffeeBrunchRestaurants_f33248e61009","slug":"prasini-tenta-lykavittos-f332","kind":"restaurant","name":"Πράσινη Τέντα, Λυκαβηττός","lat":37.980853849375265,"lng":23.74311999324442,"url":"https://maps.app.goo.gl/Ra6VkFbWmNNsbYnu8?g_st=ipc","address":"Μονοπάτι Λυκαβηττού, Αθήνα 114 71","categoryIds":["coffee-brunch","rooftop-lounges"],"categories":["Coffee & Brunch Spots","Rooftop Lounges"],"legacySlugs":["prasini-tenta-lykavittos-3190"],"distanceKm":0.3973448624290251},{"id":"greekRestaurants_1f74ff05ff24","slug":"estiatorio-filippoy-1f74","kind":"restaurant","name":"Εστιατόριο Φιλίππου","lat":37.979221094535326,"lng":23.744501065071557,"url":"https://maps.app.goo.gl/Zq4cnAxJ4Dx6qQUq8","address":"Ξενοκράτους 19, Αθήνα 106 75","categoryIds":["greek-restaurants"],"categories":["Greek Restaurants"],"distanceKm":0.479495368810155},{"id":"luxuryDiningRestaurants_16ebd8c6efae","slug":"forte-charitos-restaurant-16eb","kind":"restaurant","name":"Forte Charitos Restaurant","lat":37.97881342237638,"lng":23.745155145341098,"url":"https://maps.app.goo.gl/LvCPT5L2JR5q3a5TA?g_st=ipc","address":"Χάρητος 43, Αθήνα 106 76","categoryIds":["luxury-dining"],"categories":["Luxury Dining"],"distanceKm":0.5056001200873811},{"id":"italianRestaurants_3be4af98c471","slug":"trattoria-capanna-3be4","kind":"restaurant","name":"Trattoria Capanna","lat":37.978619151360974,"lng":23.74496219249258,"url":"https://maps.app.goo.gl/TbrGKuznviUTnbH8A?g_st=ipc","address":"Πλουτάρχου 38, Αθήνα 106 75","categoryIds":["italian","luxury-dining"],"categories":["Italian Restaurants","Luxury Dining"],"legacySlugs":["trattoria-capanna-78fc"],"distanceKm":0.5306728539884429},{"id":"dessertsRestaurants_e77e22a5c2ea","slug":"patisserie-despina-e77e","kind":"restaurant","name":"Patisserie Despina","lat":37.97835834410638,"lng":23.74575820284903,"url":"https://maps.app.goo.gl/RjyUkSTj6TwcuZnn6?g_st=ipc","address":"Patriarchou Ioakim 56, Athina 106 76","categoryIds":["desserts"],"categories":["Dessert Shops"],"distanceKm":0.5461506323134241}],"sameRegion":[],"mentionedGuides":[],"canonicalSlug":"lykavittos-0e93","isCanonicalEntity":true,"enrichment":{"summary_en":"Λυκαβηττός is a curated restaurant in Αθήνα 114 71 in the Must-See Attractions collection. It is connected to 50 nearby Googlementor picks to help travelers build a stronger local route.","summary_el":"Λυκαβηττός είναι ένα επιλεγμένο σημείο φαγητού στην περιοχή Αθήνα 114 71 και ανήκει στη συλλογή Must-See Attractions. Συνδέεται με 50 κοντινές προτάσεις του Googlementor για πιο ολοκληρωμένη εμπειρία.","vibe_tags":["curated"],"best_for":["first-time visitors","food lovers"],"visit_moments":["lunch stop","dinner stop"],"practical_note":"Address and direct map link are available for easy turn-by-turn access.","nearby_walkable_count":50,"nearby_count_2km":499,"confidence":0.98}},"__N_SSG":true}