{"pageProps":{"entity":{"id":"luxuryDiningRestaurants_e1d805e6a099","slug":"makris-elounda-fine-dining-restaurant-by-domes-e1d8","kind":"restaurant","name":"Makris Elounda Fine Dining Restaurant by Domes","lat":35.289457611664844,"lng":25.729231449277293,"url":"https://maps.app.goo.gl/5ZKMq3CQuLYPt9qu7?g_st=ipc","address":"Domes of Elounda, Tsifliki, Schisma Elountas 720 53","categoryIds":["luxury-dining"],"categories":["Luxury Dining"]},"sameCategory":[{"id":"luxuryDiningRestaurants_de6ed2283d49","slug":"dionysos-restaurant-elounda-de6e","kind":"restaurant","name":"Dionysos restaurant elounda","lat":35.24868944871254,"lng":25.730385349919736,"url":"https://maps.app.goo.gl/XzHLEvGxzDciEKDY8?g_st=ipc","address":"Unnamed Road, Ag. Nikolaos 720 53","categoryIds":["luxury-dining"],"categories":["Luxury Dining"]},{"id":"luxuryDiningRestaurants_2ae90f83c8cf","slug":"the-secret-gorge-restaurant-wine-tasting-experience-2ae9","kind":"restaurant","name":"The Secret Gorge - Restaurant & Wine Tasting Experience","lat":35.36437434920116,"lng":24.419370445837004,"url":"https://maps.app.goo.gl/gPHcQmEJJv1GDCXa7?g_st=ipc","address":"3rd Klm. National Road, Rethymno 741 50","categoryIds":["luxury-dining","wineries-vineyards"],"categories":["Luxury Dining","Wineries & Vineyards"],"legacySlugs":["the-secret-gorge-restaurant-wine-tasting-experience-46f1"]},{"id":"luxuryDiningRestaurants_c4314de9f562","slug":"alali-restaurant-c431","kind":"restaurant","name":"Alali Restaurant","lat":36.36348374683768,"lng":25.385971079626298,"url":"https://maps.app.goo.gl/bj4VGwDTK6k29a2h8?g_st=ipc","address":"epar. od. akrotiriou, Akrotiri 847 00","categoryIds":["luxury-dining"],"categories":["Luxury Dining"]},{"id":"luxuryDiningRestaurants_a54c6ec9f1fa","slug":"selene-restaurant-a54c","kind":"restaurant","name":"Selene Restaurant","lat":36.4214954695669,"lng":25.43077555199888,"url":"https://maps.app.goo.gl/WMAKe6khJLqtbDgo7?g_st=ipc","address":"Old catholic monastery, Thira 847 00","categoryIds":["luxury-dining"],"categories":["Luxury Dining"]},{"id":"luxuryDiningRestaurants_60ed304175f8","slug":"koukoumavlos-restaurant-60ed","kind":"restaurant","name":"Koukoumavlos Restaurant","lat":36.43146159101605,"lng":25.424418520966256,"url":"https://maps.app.goo.gl/uc1kbLbBqgnUhLot7?g_st=ipc","address":"Imerovigli 847 00","categoryIds":["luxury-dining"],"categories":["Luxury Dining"]},{"id":"luxuryDiningRestaurants_20e2fea855d8","slug":"varoulko-santorini-within-grace-hotel-20e2","kind":"restaurant","name":"Varoulko Santorini (within Grace Hotel)","lat":36.432959672130295,"lng":25.420955482423597,"url":"https://maps.app.goo.gl/8GTiiHfZwjCgosfT6?g_st=ipc","address":"Imerovigli Thira, Santorini 847 00","categoryIds":["luxury-dining"],"categories":["Luxury Dining"]},{"id":"fishTavernasRestaurants_088f1a113b0b","slug":"afropsaro-santorini-088f","kind":"restaurant","name":"Afropsaro Santorini","lat":36.44373697181477,"lng":25.4260466585142,"url":"https://maps.app.goo.gl/ocoYehgdG9tZzoCd6?g_st=ipc","address":"Imerovigli 847 00","categoryIds":["fish-tavernas","luxury-dining"],"categories":["Fish Tavernas","Luxury Dining"],"legacySlugs":["afropsaro-santorini-da47"]},{"id":"luxuryDiningRestaurants_473c799c8410","slug":"botrini-s-santorini-473c","kind":"restaurant","name":"Botrini's Santorini","lat":36.46201811215205,"lng":25.382543844805166,"url":"https://maps.app.goo.gl/e9tmihEjv2QRq6DKA?g_st=ipc","address":"Main Street, Nik. Nomikou, Oía 847 02","categoryIds":["luxury-dining"],"categories":["Luxury Dining"]}],"nearby":[{"id":"municipalities_b05858be497e","slug":"eloynta-b058","kind":"municipality","name":"Ελούντα","lat":35.2581,"lng":25.7286,"aliases":["Ελουντα","Elounda Bay"],"region":"Ανατολική Κρήτη","name_en":"Elounda","region_en":"East Crete","distanceKm":3.4872784879913845},{"id":"luxuryDiningRestaurants_de6ed2283d49","slug":"dionysos-restaurant-elounda-de6e","kind":"restaurant","name":"Dionysos restaurant elounda","lat":35.24868944871254,"lng":25.730385349919736,"url":"https://maps.app.goo.gl/XzHLEvGxzDciEKDY8?g_st=ipc","address":"Unnamed Road, Ag. Nikolaos 720 53","categoryIds":["luxury-dining"],"categories":["Luxury Dining"],"distanceKm":4.534423128011973},{"id":"greekRestaurants_e12720049bff","slug":"p-i-a-t-o-creative-greek-cuisine-e127","kind":"restaurant","name":"P I A T O Creative Greek Cuisine","lat":35.191014456442474,"lng":25.720317471781893,"url":"https://maps.app.goo.gl/EPLHpPqWCPBvDpjd9?g_st=ipc","address":"Ακτή Ιωσήφ, Κούνδουρου 8, Αγ. Νικόλαος 721 00","categoryIds":["greek-restaurants"],"categories":["Greek Restaurants"],"distanceKm":10.976273640106292},{"id":"greekRestaurants_88aa93e2ed98","slug":"gioma-meze-88aa","kind":"restaurant","name":"Gioma Meze","lat":35.19092879373842,"lng":25.71639633645474,"url":"https://maps.app.goo.gl/Rv7Nyy9Pu5iTxP4R6?g_st=ipc","address":"Διονυσίου Σολωμού 12, Αγ. Νικόλαος 721 00","categoryIds":["greek-restaurants"],"categories":["Greek Restaurants"],"distanceKm":11.017739767224127},{"id":"municipalities_ccbf4358d2e3","slug":"agios-nikolaos-ccbf","kind":"municipality","name":"Άγιος Νικόλαος","lat":35.191,"lng":25.715,"aliases":["Αγιος Νικολαος"],"region":"Ανατολική Κρήτη","name_en":"Agios Nikolaos","region_en":"East Crete","distanceKm":11.024013574337015},{"id":"municipalities_43ae67a78abe","slug":"agios-georgios-lasithioy-43ae","kind":"municipality","name":"Άγιος Γεώργιος Λασιθίου","lat":35.207,"lng":25.511,"region":"Κρήτη","name_en":"Agios Georgios Lasithiou","region_en":"Crete","distanceKm":21.835544491651852},{"id":"municipalities_0abaeb44cae9","slug":"malia-0aba","kind":"municipality","name":"Μάλια","lat":35.283,"lng":25.462,"region":"Κρήτη","name_en":"Malia","region_en":"Crete","distanceKm":24.266095311994714},{"id":"greekRestaurants_d8e66ee61d19","slug":"taverna-agias-paraskeyis-d8e6","kind":"restaurant","name":"Ταβέρνα Αγίας Παρασκευής","lat":35.08283189053066,"lng":25.576266926635412,"url":"https://maps.app.goo.gl/SEFLyBqoAyReomC66?g_st=ipc","address":"Χριστός 720 56","categoryIds":["greek-restaurants"],"categories":["Greek Restaurants"],"distanceKm":26.85375160001183}],"sameRegion":[],"mentionedGuides":[],"canonicalSlug":"makris-elounda-fine-dining-restaurant-by-domes-e1d8","isCanonicalEntity":true,"enrichment":{"summary_en":"Makris Elounda Fine Dining Restaurant by Domes is a curated restaurant in Schisma Elountas 720 53 in the Luxury Dining collection. It is connected to 0 nearby Googlementor picks to help travelers build a stronger local route.","summary_el":"Makris Elounda Fine Dining Restaurant by Domes είναι ένα επιλεγμένο σημείο φαγητού στην περιοχή Schisma Elountas 720 53 και ανήκει στη συλλογή Luxury Dining. Συνδέεται με 0 κοντινές προτάσεις του Googlementor για πιο ολοκληρωμένη εμπειρία.","vibe_tags":["curated","premium-dining"],"best_for":["first-time visitors","food lovers","special occasions"],"visit_moments":["lunch stop","dinner stop"],"practical_note":"Address and direct map link are available for easy turn-by-turn access.","nearby_walkable_count":0,"nearby_count_2km":0,"confidence":0.9}},"__N_SSG":true}