{"pageProps":{"entity":{"id":"greekRestaurants_75e240e1e1c8","slug":"metaxy-mas-75e2","kind":"restaurant","name":"Μεταξύ Μας","lat":36.388052739264,"lng":25.45733589994344,"url":"https://maps.app.goo.gl/ncT3pVMegecbmYeZ8?g_st=ipc","address":"Έξω Γωνιά 847 00","categoryIds":["greek-restaurants"],"categories":["Greek Restaurants"]},"sameCategory":[{"id":"greekRestaurants_d26a24d58941","slug":"taverva-skaramagas-d26a","kind":"restaurant","name":"Taverva Skaramagas","lat":36.412079815836925,"lng":25.481638821541313,"url":"https://maps.app.goo.gl/zYEpZfjMiTY39WHB8?g_st=ipc","address":"Μονόλιθος 847 00","categoryIds":["greek-restaurants"],"categories":["Greek Restaurants"]},{"id":"greekRestaurants_77983275c7e1","slug":"mama-lena-7798","kind":"restaurant","name":"Mama Lena","lat":36.433282969378894,"lng":25.42330569423746,"url":"https://maps.app.goo.gl/ouhG9hPgQz5MamWj7?g_st=ipc","address":"Imerovigli 847 00","categoryIds":["greek-restaurants"],"categories":["Greek Restaurants"]},{"id":"greekRestaurants_19a1aff10d3b","slug":"lefkes-santorini-19a1","kind":"restaurant","name":"Lefkes ΣΑΝΤΟΡΙΝΗ","lat":36.46311561251902,"lng":25.393685023435904,"url":"https://maps.app.goo.gl/6kjSiC5Bk9fdfy1b8?g_st=ipc","address":"Φοινικιά 847 02","categoryIds":["greek-restaurants"],"categories":["Greek Restaurants"]},{"id":"greekRestaurants_7df46f2d33f8","slug":"taverna-vilaeti-7df4","kind":"restaurant","name":"Ταβέρνα Βιλαέτι","lat":36.74797589012075,"lng":25.29254143751964,"url":"https://maps.app.goo.gl/YzqRc8pVvtFzcna37?g_st=ipc","address":"Επάνω Κάμπος 840 01","categoryIds":["greek-restaurants"],"categories":["Greek Restaurants"]},{"id":"greekRestaurants_9a173dd91bb8","slug":"kira-pothiti-9a17","kind":"restaurant","name":"Kira Pothiti","lat":36.869449747116555,"lng":25.519666821787904,"url":"https://maps.app.goo.gl/483iYa8hPsWmV2He8?g_st=ipc","address":"Chora, Schinoussa, Χώρα, Σχοινούσα, Chora, Σχοινούσσα 843 00","categoryIds":["greek-restaurants"],"categories":["Greek Restaurants"]},{"id":"greekRestaurants_aaff692063fa","slug":"bizeli-greek-restaurant-aaff","kind":"restaurant","name":"Bizeli Greek Restaurant","lat":36.86948697879524,"lng":25.51980769097378,"url":"https://maps.app.goo.gl/QUY5UC2bDWXfny3i7?g_st=ipc","address":"Χωρα, Σχοινούσσα 843 00","categoryIds":["greek-restaurants"],"categories":["Greek Restaurants"]},{"id":"greekRestaurants_d2b708170d7f","slug":"deli-restaurant-and-cafe-bar-d2b7","kind":"restaurant","name":"Deli Restaurant and cafe bar","lat":36.869590262270314,"lng":25.518770921181957,"url":"https://maps.app.goo.gl/ZNHHURiAn33ARUcg7?g_st=ipc","address":"Σχοινούσσα 843 00","categoryIds":["greek-restaurants"],"categories":["Greek Restaurants"]},{"id":"greekRestaurants_8fb4e329e193","slug":"maroyso-8fb4","kind":"restaurant","name":"ΜΑΡΟΥΣΩ","lat":36.787036104503706,"lng":25.802427774103137,"url":"https://maps.app.goo.gl/Fe7icpHd2EaQn3DL9?g_st=ipc","address":"ΚΥΚΛΑΔΕΣ, Αρκεσίνη 840 08","categoryIds":["greek-restaurants"],"categories":["Greek Restaurants"]}],"nearby":[{"id":"wineriesVineyards_19f34df9ea94","slug":"art-space-art-gallery-winery-museum-19f3","kind":"restaurant","name":"Art Space Art Gallery - Winery - Museum","lat":36.385965387765225,"lng":25.460385388763417,"url":"https://maps.app.goo.gl/21dhPUgPmbLqpjpb9?g_st=ipc","address":"Έξω Γωνιά 847 00","categoryIds":["wineries-vineyards"],"categories":["Wineries & Vineyards"],"distanceKm":0.3583116101211301},{"id":"wineriesVineyards_8ab3932f0db2","slug":"artemis-karamolegos-8ab3","kind":"restaurant","name":"Artemis Karamolegos","lat":36.38835128439954,"lng":25.46365749287468,"url":"https://maps.app.goo.gl/6kQf3bRiieM4P2Es8?g_st=ipc","address":"Έξω Γωνιά 847 00","categoryIds":["wineries-vineyards"],"categories":["Wineries & Vineyards"],"distanceKm":0.5668420289272762},{"id":"municipalities_5b32b43e93f7","slug":"santorini-5b32","kind":"municipality","name":"Σαντορίνη","lat":36.3932,"lng":25.4615,"aliases":["Thira","Thera","Santorin","Σαντορίνα","Σαντορινη","Θήρα","Θηρα"],"region":"Κυκλάδες","name_en":"Santorini","region_en":"Cyclades","distanceKm":0.6830176428863118},{"id":"wineriesVineyards_6d919bba0952","slug":"canava-roussos-6d91","kind":"restaurant","name":"Canava Roussos","lat":36.38413007796539,"lng":25.46332243806347,"url":"https://maps.app.goo.gl/yATMtq83jmsb3HWJ9?g_st=ipc","address":"Episkopi Gonias 847 00","categoryIds":["wineries-vineyards"],"categories":["Wineries & Vineyards"],"distanceKm":0.6909652034843339},{"id":"wineriesVineyards_2027b94783da","slug":"estate-argyros-2027","kind":"restaurant","name":"Estate Argyros","lat":36.3830947529534,"lng":25.464730249935148,"url":"https://maps.app.goo.gl/9Lgq7u7XqsKL7QdL8?g_st=ipc","address":"Episkopi Gonias 847 00","categoryIds":["wineries-vineyards"],"categories":["Wineries & Vineyards"],"distanceKm":0.8614350102011905},{"id":"wineriesVineyards_ddfea8113f2e","slug":"cave-wine-museum-winery-koutsogiannopoulos-santorini-yposkafo-moyseio-oinoy-oinopoieio-koytsogiannopoylos-georgios-ddfe","kind":"restaurant","name":"Cave Wine Museum - Winery Koutsogiannopoulos Santorini (Υπόσκαφο Μουσείο Οίνου - Οινοποιείο Κουτσογιαννόπουλος Γεώργιος)","lat":36.39672195171486,"lng":25.460144574368652,"url":"https://maps.app.goo.gl/aGUb6MruiHYUGV8m8?g_st=ipc","address":"Βόθωνας, Βοθωνας 847 00","categoryIds":["wineries-vineyards"],"categories":["Wineries & Vineyards"],"distanceKm":0.996215576398534},{"id":"wineriesVineyards_0d0a1ba0c3f9","slug":"santo-wines-0d0a","kind":"restaurant","name":"Santo Wines","lat":36.38756634157811,"lng":25.436746775584044,"url":"https://maps.app.goo.gl/BfpzWvX44GGmmqF99?g_st=ipc","address":"Πύργος Καλλίστης 847 00","categoryIds":["wineries-vineyards"],"categories":["Wineries & Vineyards"],"distanceKm":1.8438112528429964},{"id":"wineriesVineyards_a511a6e649e6","slug":"venetsanos-winery-a511","kind":"restaurant","name":"Venetsanos Winery","lat":36.38233875963969,"lng":25.43152035534749,"url":"https://maps.app.goo.gl/ptjxxz2nqAmMqrjo9?g_st=ipc","address":"Caldera Megalochori, Santorini Island 847 00","categoryIds":["wineries-vineyards"],"categories":["Wineries & Vineyards"],"distanceKm":2.3966863719464153}],"sameRegion":[],"mentionedGuides":[],"canonicalSlug":"metaxy-mas-75e2","isCanonicalEntity":true,"enrichment":{"summary_en":"Μεταξύ Μας is a curated restaurant in Greece in the Greek Restaurants collection. It is connected to 4 nearby Googlementor picks to help travelers build a stronger local route.","summary_el":"Μεταξύ Μας είναι ένα επιλεγμένο σημείο φαγητού στην περιοχή Greece και ανήκει στη συλλογή Greek Restaurants. Συνδέεται με 4 κοντινές προτάσεις του Googlementor για πιο ολοκληρωμένη εμπειρία.","vibe_tags":["curated"],"best_for":["first-time visitors","food lovers"],"visit_moments":["lunch stop","dinner stop"],"practical_note":"Address and direct map link are available for easy turn-by-turn access.","nearby_walkable_count":4,"nearby_count_2km":7,"confidence":0.98}},"__N_SSG":true}