{"pageProps":{"entity":{"id":"municipalities_7352788b60b5","slug":"mikra-7352","kind":"municipality","name":"Μίκρα","lat":40.543,"lng":23.03,"region":"Ανατολική Θεσσαλονίκη","name_en":"Mikra","region_en":"East Thessaloniki"},"sameCategory":[],"nearby":[{"id":"municipalities_6dbfac056088","slug":"thermi-6dbf","kind":"municipality","name":"Θέρμη","lat":40.5467,"lng":23.0289,"region":"Ανατολική Θεσσαλονίκη","name_en":"Thermi","region_en":"East Thessaloniki","distanceKm":0.4217895936879729},{"id":"dessertsRestaurants_04457d12c48e","slug":"yammy-donuts-0445","kind":"restaurant","name":"Yammy Donuts","lat":40.54588944546194,"lng":23.02111857717177,"url":"https://maps.app.goo.gl/BFRCZLpVmbK8YGZm9?g_st=ipc","address":"Tsaldari 5, Thermi 570 01","categoryIds":["desserts"],"categories":["Dessert Shops"],"distanceKm":0.8163407082302266},{"id":"burgersRestaurants_4060fc5be247","slug":"maestro-cantina-4060","kind":"restaurant","name":"Maestro Cantina","lat":40.539870288194706,"lng":23.0207573353921,"url":"https://maps.app.goo.gl/WJTaYcJdPxACzwkXA?g_st=ipc","address":"EO Thessalonikis Poligirou 32, Thermi 570 01","categoryIds":["burgers","cheap-eats"],"categories":["Burger Spots","Gyros & Cheap Eats"],"legacySlugs":["maestro-cantina-5ff9"],"distanceKm":0.8550401600559271},{"id":"familyFriendly_9807fa41d38f","slug":"lemures-family-lifestyle-play-hub-9807","kind":"restaurant","name":"Lemures Family Lifestyle & Play Hub","lat":40.54355927563734,"lng":23.019251786146132,"url":"https://maps.app.goo.gl/Cv1bZomhT5nP8ZDp6?g_st=ic","address":"Vasilikis Tavaki 6, Thermi 570 01","categoryIds":["family-friendly"],"categories":["Kid Friendly Locations"],"distanceKm":0.9103368820951321},{"id":"cheapEatsRestaurants_530bf90a8d2b","slug":"lordon-530b","kind":"restaurant","name":"Lordon","lat":40.546997157219394,"lng":23.020384247436283,"url":"https://maps.app.goo.gl/3FBZX7roU6fjgkTS6?g_st=ipc","address":"Πλατεία Παραμάνα 18, Thermi 570 01","categoryIds":["cheap-eats"],"categories":["Gyros & Cheap Eats"],"distanceKm":0.9261212974629016},{"id":"asianRestaurants_7dd246309f18","slug":"asian-house-7dd2","kind":"restaurant","name":"Asian House","lat":40.54562547325916,"lng":23.019251018244844,"url":"https://maps.app.goo.gl/hpPuEp42bUMb6wxz5?g_st=ipc","address":"Vasilikis Tavaki 27, Thermi 570 01","categoryIds":["asian"],"categories":["Asian Restaurants"],"distanceKm":0.9540266198937117},{"id":"cheapEatsRestaurants_0353751e2b08","slug":"grn-thermi-0353","kind":"restaurant","name":"ΓΡΝ Θέρμη","lat":40.54741782851475,"lng":23.01948092443365,"url":"https://maps.app.goo.gl/uCq2bBxGLbG7MnvB6?g_st=ipc","address":"Agiou Nikolaou 30, Thermi 570 01","categoryIds":["cheap-eats"],"categories":["Gyros & Cheap Eats"],"distanceKm":1.0155405974655358},{"id":"dessertsRestaurants_ab7dd444d3fa","slug":"nick-alexoudas-ab7d","kind":"restaurant","name":"NICK ALEXOUDAS","lat":40.547044888222544,"lng":23.01874068673441,"url":"https://maps.app.goo.gl/SVoXU7LGnn3dArUNA?g_st=ipc","address":"Agiou Nikolaou 2, Thermi 570 01","categoryIds":["desserts"],"categories":["Dessert Shops"],"distanceKm":1.0523326638709398}],"sameRegion":[{"id":"municipalities_18794d3463a2","slug":"volvi-1879","kind":"municipality","name":"Βόλβη","lat":40.717,"lng":23.45,"region":"Ανατολική Θεσσαλονίκη","name_en":"Volvi","region_en":"East Thessaloniki"},{"id":"municipalities_6dbfac056088","slug":"thermi-6dbf","kind":"municipality","name":"Θέρμη","lat":40.5467,"lng":23.0289,"region":"Ανατολική Θεσσαλονίκη","name_en":"Thermi","region_en":"East Thessaloniki"},{"id":"municipalities_773b45e35a7d","slug":"peyka-773b","kind":"municipality","name":"Πεύκα","lat":40.663,"lng":22.985,"region":"Ανατολική Θεσσαλονίκη","name_en":"Pefka","region_en":"East Thessaloniki"},{"id":"municipalities_86440bea9f1c","slug":"pylaia-chortiatis-8644","kind":"municipality","name":"Πυλαία - Χορτιάτης","lat":40.5833,"lng":23.05,"region":"Ανατολική Θεσσαλονίκη","name_en":"Pylaia - Chortiatis","region_en":"East Thessaloniki"},{"id":"municipalities_af8ac1d142d6","slug":"kalamaria-af8a","kind":"municipality","name":"Καλαμαριά","lat":40.5825,"lng":22.9503,"region":"Ανατολική Θεσσαλονίκη","name_en":"Kalamaria","region_en":"East Thessaloniki"}],"mentionedGuides":[{"slug":"athens-live-greek-music-guide-el","title":"Ζωντανή Ελληνική Μουσική Αθήνα: Οδηγός για Μπουζούκια"},{"slug":"best-greek-souvenirs-athens-el","title":"Καλύτερα Ελληνικά Σουβενίρ στην Αθήνα: Οδηγός Αγορών"},{"slug":"greece-weather-swimming-ferry-guide-el","title":"Πότε να Επισκεφτείτε την Ελλάδα: Καιρός & Κολύμπι"},{"slug":"traveling-to-greece-on-a-budget-el","title":"Ταξιδι στην Ελλαδα με μικρο budget"}],"canonicalSlug":"mikra-7352","isCanonicalEntity":true,"enrichment":{"summary_en":"Μίκρα is a curated neighborhood area in Ανατολική Θεσσαλονίκη. It is connected to 1 nearby Googlementor picks to help travelers build a stronger local route.","summary_el":"Μίκρα είναι ένα επιλεγμένο σημείο ενδιαφέροντος στην περιοχή Ανατολική Θεσσαλονίκη. Συνδέεται με 1 κοντινές προτάσεις του Googlementor για πιο ολοκληρωμένη εμπειρία.","vibe_tags":["local-neighborhood","base-for-exploring"],"best_for":["first-time visitors","walk-and-explore days","return visitors"],"visit_moments":["late morning walks","sunset exploration"],"practical_note":"1 curated places are within walkable distance from this area center.","nearby_walkable_count":1,"nearby_count_2km":14,"confidence":0.55}},"__N_SSG":true}