{"pageProps":{"entity":{"id":"fishTavernasRestaurants_701e88cdc0f1","slug":"moyrtas-psarotaverna-701e","kind":"restaurant","name":"Μουρτάς Ψαροταβέρνα","lat":38.19791064176577,"lng":21.696505177930376,"url":"https://maps.app.goo.gl/SyckXnzEqa1w9FPR9?g_st=ipc","address":"Palea EO Patras Pyrgou 35-45, Paralia 265 00","categoryIds":["fish-tavernas"],"categories":["Fish Tavernas"]},"sameCategory":[{"id":"fishTavernasRestaurants_b598193b21ce","slug":"gia-psaraki-b598","kind":"restaurant","name":"για ψαράκι","lat":38.16996316334188,"lng":21.67408353856444,"url":"https://maps.app.goo.gl/Mp22UWxr4LuQZaQa6?g_st=ipc","address":"Stavropoulou 101, Monodendri 250 02","categoryIds":["fish-tavernas"],"categories":["Fish Tavernas"]},{"id":"fishTavernasRestaurants_8e7680f38e05","slug":"esperos-ichthys-psarotaverna-8e76","kind":"restaurant","name":"Έσπερος ΙΧΘΥΣ Ψαροταβέρνα","lat":38.13318899935724,"lng":22.423103842089304,"url":"https://maps.app.goo.gl/vF6q9SxKr2jVHXpy7?g_st=ipc","address":"Derveni 200 09","categoryIds":["fish-tavernas"],"categories":["Fish Tavernas"]},{"id":"fishTavernasRestaurants_aba93243463b","slug":"sunrise-fish-restaurant-aba9","kind":"restaurant","name":"Sunrise fish restaurant","lat":38.069862361650536,"lng":20.798458806990475,"url":"https://maps.app.goo.gl/zpgr1Pu7huw8UAn16?g_st=ipc","address":"Sunrise, Skala 280 86","categoryIds":["fish-tavernas"],"categories":["Fish Tavernas"]},{"id":"fishTavernasRestaurants_7b6b6c02756b","slug":"blue-sea-restaurant-7b6b","kind":"restaurant","name":"Blue Sea Restaurant","lat":38.06482061618168,"lng":20.749944356791246,"url":"https://maps.app.goo.gl/w2imtD4bnSK6jDox6?g_st=ipc","address":"Κάτω Κατελειός 280 86","categoryIds":["fish-tavernas"],"categories":["Fish Tavernas"]},{"id":"fishTavernasRestaurants_da16f2b84772","slug":"errikos-fish-tavern-da16","kind":"restaurant","name":"Errikos Fish Tavern","lat":38.66357210962554,"lng":20.783477705259653,"url":"https://maps.app.goo.gl/Exf4TBgcUy5RfeRQA?g_st=ipc","address":"Meganisi 310 83","categoryIds":["fish-tavernas"],"categories":["Fish Tavernas"]},{"id":"fishTavernasRestaurants_1a19623dc76c","slug":"keri-lighthouse-restaurant-1a19","kind":"restaurant","name":"Keri Lighthouse Restaurant","lat":37.6544155286365,"lng":20.810506312482314,"url":"https://maps.app.goo.gl/5DwsHksg1ZHKzA62A?g_st=ipc","address":"Φάρος κεριού, Keri 290 92","categoryIds":["fish-tavernas"],"categories":["Fish Tavernas"]},{"id":"fishTavernasRestaurants_deef9d161177","slug":"tavern-zolithros-deef","kind":"restaurant","name":"Tavern Zolithros","lat":38.63883302731558,"lng":20.699578514278645,"url":"https://maps.app.goo.gl/tsdwoX24ZG7uLKB6A?g_st=ipc","address":"Epar.Od. Porou, Lefkada 311 00","categoryIds":["fish-tavernas"],"categories":["Fish Tavernas"]},{"id":"fishTavernasRestaurants_8c846286bb7f","slug":"hippocampus-restaurant-8c84","kind":"restaurant","name":"Hippocampus Restaurant","lat":38.68645020644706,"lng":20.712029545342183,"url":"https://maps.app.goo.gl/dycgkVizrbH5BJsH7?g_st=ipc","address":"Γενί 311 00","categoryIds":["fish-tavernas"],"categories":["Fish Tavernas"]}],"nearby":[{"id":"fishTavernasRestaurants_b598193b21ce","slug":"gia-psaraki-b598","kind":"restaurant","name":"για ψαράκι","lat":38.16996316334188,"lng":21.67408353856444,"url":"https://maps.app.goo.gl/Mp22UWxr4LuQZaQa6?g_st=ipc","address":"Stavropoulou 101, Monodendri 250 02","categoryIds":["fish-tavernas"],"categories":["Fish Tavernas"],"distanceKm":3.6739280900735443},{"id":"dessertsRestaurants_298a5dde0910","slug":"grande-mylonas-298a","kind":"restaurant","name":"GRANDE MYLONAS","lat":38.226507714136424,"lng":21.749216193252526,"url":"https://maps.app.goo.gl/koEwVV1SwKUtb4o86?g_st=ipc","address":"Patron Klaous 54, Patra 263 34","categoryIds":["desserts"],"categories":["Dessert Shops"],"distanceKm":5.596439568709042},{"id":"coffeeBrunchRestaurants_f84032a69c94","slug":"zeabakery-f840","kind":"restaurant","name":"zeabakery","lat":38.24285092491478,"lng":21.73125949400658,"url":"https://maps.app.goo.gl/2ULzYbujrWoB52n26?g_st=ipc","address":"Korinthou 302, Patra 262 22","categoryIds":["coffee-brunch"],"categories":["Coffee & Brunch Spots"],"distanceKm":5.8471534758501775},{"id":"dessertsRestaurants_8ff0226983b7","slug":"lotsaris-bros-o-e-8ff0","kind":"restaurant","name":"Lotsaris Bros O.E.","lat":38.24431368433903,"lng":21.73185220313626,"url":"https://maps.app.goo.gl/vW8aWwnYez1UELdL8?g_st=ipc","address":"Maizonos 124, Patra 262 22","categoryIds":["desserts"],"categories":["Dessert Shops"],"distanceKm":6.013163714288797},{"id":"dessertsRestaurants_6449be12e482","slug":"da-vinci-6449","kind":"restaurant","name":"DA VINCI","lat":38.24539440430271,"lng":21.731371228848985,"url":"https://maps.app.goo.gl/cgshZD6Sh33x15CL8?g_st=ipc","address":"Dim. Gounari 11, Patra 262 21","categoryIds":["desserts"],"categories":["Dessert Shops"],"distanceKm":6.095476286348921},{"id":"cheapEatsRestaurants_1354d27873fc","slug":"choiropoiito-soyvlakopoieio-1354","kind":"restaurant","name":"Χοιροποίητο Σουβλακοποιείο","lat":38.2456567707955,"lng":21.73248119818369,"url":"https://maps.app.goo.gl/kQo4C3a3QHbyJMpq6?g_st=ipc","address":"Riga Fereou 139, Patra 262 21","categoryIds":["cheap-eats"],"categories":["Gyros & Cheap Eats"],"distanceKm":6.169585699525677},{"id":"vegetarianRestaurants_291831247589","slug":"rubik-s-2918","kind":"restaurant","name":"Rubik's","lat":38.24434291588552,"lng":21.735549427551657,"url":"https://maps.app.goo.gl/6yHAVjve3kJGvFFa9?g_st=ipc","address":"Patreos 92, Patra 262 25","categoryIds":["vegetarian"],"categories":["Vegetarian Friendly Restaurants"],"distanceKm":6.187943050230481},{"id":"dessertsRestaurants_189ec545bdd1","slug":"lotsares-189e","kind":"restaurant","name":"Lotsárēs","lat":38.245712406206245,"lng":21.73585932751544,"url":"https://maps.app.goo.gl/uHizqRuZ9AFawcUz5?g_st=ipc","address":"Gerokostopoulou 23, Patra 262 21","categoryIds":["desserts"],"categories":["Dessert Shops"],"distanceKm":6.330203260993901}],"sameRegion":[],"mentionedGuides":[],"canonicalSlug":"moyrtas-psarotaverna-701e","isCanonicalEntity":true,"enrichment":{"summary_en":"Μουρτάς Ψαροταβέρνα is a curated restaurant in Paralia 265 00 in the Fish Tavernas collection. It is connected to 0 nearby Googlementor picks to help travelers build a stronger local route.","summary_el":"Μουρτάς Ψαροταβέρνα είναι ένα επιλεγμένο σημείο φαγητού στην περιοχή Paralia 265 00 και ανήκει στη συλλογή Fish Tavernas. Συνδέεται με 0 κοντινές προτάσεις του Googlementor για πιο ολοκληρωμένη εμπειρία.","vibe_tags":["curated","seafood-local"],"best_for":["first-time visitors","food lovers"],"visit_moments":["lunch stop","dinner stop"],"practical_note":"Address and direct map link are available for easy turn-by-turn access.","nearby_walkable_count":0,"nearby_count_2km":0,"confidence":0.9}},"__N_SSG":true}