{"pageProps":{"entity":{"id":"dessertsRestaurants_dd2783c4061c","slug":"my-cookie-dough-athens-dd27","kind":"restaurant","name":"My Cookie Dough Athens","lat":37.97549732457017,"lng":23.731646460060947,"url":"https://maps.app.goo.gl/h3es1mjnAZfnhipp6?g_st=ipc","address":"Petraki 7, Athina 105 63","categoryIds":["desserts"],"categories":["Dessert Shops"]},"sameCategory":[{"id":"dessertsRestaurants_5b8f8c355ff9","slug":"smyrni-baklava-5b8f","kind":"restaurant","name":"Smyrni Baklava","lat":37.9752937454741,"lng":23.73138268254239,"url":"https://maps.app.goo.gl/gwLnHFtKf8mGiYH8A?g_st=ipc","address":"Μητροπόλεως 25, Αθήνα 105 57","categoryIds":["desserts"],"categories":["Dessert Shops"]},{"id":"dessertsRestaurants_eb9f02ba5b47","slug":"choureal-choux-profiterole-eb9f","kind":"restaurant","name":"CHOUREAL - Choux & Profiterole","lat":37.97617972861017,"lng":23.73180056203846,"url":"https://maps.app.goo.gl/qEAK3Nkr3LyPuUwh9?g_st=ipc","address":"Διομείας 2 &, Ερμού 18, Αθήνα 105 63","categoryIds":["desserts"],"categories":["Dessert Shops"]},{"id":"dessertsRestaurants_2434d906577a","slug":"le-greche-syntagma-2434","kind":"restaurant","name":"Le Greche Syntagma","lat":37.975295473634475,"lng":23.732572121627147,"url":"https://maps.app.goo.gl/8ERFwaLDZCRWvw329?g_st=ipc","address":"Μητροπόλεως 16, Αθήνα 105 63","categoryIds":["desserts"],"categories":["Dessert Shops"]},{"id":"dessertsRestaurants_46c9cba5969e","slug":"sweet-nolan-46c9","kind":"restaurant","name":"Sweet Nolan","lat":37.9747984209274,"lng":23.73248311530336,"url":"https://maps.app.goo.gl/vVwFTAJ3a7QrKyTr5?g_st=ipc","address":"Απόλλωνος 6Β, Αθήνα 105 57","categoryIds":["desserts"],"categories":["Dessert Shops"]},{"id":"dessertsRestaurants_ecf6d66518c8","slug":"oggi-officina-gelato-gusto-italiano-athens-ecf6","kind":"restaurant","name":"Oggi - Officina Gelato Gusto Italiano, Athens","lat":37.97609425961556,"lng":23.73264733165775,"url":"https://maps.app.goo.gl/tFchspxKZcFEKXjf6?g_st=ipc","address":"Βουλής 17, Αθήνα 105 63","categoryIds":["desserts"],"categories":["Dessert Shops"]},{"id":"dessertsRestaurants_fb018ad3c271","slug":"baklavas-fb01","kind":"restaurant","name":"Baklavas","lat":37.975429717960225,"lng":23.733177865867727,"url":"https://maps.app.goo.gl/JsVLmYGPmMaYJGiKA?g_st=ipc","address":"Νίκης 10, Αθήνα 105 63","categoryIds":["desserts"],"categories":["Dessert Shops"]},{"id":"dessertsRestaurants_9b5ef29493b0","slug":"fystiki-shop-downtown-9b5e","kind":"restaurant","name":"Fystiki Shop Downtown","lat":37.97606272763876,"lng":23.7332915007465,"url":"https://maps.app.goo.gl/kHKQgnoXfNFn8vtP9?g_st=ipc","address":"Ερμού &, Νίκης 4, Αθήνα 105 63","categoryIds":["desserts"],"categories":["Dessert Shops"]},{"id":"dessertsRestaurants_c341ccbd87e0","slug":"ariston-lompotesis-c341","kind":"restaurant","name":"ΑΡΙΣΤΟΝ ΛΟΜΠΟΤΕΣΗΣ","lat":37.97670511785389,"lng":23.732649290748736,"url":"https://maps.app.goo.gl/GQVtxtBLY3rpmzsa9?g_st=ipc","address":"Βουλής 10, Αθήνα 105 62","categoryIds":["desserts","vegetarian"],"categories":["Dessert Shops","Vegetarian Friendly Restaurants"],"legacySlugs":["ariston-lompotesis-daef"]}],"nearby":[{"id":"coffeeBrunchRestaurants_a3e6dda2655d","slug":"tazza-caffe-a3e6","kind":"restaurant","name":"Tazza caffe","lat":37.975499371808404,"lng":23.73172660898901,"url":"https://maps.app.goo.gl/uGLfA2cFXs7RueeS6?g_st=ipc","address":"Πετράκη 5, Αθήνα 105 63","categoryIds":["coffee-brunch"],"categories":["Coffee & Brunch Spots"],"distanceKm":0.007028906314250429},{"id":"asianRestaurants_c5be8384da5c","slug":"hanoi-athens-authentic-vietnamese-food-c5be","kind":"restaurant","name":"HANOI ATHENS - AUTHENTIC VIETNAMESE FOOD","lat":37.97561643327209,"lng":23.73154671347612,"url":"https://maps.app.goo.gl/WvsC9Ebt7yScnxNH8?g_st=ipc","address":"Πετράκη 12, Αθήνα 105 63","categoryIds":["asian","vegetarian"],"categories":["Asian Restaurants","Vegetarian Friendly Restaurants"],"legacySlugs":["hanoi-athens-authentic-vietnamese-food-1e56"],"distanceKm":0.015869809917452186},{"id":"fishTavernasRestaurants_4f63eacbb9ca","slug":"athinaikon-4f63","kind":"restaurant","name":"Αθηναϊκόν","lat":37.97539194175071,"lng":23.731456162944593,"url":"https://maps.app.goo.gl/4i8vjPk72WB5DQgR6?g_st=ipc","address":"34, Μητροπόλεως str, Αθήνα 105 63","categoryIds":["fish-tavernas"],"categories":["Fish Tavernas"],"distanceKm":0.020384626267692083},{"id":"rooftopLoungesRestaurants_a01decd3b001","slug":"ergon-house-athens-a01d","kind":"restaurant","name":"ERGON House Athens","lat":37.975246808550054,"lng":23.73151614516128,"url":"https://maps.app.goo.gl/B5dVNDQK9SeSRhFZ9?g_st=ipc","address":"23, Μητροπόλεως Street, Αθήνα 105 57","categoryIds":["rooftop-lounges"],"categories":["Rooftop Lounges"],"distanceKm":0.030107040340568974},{"id":"rooftopLoungesRestaurants_fb4de5c9639b","slug":"elysium-athens-rooftop-dining-cocktails-fb4d","kind":"restaurant","name":"Elysium Athens Rooftop | Dining & Cocktails","lat":37.97568079594514,"lng":23.731930908514958,"url":"https://maps.app.goo.gl/XadarqG8B9MPBT9e7?g_st=ipc","address":"15-17, Ερμού 105 63, Αθήνα","categoryIds":["rooftop-lounges"],"categories":["Rooftop Lounges"],"distanceKm":0.03221540088924833},{"id":"dessertsRestaurants_5b8f8c355ff9","slug":"smyrni-baklava-5b8f","kind":"restaurant","name":"Smyrni Baklava","lat":37.9752937454741,"lng":23.73138268254239,"url":"https://maps.app.goo.gl/gwLnHFtKf8mGiYH8A?g_st=ipc","address":"Μητροπόλεως 25, Αθήνα 105 57","categoryIds":["desserts"],"categories":["Dessert Shops"],"distanceKm":0.03235734484649134},{"id":"coffeeBrunchRestaurants_9c4210ba6277","slug":"72h-artisanal-bakery-eatery-athens-9c42","kind":"restaurant","name":"72H Artisanal Bakery & Eatery Athens","lat":37.97530265670539,"lng":23.731274229624415,"url":"https://maps.app.goo.gl/UcP2CHpDdGDnZnK4A?g_st=ipc","address":"27 Mitropoleos &, Πατρώου 9, Αθήνα 105 57","categoryIds":["coffee-brunch"],"categories":["Coffee & Brunch Spots"],"distanceKm":0.03915432896021111},{"id":"italianRestaurants_ecac45aa4447","slug":"2h-restaurant-ecac","kind":"restaurant","name":"\"+2H Restaurant\"","lat":37.97531452405919,"lng":23.73121660311007,"url":"https://maps.app.goo.gl/gjaqkvxWUZYGRAXB9?g_st=ipc","address":"Rooftop of ERGON Bakehouse, Μητροπόλεως 27, Αθήνα 105 57","categoryIds":["italian"],"categories":["Italian Restaurants"],"distanceKm":0.04281109769577444}],"sameRegion":[],"mentionedGuides":[{"slug":"tap-water-safe-greece-el","title":"Είναι Ασφαλές να Πίνετε Νερό Βρύσης στην Ελλάδα;"},{"slug":"tap-water-safe-greece","title":"Is Tap Water Safe to Drink in Greece?"},{"slug":"traveling-to-greece-on-a-budget-el","title":"Ταξιδι στην Ελλαδα με μικρο budget"},{"slug":"traveling-to-greece-on-a-budget","title":"Traveling to Greece on a Budget"}],"canonicalSlug":"my-cookie-dough-athens-dd27","isCanonicalEntity":true,"enrichment":{"summary_en":"My Cookie Dough Athens is a curated restaurant in Athina 105 63 in the Dessert Shops collection. It is connected to 306 nearby Googlementor picks to help travelers build a stronger local route.","summary_el":"My Cookie Dough Athens είναι ένα επιλεγμένο σημείο φαγητού στην περιοχή Athina 105 63 και ανήκει στη συλλογή Dessert Shops. Συνδέεται με 306 κοντινές προτάσεις του Googlementor για πιο ολοκληρωμένη εμπειρία.","vibe_tags":["curated","sweet-stop"],"best_for":["first-time visitors","food lovers"],"visit_moments":["afternoon break","after dinner"],"practical_note":"Address and direct map link are available for easy turn-by-turn access.","nearby_walkable_count":306,"nearby_count_2km":664,"confidence":0.98}},"__N_SSG":true}