{"pageProps":{"entity":{"id":"italianRestaurants_1195b260712d","slug":"napul-e-italian-comfort-food-wine-1195","kind":"restaurant","name":"Napul'è Italian Comfort Food & Wine","lat":37.8271502092117,"lng":23.80408943661563,"url":"https://maps.app.goo.gl/7yzTG7SodJm8Ubug6?g_st=ipc","address":"Βασ. Κωνσταντίνου 43, Βάρη 166 72","categoryIds":["italian"],"categories":["Italian Restaurants"]},"sameCategory":[{"id":"italianRestaurants_26670e11b304","slug":"mercato-2667","kind":"restaurant","name":"Mercato","lat":37.804876583131545,"lng":23.768732488679262,"url":"https://maps.app.goo.gl/WygPaRiVJpzqrZBi8","address":"Apollonos 40, Vouliagmeni 166 71","categoryIds":["italian","luxury-dining"],"categories":["Italian Restaurants","Luxury Dining"],"legacySlugs":["mercato-ae1b"]},{"id":"italianRestaurants_19fa39b4b310","slug":"cicchetti-prosciutteria-spritzeria-19fa","kind":"restaurant","name":"Cicchetti Prosciutteria & Spritzeria","lat":37.859684523196464,"lng":23.75386502955931,"url":"https://maps.app.goo.gl/3jMcfyGkfYbxGbps9","address":"Fivis 11, Glifada 166 74","categoryIds":["italian"],"categories":["Italian Restaurants"]},{"id":"italianRestaurants_dd5b148ca8d7","slug":"peccati-di-gola-dd5b","kind":"restaurant","name":"Peccati Di Gola","lat":37.86427445144013,"lng":23.751331713919253,"url":"https://maps.app.goo.gl/o1MzXXTU18xSPfb69?g_st=ipc","address":"Κύπρου 50, Γλυφάδα 166 75","categoryIds":["italian"],"categories":["Italian Restaurants"]},{"id":"italianRestaurants_c1362c021208","slug":"itali-co-c136","kind":"restaurant","name":"ITALI.CO","lat":37.86253909414944,"lng":23.747999477664532,"url":"https://maps.app.goo.gl/pCnDdDLDMjkN2CGv6?g_st=ipc","address":"Ανδρέα Παπανδρέου 3, Γλυφάδα 166 75","categoryIds":["italian"],"categories":["Italian Restaurants"]},{"id":"familyFriendly_bba3af84c3c6","slug":"bella-vespa-bba3","kind":"restaurant","name":"Bella Vespa","lat":37.86706675735918,"lng":23.747387332761612,"url":"https://maps.app.goo.gl/dpip4AngfBL8xv2M8?g_st=ipc","address":"Κύπρου 11, Γλυφάδα 166 75","categoryIds":["family-friendly","italian"],"categories":["Kid Friendly Locations","Italian Restaurants"],"legacySlugs":["bella-vespa-976a"]},{"id":"italianRestaurants_18486d8f87b6","slug":"mamy-blue-pizza-napoletana-glyfada-1848","kind":"restaurant","name":"Mamy Blue - Pizza Napoletana Glyfada","lat":37.8796152626329,"lng":23.758507788324675,"url":"https://maps.app.goo.gl/Viv8JcHoZX8wKXaV9?g_st=ipc","address":"Ανδρέα Παπανδρέου 126, Γλυφάδα 165 61","categoryIds":["italian"],"categories":["Italian Restaurants"]},{"id":"italianRestaurants_73a45e6520a2","slug":"caton-l-anziano-73a4","kind":"restaurant","name":"Caton L'anziano","lat":37.90721241896495,"lng":23.748209011580894,"url":"https://maps.app.goo.gl/myFgmXovKb5x7zc9A?g_st=ipc","address":"Δωδεκανήσου 1, Αργυρούπολη 164 52","categoryIds":["italian"],"categories":["Italian Restaurants"]},{"id":"italianRestaurants_55bf8f0c114f","slug":"the-eatalians-mario-luigi-55bf","kind":"restaurant","name":"The Eatalians - Mario & Luigi","lat":37.92539688479538,"lng":23.751855920363795,"url":"https://maps.app.goo.gl/hmtXEzz7XFvKtEnG6?g_st=ipc","address":"Λεωφ. Ελ. Βενιζέλου 190, Ηλιούπολη 163 41","categoryIds":["italian"],"categories":["Italian Restaurants"]}],"nearby":[{"id":"cheapEatsRestaurants_b59c9010c8a4","slug":"zachos-b59c","kind":"restaurant","name":"Ζάχος","lat":37.821251970598816,"lng":23.80344271241433,"url":"https://maps.app.goo.gl/DsP5tZnJxShfNf3H9?g_st=ipc","address":"Βασ. Κωνσταντίνου 94, Βάρη 166 72","categoryIds":["cheap-eats"],"categories":["Gyros & Cheap Eats"],"distanceKm":0.6583094761754182},{"id":"familyFriendly_37e90b2f8c07","slug":"happy-play-park-37e9","kind":"restaurant","name":"Happy Play Park","lat":37.83676394128604,"lng":23.807828606428487,"url":"https://maps.app.goo.gl/RA9ywQvUBdabkNk1A?g_st=ic","address":"Varis Koropiou Ave 27, Vari 166 72","categoryIds":["family-friendly"],"categories":["Kid Friendly Locations"],"distanceKm":1.1182998254111924},{"id":"municipalities_79c2791cab2a","slug":"vari-79c2","kind":"municipality","name":"Βάρη","lat":37.8333,"lng":23.7917,"region":"Νότια Προάστια","name_en":"Vari","region_en":"Southern Suburbs","distanceKm":1.285142418244112},{"id":"greekRestaurants_2f171b46e48c","slug":"taverna-tsolias-2f17","kind":"restaurant","name":"Ταβέρνα Τσολιάς","lat":37.834865053335534,"lng":23.79315959403436,"url":"https://maps.app.goo.gl/Pp2npdeDX3kaQbgD6","address":"Λεωφ. Βάρης 45, Βάρη 166 72","categoryIds":["greek-restaurants"],"categories":["Greek Restaurants"],"distanceKm":1.2873729140992394},{"id":"greekRestaurants_d87acafe326d","slug":"ta-vlachika-d87a","kind":"restaurant","name":"Ta Vlachika","lat":37.834890045838,"lng":23.791941775154488,"url":"https://maps.app.goo.gl/VC2HFhV1wgWoJ7Ev7","address":"Leoforos Evelpidon, Πρεβέζης, Βάρη 166 72","categoryIds":["greek-restaurants"],"categories":["Greek Restaurants"],"distanceKm":1.370720759444678},{"id":"greekRestaurants_cce1cd728bae","slug":"loyizidis-estiatorio-voyliagmeni-cce1","kind":"restaurant","name":"Λουιζίδης Εστιατόριο Βουλιαγμένη","lat":37.813204547074946,"lng":23.78315032705324,"url":"https://maps.app.goo.gl/DrVjHpSB5fMFZXij9","address":"Ερμού 2, Βουλιαγμένη 166 71","categoryIds":["greek-restaurants"],"categories":["Greek Restaurants"],"distanceKm":2.4057033483692125},{"id":"cheapEatsRestaurants_cf5c14c0c783","slug":"zachos-gkril-cf5c","kind":"restaurant","name":"Ζάχος Γκριλ","lat":37.81320496162539,"lng":23.782770964184124,"url":"https://maps.app.goo.gl/bEtWEwaW2PfwcEhW9?g_st=ipc","address":"Ερμού 1, Βουλιαγμένη 166 71","categoryIds":["cheap-eats"],"categories":["Gyros & Cheap Eats"],"distanceKm":2.431244642437039},{"id":"coffeeBrunchRestaurants_0b20fa30dfc5","slug":"sofi-s-eatery-0b20","kind":"restaurant","name":"Sofi’s Eatery","lat":37.81302845785067,"lng":23.782463728500748,"url":"https://maps.app.goo.gl/Pa3TPAmcLCv6SJsw5?g_st=ipc","address":"Αγίου Παντελεήμονος 7, Βουλιαγμένη 166 71","categoryIds":["coffee-brunch"],"categories":["Coffee & Brunch Spots"],"distanceKm":2.4645501943637953}],"sameRegion":[],"mentionedGuides":[],"canonicalSlug":"napul-e-italian-comfort-food-wine-1195","isCanonicalEntity":true,"enrichment":{"summary_en":"Napul'è Italian Comfort Food & Wine is a curated restaurant in Βάρη 166 72 in the Italian Restaurants collection. It is connected to 1 nearby Googlementor picks to help travelers build a stronger local route.","summary_el":"Napul'è Italian Comfort Food & Wine είναι ένα επιλεγμένο σημείο φαγητού στην περιοχή Βάρη 166 72 και ανήκει στη συλλογή Italian Restaurants. Συνδέεται με 1 κοντινές προτάσεις του Googlementor για πιο ολοκληρωμένη εμπειρία.","vibe_tags":["curated"],"best_for":["first-time visitors","food lovers"],"visit_moments":["lunch stop","dinner stop"],"practical_note":"Address and direct map link are available for easy turn-by-turn access.","nearby_walkable_count":1,"nearby_count_2km":5,"confidence":0.9}},"__N_SSG":true}