{"pageProps":{"entity":{"id":"coffeeBrunchRestaurants_2322e1e847ee","slug":"natu-2322","kind":"restaurant","name":"NATU","lat":38.07417552050554,"lng":23.814760489983165,"url":"https://maps.app.goo.gl/wzJKDW9SrK9LDD9x8?g_st=ipc","address":"Λεβίδου 13, Κηφισιά 145 62","categoryIds":["coffee-brunch","luxury-dining"],"categories":["Coffee & Brunch Spots","Luxury Dining"],"legacySlugs":["natu-8d64"]},"sameCategory":[{"id":"coffeeBrunchRestaurants_52c7c7c59252","slug":"ciel-athens-52c7","kind":"restaurant","name":"Ciel Athens","lat":37.975701684177345,"lng":23.72877509005901,"url":"https://maps.app.goo.gl/U1toAvoUiB34xk528?g_st=ipc","address":"ΜΝΗΣΙΚΛΕΟΥΣ, Μητροπόλεως 2, Αθήνα 105 56","categoryIds":["coffee-brunch","luxury-dining"],"categories":["Coffee & Brunch Spots","Luxury Dining"],"legacySlugs":["ciel-athens-4c25"]},{"id":"coffeeBrunchRestaurants_f000d793a460","slug":"bungalow7-athens-f000","kind":"restaurant","name":"Bungalow7 Athens","lat":37.858739347203105,"lng":23.751507417801406,"url":"https://maps.app.goo.gl/46sTr1wF8Q2Bajpu7?g_st=ipc","address":"Λεωφ. Ποσειδώνος 110, Γλυφάδα 166 75","categoryIds":["coffee-brunch","luxury-dining"],"categories":["Coffee & Brunch Spots","Luxury Dining"],"legacySlugs":["bungalow7-athens-3c7a"]},{"id":"coffeeBrunchRestaurants_8b66a0a4f338","slug":"moorings-8b66","kind":"restaurant","name":"Moorings","lat":37.80205351483022,"lng":23.772631066760855,"url":"https://maps.app.goo.gl/YdREkVBev1UQTkqh6?g_st=ipc","address":"Μαρινα Βουλιαγμενης, Βουλιαγμένη 166 71","categoryIds":["coffee-brunch","luxury-dining"],"categories":["Coffee & Brunch Spots","Luxury Dining"],"legacySlugs":["moorings-e85b"]},{"id":"coffeeBrunchRestaurants_f9825eace7fc","slug":"les-zazous-f982","kind":"restaurant","name":"Les Zazous","lat":40.58600004577793,"lng":22.93944264109209,"url":"https://maps.app.goo.gl/timwhn386UbaBApm7?g_st=ipc","address":"Themistokli Sofouli 108, Kalamaria 551 31","categoryIds":["coffee-brunch","luxury-dining"],"categories":["Coffee & Brunch Spots","Luxury Dining"],"legacySlugs":["les-zazous-fd5e"]},{"id":"luxuryDiningRestaurants_f175cd277867","slug":"il-salumaio-d-atene-f175","kind":"restaurant","name":"Il Salumaio d' Atene","lat":38.07341261438747,"lng":23.81279655771526,"url":"https://maps.app.goo.gl/hdE6Uo7UUV1Sx4i76?g_st=ipc","address":"Παναγίτσας 3, Κηφισιά 145 62","categoryIds":["luxury-dining"],"categories":["Luxury Dining"]},{"id":"coffeeBrunchRestaurants_be3a53f7f3e4","slug":"paul-kifisia-be3a","kind":"restaurant","name":"PAUL Κηφισιά","lat":38.072447961478396,"lng":23.81379476032691,"url":"https://maps.app.goo.gl/6xevQtpeMeVnnkfT6?g_st=ipc","address":"Λεβίδου 4, Κηφισιά 145 62","categoryIds":["coffee-brunch"],"categories":["Coffee & Brunch Spots"]},{"id":"coffeeBrunchRestaurants_6ad2753fc055","slug":"different-beast-6ad2","kind":"restaurant","name":"Different Beast","lat":38.072030542719524,"lng":23.814580386585376,"url":"https://maps.app.goo.gl/uz9Wpn9FMrG1tYuh9?g_st=ipc","address":"Κασσαβέτη 19, Αθήνα 145 61","categoryIds":["coffee-brunch"],"categories":["Coffee & Brunch Spots"]},{"id":"luxuryDiningRestaurants_92ffc8a7721e","slug":"rick-s-92ff","kind":"restaurant","name":"Rick's","lat":38.073591059792,"lng":23.818979548150455,"url":"https://maps.app.goo.gl/AAxiioC4fKMwJFS26?g_st=ipc","address":"Πεντέλης 1, Κηφισιά 145 62","categoryIds":["luxury-dining"],"categories":["Luxury Dining"]}],"nearby":[{"id":"italianRestaurants_f02c78444b4c","slug":"casa-giacomo-kifissia-f02c","kind":"restaurant","name":"Casa Giacomo Kifissia","lat":38.07385898526318,"lng":23.814586935437283,"url":"https://maps.app.goo.gl/1xtm5c4dSnQZtLaY9?g_st=ipc","address":"Λεβίδου 11, Κηφισιά 145 62","categoryIds":["italian"],"categories":["Italian Restaurants"],"distanceKm":0.03833579039284681},{"id":"familyFriendly_84e8f16ae20b","slug":"ethniko-moyseio-fysikis-istorias-goylandri-84e8","kind":"restaurant","name":"Εθνικό Μουσείο Φυσικής Ιστορίας Γουλανδρή","lat":38.07463041368346,"lng":23.814406620087777,"url":"https://maps.app.goo.gl/3kET1gVajc9wtcHj9?g_st=ipc","address":"Όθωνος 100, Κηφισιά 145 62","categoryIds":["family-friendly"],"categories":["Kid Friendly Locations"],"distanceKm":0.059312787584229004},{"id":"dessertsRestaurants_cd2327378af7","slug":"cake-kifisia-cd23","kind":"restaurant","name":"CAKE Kifisia","lat":38.073487839104395,"lng":23.814902720065806,"url":"https://maps.app.goo.gl/VMCR6TNy1UKT5ohW9?g_st=ipc","address":"Αργυροπούλου 3, Κηφισιά 145 62","categoryIds":["desserts"],"categories":["Dessert Shops"],"distanceKm":0.07747358976027793},{"id":"italianRestaurants_eaba816c4340","slug":"portofino-pizza-kifisia-eaba","kind":"restaurant","name":"Portofino Pizza Kifisia","lat":38.0734702785448,"lng":23.814976694722787,"url":"https://maps.app.goo.gl/b5YoW6FvnhXk97jJ8?g_st=ipc","address":"Levidou 16, Αργυροπούλου 1-3, Κηφισιά 145 62","categoryIds":["italian"],"categories":["Italian Restaurants"],"distanceKm":0.08067069451159516},{"id":"dessertsRestaurants_269f1a4d58a3","slug":"aristokratikon-kifisia-269f","kind":"restaurant","name":"Αριστοκρατικόν - Κηφισιά","lat":38.073016781498126,"lng":23.816206852783917,"url":"https://maps.app.goo.gl/PVrMudYCzW22zcGeA?g_st=ipc","address":"Αργυροπούλου 8, Κηφισιά 145 62","categoryIds":["desserts"],"categories":["Dessert Shops"],"distanceKm":0.1806394606787318},{"id":"luxuryDiningRestaurants_f175cd277867","slug":"il-salumaio-d-atene-f175","kind":"restaurant","name":"Il Salumaio d' Atene","lat":38.07341261438747,"lng":23.81279655771526,"url":"https://maps.app.goo.gl/hdE6Uo7UUV1Sx4i76?g_st=ipc","address":"Παναγίτσας 3, Κηφισιά 145 62","categoryIds":["luxury-dining"],"categories":["Luxury Dining"],"distanceKm":0.19170305521617792},{"id":"coffeeBrunchRestaurants_be3a53f7f3e4","slug":"paul-kifisia-be3a","kind":"restaurant","name":"PAUL Κηφισιά","lat":38.072447961478396,"lng":23.81379476032691,"url":"https://maps.app.goo.gl/6xevQtpeMeVnnkfT6?g_st=ipc","address":"Λεβίδου 4, Κηφισιά 145 62","categoryIds":["coffee-brunch"],"categories":["Coffee & Brunch Spots"],"distanceKm":0.20987379159984693},{"id":"dessertsRestaurants_b4b7dac03ffe","slug":"zacharoplasteia-konstantinidis-kifisias-b4b7","kind":"restaurant","name":"ΖΑΧΑΡΟΠΛΑΣΤΕΙΑ ΚΩΝΣΤΑΝΤΙΝΙΔΗΣ Κηφισιάς","lat":38.07444985049744,"lng":23.81224566979125,"url":"https://maps.app.goo.gl/tHoKhW3BVHGJJqNx7?g_st=ipc","address":"Λεωφ. Κηφισίας 283, Κηφισιά 145 62","categoryIds":["desserts"],"categories":["Dessert Shops"],"distanceKm":0.22223555836954945}],"sameRegion":[],"mentionedGuides":[],"canonicalSlug":"natu-2322","isCanonicalEntity":false,"enrichment":{"summary_en":"NATU is a curated restaurant in Κηφισιά 145 62 in the Coffee & Brunch Spots collection. It is connected to 30 nearby Googlementor picks to help travelers build a stronger local route.","summary_el":"NATU είναι ένα επιλεγμένο σημείο φαγητού στην περιοχή Κηφισιά 145 62 και ανήκει στη συλλογή Coffee & Brunch Spots. Συνδέεται με 30 κοντινές προτάσεις του Googlementor για πιο ολοκληρωμένη εμπειρία.","vibe_tags":["curated","premium-dining","daytime-favorite"],"best_for":["first-time visitors","food lovers","special occasions"],"visit_moments":["early morning","late brunch"],"practical_note":"Address and direct map link are available for easy turn-by-turn access.","nearby_walkable_count":30,"nearby_count_2km":50,"confidence":0.98}},"__N_SSG":true}