{"pageProps":{"entity":{"id":"municipalities_52e9dfbeced3","slug":"neapoli-sykies-52e9","kind":"municipality","name":"Νεάπολη - Συκιές","lat":40.653,"lng":22.958,"region":"Δυτική Θεσσαλονίκη","name_en":"Neapoli - Sykies","region_en":"West Thessaloniki"},"sameCategory":[],"nearby":[{"id":"cheapEatsRestaurants_d40ad575edd7","slug":"michelangelo-skg-d40a","kind":"restaurant","name":"Michelangelo.skg","lat":40.65053808833563,"lng":22.95671243903333,"url":"https://maps.app.goo.gl/nAwyYBALch1ybbQSA?g_st=ipc","address":"Riga Feraiou 162, Sikies 566 26","categoryIds":["cheap-eats","italian"],"categories":["Gyros & Cheap Eats","Italian Restaurants"],"legacySlugs":["michelangelo-skg-4e92"],"distanceKm":0.29451432950332296},{"id":"asianRestaurants_4caa87d6e139","slug":"sushaki-greek-sushi-experience-4caa","kind":"restaurant","name":"Sushaki | Greek Sushi Experience","lat":40.650072445284856,"lng":22.958835229549017,"url":"https://maps.app.goo.gl/5vFVT9HMbgmQ6Erc6","address":"Eptapirgiou 75, Sikies 566 26","categoryIds":["asian"],"categories":["Asian Restaurants"],"distanceKm":0.33306774407718737},{"id":"municipalities_bb6da3cdb3bd","slug":"eptapyrgio-bb6d","kind":"municipality","name":"Επταπύργιο","lat":40.6506,"lng":22.9486,"aliases":["Επταπυργιο","Yedi Kule"],"region":"Θεσσαλονίκη","name_en":"Eptapyrgio","region_en":"Thessaloniki","distanceKm":0.8366999593292757},{"id":"familyFriendly_91fdc1b07999","slug":"parko-tzeni-karezi-91fd","kind":"restaurant","name":"Πάρκο Τζένη Καρέζη","lat":40.65858356268694,"lng":22.948886429553223,"url":"https://maps.app.goo.gl/GLfxf6LcGPn5DhUJA?g_st=ipc","address":"Polichni 565 32","categoryIds":["family-friendly"],"categories":["Kid Friendly Locations"],"distanceKm":0.988185149038005},{"id":"greekRestaurants_284ab55d844a","slug":"drosia-284a","kind":"restaurant","name":"Δροσιά","lat":40.64461236646585,"lng":22.953803286668357,"url":"https://maps.app.goo.gl/APT3HJiqoZGsnyPs9?g_st=ipc","address":"Μεσολογγίου 44, Θεσσαλονίκη 566 25","categoryIds":["greek-restaurants"],"categories":["Greek Restaurants"],"distanceKm":0.9976049996047407},{"id":"mustSeeAttractions_d05b087a8840","slug":"heptapyrgion-of-thessaloniki-d05b","kind":"restaurant","name":"Heptapyrgion of Thessaloniki","lat":40.64405781477335,"lng":22.96178016442897,"url":"https://maps.app.goo.gl/1s8aj4cc3MbpvaGq9?g_st=ipc","address":"Επταπύργιο, Eptapirgiou 40, Thessaloniki 546 34","categoryIds":["attractions"],"categories":["Must-See Attractions"],"distanceKm":1.044218006651205},{"id":"municipalities_ee3779c3af5f","slug":"ano-poli-ee37","kind":"municipality","name":"Άνω Πόλη","lat":40.6436,"lng":22.959,"region":"Θεσσαλονίκη","name_en":"Ano Poli","region_en":"Thessaloniki","distanceKm":1.0486315936642567},{"id":"mustSeeAttractions_72fd08699c11","slug":"thessaloniki-acropolis-72fd","kind":"restaurant","name":"Thessaloniki Acropolis","lat":40.644004048967396,"lng":22.961770870557544,"url":"https://maps.app.goo.gl/Pj3FuXA7LeypGUARA?g_st=ipc","address":"Eptapirgiou 130, Thessaloniki 546 34","categoryIds":["attractions"],"categories":["Must-See Attractions"],"distanceKm":1.04967456391023}],"sameRegion":[{"id":"municipalities_2ba5701b87ab","slug":"ampelokipoi-menemeni-2ba5","kind":"municipality","name":"Αμπελόκηποι - Μενεμένη","lat":40.6589,"lng":22.9083,"region":"Δυτική Θεσσαλονίκη","name_en":"Ampelokipoi - Menemeni","region_en":"West Thessaloniki"},{"id":"municipalities_5a61c4b30038","slug":"kordelio-eyosmos-5a61","kind":"municipality","name":"Κορδελιό - Ευόσμος","lat":40.6708,"lng":22.8819,"region":"Δυτική Θεσσαλονίκη","name_en":"Kordelio - Evosmos","region_en":"West Thessaloniki"},{"id":"municipalities_96e3494c5454","slug":"polichni-96e3","kind":"municipality","name":"Πολίχνη","lat":40.6694,"lng":22.9481,"region":"Δυτική Θεσσαλονίκη","name_en":"Polichni","region_en":"West Thessaloniki"},{"id":"municipalities_9d384c0445ca","slug":"stayroypoli-9d38","kind":"municipality","name":"Σταυρούπολη","lat":40.6667,"lng":22.9333,"region":"Δυτική Θεσσαλονίκη","name_en":"Stavroupoli","region_en":"West Thessaloniki"},{"id":"municipalities_fd387f77da75","slug":"eleytherio-kordelio-fd38","kind":"municipality","name":"Ελευθέριο - Κορδελιό","lat":40.6717,"lng":22.8936,"region":"Δυτική Θεσσαλονίκη","name_en":"Eleftherio - Kordelio","region_en":"West Thessaloniki"}],"mentionedGuides":[],"canonicalSlug":"neapoli-sykies-52e9","isCanonicalEntity":true,"enrichment":{"summary_en":"Νεάπολη - Συκιές is a curated neighborhood area in Δυτική Θεσσαλονίκη. It is connected to 2 nearby Googlementor picks to help travelers build a stronger local route.","summary_el":"Νεάπολη - Συκιές είναι ένα επιλεγμένο σημείο ενδιαφέροντος στην περιοχή Δυτική Θεσσαλονίκη. Συνδέεται με 2 κοντινές προτάσεις του Googlementor για πιο ολοκληρωμένη εμπειρία.","vibe_tags":["local-neighborhood","base-for-exploring"],"best_for":["first-time visitors","walk-and-explore days","return visitors"],"visit_moments":["late morning walks","sunset exploration"],"practical_note":"2 curated places are within walkable distance from this area center.","nearby_walkable_count":2,"nearby_count_2km":53,"confidence":0.55}},"__N_SSG":true}