{"pageProps":{"entity":{"id":"cheapEatsRestaurants_7caa0b61c60c","slug":"o-giros-tis-ellados-7caa","kind":"restaurant","name":"O Giros Tis Ellados","lat":40.59770145420411,"lng":22.9555911779157,"url":"https://maps.app.goo.gl/dfbEJidizuzLLALq8?g_st=ipc","address":"Leof. Vasilissis Olgas 176, Thessaloniki 546 46","categoryIds":["cheap-eats"],"categories":["Gyros & Cheap Eats"]},"sameCategory":[{"id":"cheapEatsRestaurants_811c63bc08c5","slug":"devido-811c","kind":"restaurant","name":"Devido","lat":40.599230791467505,"lng":22.95314409507896,"url":"https://maps.app.goo.gl/2EFX2fMBPiwhmmAv5?g_st=ipc","address":"25is Martiou 17, Thessaloniki 546 45","categoryIds":["cheap-eats"],"categories":["Gyros & Cheap Eats"]},{"id":"burgersRestaurants_8a735b95eb4f","slug":"paul-s-burger-8a73","kind":"restaurant","name":"Paul’s Burger","lat":40.59788362738132,"lng":22.95216160608432,"url":"https://maps.app.goo.gl/9L8fryr5EiA3D5rR9?g_st=ipc","address":"Geor. Papandreou 38, Thessaloniki 546 46","categoryIds":["burgers","cheap-eats"],"categories":["Burger Spots","Gyros & Cheap Eats"],"legacySlugs":["paul-s-burger-a56a"]},{"id":"cheapEatsRestaurants_7eb356f33485","slug":"subito-7eb3","kind":"restaurant","name":"subito","lat":40.6000123876882,"lng":22.959807900547272,"url":"https://maps.app.goo.gl/hJJxUbRut66xbMFs5?g_st=ipc","address":"Delfon 145, Thessaloniki 542 48","categoryIds":["cheap-eats"],"categories":["Gyros & Cheap Eats"]},{"id":"cheapEatsRestaurants_0368efbccc32","slug":"grill-junior-0368","kind":"restaurant","name":"Grill Junior","lat":40.60286928963285,"lng":22.956953349868357,"url":"https://maps.app.goo.gl/KmNipqE8jJT8qrZ17?g_st=ipc","address":"Thermopilon 31, Thessaloniki 542 48","categoryIds":["cheap-eats"],"categories":["Gyros & Cheap Eats"]},{"id":"cheapEatsRestaurants_6567e814aa5e","slug":"o-gyros-toy-michali-6567","kind":"restaurant","name":"Ο Γύρος του Μιχάλη","lat":40.60335488153119,"lng":22.961687059004745,"url":"https://maps.app.goo.gl/sNmZpvpUx9Yt5Avj6?g_st=ipc","address":"Makedonias 105, Thessaloniki 542 48","categoryIds":["cheap-eats"],"categories":["Gyros & Cheap Eats"]},{"id":"cheapEatsRestaurants_35033892194c","slug":"souvlaki-street-3503","kind":"restaurant","name":"Souvlaki Street","lat":40.60499215993171,"lng":22.95914208357667,"url":"https://maps.app.goo.gl/8hPpQdZA8iNRAksd7?g_st=ipc","address":"Geor. Drosini 14, Thessaloniki 546 44","categoryIds":["cheap-eats"],"categories":["Gyros & Cheap Eats"]},{"id":"cheapEatsRestaurants_f00923c77588","slug":"terpsilaryngio-f009","kind":"restaurant","name":"Terpsilarýngio","lat":40.60676570771858,"lng":22.953926859309924,"url":"https://maps.app.goo.gl/AqaCxycK19KfYLPcA?g_st=ipc","address":"Mark. Mpotsari 14, Thessaloniki 546 43","categoryIds":["cheap-eats"],"categories":["Gyros & Cheap Eats"]},{"id":"cheapEatsRestaurants_11495dfdb881","slug":"fina-kota-kai-souvlaki-1149","kind":"restaurant","name":"Fina Kota kai Souvlaki","lat":40.59910110403599,"lng":22.970582136003614,"url":"https://maps.app.goo.gl/eUYE4q3etTD9FkZs6?g_st=ipc","address":"Al. Papanastasiou 164, Thessaloniki 542 49","categoryIds":["cheap-eats"],"categories":["Gyros & Cheap Eats"]}],"nearby":[{"id":"greekRestaurants_5420cd09afd9","slug":"taverna-kronos-5420","kind":"restaurant","name":"Ταβέρνα Κρόνος","lat":40.59744980216976,"lng":22.955600566420387,"url":"https://maps.app.goo.gl/GJFXXJsfLXcf12tg7?g_st=ipc","address":"Β.Όλγας 178, & Γ. Βαφοπούλου 30, Θεσσαλονίκη 546 46","categoryIds":["greek-restaurants"],"categories":["Greek Restaurants"],"distanceKm":0.027993654484419463},{"id":"greekRestaurants_caf46d3ae170","slug":"mpachtses-caf4","kind":"restaurant","name":"Μπαχτσές","lat":40.59735406643829,"lng":22.956242795320843,"url":"https://maps.app.goo.gl/24benajDUQutZUA78?g_st=ipc","address":"Λεωφ. Βασιλίσσης Όλγας 211, Θεσσαλονίκη 546 46","categoryIds":["greek-restaurants"],"categories":["Greek Restaurants"],"distanceKm":0.06722267017576111},{"id":"greekRestaurants_e11b69a9f4fc","slug":"koronis-e11b","kind":"restaurant","name":"Κορωνίς","lat":40.59688587335896,"lng":22.955410845086725,"url":"https://maps.app.goo.gl/Kyh1q1o7596jHSuu9?g_st=ipc","address":"Θεμιστοκλή Σοφούλη 4, Θεσσαλονίκη 546 46","categoryIds":["greek-restaurants"],"categories":["Greek Restaurants"],"distanceKm":0.09195767604599273},{"id":"cheapEatsRestaurants_811c63bc08c5","slug":"devido-811c","kind":"restaurant","name":"Devido","lat":40.599230791467505,"lng":22.95314409507896,"url":"https://maps.app.goo.gl/2EFX2fMBPiwhmmAv5?g_st=ipc","address":"25is Martiou 17, Thessaloniki 546 45","categoryIds":["cheap-eats"],"categories":["Gyros & Cheap Eats"],"distanceKm":0.2675894782760661},{"id":"vegetarianRestaurants_02c8bc386448","slug":"falafeleria-02c8","kind":"restaurant","name":"Falafeleria","lat":40.5988199696969,"lng":22.95250846403434,"url":"https://maps.app.goo.gl/snuFukejKVaEqQ597?g_st=ipc","address":"25is Martiou 14, Thessaloniki 546 46","categoryIds":["vegetarian"],"categories":["Vegetarian Friendly Restaurants"],"distanceKm":0.28846129017754824},{"id":"greekRestaurants_c2f14c425e63","slug":"alatorigani-c2f1","kind":"restaurant","name":"Αλατορίγανη","lat":40.60015243009011,"lng":22.95443250325129,"url":"https://maps.app.goo.gl/8H2pummkPQFjon5o8?g_st=ipc","address":"Λεωφ. Βασιλίσσης Όλγας 177, Θεσσαλονίκη 546 45","categoryIds":["greek-restaurants"],"categories":["Greek Restaurants"],"distanceKm":0.2895611739605966},{"id":"burgersRestaurants_8a735b95eb4f","slug":"paul-s-burger-8a73","kind":"restaurant","name":"Paul’s Burger","lat":40.59788362738132,"lng":22.95216160608432,"url":"https://maps.app.goo.gl/9L8fryr5EiA3D5rR9?g_st=ipc","address":"Geor. Papandreou 38, Thessaloniki 546 46","categoryIds":["burgers","cheap-eats"],"categories":["Burger Spots","Gyros & Cheap Eats"],"legacySlugs":["paul-s-burger-a56a"],"distanceKm":0.29026611325675955},{"id":"dessertsRestaurants_f84ed009af83","slug":"terkenlis-f84e","kind":"restaurant","name":"Terkenlis","lat":40.59488849299692,"lng":22.956363253741753,"url":"https://maps.app.goo.gl/xBak2d9JxbKxQpz57?g_st=ipc","address":"Leof. Vasilissis Olgas 235, Thessaloniki 546 55","categoryIds":["desserts"],"categories":["Dessert Shops"],"distanceKm":0.31950768289018744}],"sameRegion":[],"mentionedGuides":[],"canonicalSlug":"o-giros-tis-ellados-7caa","isCanonicalEntity":true,"enrichment":{"summary_en":"O Giros Tis Ellados is a curated restaurant in Thessaloniki 546 46 in the Gyros & Cheap Eats collection. It is connected to 20 nearby Googlementor picks to help travelers build a stronger local route.","summary_el":"O Giros Tis Ellados είναι ένα επιλεγμένο σημείο φαγητού στην περιοχή Thessaloniki 546 46 και ανήκει στη συλλογή Gyros & Cheap Eats. Συνδέεται με 20 κοντινές προτάσεις του Googlementor για πιο ολοκληρωμένη εμπειρία.","vibe_tags":["curated","budget-friendly"],"best_for":["first-time visitors","food lovers","budget travelers"],"visit_moments":["lunch stop","dinner stop"],"practical_note":"Address and direct map link are available for easy turn-by-turn access.","nearby_walkable_count":20,"nearby_count_2km":76,"confidence":0.98}},"__N_SSG":true}