{"pageProps":{"entity":{"id":"coffeeBrunchRestaurants_336240e739f2","slug":"o-mitsos-bakery-and-bougatsa-pies-3362","kind":"restaurant","name":"“O Mitsos” Bakery and Bougatsa pies","lat":38.906123668565485,"lng":24.565786457853836,"url":"https://maps.app.goo.gl/nrqc18TzCiFo5osh7?g_st=ipc","address":"Αγορά Σκυρου, Skiros 340 07","categoryIds":["coffee-brunch"],"categories":["Coffee & Brunch Spots"]},"sameCategory":[{"id":"coffeeBrunchRestaurants_14f7d11e7920","slug":"agora-14f7","kind":"restaurant","name":"AGORA","lat":38.90450343769536,"lng":24.564405519725188,"url":"https://maps.app.goo.gl/Ak5n1GwVGESyRydk7?g_st=ipc","address":"Χώρα - κεντρική πλατεία, Skiros 340 07","categoryIds":["coffee-brunch"],"categories":["Coffee & Brunch Spots"]},{"id":"coffeeBrunchRestaurants_e16b7b061028","slug":"decimo-coffee-brunch-e16b","kind":"restaurant","name":"Decimo Coffee & Brunch","lat":39.11943395916134,"lng":23.73078206958329,"url":"https://maps.app.goo.gl/L1JDBzithBcgv3Qj7?g_st=ipc","address":"Σκόπελος 370 03","categoryIds":["coffee-brunch"],"categories":["Coffee & Brunch Spots"]},{"id":"coffeeBrunchRestaurants_f243ffc9ef50","slug":"kanela-homemade-delicacies-f243","kind":"restaurant","name":"Kanela | Homemade Delicacies","lat":39.119057575812455,"lng":23.730567589663472,"url":"https://maps.app.goo.gl/ToCtxBp1UXx9DGvx7?g_st=ipc","address":"El. Venizelou, Skopelos 370 03","categoryIds":["coffee-brunch"],"categories":["Coffee & Brunch Spots"]},{"id":"coffeeBrunchRestaurants_a6de03ead415","slug":"bourtzi-skiathos-a6de","kind":"restaurant","name":"Bourtzi Skiathos","lat":39.16082655884958,"lng":23.49110174510934,"url":"https://maps.app.goo.gl/biyFuX6UBoZ8TcJc9?g_st=ipc","address":"Port of, Skiathos 370 02","categoryIds":["coffee-brunch"],"categories":["Coffee & Brunch Spots"]},{"id":"coffeeBrunchRestaurants_7dfa5bb5c12c","slug":"argithea-7dfa","kind":"restaurant","name":"Αργιθέα","lat":38.15948282094037,"lng":23.95837767969574,"url":"https://maps.app.goo.gl/w98y2hBDroKUDcwZ7?g_st=ipc","address":"Λεωφ. Μαραθώνος 11, Μαραθώνας 190 07","categoryIds":["coffee-brunch"],"categories":["Coffee & Brunch Spots"]},{"id":"coffeeBrunchRestaurants_6aac58356d58","slug":"dimitris-kasimis-foyrnos-6aac","kind":"restaurant","name":"ΔΗΜΗΤΡΗΣ ΚΑΣΙΜΗΣ Φούρνος","lat":38.0797197655773,"lng":23.980827928192117,"url":"https://maps.app.goo.gl/HVgjvMDChspNvrjy7?g_st=ipc","address":"44 Marathonos Ave, Enanti DEI, Nea Makri, 19005","categoryIds":["coffee-brunch"],"categories":["Coffee & Brunch Spots"]},{"id":"coffeeBrunchRestaurants_cdd028e1f028","slug":"indianos-cdd0","kind":"restaurant","name":"Indianos","lat":38.07177701154969,"lng":23.99543112392712,"url":"https://maps.app.goo.gl/fQgSyiTZjMscc9UW9?g_st=ipc","address":"Μιαούλη 12, Νέα Μάκρη 190 05","categoryIds":["coffee-brunch"],"categories":["Coffee & Brunch Spots"]},{"id":"coffeeBrunchRestaurants_ba1c57c3e046","slug":"katafygio-mpafi-ba1c","kind":"restaurant","name":"Καταφύγιο Μπάφι","lat":38.16746990651998,"lng":23.726972151660846,"url":"https://maps.app.goo.gl/h8ni4KMpRSPF4Zzu5?g_st=ipc","address":"Πάρνηθος, Αθήνα 136 72","categoryIds":["coffee-brunch"],"categories":["Coffee & Brunch Spots"]}],"nearby":[{"id":"greekRestaurants_0c0ca9fd779c","slug":"barba-giannis-maritsa-0c0c","kind":"restaurant","name":"Barba Giannis & Maritsa","lat":38.90527399333744,"lng":24.565211310371236,"url":"https://maps.app.goo.gl/yZjyN3yoH4KKaMPJ6?g_st=ipc","address":"Unnamed Road, Σκύρος 340 07","categoryIds":["greek-restaurants"],"categories":["Greek Restaurants"],"distanceKm":0.1067856760153271},{"id":"dessertsRestaurants_ea4d98f03d4b","slug":"ta-glyka-tis-faltainas-ea4d","kind":"restaurant","name":"Τα γλυκά της Φαλταΐνας","lat":38.90510474017236,"lng":24.565216999906415,"url":"https://maps.app.goo.gl/8eAkqLfsCDHE3bXYA?g_st=ipc","address":"Agora, Σκύρος 340 07","categoryIds":["desserts"],"categories":["Dessert Shops"],"distanceKm":0.1235510062555104},{"id":"cheapEatsRestaurants_54502c287d87","slug":"mouza-grill-house-5450","kind":"restaurant","name":"Mouza grill house","lat":38.90439949082661,"lng":24.564789359234034,"url":"https://maps.app.goo.gl/wecLJ1nJGGgQYeLg9?g_st=ipc","address":"Chora Skyrou, Skiros 340 07","categoryIds":["cheap-eats"],"categories":["Gyros & Cheap Eats"],"distanceKm":0.21023936856868405},{"id":"coffeeBrunchRestaurants_14f7d11e7920","slug":"agora-14f7","kind":"restaurant","name":"AGORA","lat":38.90450343769536,"lng":24.564405519725188,"url":"https://maps.app.goo.gl/Ak5n1GwVGESyRydk7?g_st=ipc","address":"Χώρα - κεντρική πλατεία, Skiros 340 07","categoryIds":["coffee-brunch"],"categories":["Coffee & Brunch Spots"],"distanceKm":0.21618671421580454},{"id":"greekRestaurants_452f5e570a01","slug":"stefanos-452f","kind":"restaurant","name":"Στέφανος","lat":38.910052705921146,"lng":24.57050982234405,"url":"https://maps.app.goo.gl/trnHe5qoFAQHzYM28?g_st=ipc","address":"Greece, Μαγαζιά 340 07","categoryIds":["greek-restaurants"],"categories":["Greek Restaurants"],"distanceKm":0.5982523541964324},{"id":"dessertsRestaurants_7505140b468a","slug":"ergastirio-zacharoplastikis-chiotis-7505","kind":"restaurant","name":"ΕΡΓΑΣΤΗΡΙΟ ΖΑΧΑΡΟΠΛΑΣΤΙΚΗΣ ΧΙΩΤΗΣ","lat":38.89717410888779,"lng":24.569088923809744,"url":"https://maps.app.goo.gl/DRmKG5mhw1Wi6Jrq6?g_st=ipc","address":"VHW9+WM, Σκύρος 340 07","categoryIds":["desserts"],"categories":["Dessert Shops"],"distanceKm":1.0353665048898064},{"id":"greekRestaurants_da11c217aa96","slug":"amerissa-seaside-restaurant-da11","kind":"restaurant","name":"AMÉRISSA Seaside Restaurant","lat":38.92037558044187,"lng":24.578665945412215,"url":"https://maps.app.goo.gl/bw6JVTJRnsfZQVDW8?g_st=ipc","address":"Βίνα 340 07","categoryIds":["greek-restaurants"],"categories":["Greek Restaurants"],"distanceKm":1.9373063546436617},{"id":"fishTavernasRestaurants_803a17a3dd7b","slug":"stelios-803a","kind":"restaurant","name":"STELIOS","lat":38.92732372527763,"lng":24.574549606903982,"url":"https://maps.app.goo.gl/D5L2xNDUmBf9SdfQ9?g_st=ipc","address":"Γυρίσματα, Skiros 340 07","categoryIds":["fish-tavernas"],"categories":["Fish Tavernas"],"distanceKm":2.4762563254126864}],"sameRegion":[],"mentionedGuides":[],"canonicalSlug":"o-mitsos-bakery-and-bougatsa-pies-3362","isCanonicalEntity":true,"enrichment":{"summary_en":"“O Mitsos” Bakery and Bougatsa pies is a curated restaurant in Skiros 340 07 in the Coffee & Brunch Spots collection. It is connected to 5 nearby Googlementor picks to help travelers build a stronger local route.","summary_el":"“O Mitsos” Bakery and Bougatsa pies είναι ένα επιλεγμένο σημείο φαγητού στην περιοχή Skiros 340 07 και ανήκει στη συλλογή Coffee & Brunch Spots. Συνδέεται με 5 κοντινές προτάσεις του Googlementor για πιο ολοκληρωμένη εμπειρία.","vibe_tags":["curated","daytime-favorite"],"best_for":["first-time visitors","food lovers"],"visit_moments":["early morning","late brunch"],"practical_note":"Address and direct map link are available for easy turn-by-turn access.","nearby_walkable_count":5,"nearby_count_2km":7,"confidence":0.98}},"__N_SSG":true}