{"pageProps":{"entity":{"id":"luxuryDiningRestaurants_1d0300f3d6a7","slug":"o-ntinos-1d03","kind":"restaurant","name":"O Ntinos","lat":37.59381409443961,"lng":25.069991170783855,"url":"https://maps.app.goo.gl/P7xp29Uhw71Tk9J3A?g_st=ipc","address":"Όρμος Γιαννάκη, Kardiani 842 01","categoryIds":["luxury-dining"],"categories":["Luxury Dining"]},"sameCategory":[{"id":"luxuryDiningRestaurants_93b3c04c31a5","slug":"like-salt-93b3","kind":"restaurant","name":"Like salt","lat":37.53276319748214,"lng":25.17213619296478,"url":"https://maps.app.goo.gl/CMED59Cpim8jo3r38?g_st=ipc","address":"Ir. Politechniou, Tinos 842 00","categoryIds":["luxury-dining"],"categories":["Luxury Dining"]},{"id":"italianRestaurants_ef50c7962b4c","slug":"napule-tinos-restaurant-ef50","kind":"restaurant","name":"Napule Tinos Restaurant","lat":37.561247297622636,"lng":25.19153362351099,"url":"https://maps.app.goo.gl/KMmm7YcXtzQmk7Zh8?g_st=ipc","address":"Τριαντάρος 842 00","categoryIds":["italian","luxury-dining"],"categories":["Italian Restaurants","Luxury Dining"],"legacySlugs":["napule-tinos-restaurant-5194"]},{"id":"luxuryDiningRestaurants_9c6d307705cb","slug":"hygge-ano-syros-9c6d","kind":"restaurant","name":"Hygge Ano Syros","lat":37.45063025961707,"lng":24.93672789045308,"url":"https://maps.app.goo.gl/bq8XEdkjQTKveFWo7?g_st=ipc","address":"Ano Syros 841 00","categoryIds":["luxury-dining"],"categories":["Luxury Dining"]},{"id":"luxuryDiningRestaurants_fce7b5166669","slug":"elexis-restaurant-fce7","kind":"restaurant","name":"Elexis restaurant","lat":37.44565058814321,"lng":24.944776847765887,"url":"https://maps.app.goo.gl/rqnMSjkRjYm2rfCw6?g_st=ipc","address":"Apollonos 11, Ermoupoli 841 00","categoryIds":["luxury-dining"],"categories":["Luxury Dining"]},{"id":"luxuryDiningRestaurants_cc0b0cabfb61","slug":"drakoulis-dry-raw-mykonos-cc0b","kind":"restaurant","name":"Drakoulis Dry & Raw Mykonos","lat":37.447121066093636,"lng":25.329034852890235,"url":"https://maps.app.goo.gl/K5Lrunurc26by6vJ6?g_st=ipc","address":"Mykonos 846 00","categoryIds":["luxury-dining"],"categories":["Luxury Dining"]},{"id":"luxuryDiningRestaurants_dad780fcff6d","slug":"interni-restaurant-dad7","kind":"restaurant","name":"Interni Restaurant","lat":37.44559204956145,"lng":25.328710304133274,"url":"https://maps.app.goo.gl/x3D3HYwjgPTE7gGp6?g_st=ipc","address":"Matogianni, Mikonos 846 00","categoryIds":["luxury-dining"],"categories":["Luxury Dining"]},{"id":"luxuryDiningRestaurants_864249c0b1ea","slug":"lio-mykonos-8642","kind":"restaurant","name":"Lío Mykonos","lat":37.44500603308255,"lng":25.32823624391178,"url":"https://maps.app.goo.gl/hS1c8JjDNAyUufSc6?g_st=ipc","address":"Enoplon Dinameon 6, Mikonos 846 00","categoryIds":["luxury-dining"],"categories":["Luxury Dining"]},{"id":"luxuryDiningRestaurants_acb4788667d5","slug":"noema-acb4","kind":"restaurant","name":"Noema","lat":37.44557471142449,"lng":25.32948165492457,"url":"https://maps.app.goo.gl/Zjd8gVv5zkQ4UZxa9?g_st=ipc","address":"Panachra, Mikonos 846 00","categoryIds":["luxury-dining"],"categories":["Luxury Dining"]}],"nearby":[{"id":"fishTavernasRestaurants_5745f4ec9e6d","slug":"to-thalassaki-5745","kind":"restaurant","name":"To Θαλασσάκι","lat":37.615230690872465,"lng":25.0428843541274,"url":"https://maps.app.goo.gl/eqUQ8oiZuscvzKLaA?g_st=ipc","address":"bay, Isternia 842 01","categoryIds":["fish-tavernas"],"categories":["Fish Tavernas"],"distanceKm":3.3724385907859715},{"id":"greekRestaurants_94cb9a9dd94a","slug":"stin-ammo-allios-94cb","kind":"restaurant","name":"Στην Άμμο...αλλιώς","lat":37.615358360450664,"lng":25.042685964832707,"url":"https://maps.app.goo.gl/3Pr5rMprS5Yppvz26?g_st=ipc","address":"Επαρχιακή οδός Τήνου, Όρμος Υστερνίων 842 00","categoryIds":["greek-restaurants"],"categories":["Greek Restaurants"],"distanceKm":3.394837212394513},{"id":"greekRestaurants_9bd6eb0516c5","slug":"foy-foy-9bd6","kind":"restaurant","name":"ΦΟΥ-ΦΟΥ","lat":37.62122057124332,"lng":25.052979875664423,"url":"https://maps.app.goo.gl/TPj9fHVZDWJCm6NZA?g_st=ipc","address":"Isternia, Tinos 842 01, Tinos Island 842 01 Υστερνια, 842 01","categoryIds":["greek-restaurants"],"categories":["Greek Restaurants"],"distanceKm":3.3959653507165184},{"id":"coffeeBrunchRestaurants_4b0dd01f9ddd","slug":"exo-meria-4b0d","kind":"restaurant","name":"Exo meria","lat":37.621680604479764,"lng":25.051831582375698,"url":"https://maps.app.goo.gl/o27dRVLq4yNqsqfV6?g_st=ipc","address":"Isternia 842 01","categoryIds":["coffee-brunch"],"categories":["Coffee & Brunch Spots"],"distanceKm":3.4871690585931083},{"id":"coffeeBrunchRestaurants_5f5634aa7ab6","slug":"mayou-all-day-bar-5f56","kind":"restaurant","name":"Mayou all day bar","lat":37.6225070567129,"lng":25.05248500203228,"url":"https://maps.app.goo.gl/MQWdjK1DGr9YXoey5?g_st=ipc","address":"Isternia, Tinos 842 01, Tinos Island 842 01","categoryIds":["coffee-brunch"],"categories":["Coffee & Brunch Spots"],"distanceKm":3.543647379119855},{"id":"greekRestaurants_854af5844b5d","slug":"athmar-854a","kind":"restaurant","name":"Αθμάρ","lat":37.639145778049105,"lng":25.04198852214129,"url":"https://maps.app.goo.gl/89sj6fRtcg34nfx16?g_st=ipc","address":"Τήνου, Πύργος 842 01","categoryIds":["greek-restaurants"],"categories":["Greek Restaurants"],"distanceKm":5.611732910394483},{"id":"dessertsRestaurants_757fe603b972","slug":"to-kentrikon-757f","kind":"restaurant","name":"Το Κεντρικόν","lat":37.63921354793122,"lng":25.04200584233484,"url":"https://maps.app.goo.gl/MoMdkmCiYwwuTbUi7?g_st=ipc","address":"Unnamed Road, Πύργος 842 01","categoryIds":["desserts"],"categories":["Dessert Shops"],"distanceKm":5.61783266402048},{"id":"greekRestaurants_f1c703fa9088","slug":"sima-f1c7","kind":"restaurant","name":"Sima","lat":37.640391826641014,"lng":25.040013069732986,"url":"https://maps.app.goo.gl/3px2jqkoAcSm4AFa7?g_st=ipc","address":"Πύργος 842 01","categoryIds":["greek-restaurants"],"categories":["Greek Restaurants"],"distanceKm":5.813433863416911}],"sameRegion":[],"mentionedGuides":[],"canonicalSlug":"o-ntinos-1d03","isCanonicalEntity":true,"enrichment":{"summary_en":"O Ntinos is a curated restaurant in Kardiani 842 01 in the Luxury Dining collection. It is connected to 0 nearby Googlementor picks to help travelers build a stronger local route.","summary_el":"O Ntinos είναι ένα επιλεγμένο σημείο φαγητού στην περιοχή Kardiani 842 01 και ανήκει στη συλλογή Luxury Dining. Συνδέεται με 0 κοντινές προτάσεις του Googlementor για πιο ολοκληρωμένη εμπειρία.","vibe_tags":["curated","premium-dining"],"best_for":["first-time visitors","food lovers","special occasions"],"visit_moments":["lunch stop","dinner stop"],"practical_note":"Address and direct map link are available for easy turn-by-turn access.","nearby_walkable_count":0,"nearby_count_2km":0,"confidence":0.9}},"__N_SSG":true}