{"pageProps":{"entity":{"id":"cheapEatsRestaurants_a367fef323c7","slug":"oi-rosides-soyvlaki-piroski-a367","kind":"restaurant","name":"Οι ρωσίδες Σουβλάκι-Πιροσκί","lat":37.95374548604023,"lng":23.701395628014694,"url":"https://maps.app.goo.gl/Ebo7K4NsszKopesC7?g_st=ipc","address":"Αναγνωσταρά 16, Καλλιθέα 176 73","categoryIds":["cheap-eats"],"categories":["Gyros & Cheap Eats"]},"sameCategory":[{"id":"cheapEatsRestaurants_d3888472f0b3","slug":"crepa-holic-kallithea-d388","kind":"restaurant","name":"Crepa Holic Kallithea","lat":37.95367992559356,"lng":23.699030666898533,"url":"https://maps.app.goo.gl/bLUgt75SSMUYsoXCA?g_st=ipc","address":"Λεωφ. Ελ. Βενιζέλου 185, Καλλιθέα 176 73","categoryIds":["cheap-eats"],"categories":["Gyros & Cheap Eats"]},{"id":"cheapEatsRestaurants_59ab2f655733","slug":"rosiko-pantopoleio-astana-59ab","kind":"restaurant","name":"Ρώσικο παντοπωλείο «Αστάνα»","lat":37.94852960059528,"lng":23.699447152301282,"url":"https://maps.app.goo.gl/Wayix2624vmNqYTT7?g_st=ipc","address":"Δημοσθένους 207, Καλλιθέα 176 73","categoryIds":["cheap-eats"],"categories":["Gyros & Cheap Eats"]},{"id":"cheapEatsRestaurants_94dff4f67b62","slug":"to-soyvlaki-tis-charokopoy-94df","kind":"restaurant","name":"Το Σουβλάκι Της Χαροκόπου","lat":37.95770921844376,"lng":23.710571236714188,"url":"https://maps.app.goo.gl/Rh99dawd3iLza1Vz7?g_st=ipc","address":"Χαροκόπου 46, Καλλιθέα 176 71","categoryIds":["cheap-eats"],"categories":["Gyros & Cheap Eats"]},{"id":"cheapEatsRestaurants_4c857b269660","slug":"soyvlakia-kalamakia-panostimo-4c85","kind":"restaurant","name":"Σουβλακια καλαμάκια πανοστιμο","lat":37.95437724216138,"lng":23.71201791711626,"url":"https://maps.app.goo.gl/wSd2i93DKt8GM9aEA?g_st=ipc","address":"Δοϊράνης 35, Καλλιθέα 176 72","categoryIds":["cheap-eats"],"categories":["Gyros & Cheap Eats"]},{"id":"cheapEatsRestaurants_fb98feb8ab24","slug":"soyvlakia-o-leyteris-fb98","kind":"restaurant","name":"Σουβλάκια ο Λευτέρης","lat":37.947152588163014,"lng":23.712051232496496,"url":"https://maps.app.goo.gl/MTQDk9is4pkL1vPt9?g_st=ipc","address":"Ειρήνης 2, Νέα Σμύρνη 171 21","categoryIds":["cheap-eats"],"categories":["Gyros & Cheap Eats"]},{"id":"cheapEatsRestaurants_5a582036089f","slug":"soyvlakia-o-leyteris-5a58","kind":"restaurant","name":"Σουβλάκια Ο Λευτέρης","lat":37.9462875556964,"lng":23.690611255358668,"url":"https://maps.app.goo.gl/ZYkxvzMHun71tMk86?g_st=ipc","address":"Ξενοφώντος 146, Καλλιθέα 176 74","categoryIds":["cheap-eats"],"categories":["Gyros & Cheap Eats"]},{"id":"cheapEatsRestaurants_2631e9cf6c33","slug":"andreas-2631","kind":"restaurant","name":"Ανδρέας","lat":37.96513210122869,"lng":23.697946357808643,"url":"https://maps.app.goo.gl/FLdq6c6WUqhHtMqK9?g_st=ipc","address":"Χρυσοστόμου Σμύρνης 52, Ταύρος Αττικής 177 78","categoryIds":["cheap-eats"],"categories":["Gyros & Cheap Eats"]},{"id":"cheapEatsRestaurants_7f509ca8a241","slug":"doner-tzortz-7f50","kind":"restaurant","name":"DONER.TZORTZ","lat":37.95300238294556,"lng":23.716665931248773,"url":"https://maps.app.goo.gl/otFTTi2nsTTPYaYKA?g_st=ipc","address":"Βιζυηνού 2, Νέα Σμύρνη 171 21","categoryIds":["cheap-eats"],"categories":["Gyros & Cheap Eats"]}],"nearby":[{"id":"cheapEatsRestaurants_d3888472f0b3","slug":"crepa-holic-kallithea-d388","kind":"restaurant","name":"Crepa Holic Kallithea","lat":37.95367992559356,"lng":23.699030666898533,"url":"https://maps.app.goo.gl/bLUgt75SSMUYsoXCA?g_st=ipc","address":"Λεωφ. Ελ. Βενιζέλου 185, Καλλιθέα 176 73","categoryIds":["cheap-eats"],"categories":["Gyros & Cheap Eats"],"distanceKm":0.20748334458898415},{"id":"coffeeBrunchRestaurants_897460bbed61","slug":"sovolos-zacharoplasteio-foyrnos-8974","kind":"restaurant","name":"Sovolos - Ζαχαροπλαστείο - Φούρνος","lat":37.95381653096959,"lng":23.704528203629867,"url":"https://maps.app.goo.gl/wLU7EVqzFWR8dPoq6?g_st=ipc","address":"Συνταγματάρχου Δαβάκη 52, Καλλιθέα 176 72","categoryIds":["coffee-brunch"],"categories":["Coffee & Brunch Spots"],"distanceKm":0.2747715287923813},{"id":"dessertsRestaurants_6903e2ef4276","slug":"la-maison-fine-pastry-6903","kind":"restaurant","name":"La Maison - Fine Pastry","lat":37.951479018771344,"lng":23.703684961330683,"url":"https://maps.app.goo.gl/Hwbaz4KzQVAzGaRA8?g_st=ipc","address":"Δημοσθένους 149, Καλλιθέα 176 73","categoryIds":["desserts"],"categories":["Dessert Shops"],"distanceKm":0.3221884177940342},{"id":"coffeeBrunchRestaurants_2d5ab042fd9b","slug":"acera-the-brunch-project-2d5a","kind":"restaurant","name":"Acera The Brunch Project","lat":37.95687155697196,"lng":23.702731169430688,"url":"https://maps.app.goo.gl/evNfcdJQ34R2FXQR8?g_st=ipc","address":"Μαντζαγριωτάκη 105, Καλλιθέα 176 76","categoryIds":["coffee-brunch"],"categories":["Coffee & Brunch Spots"],"distanceKm":0.36679596454642616},{"id":"coffeeBrunchRestaurants_bcfaf36dacbe","slug":"tyropites-o-mitsos-bcfa","kind":"restaurant","name":"Τυρόπιτες ο Μήτσος","lat":37.95255129753746,"lng":23.705922909041465,"url":"https://maps.app.goo.gl/SR156bdeLaJYk1WY6?g_st=ipc","address":"Συνταγματάρχου Δαβάκη 32A, Καλλιθέα 176 72","categoryIds":["coffee-brunch"],"categories":["Coffee & Brunch Spots"],"distanceKm":0.41856775453213574},{"id":"municipalities_ddfd3c80db9c","slug":"kallithea-ddfd","kind":"municipality","name":"Καλλιθέα","lat":37.9503,"lng":23.6985,"aliases":["Kallithea","Kalithea","Καλλιθεα"],"region":"Νότια Προάστια","name_en":"Kallithea","region_en":"Southern Suburbs","distanceKm":0.45960957105299427},{"id":"dessertsRestaurants_aa7ff0f772d7","slug":"galaktopoleio-stamoy-aa7f","kind":"restaurant","name":"Γαλακτοπωλείο ΣΤΑΜΟΥ","lat":37.952436676546995,"lng":23.695715045897042,"url":"https://maps.app.goo.gl/rD5jojpe8yMT5k159?g_st=ipc","address":"Λεωφ. Ελ. Βενιζέλου 210, Καλλιθέα 176 75","categoryIds":["desserts"],"categories":["Dessert Shops"],"distanceKm":0.5188933432645867},{"id":"cheapEatsRestaurants_59ab2f655733","slug":"rosiko-pantopoleio-astana-59ab","kind":"restaurant","name":"Ρώσικο παντοπωλείο «Αστάνα»","lat":37.94852960059528,"lng":23.699447152301282,"url":"https://maps.app.goo.gl/Wayix2624vmNqYTT7?g_st=ipc","address":"Δημοσθένους 207, Καλλιθέα 176 73","categoryIds":["cheap-eats"],"categories":["Gyros & Cheap Eats"],"distanceKm":0.6046194446433215}],"sameRegion":[],"mentionedGuides":[],"canonicalSlug":"oi-rosides-soyvlaki-piroski-a367","isCanonicalEntity":true,"enrichment":{"summary_en":"Οι ρωσίδες Σουβλάκι-Πιροσκί is a curated restaurant in Καλλιθέα 176 73 in the Gyros & Cheap Eats collection. It is connected to 12 nearby Googlementor picks to help travelers build a stronger local route.","summary_el":"Οι ρωσίδες Σουβλάκι-Πιροσκί είναι ένα επιλεγμένο σημείο φαγητού στην περιοχή Καλλιθέα 176 73 και ανήκει στη συλλογή Gyros & Cheap Eats. Συνδέεται με 12 κοντινές προτάσεις του Googlementor για πιο ολοκληρωμένη εμπειρία.","vibe_tags":["curated","budget-friendly"],"best_for":["first-time visitors","food lovers","budget travelers"],"visit_moments":["lunch stop","dinner stop"],"practical_note":"Address and direct map link are available for easy turn-by-turn access.","nearby_walkable_count":12,"nearby_count_2km":88,"confidence":0.98}},"__N_SSG":true}