{"pageProps":{"entity":{"id":"coffeeBrunchRestaurants_395eba0202c2","slug":"orange-395e","kind":"restaurant","name":"Orange","lat":40.61657039911688,"lng":22.959405836121938,"url":"https://maps.app.goo.gl/GeBX3Ci17XiZV9go6?g_st=ipc","address":"Konstantinoupoleos 21, Thessaloniki 546 40","categoryIds":["coffee-brunch"],"categories":["Coffee & Brunch Spots"]},"sameCategory":[{"id":"coffeeBrunchRestaurants_3f47d83b09c0","slug":"butterflies-and-hurricanes-3f47","kind":"restaurant","name":"Butterflies And Hurricanes","lat":40.61464844201882,"lng":22.960841697890658,"url":"https://maps.app.goo.gl/Gesp19RwCPBWQ9s58?g_st=ipc","address":"Pindarou 1, Thessaloniki 546 39","categoryIds":["coffee-brunch","vegetarian"],"categories":["Coffee & Brunch Spots","Vegetarian Friendly Restaurants"],"legacySlugs":["butterflies-and-hurricanes-37b6"]},{"id":"coffeeBrunchRestaurants_4980bf5534c8","slug":"avenue-modern-cuisine-4980","kind":"restaurant","name":"AVENUE - Modern Cuisine","lat":40.6155426258885,"lng":22.952060123633387,"url":"https://maps.app.goo.gl/sbWsHkcndnd2Zv547?g_st=ipc","address":"Leof. Meg. Alexandrou 6, Thessaloniki 546 41","categoryIds":["coffee-brunch"],"categories":["Coffee & Brunch Spots"]},{"id":"coffeeBrunchRestaurants_f80aae297d57","slug":"the-coffee-rawsters-f80a","kind":"restaurant","name":"The Coffee Rawsters","lat":40.605074813300206,"lng":22.958339804305506,"url":"https://maps.app.goo.gl/6bHEuH2VrUaoPjxN6?g_st=ipc","address":"Delfon 117, Thessaloniki 546 44","categoryIds":["coffee-brunch"],"categories":["Coffee & Brunch Spots"]},{"id":"burgersRestaurants_83b3a5ac6b77","slug":"parco-83b3","kind":"restaurant","name":"Parco","lat":40.62746957872299,"lng":22.95260526619064,"url":"https://maps.app.goo.gl/XvoKi6u2LSYH1F6o7?g_st=ipc","address":"D' Esperey 1, Thessaloniki 546 21","categoryIds":["burgers","coffee-brunch"],"categories":["Burger Spots","Coffee & Brunch Spots"],"legacySlugs":["parco-b30e"]},{"id":"coffeeBrunchRestaurants_b83fc8a35279","slug":"byrek-b83f","kind":"restaurant","name":"Byrek","lat":40.604437611308434,"lng":22.958000236614392,"url":"https://maps.app.goo.gl/hxd33pfTMwrTNJ6K6?g_st=ic","address":"Petrou Sindika 46, Thessaloniki 542 48","categoryIds":["coffee-brunch"],"categories":["Coffee & Brunch Spots"]},{"id":"coffeeBrunchRestaurants_535d5a114e1a","slug":"titania-535d","kind":"restaurant","name":"ΤΙΤΑΝΙΑ","lat":40.62745635041655,"lng":22.95172436992036,"url":"https://maps.app.goo.gl/6d8e2D2YLjsqGz9H8?g_st=ipc","address":"Tsimiski 139, Thessaloniki 546 21","categoryIds":["coffee-brunch"],"categories":["Coffee & Brunch Spots"]},{"id":"coffeeBrunchRestaurants_553ce2fa7675","slug":"plateia-theatroy-kafe-mpar-estiatorio-553c","kind":"restaurant","name":"Πλατεία Θεάτρου, Καφέ / Μπαρ/Εστιατόριο","lat":40.62692292313497,"lng":22.94981349501023,"url":"https://maps.app.goo.gl/bFpP1KB6naw1VbYr7?g_st=ipc","address":"Eth. Aminis 4, Thessaloniki 546 21","categoryIds":["coffee-brunch"],"categories":["Coffee & Brunch Spots"]},{"id":"cheapEatsRestaurants_360afa6ead29","slug":"salu-deli-bar-360a","kind":"restaurant","name":"Salu Deli Bar","lat":40.62815289802217,"lng":22.952006929781376,"url":"https://maps.app.goo.gl/Mew4X3m69PgK4Y2TA?g_st=ipc","address":"Manousagiannaki 20, Thessaloniki 546 21","categoryIds":["cheap-eats","coffee-brunch"],"categories":["Gyros & Cheap Eats","Coffee & Brunch Spots"],"legacySlugs":["salu-deli-bar-e516"]}],"nearby":[{"id":"cheapEatsRestaurants_fccedeec0967","slug":"to-myrmigki-hot-dog-vrasta-loykanika-fcce","kind":"restaurant","name":"Το Μυρμήγκι - HOT-DOG - Βραστά Λουκάνικα","lat":40.61789526919397,"lng":22.95852389027651,"url":"https://maps.app.goo.gl/u5NXam3TJPXTBEGQ6?g_st=ipc","address":"Konstantinoupoleos 8, Thessaloniki 546 40","categoryIds":["cheap-eats"],"categories":["Gyros & Cheap Eats"],"distanceKm":0.16505845190609103},{"id":"municipalities_6e0a80514433","slug":"kaytanzogleio-periochi-6e0a","kind":"municipality","name":"Καυτανζόγλειο περιοχή","lat":40.6157,"lng":22.9613,"region":"Θεσσαλονίκη","name_en":"Kaftanzoglio Area","region_en":"Thessaloniki","distanceKm":0.1868925123537374},{"id":"greekRestaurants_e19673ba852f","slug":"pire-kai-vradiazei-e196","kind":"restaurant","name":"Πήρε και Βραδιάζει","lat":40.6161654625719,"lng":22.96166588679185,"url":"https://maps.app.goo.gl/Y7iaetGgvQnRv1wAA?g_st=ipc","address":"Ομήρου 7, Θεσσαλονίκη 546 39","categoryIds":["greek-restaurants"],"categories":["Greek Restaurants"],"distanceKm":0.19600479590349282},{"id":"coffeeBrunchRestaurants_3f47d83b09c0","slug":"butterflies-and-hurricanes-3f47","kind":"restaurant","name":"Butterflies And Hurricanes","lat":40.61464844201882,"lng":22.960841697890658,"url":"https://maps.app.goo.gl/Gesp19RwCPBWQ9s58?g_st=ipc","address":"Pindarou 1, Thessaloniki 546 39","categoryIds":["coffee-brunch","vegetarian"],"categories":["Coffee & Brunch Spots","Vegetarian Friendly Restaurants"],"legacySlugs":["butterflies-and-hurricanes-37b6"],"distanceKm":0.2456859107852619},{"id":"cheapEatsRestaurants_26918358a6af","slug":"pizza-sakis-2691","kind":"restaurant","name":"Pizza Sakis","lat":40.6189040866906,"lng":22.958041870578818,"url":"https://maps.app.goo.gl/taG7ENcMfbyzazQX7?g_st=ipc","address":"Leof. Stratou 26, Thessaloniki 546 40","categoryIds":["cheap-eats"],"categories":["Gyros & Cheap Eats"],"distanceKm":0.28388561491773984},{"id":"cheapEatsRestaurants_c679cc68cdf8","slug":"tost-spesial-c679","kind":"restaurant","name":"Tost Spesial","lat":40.616314670176166,"lng":22.955059124656405,"url":"https://maps.app.goo.gl/9AT6QmGaM1pLwsRb9?g_st=ipc","address":"Paraskevopoulou 12, Thessaloniki 546 40","categoryIds":["cheap-eats"],"categories":["Gyros & Cheap Eats"],"distanceKm":0.3679903430333761},{"id":"dessertsRestaurants_820e5a62f3a9","slug":"babalooka-to-aythentiko-galaktompoyreko-thessalonikis-820e","kind":"restaurant","name":"Babalooka-Το Αυθεντικό Γαλακτομπούρεκο Θεσσαλονίκης","lat":40.62123778051854,"lng":22.962627985179793,"url":"https://maps.app.goo.gl/tnzvbcbCY13DjRZe7?g_st=ipc","address":"Δίπλα στη στροφή Λαμπράκη, Leof. Kon/nou Karamanli 15, Thessaloniki 546 38","categoryIds":["desserts"],"categories":["Dessert Shops"],"distanceKm":0.5859282028997865},{"id":"familyFriendly_220ccb0fa158","slug":"road-safety-park-220c","kind":"restaurant","name":"Road Safety Park","lat":40.61702068861312,"lng":22.952313879309372,"url":"https://maps.app.goo.gl/dvUGTVktdMviyjRy9?g_st=ic","address":"Leof. Meg. Alexandrou 6, Thessaloniki 546 41","categoryIds":["family-friendly"],"categories":["Kid Friendly Locations"],"distanceKm":0.6006933962933578}],"sameRegion":[],"mentionedGuides":[{"slug":"athens-hop-on-hop-off-guide","title":"Ultimate Guide to Athens Hop-On-Hop-Off Bus Tours"}],"canonicalSlug":"orange-395e","isCanonicalEntity":true,"enrichment":{"summary_en":"Orange is a curated restaurant in Thessaloniki 546 40 in the Coffee & Brunch Spots collection. It is connected to 20 nearby Googlementor picks to help travelers build a stronger local route.","summary_el":"Orange είναι ένα επιλεγμένο σημείο φαγητού στην περιοχή Thessaloniki 546 40 και ανήκει στη συλλογή Coffee & Brunch Spots. Συνδέεται με 20 κοντινές προτάσεις του Googlementor για πιο ολοκληρωμένη εμπειρία.","vibe_tags":["curated","daytime-favorite"],"best_for":["first-time visitors","food lovers"],"visit_moments":["early morning","late brunch"],"practical_note":"Address and direct map link are available for easy turn-by-turn access.","nearby_walkable_count":20,"nearby_count_2km":165,"confidence":0.98}},"__N_SSG":true}