{"pageProps":{"entity":{"id":"luxuryDiningRestaurants_5ce4a2badf9b","slug":"pelagos-5ce4","kind":"restaurant","name":"Pelagos","lat":37.805275140067316,"lng":23.77164308843121,"url":"https://maps.app.goo.gl/QTPENP7kfSJRAMQTA?g_st=ipc","address":"Απόλλωνος 40, Βουλιαγμένη 166 71","categoryIds":["luxury-dining"],"categories":["Luxury Dining"]},"sameCategory":[{"id":"luxuryDiningRestaurants_6dc5534d9406","slug":"taverna-37-6dc5","kind":"restaurant","name":"Taverna 37","lat":37.80595380281949,"lng":23.772585533663307,"url":"https://maps.app.goo.gl/xaizfkEuwTxWbciw7?g_st=ipc","address":"Απόλλωνος 40, Βουλιαγμένη 166 71","categoryIds":["luxury-dining"],"categories":["Luxury Dining"]},{"id":"luxuryDiningRestaurants_574534b0d822","slug":"beefbar-athens-5745","kind":"restaurant","name":"Beefbar Athens","lat":37.80501795981881,"lng":23.770115727453245,"url":"https://maps.app.goo.gl/xvud7RHhQEFXiChq5?g_st=ipc","address":"Athens Αστήρ Πάλας, Βουλιαγμένη 166 71","categoryIds":["luxury-dining"],"categories":["Luxury Dining"]},{"id":"fishTavernasRestaurants_a752a7fe8192","slug":"matsuhisa-athens-a752","kind":"restaurant","name":"Matsuhisa Athens","lat":37.806991167366505,"lng":23.7721702530857,"url":"https://maps.app.goo.gl/kX1Hohg5k4FcqjgeA?g_st=ipc","address":"40, Απόλλωνος street, Βουλιαγμένη 166 71","categoryIds":["fish-tavernas","luxury-dining"],"categories":["Fish Tavernas","Luxury Dining"],"legacySlugs":["matsuhisa-athens-c10d"]},{"id":"italianRestaurants_26670e11b304","slug":"mercato-2667","kind":"restaurant","name":"Mercato","lat":37.804876583131545,"lng":23.768732488679262,"url":"https://maps.app.goo.gl/WygPaRiVJpzqrZBi8","address":"Apollonos 40, Vouliagmeni 166 71","categoryIds":["italian","luxury-dining"],"categories":["Italian Restaurants","Luxury Dining"],"legacySlugs":["mercato-ae1b"]},{"id":"coffeeBrunchRestaurants_8b66a0a4f338","slug":"moorings-8b66","kind":"restaurant","name":"Moorings","lat":37.80205351483022,"lng":23.772631066760855,"url":"https://maps.app.goo.gl/YdREkVBev1UQTkqh6?g_st=ipc","address":"Μαρινα Βουλιαγμενης, Βουλιαγμένη 166 71","categoryIds":["coffee-brunch","luxury-dining"],"categories":["Coffee & Brunch Spots","Luxury Dining"],"legacySlugs":["moorings-e85b"]},{"id":"luxuryDiningRestaurants_cf5e588a6dce","slug":"estiatorio-ithaki-cf5e","kind":"restaurant","name":"Εστιατόριο Ιθάκη","lat":37.811063360560766,"lng":23.773264732265726,"url":"https://maps.app.goo.gl/bgcHWrkEN1tinWgK8?g_st=ipc","address":"Apollonos, Αθήνας 28, Βουλιαγμένη 166 71","categoryIds":["luxury-dining"],"categories":["Luxury Dining"]},{"id":"luxuryDiningRestaurants_08bbcc5a4dd6","slug":"labros-restaurant-08bb","kind":"restaurant","name":"Labros Restaurant","lat":37.8081975831625,"lng":23.78348018457994,"url":"https://maps.app.goo.gl/H6wg8L7hEhDJU9C38?g_st=ipc","address":"Λεωφ. Ποσειδώνος 20, Βουλιαγμένη 166 71","categoryIds":["luxury-dining"],"categories":["Luxury Dining"]},{"id":"luxuryDiningRestaurants_42ea23e17e35","slug":"abraovata-42ea","kind":"restaurant","name":"abraOvata","lat":37.806852023213075,"lng":23.785311811319485,"url":"https://maps.app.goo.gl/XBCeyEooo1BQ3GPW6?g_st=ipc","address":"Εστιατόριο Λίμνης, Αθήνα 166 71","categoryIds":["luxury-dining"],"categories":["Luxury Dining"]}],"nearby":[{"id":"luxuryDiningRestaurants_6dc5534d9406","slug":"taverna-37-6dc5","kind":"restaurant","name":"Taverna 37","lat":37.80595380281949,"lng":23.772585533663307,"url":"https://maps.app.goo.gl/xaizfkEuwTxWbciw7?g_st=ipc","address":"Απόλλωνος 40, Βουλιαγμένη 166 71","categoryIds":["luxury-dining"],"categories":["Luxury Dining"],"distanceKm":0.11202820647484599},{"id":"luxuryDiningRestaurants_574534b0d822","slug":"beefbar-athens-5745","kind":"restaurant","name":"Beefbar Athens","lat":37.80501795981881,"lng":23.770115727453245,"url":"https://maps.app.goo.gl/xvud7RHhQEFXiChq5?g_st=ipc","address":"Athens Αστήρ Πάλας, Βουλιαγμένη 166 71","categoryIds":["luxury-dining"],"categories":["Luxury Dining"],"distanceKm":0.13719986442291532},{"id":"fishTavernasRestaurants_a752a7fe8192","slug":"matsuhisa-athens-a752","kind":"restaurant","name":"Matsuhisa Athens","lat":37.806991167366505,"lng":23.7721702530857,"url":"https://maps.app.goo.gl/kX1Hohg5k4FcqjgeA?g_st=ipc","address":"40, Απόλλωνος street, Βουλιαγμένη 166 71","categoryIds":["fish-tavernas","luxury-dining"],"categories":["Fish Tavernas","Luxury Dining"],"legacySlugs":["matsuhisa-athens-c10d"],"distanceKm":0.1963536154104297},{"id":"italianRestaurants_26670e11b304","slug":"mercato-2667","kind":"restaurant","name":"Mercato","lat":37.804876583131545,"lng":23.768732488679262,"url":"https://maps.app.goo.gl/WygPaRiVJpzqrZBi8","address":"Apollonos 40, Vouliagmeni 166 71","categoryIds":["italian","luxury-dining"],"categories":["Italian Restaurants","Luxury Dining"],"legacySlugs":["mercato-ae1b"],"distanceKm":0.2595232332472314},{"id":"coffeeBrunchRestaurants_8b66a0a4f338","slug":"moorings-8b66","kind":"restaurant","name":"Moorings","lat":37.80205351483022,"lng":23.772631066760855,"url":"https://maps.app.goo.gl/YdREkVBev1UQTkqh6?g_st=ipc","address":"Μαρινα Βουλιαγμενης, Βουλιαγμένη 166 71","categoryIds":["coffee-brunch","luxury-dining"],"categories":["Coffee & Brunch Spots","Luxury Dining"],"legacySlugs":["moorings-e85b"],"distanceKm":0.3685945363921127},{"id":"luxuryDiningRestaurants_cf5e588a6dce","slug":"estiatorio-ithaki-cf5e","kind":"restaurant","name":"Εστιατόριο Ιθάκη","lat":37.811063360560766,"lng":23.773264732265726,"url":"https://maps.app.goo.gl/bgcHWrkEN1tinWgK8?g_st=ipc","address":"Apollonos, Αθήνας 28, Βουλιαγμένη 166 71","categoryIds":["luxury-dining"],"categories":["Luxury Dining"],"distanceKm":0.6591992304404821},{"id":"fishTavernasRestaurants_f4426065c5a4","slug":"sardelaki-me-thea-f442","kind":"restaurant","name":"Σαρδελάκι με θέα","lat":37.80897457022261,"lng":23.782330412997638,"url":"https://maps.app.goo.gl/6zBxpoBupuA67wwt8?g_st=ipc","address":"Λεωφ. Ποσειδώνος 18, Βουλιαγμένη 166 71","categoryIds":["fish-tavernas"],"categories":["Fish Tavernas"],"distanceKm":1.0250702139568706},{"id":"municipalities_e38c35bbed55","slug":"voyliagmeni-e38c","kind":"municipality","name":"Βουλιαγμένη","lat":37.8095,"lng":23.7821,"region":"Νότια Προάστια","name_en":"Vouliagmeni","region_en":"Southern Suburbs","distanceKm":1.0318148134130558}],"sameRegion":[],"mentionedGuides":[{"slug":"athens-day-trips-guide-el","title":"Καλύτερες Ημερήσιες Εκδρομές από την Αθήνα"}],"canonicalSlug":"pelagos-5ce4","isCanonicalEntity":true,"enrichment":{"summary_en":"Pelagos is a curated restaurant in Βουλιαγμένη 166 71 in the Luxury Dining collection. It is connected to 6 nearby Googlementor picks to help travelers build a stronger local route.","summary_el":"Pelagos είναι ένα επιλεγμένο σημείο φαγητού στην περιοχή Βουλιαγμένη 166 71 και ανήκει στη συλλογή Luxury Dining. Συνδέεται με 6 κοντινές προτάσεις του Googlementor για πιο ολοκληρωμένη εμπειρία.","vibe_tags":["curated","premium-dining"],"best_for":["first-time visitors","food lovers","special occasions"],"visit_moments":["lunch stop","dinner stop"],"practical_note":"Address and direct map link are available for easy turn-by-turn access.","nearby_walkable_count":6,"nearby_count_2km":16,"confidence":0.98}},"__N_SSG":true}