{"pageProps":{"entity":{"id":"familyFriendly_9a0302902146","slug":"perivallontiko-parko-thermis-9a03","kind":"restaurant","name":"Περιβαλλοντικό Πάρκο Θέρμης","lat":40.56073866312424,"lng":23.034167329764607,"url":"https://maps.app.goo.gl/RnpfKj2r4pesLq5V8?g_st=ipc","address":"Περιβαλλοντικό Πάρκο, Thermi 570 01","categoryIds":["family-friendly"],"categories":["Kid Friendly Locations"]},"sameCategory":[{"id":"familyFriendly_6d59a3955a06","slug":"thermi-dam-6d59","kind":"restaurant","name":"Thermi Dam","lat":40.55889714492611,"lng":23.035634918395665,"url":"https://maps.app.goo.gl/WB5r5nzJStMwqtSV8?g_st=ipc","address":"Γεφυρα Φράγματος Θέρμης, Thermi 570 01","categoryIds":["family-friendly"],"categories":["Kid Friendly Locations"]},{"id":"familyFriendly_42d11ef19ff8","slug":"cloud-22-family-room-42d1","kind":"restaurant","name":"Cloud 22 Family Room","lat":40.54922868058373,"lng":23.01923766208044,"url":"https://maps.app.goo.gl/Pz6v5LnzAbK4gQGx6?g_st=ic","address":"Tavaki 17, Thermi 570 01","categoryIds":["family-friendly"],"categories":["Kid Friendly Locations"]},{"id":"familyFriendly_9807fa41d38f","slug":"lemures-family-lifestyle-play-hub-9807","kind":"restaurant","name":"Lemures Family Lifestyle & Play Hub","lat":40.54355927563734,"lng":23.019251786146132,"url":"https://maps.app.goo.gl/Cv1bZomhT5nP8ZDp6?g_st=ic","address":"Vasilikis Tavaki 6, Thermi 570 01","categoryIds":["family-friendly"],"categories":["Kid Friendly Locations"]},{"id":"familyFriendly_5db5a10042ec","slug":"les-raquettes-tennis-club-5db5","kind":"restaurant","name":"Les Raquettes Tennis Club","lat":40.55611851243244,"lng":23.00759531084474,"url":"https://maps.app.goo.gl/Uz7ZprsZow6RFsYs7?g_st=ipc","address":"Σοφοκλέους, Thermi 570 01","categoryIds":["family-friendly"],"categories":["Kid Friendly Locations"]},{"id":"familyFriendly_b51fd1ec3681","slug":"noesis-science-center-technology-museum-b51f","kind":"restaurant","name":"NOESIS Science Center & Technology Museum","lat":40.562055011158115,"lng":22.995596178260882,"url":"https://maps.app.goo.gl/r83VD4fLTaPtYU7R6?g_st=ipc","address":"Θεσσαλονίκης 6 χλμ, Thermi 570 01","categoryIds":["family-friendly"],"categories":["Kid Friendly Locations"]},{"id":"familyFriendly_27bf58d1aae3","slug":"mediterranean-cosmos-27bf","kind":"restaurant","name":"Mediterranean Cosmos","lat":40.555729354394046,"lng":22.993377329551482,"url":"https://maps.app.goo.gl/hyNCGfBFcBtGJn7q9?g_st=ipc","address":"11ο χλμ εθνικής οδού, A/D Thessalonikis Neon Moudanion, Thessaloniki 570 01","categoryIds":["family-friendly"],"categories":["Kid Friendly Locations"]},{"id":"familyFriendly_be918ccf9323","slug":"adventure-paintball-be91","kind":"restaurant","name":"Adventure Paintball","lat":40.54700993224624,"lng":22.99671406411148,"url":"https://maps.app.goo.gl/7H5QaUvgacWdSVGR6?g_st=ic","address":"A/D Thessalonikis Neon Moudanion, Thermi 570 01","categoryIds":["family-friendly"],"categories":["Kid Friendly Locations"]},{"id":"familyFriendly_5fc832b90305","slug":"partyland-pylaia-playground-restaurant-events-5fc8","kind":"restaurant","name":"PARTYLAND ΠΥΛΑΙΑ | PLAYGROUND | RESTAURANT | EVENTS","lat":40.57242727995374,"lng":22.992912588988382,"url":"https://maps.app.goo.gl/hq2iSCHB7jfquAbeA?g_st=ic","address":"St.Kazantzidi 49, Pilea 555 36","categoryIds":["family-friendly"],"categories":["Kid Friendly Locations"]}],"nearby":[{"id":"luxuryDiningRestaurants_2d2c5322c1ce","slug":"uma-chefs-home-experience-2d2c","kind":"restaurant","name":"UMA chefs home experience","lat":40.560444872075784,"lng":23.032058735745576,"url":"https://maps.app.goo.gl/RiQip9TNX7v886747?g_st=ipc","address":"Ελευθερίας, Πανόραμα - Θέρμη, Τ.Θ.Δ3026, Thessaloniki 570 01","categoryIds":["luxury-dining"],"categories":["Luxury Dining"],"distanceKm":0.18109826301380502},{"id":"familyFriendly_6d59a3955a06","slug":"thermi-dam-6d59","kind":"restaurant","name":"Thermi Dam","lat":40.55889714492611,"lng":23.035634918395665,"url":"https://maps.app.goo.gl/WB5r5nzJStMwqtSV8?g_st=ipc","address":"Γεφυρα Φράγματος Θέρμης, Thermi 570 01","categoryIds":["family-friendly"],"categories":["Kid Friendly Locations"],"distanceKm":0.23937511480470441},{"id":"coffeeBrunchRestaurants_b47f6bd0d6ab","slug":"bahamas-urban-brunch-bar-b47f","kind":"restaurant","name":"Bahamas Urban |Brunch| Bar","lat":40.55455255928708,"lng":23.018985570943435,"url":"https://maps.app.goo.gl/MseUiktgczouvbdp7?g_st=ipc","address":"Thermis-Panoramatos Rd 7, Thermi 570 01","categoryIds":["coffee-brunch"],"categories":["Coffee & Brunch Spots"],"distanceKm":1.4553783451114939},{"id":"municipalities_6dbfac056088","slug":"thermi-6dbf","kind":"municipality","name":"Θέρμη","lat":40.5467,"lng":23.0289,"region":"Ανατολική Θεσσαλονίκη","name_en":"Thermi","region_en":"East Thessaloniki","distanceKm":1.6232207268920762},{"id":"dessertsRestaurants_96b542039411","slug":"trigona-panoramatos-drossa-proin-giannis-96b5","kind":"restaurant","name":"Τρίγωνα Πανοράματος Δροσσά (πρώην Γιάννης)","lat":40.549930484948774,"lng":23.019231796608217,"url":"https://maps.app.goo.gl/iU3xLN5pQr3ggcxF9?g_st=ipc","address":"Tavaki 24, Thermi 570 01","categoryIds":["desserts"],"categories":["Dessert Shops"],"distanceKm":1.7425593359636835},{"id":"familyFriendly_42d11ef19ff8","slug":"cloud-22-family-room-42d1","kind":"restaurant","name":"Cloud 22 Family Room","lat":40.54922868058373,"lng":23.01923766208044,"url":"https://maps.app.goo.gl/Pz6v5LnzAbK4gQGx6?g_st=ic","address":"Tavaki 17, Thermi 570 01","categoryIds":["family-friendly"],"categories":["Kid Friendly Locations"],"distanceKm":1.7969255460745934},{"id":"burgersRestaurants_21be773739d0","slug":"brothers-in-law-smash-n-pasta-thermi-21be","kind":"restaurant","name":"Brothers in Law Smash 'n' Pasta Thermi","lat":40.5561230976469,"lng":23.012690012150046,"url":"https://maps.app.goo.gl/tDetHtpfpgzNvuNC7?g_st=ipc","address":"5 χλμ, Χαρ. Θέρμης 1ο χλμ, Thermi 570 01","categoryIds":["burgers","italian"],"categories":["Burger Spots","Italian Restaurants"],"legacySlugs":["brothers-in-law-smash-n-pasta-thermi-6cb6"],"distanceKm":1.8855853234421671},{"id":"cheapEatsRestaurants_530bf90a8d2b","slug":"lordon-530b","kind":"restaurant","name":"Lordon","lat":40.546997157219394,"lng":23.020384247436283,"url":"https://maps.app.goo.gl/3FBZX7roU6fjgkTS6?g_st=ipc","address":"Πλατεία Παραμάνα 18, Thermi 570 01","categoryIds":["cheap-eats"],"categories":["Gyros & Cheap Eats"],"distanceKm":1.9211266165700553}],"sameRegion":[],"mentionedGuides":[],"canonicalSlug":"perivallontiko-parko-thermis-9a03","isCanonicalEntity":true,"enrichment":{"summary_en":"Περιβαλλοντικό Πάρκο Θέρμης is a curated restaurant in Thermi 570 01 in the Kid Friendly Locations collection. It is connected to 2 nearby Googlementor picks to help travelers build a stronger local route.","summary_el":"Περιβαλλοντικό Πάρκο Θέρμης είναι ένα επιλεγμένο σημείο φαγητού στην περιοχή Thermi 570 01 και ανήκει στη συλλογή Kid Friendly Locations. Συνδέεται με 2 κοντινές προτάσεις του Googlementor για πιο ολοκληρωμένη εμπειρία.","vibe_tags":["curated","family-ready"],"best_for":["first-time visitors","food lovers","families"],"visit_moments":["lunch stop","dinner stop"],"practical_note":"Address and direct map link are available for easy turn-by-turn access.","nearby_walkable_count":2,"nearby_count_2km":10,"confidence":0.9}},"__N_SSG":true}