{"pageProps":{"entity":{"id":"greekRestaurants_2f9a21e4ef01","slug":"pesto-ki-egine-2f9a","kind":"restaurant","name":"Πέστο Κι Έγινε","lat":38.00286560260897,"lng":23.663110435533067,"url":"https://maps.app.goo.gl/xWbZXEXeN5pg16TG9","address":"Στρ. Καραϊσκάκη 17, Χαϊδάρι 124 61","categoryIds":["greek-restaurants"],"categories":["Greek Restaurants"]},"sameCategory":[{"id":"greekRestaurants_741518abaa86","slug":"the-meaters-urban-beer-garden-7415","kind":"restaurant","name":"The Meaters Urban Beer Garden","lat":38.003598614109904,"lng":23.66346778642219,"url":"https://maps.app.goo.gl/zrm7vsMu18rMsZFJA","address":"Στρ. Καραϊσκάκη 25, Χαϊδάρι 124 61","categoryIds":["greek-restaurants"],"categories":["Greek Restaurants"]},{"id":"greekRestaurants_b6bacb590b9a","slug":"to-yiasemi-food-wine-experience-b6ba","kind":"restaurant","name":"To Yiasemi Food & Wine Experience","lat":38.00142234618658,"lng":23.662754824513232,"url":"https://maps.app.goo.gl/72YzkYeb6xxkDt68A","address":"Στρ. Καραϊσκάκη 1, Β, Χαϊδάρι 124 61","categoryIds":["greek-restaurants"],"categories":["Greek Restaurants"]},{"id":"greekRestaurants_9f4c1147cab2","slug":"ellinon-ta-xydia-9f4c","kind":"restaurant","name":"Ελλήνων Τα..ξυδια","lat":38.00596041944379,"lng":23.66399500584869,"url":"https://maps.app.goo.gl/oC72DF6MLMBssYjU7","address":"Νικ. Πλαστήρα 32, Χαϊδάρι 124 61","categoryIds":["greek-restaurants"],"categories":["Greek Restaurants"]},{"id":"greekRestaurants_d0434bb7301e","slug":"ena-ena-d043","kind":"restaurant","name":"Ένα & Ένα","lat":38.008987140141066,"lng":23.65280105299395,"url":"https://maps.app.goo.gl/ndrwbvbypJGEEjum6","address":"Κύπρου 19, Χαϊδάρι 124 61","categoryIds":["greek-restaurants"],"categories":["Greek Restaurants"]},{"id":"greekRestaurants_5f1c7c67f828","slug":"remeze-5f1c","kind":"restaurant","name":"Ρεμεζέ","lat":37.99150355248482,"lng":23.676971347564844,"url":"https://maps.app.goo.gl/XpGuqMmfj7kNQaD17","address":"Αγίας Λαύρας 14, Αιγάλεω 122 42","categoryIds":["greek-restaurants"],"categories":["Greek Restaurants"]},{"id":"greekRestaurants_7ac3119d5e13","slug":"meze-meze-7ac3","kind":"restaurant","name":"Meze Meze","lat":37.991476631105556,"lng":23.679783507694246,"url":"https://maps.app.goo.gl/w2k4XzSbicFJD4K48","address":"Γρ. Κυδωνιών 10, Αιγάλεω 122 41","categoryIds":["greek-restaurants"],"categories":["Greek Restaurants"]},{"id":"coffeeBrunchRestaurants_ebe61501db3c","slug":"anemologio-enallaktiko-kafe-ebe6","kind":"restaurant","name":"Ανεμολόγιο εναλλακτικό καφέ","lat":38.01553415279337,"lng":23.680397259584772,"url":"https://maps.app.goo.gl/CdGAWQcCNoqhMaoLA?g_st=ipc","address":"Πελοπίδα 106, Περιστέρι 121 35","categoryIds":["coffee-brunch","greek-restaurants"],"categories":["Coffee & Brunch Spots","Greek Restaurants"],"legacySlugs":["anemologio-enallaktiko-kafe-3bf9"]},{"id":"greekRestaurants_71ccb1aa4b83","slug":"taverna-o-vasilis-71cc","kind":"restaurant","name":"Ταβέρνα Ο Βασίλης","lat":37.983639078803165,"lng":23.65172200450781,"url":"https://maps.app.goo.gl/P3D4J5ff2iNtoGc99","address":"Κολοκοτρώνη 160, Κορυδαλλός 181 21","categoryIds":["greek-restaurants"],"categories":["Greek Restaurants"]}],"nearby":[{"id":"greekRestaurants_741518abaa86","slug":"the-meaters-urban-beer-garden-7415","kind":"restaurant","name":"The Meaters Urban Beer Garden","lat":38.003598614109904,"lng":23.66346778642219,"url":"https://maps.app.goo.gl/zrm7vsMu18rMsZFJA","address":"Στρ. Καραϊσκάκη 25, Χαϊδάρι 124 61","categoryIds":["greek-restaurants"],"categories":["Greek Restaurants"],"distanceKm":0.0873142449509922},{"id":"greekRestaurants_b6bacb590b9a","slug":"to-yiasemi-food-wine-experience-b6ba","kind":"restaurant","name":"To Yiasemi Food & Wine Experience","lat":38.00142234618658,"lng":23.662754824513232,"url":"https://maps.app.goo.gl/72YzkYeb6xxkDt68A","address":"Στρ. Καραϊσκάκη 1, Β, Χαϊδάρι 124 61","categoryIds":["greek-restaurants"],"categories":["Greek Restaurants"],"distanceKm":0.16347963929010606},{"id":"coffeeBrunchRestaurants_639c2aabee9d","slug":"qahwa-chaidari-639c","kind":"restaurant","name":"Qahwa Chaidari","lat":38.00126380773835,"lng":23.663252642859884,"url":"https://maps.app.goo.gl/vAwUeBwjnVB6oM6A7?g_st=ipc","address":"Στρ. Καραϊσκάκη 12, Χαϊδάρι 124 61","categoryIds":["coffee-brunch"],"categories":["Coffee & Brunch Spots"],"distanceKm":0.17854677596377522},{"id":"italianRestaurants_2e4b8b331a1f","slug":"trattoria-casa-bianca-2e4b","kind":"restaurant","name":"Trattoria Casa Bianca","lat":38.004704945340144,"lng":23.664059272009183,"url":"https://maps.app.goo.gl/akcP8bTGNqFh27cR9?g_st=ipc","address":"Στρ. Καραϊσκάκη 43, Χαϊδάρι 124 61","categoryIds":["italian"],"categories":["Italian Restaurants"],"distanceKm":0.2207763804801859},{"id":"mexicanRestaurants_4fd2b517e59f","slug":"chicos-tequileria-mexicana-4fd2","kind":"restaurant","name":"Chicos Tequileria Mexicana","lat":38.00505726765837,"lng":23.664098826548518,"url":"https://maps.app.goo.gl/EqAGEAoJuRooejLJA?g_st=ipc","address":"Στρ. Καραϊσκάκη 49, Χαϊδάρι 124 61","categoryIds":["mexican"],"categories":["Mexican Restaurants"],"distanceKm":0.25863178225175903},{"id":"greekRestaurants_9f4c1147cab2","slug":"ellinon-ta-xydia-9f4c","kind":"restaurant","name":"Ελλήνων Τα..ξυδια","lat":38.00596041944379,"lng":23.66399500584869,"url":"https://maps.app.goo.gl/oC72DF6MLMBssYjU7","address":"Νικ. Πλαστήρα 32, Χαϊδάρι 124 61","categoryIds":["greek-restaurants"],"categories":["Greek Restaurants"],"distanceKm":0.35274761715913544},{"id":"dessertsRestaurants_60263203c5ab","slug":"zacharoplasteio-loyx-6026","kind":"restaurant","name":"Ζαχαροπλαστείο Λουξ","lat":38.00559008775559,"lng":23.66029440436054,"url":"https://maps.app.goo.gl/QWGZuk9nzJoeC9xf6?g_st=ipc","address":"Αγωνιστών Στρατοπέδου Χαϊδαρίου 32, Χαϊδάρι 124 61","categoryIds":["desserts"],"categories":["Dessert Shops"],"distanceKm":0.3907120023075567},{"id":"cheapEatsRestaurants_eb9e5b7b1e69","slug":"nostimies-eb9e","kind":"restaurant","name":"Νοστιμιές","lat":38.006695342963845,"lng":23.664393083804136,"url":"https://maps.app.goo.gl/dWSfhPqcebsnfQNf9?g_st=ipc","address":"Γεωργίου Καραϊσκάκη 73 & Σάμου, Χαϊδάρι 124 61","categoryIds":["cheap-eats"],"categories":["Gyros & Cheap Eats"],"distanceKm":0.44042701324400685}],"sameRegion":[],"mentionedGuides":[],"canonicalSlug":"pesto-ki-egine-2f9a","isCanonicalEntity":true,"enrichment":{"summary_en":"Πέστο Κι Έγινε is a curated restaurant in Χαϊδάρι 124 61 in the Greek Restaurants collection. It is connected to 11 nearby Googlementor picks to help travelers build a stronger local route.","summary_el":"Πέστο Κι Έγινε είναι ένα επιλεγμένο σημείο φαγητού στην περιοχή Χαϊδάρι 124 61 και ανήκει στη συλλογή Greek Restaurants. Συνδέεται με 11 κοντινές προτάσεις του Googlementor για πιο ολοκληρωμένη εμπειρία.","vibe_tags":["curated"],"best_for":["first-time visitors","food lovers"],"visit_moments":["lunch stop","dinner stop"],"practical_note":"Address and direct map link are available for easy turn-by-turn access.","nearby_walkable_count":11,"nearby_count_2km":38,"confidence":0.98}},"__N_SSG":true}