{"pageProps":{"entity":{"id":"cheapEatsRestaurants_a08661b07d70","slug":"peter-steakhouse-a086","kind":"restaurant","name":"Peter Steakhouse","lat":40.67380649867122,"lng":22.919338610112415,"url":"https://maps.app.goo.gl/okGWtgt8ngD1WL4a9?g_st=ipc","address":"Protomagias 21, Evosmos 562 24","categoryIds":["cheap-eats"],"categories":["Gyros & Cheap Eats"]},"sameCategory":[{"id":"cheapEatsRestaurants_12d4af48cdfc","slug":"kotopoyla-deras-12d4","kind":"restaurant","name":"Κοτόπουλα Δέρας","lat":40.6664983188531,"lng":22.919495227155743,"url":"https://maps.app.goo.gl/zrQxzEjiyGHcJGXt5?g_st=ipc","address":"Karaoli ke Dimitriou 154, Evosmos 562 24","categoryIds":["cheap-eats"],"categories":["Gyros & Cheap Eats"]},{"id":"burgersRestaurants_d1dcd32d4d8e","slug":"stivos-burger-steak-d1dc","kind":"restaurant","name":"STIVOS BURGER & STEAK","lat":40.669593987579994,"lng":22.91138406394072,"url":"https://maps.app.goo.gl/7TUUVwTEcxqLX9347?g_st=ipc","address":"Ευαγγελισμού της Θεοτόκου 43, Evosmos 562 24","categoryIds":["burgers","cheap-eats"],"categories":["Burger Spots","Gyros & Cheap Eats"],"legacySlugs":["stivos-burger-steak-c884"]},{"id":"cheapEatsRestaurants_9aa1dc025a0d","slug":"psitopoleia-eyosmos-ano-kato-9aa1","kind":"restaurant","name":"ΨΗΤΟΠΩΛΕΙΑ ΕΥΟΣΜΟΣ- ΑΝΩ ΚΑΤΩ","lat":40.66706897454817,"lng":22.912010033587894,"url":"https://maps.app.goo.gl/Keom9mTvrZ5H3Nat7?g_st=ipc","address":"Tzavella 2, Evosmos 562 24","categoryIds":["cheap-eats"],"categories":["Gyros & Cheap Eats"]},{"id":"cheapEatsRestaurants_da038af38ca1","slug":"devido-da03","kind":"restaurant","name":"Devido","lat":40.66696798830783,"lng":22.91206522121093,"url":"https://maps.app.goo.gl/ghxqsvRTJj4mWN988?g_st=ipc","address":"Karaoli ke Dimitriou 89, Evosmos 562 24","categoryIds":["cheap-eats"],"categories":["Gyros & Cheap Eats"]},{"id":"burgersRestaurants_e6cca423021b","slug":"rookie-skg-e6cc","kind":"restaurant","name":"Rookie.skg","lat":40.66725084444489,"lng":22.911546340289146,"url":"https://maps.app.goo.gl/UbXbrxK1VEFkvDdp7?g_st=ipc","address":"P. Mela 28, Evosmos 562 24","categoryIds":["burgers","cheap-eats"],"categories":["Burger Spots","Gyros & Cheap Eats"],"legacySlugs":["rookie-skg-91f7"]},{"id":"cheapEatsRestaurants_f921d077e63d","slug":"psitopoleio-nikos-f921","kind":"restaurant","name":"Ψητοπωλείο \"ΝΙΚΟΣ\"","lat":40.66963563529277,"lng":22.908013940571315,"url":"https://maps.app.goo.gl/LAQoYu8du3ZFbwSR7?g_st=ipc","address":"Meg. Alexandrou 56, Evosmos 562 24","categoryIds":["cheap-eats"],"categories":["Gyros & Cheap Eats"]},{"id":"cheapEatsRestaurants_547f03a545e5","slug":"crats-fried-chicken-eyosmoy-547f","kind":"restaurant","name":"Crats Fried Chicken Ευόσμου","lat":40.66578126903803,"lng":22.911725635585793,"url":"https://maps.app.goo.gl/BYpMVurWN1yMNmFh8?g_st=ipc","address":"Aristotélous 67, Evosmos 562 24","categoryIds":["cheap-eats"],"categories":["Gyros & Cheap Eats"]},{"id":"cheapEatsRestaurants_78b831279473","slug":"steakhouse-makis-78b8","kind":"restaurant","name":"Steakhouse MAKIS","lat":40.663898455247235,"lng":22.911569590344406,"url":"https://maps.app.goo.gl/ATqXPJfCjdXR8wes9?g_st=ipc","address":"Aristotélous 35, Evosmos 562 24","categoryIds":["cheap-eats"],"categories":["Gyros & Cheap Eats"]}],"nearby":[{"id":"greekRestaurants_489dcbab3d02","slug":"troyfa-mezedopoleio-489d","kind":"restaurant","name":"Τρούφα Μεζεδοπωλείο","lat":40.673704664191845,"lng":22.915531200227242,"url":"https://maps.app.goo.gl/NQbg2QuYmJZjW8Ha6?g_st=ipc","address":"Olimpiados 101, Evosmos 562 24","categoryIds":["greek-restaurants"],"categories":["Greek Restaurants"],"distanceKm":0.32129331180901244},{"id":"greekRestaurants_335a73f8c28f","slug":"to-dilavo-335a","kind":"restaurant","name":"Το Δίλαβο","lat":40.67696648177201,"lng":22.91974503350985,"url":"https://maps.app.goo.gl/WbYog3HDi7k69z6Y6?g_st=ipc","address":"Αντώνη Τρίτση 98, Εύοσμος 562 24","categoryIds":["greek-restaurants"],"categories":["Greek Restaurants"],"distanceKm":0.35304176389475617},{"id":"greekRestaurants_91be864c5607","slug":"to-traino-91be","kind":"restaurant","name":"Το Τραίνο","lat":40.67703057575148,"lng":22.918208800232915,"url":"https://maps.app.goo.gl/vzgBa3uY1wT8n7z49?g_st=ipc","address":"Eth. Antistaseos 102, Evosmos 562 24","categoryIds":["greek-restaurants"],"categories":["Greek Restaurants"],"distanceKm":0.3709461480594048},{"id":"greekRestaurants_a8a1bbc57cf3","slug":"mezedopoleio-sto-dentro-a8a1","kind":"restaurant","name":"Μεζεδοπωλείο στο δέντρο","lat":40.673779680558496,"lng":22.92834851143696,"url":"https://maps.app.goo.gl/94LTg5t1pACd8qHWA?g_st=ipc","address":"Στρ. Μακρυγιάννη 39, Σταυρούπολη 564 31","categoryIds":["greek-restaurants"],"categories":["Greek Restaurants"],"distanceKm":0.7598455085427683},{"id":"fishTavernasRestaurants_15430c4d106f","slug":"to-nydri-estiatorio-thalassinon-1543","kind":"restaurant","name":"Το Νυδρί - Εστιατόριο θαλασσινών","lat":40.67126625480558,"lng":22.91091682845982,"url":"https://maps.app.goo.gl/Gtf6Gmdcb6wNtEXw5?g_st=ipc","address":"Achilleos 34, Θεσσαλονίκη 562 24","categoryIds":["fish-tavernas"],"categories":["Fish Tavernas"],"distanceKm":0.7643602401623799},{"id":"greekRestaurants_7f8b3d2ad28e","slug":"backxes-7f8b","kind":"restaurant","name":"Backξες","lat":40.66851175512014,"lng":22.912875049998018,"url":"https://maps.app.goo.gl/4QcvwjevNtMp66VDA?g_st=ipc","address":"Καρατασου, Τσάμη - Καρατάσου 7, Θεσσαλονίκη 562 24","categoryIds":["greek-restaurants"],"categories":["Greek Restaurants"],"distanceKm":0.8023584278192312},{"id":"cheapEatsRestaurants_12d4af48cdfc","slug":"kotopoyla-deras-12d4","kind":"restaurant","name":"Κοτόπουλα Δέρας","lat":40.6664983188531,"lng":22.919495227155743,"url":"https://maps.app.goo.gl/zrQxzEjiyGHcJGXt5?g_st=ipc","address":"Karaoli ke Dimitriou 154, Evosmos 562 24","categoryIds":["cheap-eats"],"categories":["Gyros & Cheap Eats"],"distanceKm":0.812739862449278},{"id":"burgersRestaurants_d1dcd32d4d8e","slug":"stivos-burger-steak-d1dc","kind":"restaurant","name":"STIVOS BURGER & STEAK","lat":40.669593987579994,"lng":22.91138406394072,"url":"https://maps.app.goo.gl/7TUUVwTEcxqLX9347?g_st=ipc","address":"Ευαγγελισμού της Θεοτόκου 43, Evosmos 562 24","categoryIds":["burgers","cheap-eats"],"categories":["Burger Spots","Gyros & Cheap Eats"],"legacySlugs":["stivos-burger-steak-c884"],"distanceKm":0.8182047385810796}],"sameRegion":[],"mentionedGuides":[],"canonicalSlug":"peter-steakhouse-a086","isCanonicalEntity":true,"enrichment":{"summary_en":"Peter Steakhouse is a curated restaurant in Evosmos 562 24 in the Gyros & Cheap Eats collection. It is connected to 5 nearby Googlementor picks to help travelers build a stronger local route.","summary_el":"Peter Steakhouse είναι ένα επιλεγμένο σημείο φαγητού στην περιοχή Evosmos 562 24 και ανήκει στη συλλογή Gyros & Cheap Eats. Συνδέεται με 5 κοντινές προτάσεις του Googlementor για πιο ολοκληρωμένη εμπειρία.","vibe_tags":["curated","budget-friendly"],"best_for":["first-time visitors","food lovers","budget travelers"],"visit_moments":["lunch stop","dinner stop"],"practical_note":"Address and direct map link are available for easy turn-by-turn access.","nearby_walkable_count":5,"nearby_count_2km":26,"confidence":0.98}},"__N_SSG":true}