{"pageProps":{"entity":{"id":"italianRestaurants_5ab192a29154","slug":"pizza-tros-5ab1","kind":"restaurant","name":"Pizza Tros","lat":37.93310764502524,"lng":23.647126189869965,"url":"https://maps.app.goo.gl/R29dtEiZf13f8My98?g_st=ipc","address":"Μαρίνα Ζέας, Πειραιάς 185 36","categoryIds":["italian"],"categories":["Italian Restaurants"]},"sameCategory":[{"id":"italianRestaurants_5214577033fb","slug":"portofino-cucina-italiana-5214","kind":"restaurant","name":"Portofino Cucina Italiana","lat":37.933560056703215,"lng":23.64800969933006,"url":"https://maps.app.goo.gl/V1DfNbY33j2yeRfy7?g_st=ipc","address":"Μαρίνα Ζέας, Πειραιάς 185 36","categoryIds":["italian"],"categories":["Italian Restaurants"]},{"id":"italianRestaurants_4128f283696a","slug":"santa-pasta-cucina-italiana-4128","kind":"restaurant","name":"SANTA PASTA Cucina Italiana","lat":37.94068201075252,"lng":23.64952027321399,"url":"https://maps.app.goo.gl/s3jT1Jfm88nb6Y8f8?g_st=ipc","address":"Γρ. Λαμπράκη 144, Πειραιάς 185 35","categoryIds":["italian"],"categories":["Italian Restaurants"]},{"id":"italianRestaurants_245a69e4c28d","slug":"italida-restaurant-245a","kind":"restaurant","name":"Italida Restaurant","lat":37.939531794803344,"lng":23.64139153468878,"url":"https://maps.app.goo.gl/vJFoPpuhcPupJ3ju7?g_st=ipc","address":"Φιλελλήνων 9, Πειραιάς 185 36","categoryIds":["italian"],"categories":["Italian Restaurants"]},{"id":"italianRestaurants_161f75313435","slug":"incontro-via108-161f","kind":"restaurant","name":"Incontro Via108","lat":37.95597000000485,"lng":23.6616563361716,"url":"https://maps.app.goo.gl/PHAu91Gt4K1K24iZ8?g_st=ipc","address":"Αγ. Ελευθερίου 108, Πειραιάς 185 41","categoryIds":["italian"],"categories":["Italian Restaurants"]},{"id":"italianRestaurants_a8f55f60daad","slug":"napolitivo-a8f5","kind":"restaurant","name":"Napolitivo","lat":37.931139363113324,"lng":23.68556698847028,"url":"https://maps.app.goo.gl/iJWXQzLD79YWLeji9?g_st=ipc","address":"Λεωφ. Ποσειδώνος 702, Παλαιό Φάληρο 175 61","categoryIds":["italian"],"categories":["Italian Restaurants"]},{"id":"italianRestaurants_c97c0ccdbf8c","slug":"o-italos-c97c","kind":"restaurant","name":"Ο Ιταλός","lat":37.926673536986776,"lng":23.69220389211545,"url":"https://maps.app.goo.gl/up3EpvmXnu7L2VC67?g_st=ipc","address":"Αλκυόνης 16, Παλαιό Φάληρο 175 61","categoryIds":["italian"],"categories":["Italian Restaurants"]},{"id":"italianRestaurants_deede59c2ee6","slug":"la-greca-nikaia-deed","kind":"restaurant","name":"La Greca Νίκαια","lat":37.96989287630008,"lng":23.649375358414368,"url":"https://maps.app.goo.gl/TRUJmqRbfNqYTojR9?g_st=ipc","address":"Ανακρέοντος 5, Νίκαια 184 53","categoryIds":["italian"],"categories":["Italian Restaurants"]},{"id":"italianRestaurants_4319df2d5e15","slug":"da-bruno-4319","kind":"restaurant","name":"da Bruno","lat":37.92917795499007,"lng":23.694489698206436,"url":"https://maps.app.goo.gl/1dA2z4yKDCdZQUGbA","address":"Agiou Alexandrou 46, Paleo Faliro 175 61","categoryIds":["italian"],"categories":["Italian Restaurants"]}],"nearby":[{"id":"asianRestaurants_7724da0cbe7e","slug":"ten-modern-asian-7724","kind":"restaurant","name":"Ten Modern Asian","lat":37.93291413644206,"lng":23.647263058130683,"url":"https://maps.app.goo.gl/updMqDsRmH6egHAL7?g_st=ipc","address":"Μαρίνα Ζέας, Πειραιάς 185 36","categoryIds":["asian"],"categories":["Asian Restaurants"],"distanceKm":0.02463895648816715},{"id":"luxuryDiningRestaurants_e93ed529fdfa","slug":"hams-clams-e93e","kind":"restaurant","name":"Hams & Clams","lat":37.93313157813386,"lng":23.64744436080488,"url":"https://maps.app.goo.gl/KsnmFZ1WnGooiyEV7?g_st=ipc","address":"Λιμάνι, Μαρίνα Ζέας, Πειραιάς 185 37","categoryIds":["luxury-dining"],"categories":["Luxury Dining"],"distanceKm":0.028031047423619296},{"id":"italianRestaurants_5214577033fb","slug":"portofino-cucina-italiana-5214","kind":"restaurant","name":"Portofino Cucina Italiana","lat":37.933560056703215,"lng":23.64800969933006,"url":"https://maps.app.goo.gl/V1DfNbY33j2yeRfy7?g_st=ipc","address":"Μαρίνα Ζέας, Πειραιάς 185 36","categoryIds":["italian"],"categories":["Italian Restaurants"],"distanceKm":0.09238368714343163},{"id":"burgersRestaurants_51cd3df73f20","slug":"mpar-mpee-kioy-freattyda-51cd","kind":"restaurant","name":"Μπαρ Μπεε Κιου - Φρεαττύδα","lat":37.93450645446817,"lng":23.642685440187794,"url":"https://maps.app.goo.gl/UkJPpNzXrBGL944RA?g_st=ipc","address":"Λεωφ. Φρεάττυδος 13, Πειραιάς 185 37","categoryIds":["burgers","cheap-eats"],"categories":["Burger Spots","Gyros & Cheap Eats"],"legacySlugs":["mpar-mpee-kioy-freattyda-b711"],"distanceKm":0.41937262302811346},{"id":"dessertsRestaurants_485012761632","slug":"galaktopoleio-stamoy-peiraia-4850","kind":"restaurant","name":"Γαλακτοπωλείο ΣΤΑΜΟΥ, Πειραιά","lat":37.93559337890928,"lng":23.64309227138255,"url":"https://maps.app.goo.gl/msTiobs8vpLYrcz57?g_st=ipc","address":"Λεωφ. Αφεντούλη 16 &, Πραξιτέλους 243, Πειραιάς 185 36","categoryIds":["desserts"],"categories":["Dessert Shops"],"distanceKm":0.44895142620290374},{"id":"municipalities_3ebd848d109d","slug":"kastella-3ebd","kind":"municipality","name":"Καστέλλα","lat":37.9319,"lng":23.6533,"region":"Πειραιάς","name_en":"Kastella","region_en":"Piraeus","distanceKm":0.5578669148879212},{"id":"cheapEatsRestaurants_8cc8f7ce2a5d","slug":"kali-pita-8cc8","kind":"restaurant","name":"Καλή Πίτα","lat":37.93904235716474,"lng":23.647494180172405,"url":"https://maps.app.goo.gl/5Uc5sfiitWqftH1u6?g_st=ipc","address":"Ακτή Μουτσοπούλου 10, Πειραιάς 185 35","categoryIds":["cheap-eats"],"categories":["Gyros & Cheap Eats"],"distanceKm":0.6606985398583739},{"id":"dessertsRestaurants_7b04a6c0e5e9","slug":"loukoumother-s-peiraias-7b04","kind":"restaurant","name":"Loukoumother's Πειραιάς","lat":37.93905157733481,"lng":23.647294517023667,"url":"https://maps.app.goo.gl/n5Dp63fF47u9TZuz6?g_st=ipc","address":"Ακτή Μουτσοπούλου 12, Πειραιάς 185 35","categoryIds":["desserts"],"categories":["Dessert Shops"],"distanceKm":0.6610999545689011}],"sameRegion":[],"mentionedGuides":[],"canonicalSlug":"pizza-tros-5ab1","isCanonicalEntity":true,"enrichment":{"summary_en":"Pizza Tros is a curated restaurant in Πειραιάς 185 36 in the Italian Restaurants collection. It is connected to 12 nearby Googlementor picks to help travelers build a stronger local route.","summary_el":"Pizza Tros είναι ένα επιλεγμένο σημείο φαγητού στην περιοχή Πειραιάς 185 36 και ανήκει στη συλλογή Italian Restaurants. Συνδέεται με 12 κοντινές προτάσεις του Googlementor για πιο ολοκληρωμένη εμπειρία.","vibe_tags":["curated"],"best_for":["first-time visitors","food lovers"],"visit_moments":["lunch stop","dinner stop"],"practical_note":"Address and direct map link are available for easy turn-by-turn access.","nearby_walkable_count":12,"nearby_count_2km":50,"confidence":0.98}},"__N_SSG":true}