{"pageProps":{"entity":{"id":"dessertsRestaurants_ae317ae9a63f","slug":"plan-e-t-ice-cream-ae31","kind":"restaurant","name":"Plan(e)t Ice Cream","lat":37.9768796209685,"lng":23.725383311814642,"url":"https://maps.app.goo.gl/zzypW34gBH83e5G99?g_st=ipc","address":"Ερμού 86, Αθήνα 105 54","categoryIds":["desserts","vegetarian"],"categories":["Dessert Shops","Vegetarian Friendly Restaurants"],"legacySlugs":["plan-e-t-ice-cream-bddb"]},"sameCategory":[{"id":"dessertsRestaurants_c341ccbd87e0","slug":"ariston-lompotesis-c341","kind":"restaurant","name":"ΑΡΙΣΤΟΝ ΛΟΜΠΟΤΕΣΗΣ","lat":37.97670511785389,"lng":23.732649290748736,"url":"https://maps.app.goo.gl/GQVtxtBLY3rpmzsa9?g_st=ipc","address":"Βουλής 10, Αθήνα 105 62","categoryIds":["desserts","vegetarian"],"categories":["Dessert Shops","Vegetarian Friendly Restaurants"],"legacySlugs":["ariston-lompotesis-daef"]},{"id":"dessertsRestaurants_7f61f06e1814","slug":"ice-queen-gelato-7f61","kind":"restaurant","name":"Ice Queen Gelato","lat":37.96875198593791,"lng":23.729719578537868,"url":"https://maps.app.goo.gl/HyCCcJSVYZCw8dMV7?g_st=ipc","address":"Μακρυγιάννη 9, Αθήνα 117 42","categoryIds":["desserts","vegetarian"],"categories":["Dessert Shops","Vegetarian Friendly Restaurants"],"legacySlugs":["ice-queen-gelato-e688"]},{"id":"dessertsRestaurants_a146fa72ad20","slug":"ohh-boy-a146","kind":"restaurant","name":"Ohh Boy","lat":37.97243442670494,"lng":23.745570951608226,"url":"https://maps.app.goo.gl/6UUhjHiN4qG6gyXg6?g_st=ipc","address":"Αρχελάου 32, Αθήνα 116 35","categoryIds":["desserts","vegetarian"],"categories":["Dessert Shops","Vegetarian Friendly Restaurants"],"legacySlugs":["ohh-boy-1239"]},{"id":"dessertsRestaurants_a6a41ba19f78","slug":"exereton-a6a4","kind":"restaurant","name":"Exereton","lat":40.63128878529408,"lng":22.94431478557479,"url":"https://maps.app.goo.gl/gScJKVggjQfTPnLP8?g_st=ipc","address":"Mitropoleos 69, Thessaloniki 546 23","categoryIds":["desserts","vegetarian"],"categories":["Dessert Shops","Vegetarian Friendly Restaurants"],"legacySlugs":["exereton-e657"]},{"id":"coffeeBrunchRestaurants_26528fa68af9","slug":"the-brunchers-2652","kind":"restaurant","name":"The Brunchers","lat":37.97723167635048,"lng":23.724930062728706,"url":"https://maps.app.goo.gl/28Tan1nmqMaPBFMr7?g_st=ipc","address":"Αγ. Θέκλας 5, Αθήνα 105 54","categoryIds":["coffee-brunch","vegetarian"],"categories":["Coffee & Brunch Spots","Vegetarian Friendly Restaurants"],"legacySlugs":["the-brunchers-2110"]},{"id":"cheapEatsRestaurants_0f0b8dd68736","slug":"the-doc-s-burger-bar-0f0b","kind":"restaurant","name":"The Doc's Burger Bar","lat":37.97742334199844,"lng":23.725636669246807,"url":"https://maps.app.goo.gl/U7fwr2D5HgEHTzhH6?g_st=ipc","address":"Ανδρέα Μιαούλη 10, Αθήνα 105 54","categoryIds":["cheap-eats","vegetarian"],"categories":["Gyros & Cheap Eats","Vegetarian Friendly Restaurants"],"legacySlugs":["the-doc-s-burger-bar-089d"]},{"id":"vegetarianRestaurants_6103b84128cb","slug":"vegan-tour-athens-6103","kind":"restaurant","name":"Vegan tour Athens","lat":37.97635862482565,"lng":23.725860112285382,"url":"https://maps.app.goo.gl/HNSYbNbjWA38vytK7?g_st=ipc","address":"Πλ. Μοναστηρακίου, Αθήνα 105 55","categoryIds":["vegetarian"],"categories":["Vegetarian Friendly Restaurants"]},{"id":"dessertsRestaurants_722e1b739382","slug":"iceroll-722e","kind":"restaurant","name":"IceRoll","lat":37.97685958783748,"lng":23.726327595889753,"url":"https://maps.app.goo.gl/8LHJovnHdYJkvDpY9?g_st=ipc","address":"Αθηνάς 2, Αθήνα 105 51","categoryIds":["desserts"],"categories":["Dessert Shops"]}],"nearby":[{"id":"coffeeBrunchRestaurants_10001909d6f1","slug":"attic-urban-rooftop-1000","kind":"restaurant","name":"Attic Urban Rooftop","lat":37.97687145726863,"lng":23.725410732994586,"url":"https://maps.app.goo.gl/9Zyy977FxxHx9dgc9?g_st=ipc","address":"Ερμού 86, Αθήνα 105 54","categoryIds":["coffee-brunch","rooftop-lounges"],"categories":["Coffee & Brunch Spots","Rooftop Lounges"],"legacySlugs":["attic-urban-rooftop-7332"],"distanceKm":0.0025691901701915165},{"id":"rooftopLoungesRestaurants_18ce337fd426","slug":"a-for-athens-18ce","kind":"restaurant","name":"A for Athens","lat":37.97687634031922,"lng":23.725767271545557,"url":"https://maps.app.goo.gl/Vq5qVpsf9STrBATY9?g_st=ipc","address":"Μιαούλη 2-4, Αθήνα 105 54","categoryIds":["rooftop-lounges"],"categories":["Rooftop Lounges"],"distanceKm":0.03365620774857664},{"id":"coffeeBrunchRestaurants_26528fa68af9","slug":"the-brunchers-2652","kind":"restaurant","name":"The Brunchers","lat":37.97723167635048,"lng":23.724930062728706,"url":"https://maps.app.goo.gl/28Tan1nmqMaPBFMr7?g_st=ipc","address":"Αγ. Θέκλας 5, Αθήνα 105 54","categoryIds":["coffee-brunch","vegetarian"],"categories":["Coffee & Brunch Spots","Vegetarian Friendly Restaurants"],"legacySlugs":["the-brunchers-2110"],"distanceKm":0.055773955838393924},{"id":"rooftopLoungesRestaurants_9481fd0f2935","slug":"360-cocktail-bar-9481","kind":"restaurant","name":"360 Cocktail Bar","lat":37.97638780084513,"lng":23.72554423506802,"url":"https://maps.app.goo.gl/MDc3Ag3ciiiASdRN8?g_st=ipc","address":"Ηφαίστου 2, Αθήνα 105 55","categoryIds":["rooftop-lounges"],"categories":["Rooftop Lounges"],"distanceKm":0.05647759521622158},{"id":"coffeeBrunchRestaurants_988f2cbbbd9c","slug":"liystor-988f","kind":"restaurant","name":"LIYSTOR","lat":37.97700032542266,"lng":23.724753676313323,"url":"https://maps.app.goo.gl/7douBXS6i4VTSVMM9?g_st=ipc","address":"Ερμού 92-94, Αθήνα 105 54","categoryIds":["coffee-brunch","rooftop-lounges"],"categories":["Coffee & Brunch Spots","Rooftop Lounges"],"legacySlugs":["liystor-484f"],"distanceKm":0.05679641170713455},{"id":"rooftopLoungesRestaurants_24e545264e5c","slug":"ms-24e5","kind":"restaurant","name":"MS","lat":37.97691417323162,"lng":23.726058429208038,"url":"https://maps.app.goo.gl/bs3sf3hsdSxC6Beo9?g_st=ipc","address":"Athinas 1 &, Ερμού, Αθήνα 105 54","categoryIds":["rooftop-lounges"],"categories":["Rooftop Lounges"],"distanceKm":0.0592989018170186},{"id":"cheapEatsRestaurants_0f0b8dd68736","slug":"the-doc-s-burger-bar-0f0b","kind":"restaurant","name":"The Doc's Burger Bar","lat":37.97742334199844,"lng":23.725636669246807,"url":"https://maps.app.goo.gl/U7fwr2D5HgEHTzhH6?g_st=ipc","address":"Ανδρέα Μιαούλη 10, Αθήνα 105 54","categoryIds":["cheap-eats","vegetarian"],"categories":["Gyros & Cheap Eats","Vegetarian Friendly Restaurants"],"legacySlugs":["the-doc-s-burger-bar-089d"],"distanceKm":0.06440834695929669},{"id":"mustSeeAttractions_241beda98c80","slug":"plateia-monastirakioy-241b","kind":"restaurant","name":"Πλατεία Μοναστηρακίου","lat":37.97640816584317,"lng":23.725886410870196,"url":"https://maps.app.goo.gl/BWatUxUvLvu5LHMP9?g_st=ipc","address":"Απόλλωνος 21, Αθήνα 105 57","categoryIds":["attractions"],"categories":["Must-See Attractions"],"distanceKm":0.06850371279975721}],"sameRegion":[],"mentionedGuides":[],"canonicalSlug":"plan-e-t-ice-cream-ae31","isCanonicalEntity":true,"enrichment":{"summary_en":"Plan(e)t Ice Cream is a curated restaurant in Αθήνα 105 54 in the Dessert Shops collection. It is connected to 295 nearby Googlementor picks to help travelers build a stronger local route.","summary_el":"Plan(e)t Ice Cream είναι ένα επιλεγμένο σημείο φαγητού στην περιοχή Αθήνα 105 54 και ανήκει στη συλλογή Dessert Shops. Συνδέεται με 295 κοντινές προτάσεις του Googlementor για πιο ολοκληρωμένη εμπειρία.","vibe_tags":["curated","sweet-stop"],"best_for":["first-time visitors","food lovers"],"visit_moments":["afternoon break","after dinner"],"practical_note":"Address and direct map link are available for easy turn-by-turn access.","nearby_walkable_count":295,"nearby_count_2km":630,"confidence":0.98}},"__N_SSG":true}