{"pageProps":{"entity":{"id":"familyFriendly_5e59e0204835","slug":"platanorama-5e59","kind":"restaurant","name":"Platanórama","lat":40.58774137724462,"lng":23.252726275052023,"url":"https://maps.app.goo.gl/aNsGddhwQVLYuHvq9?g_st=ipc","address":"8χλμ. Γερακαρου-Ζαγκλιβερι, Zagkliveri 570 12","categoryIds":["family-friendly"],"categories":["Kid Friendly Locations"]},"sameCategory":[{"id":"familyFriendly_7fb51600aa06","slug":"tavern-moustakas-7fb5","kind":"restaurant","name":"TAVERN 'MOUSTAKAS'","lat":40.48840354435027,"lng":23.133350169062904,"url":"https://maps.app.goo.gl/fKdiSDKLKGdGC5V28?g_st=ipc","address":"Βασιλικά Θεσσαλονίκης, Θεσσαλονίκη 570 06","categoryIds":["family-friendly","greek-restaurants"],"categories":["Kid Friendly Locations","Greek Restaurants"],"legacySlugs":["tavern-moustakas-abcf"]},{"id":"familyFriendly_681712a05721","slug":"ichnilatis-oneiron-ktima-klimentini-6817","kind":"restaurant","name":"Ιχνηλάτης Ονείρων - Κτήμα Κλημεντινη","lat":40.67362926471837,"lng":23.088737171472587,"url":"https://maps.app.goo.gl/zejLUTjQA5bbDHBb6?g_st=ipc","address":"EO Thessalonikis Kavalas, Volvi 572 00","categoryIds":["family-friendly"],"categories":["Kid Friendly Locations"]},{"id":"familyFriendly_b6a37bf1af44","slug":"platanakia-natura-b6a3","kind":"restaurant","name":"Platanakia Natura","lat":40.59354583506236,"lng":23.05309273408505,"url":"https://maps.app.goo.gl/6g3bBu8datKxsCYq7?g_st=ipc","address":"St Paraskevopoulou, Panorama 552 36","categoryIds":["family-friendly"],"categories":["Kid Friendly Locations"]},{"id":"familyFriendly_6d59a3955a06","slug":"thermi-dam-6d59","kind":"restaurant","name":"Thermi Dam","lat":40.55889714492611,"lng":23.035634918395665,"url":"https://maps.app.goo.gl/WB5r5nzJStMwqtSV8?g_st=ipc","address":"Γεφυρα Φράγματος Θέρμης, Thermi 570 01","categoryIds":["family-friendly"],"categories":["Kid Friendly Locations"]},{"id":"familyFriendly_9a0302902146","slug":"perivallontiko-parko-thermis-9a03","kind":"restaurant","name":"Περιβαλλοντικό Πάρκο Θέρμης","lat":40.56073866312424,"lng":23.034167329764607,"url":"https://maps.app.goo.gl/RnpfKj2r4pesLq5V8?g_st=ipc","address":"Περιβαλλοντικό Πάρκο, Thermi 570 01","categoryIds":["family-friendly"],"categories":["Kid Friendly Locations"]},{"id":"familyFriendly_42d11ef19ff8","slug":"cloud-22-family-room-42d1","kind":"restaurant","name":"Cloud 22 Family Room","lat":40.54922868058373,"lng":23.01923766208044,"url":"https://maps.app.goo.gl/Pz6v5LnzAbK4gQGx6?g_st=ic","address":"Tavaki 17, Thermi 570 01","categoryIds":["family-friendly"],"categories":["Kid Friendly Locations"]},{"id":"familyFriendly_9807fa41d38f","slug":"lemures-family-lifestyle-play-hub-9807","kind":"restaurant","name":"Lemures Family Lifestyle & Play Hub","lat":40.54355927563734,"lng":23.019251786146132,"url":"https://maps.app.goo.gl/Cv1bZomhT5nP8ZDp6?g_st=ic","address":"Vasilikis Tavaki 6, Thermi 570 01","categoryIds":["family-friendly"],"categories":["Kid Friendly Locations"]},{"id":"familyFriendly_e11e3c30b5f9","slug":"trees-trees-e11e","kind":"restaurant","name":"Trees Trees","lat":40.60274841786202,"lng":23.00941473830645,"url":"https://maps.app.goo.gl/NStAQS6bJYjXPSMi8?g_st=ipc","address":"Ανατολής, Elaionon και, Pilea 555 35","categoryIds":["family-friendly"],"categories":["Kid Friendly Locations"]}],"nearby":[{"id":"greekRestaurants_af95cfb851a0","slug":"estiatorio-kioskia-af95","kind":"restaurant","name":"Εστιατόριο Κιόσκια","lat":40.61260152561618,"lng":23.099374680703214,"url":"https://maps.app.goo.gl/SBBbiTbf6AekkWeZ6?g_st=ipc","address":"Μαρτύρων 2ας Σεπτέμβρη 40, Χορτιάτης 570 10","categoryIds":["greek-restaurants"],"categories":["Greek Restaurants"],"distanceKm":13.238815365183063},{"id":"familyFriendly_7fb51600aa06","slug":"tavern-moustakas-7fb5","kind":"restaurant","name":"TAVERN 'MOUSTAKAS'","lat":40.48840354435027,"lng":23.133350169062904,"url":"https://maps.app.goo.gl/fKdiSDKLKGdGC5V28?g_st=ipc","address":"Βασιλικά Θεσσαλονίκης, Θεσσαλονίκη 570 06","categoryIds":["family-friendly","greek-restaurants"],"categories":["Kid Friendly Locations","Greek Restaurants"],"legacySlugs":["tavern-moustakas-abcf"],"distanceKm":14.959176057400532},{"id":"familyFriendly_681712a05721","slug":"ichnilatis-oneiron-ktima-klimentini-6817","kind":"restaurant","name":"Ιχνηλάτης Ονείρων - Κτήμα Κλημεντινη","lat":40.67362926471837,"lng":23.088737171472587,"url":"https://maps.app.goo.gl/zejLUTjQA5bbDHBb6?g_st=ipc","address":"EO Thessalonikis Kavalas, Volvi 572 00","categoryIds":["family-friendly"],"categories":["Kid Friendly Locations"],"distanceKm":16.814266655599138},{"id":"familyFriendly_b6a37bf1af44","slug":"platanakia-natura-b6a3","kind":"restaurant","name":"Platanakia Natura","lat":40.59354583506236,"lng":23.05309273408505,"url":"https://maps.app.goo.gl/6g3bBu8datKxsCYq7?g_st=ipc","address":"St Paraskevopoulou, Panorama 552 36","categoryIds":["family-friendly"],"categories":["Kid Friendly Locations"],"distanceKm":16.869191300582425},{"id":"municipalities_86440bea9f1c","slug":"pylaia-chortiatis-8644","kind":"municipality","name":"Πυλαία - Χορτιάτης","lat":40.5833,"lng":23.05,"region":"Ανατολική Θεσσαλονίκη","name_en":"Pylaia - Chortiatis","region_en":"East Thessaloniki","distanceKm":17.12641985882728},{"id":"greekRestaurants_1af18cda6ed2","slug":"psistaria-maria-1af1","kind":"restaurant","name":"Ψησταριά Μαρία","lat":40.46502686116533,"lng":23.37663516986987,"url":"https://maps.app.goo.gl/Dc1U9WeYH3VBuPgz8?g_st=ipc","address":"Ε.Ο. Θεσσαλονίκης Ιερισσού, Πολύγυρος 630 73","categoryIds":["greek-restaurants"],"categories":["Greek Restaurants"],"distanceKm":17.200911836149505},{"id":"dessertsRestaurants_3c30b0e5f97f","slug":"trigona-elenidi-3c30","kind":"restaurant","name":"Trigona Elenidi","lat":40.59208635693994,"lng":23.041104741607068,"url":"https://maps.app.goo.gl/4xfcNGGMy4nwoxyR8?g_st=ipc","address":"Leof. Komninon 69, Panorama 552 36","categoryIds":["desserts"],"categories":["Dessert Shops"],"distanceKm":17.875817412842853},{"id":"fishTavernasRestaurants_d0c2abf79717","slug":"kritikos-gallery-restaurants-d0c2","kind":"restaurant","name":"Kritikos Gallery & Restaurants","lat":40.58943046352144,"lng":23.037107897488713,"url":"https://maps.app.goo.gl/RdVPPysbg8jmJ1gT7?g_st=ipc","address":"Venizelou 5B, Panorama 552 36","categoryIds":["fish-tavernas"],"categories":["Fish Tavernas"],"distanceKm":18.208110124716992}],"sameRegion":[],"mentionedGuides":[],"canonicalSlug":"platanorama-5e59","isCanonicalEntity":true,"enrichment":{"summary_en":"Platanórama is a curated restaurant in Zagkliveri 570 12 in the Kid Friendly Locations collection. It is connected to 0 nearby Googlementor picks to help travelers build a stronger local route.","summary_el":"Platanórama είναι ένα επιλεγμένο σημείο φαγητού στην περιοχή Zagkliveri 570 12 και ανήκει στη συλλογή Kid Friendly Locations. Συνδέεται με 0 κοντινές προτάσεις του Googlementor για πιο ολοκληρωμένη εμπειρία.","vibe_tags":["curated","family-ready"],"best_for":["first-time visitors","food lovers","families"],"visit_moments":["lunch stop","dinner stop"],"practical_note":"Address and direct map link are available for easy turn-by-turn access.","nearby_walkable_count":0,"nearby_count_2km":0,"confidence":0.9}},"__N_SSG":true}