{"pageProps":{"entity":{"id":"coffeeBrunchRestaurants_9ae1dd6e7d5a","slug":"psomas-n-mokka-kafekopteio-a-e-e-9ae1","kind":"restaurant","name":"ΨΩΜΑΣ, Ν., \"ΜΟΚΚΑ ΚΑΦΕΚΟΠΤΕΙΟ\" Α.Ε.Ε.","lat":37.98083447984655,"lng":23.727407040678795,"url":"https://maps.app.goo.gl/oAY3rXKoej3BQGy39?g_st=ipc","address":"Αθηνάς 44, Αθήνα 105 51","categoryIds":["coffee-brunch"],"categories":["Coffee & Brunch Spots"]},"sameCategory":[{"id":"coffeeBrunchRestaurants_ed24a7ddbf8d","slug":"the-makers-ed24","kind":"restaurant","name":"The Makers","lat":37.979293464451835,"lng":23.729075477305056,"url":"https://maps.app.goo.gl/ckVaWVRSL5xpfiAs8?g_st=ipc","address":"Πραξιτέλους 37, Αθήνα 105 60","categoryIds":["coffee-brunch"],"categories":["Coffee & Brunch Spots"]},{"id":"coffeeBrunchRestaurants_0ae149633aed","slug":"folk-0ae1","kind":"restaurant","name":"Folk.","lat":37.97880874771429,"lng":23.72797999271096,"url":"https://maps.app.goo.gl/6T8xDeGdNhWe15Wy8?g_st=ipc","address":"Βύσσης 2, Αθήνα 105 51","categoryIds":["coffee-brunch"],"categories":["Coffee & Brunch Spots"]},{"id":"coffeeBrunchRestaurants_ab1d021ea45b","slug":"muse-bistro-ab1d","kind":"restaurant","name":"Muse Bistro","lat":37.97978388430184,"lng":23.72982150044081,"url":"https://maps.app.goo.gl/S3SNQHHwiWFuHc2N6?g_st=ipc","address":"Aristidou 3, Athina 105 59","categoryIds":["coffee-brunch"],"categories":["Coffee & Brunch Spots"]},{"id":"coffeeBrunchRestaurants_3bd143dc0b3c","slug":"anana-coffee-food-3bd1","kind":"restaurant","name":"Anana Coffee|Food","lat":37.9790791623964,"lng":23.72939339771832,"url":"https://maps.app.goo.gl/LVwtjjfHm1ZP7KNd9?g_st=ipc","address":"Πραξιτέλους 33, Αθήνα 105 60","categoryIds":["coffee-brunch","vegetarian"],"categories":["Coffee & Brunch Spots","Vegetarian Friendly Restaurants"],"legacySlugs":["anana-coffee-food-aa80"]},{"id":"coffeeBrunchRestaurants_03891d56076e","slug":"odori-0389","kind":"restaurant","name":"Odori","lat":37.97922436265169,"lng":23.729754698272135,"url":"https://maps.app.goo.gl/Wa5G5txL7dyLZjDX9?g_st=ipc","address":"Σκουλενίου 2, Αθήνα 105 61","categoryIds":["coffee-brunch","italian"],"categories":["Coffee & Brunch Spots","Italian Restaurants"],"legacySlugs":["odori-0301"]},{"id":"coffeeBrunchRestaurants_efaa63d4fa10","slug":"dope-efaa","kind":"restaurant","name":"Dope","lat":37.97832305246442,"lng":23.72690477526337,"url":"https://maps.app.goo.gl/JomysUEbYVtYn2KN6?g_st=ipc","address":"Βύσσης 25, Αθήνα 105 51","categoryIds":["coffee-brunch"],"categories":["Coffee & Brunch Spots"]},{"id":"coffeeBrunchRestaurants_1535869ba0db","slug":"bookbar-by-kaktos-1535","kind":"restaurant","name":"BOOKBAR by Kaktos","lat":37.97778372453625,"lng":23.727694162578636,"url":"https://maps.app.goo.gl/nkivf4z4Dxrwg4Su6?g_st=ipc","address":"Αιόλου 39, Αθήνα 105 51","categoryIds":["coffee-brunch"],"categories":["Coffee & Brunch Spots"]},{"id":"coffeeBrunchRestaurants_0cf84ce87995","slug":"tragos-monterno-kafeneio-0cf8","kind":"restaurant","name":"Τράγος - Μοντέρνο καφενείο","lat":37.978852815263814,"lng":23.723863790699163,"url":"https://maps.app.goo.gl/bBjGmrefeTQEp69R6?g_st=ipc","address":"Πλ. Αγίων Αναργύρων, Αθήνα 105 54","categoryIds":["coffee-brunch"],"categories":["Coffee & Brunch Spots"]}],"nearby":[{"id":"rooftopLoungesRestaurants_f8aeb4ce5c33","slug":"olympias-athinas-f8ae","kind":"restaurant","name":"Olympias Athinas","lat":37.98091887904227,"lng":23.72707749971783,"url":"https://maps.app.goo.gl/GanjxfuK53HVBugq8?g_st=ipc","address":"Αθηνάς 57, Αθήνα 105 51","categoryIds":["rooftop-lounges"],"categories":["Rooftop Lounges"],"distanceKm":0.0303692539035985},{"id":"cheapEatsRestaurants_eaf8d8c0d190","slug":"bouloukos-kebab-eaf8","kind":"restaurant","name":"Bouloukos Kebab","lat":37.980172161906935,"lng":23.72690266572384,"url":"https://maps.app.goo.gl/eUePB41Ppi2PT7NL7?g_st=ipc","address":"Αθηνάς 53, Αθήνα 105 52","categoryIds":["cheap-eats"],"categories":["Gyros & Cheap Eats"],"distanceKm":0.0858953162903991},{"id":"luxuryDiningRestaurants_ad3f43513fe8","slug":"hasapika-central-market-ad3f","kind":"restaurant","name":"Hasapika Central Market","lat":37.98004920672925,"lng":23.72784326093664,"url":"https://maps.app.goo.gl/zfVsdMVE9KLHsZKR7?g_st=ipc","address":"Αριστογείτονος 1, Αθήνα 105 51","categoryIds":["luxury-dining"],"categories":["Luxury Dining"],"distanceKm":0.09532190367785234},{"id":"greekRestaurants_c16ca9f65dbe","slug":"oinomageireio-i-ipeiros-c16c","kind":"restaurant","name":"Οινομαγειρείο Η Ήπειρος","lat":37.980081996854445,"lng":23.728018952835075,"url":"https://maps.app.goo.gl/Ksa1sT3W1xvTwody6","address":"Φιλοποίμενος 4, Αθήνα 105 51","categoryIds":["greek-restaurants"],"categories":["Greek Restaurants"],"distanceKm":0.09938518901627824},{"id":"dessertsRestaurants_7f6602abadca","slug":"krinos-7f66","kind":"restaurant","name":"Κρίνος","lat":37.98041054951213,"lng":23.728412779668,"url":"https://maps.app.goo.gl/dP718rebSLuGyq4GA?g_st=ipc","address":"Αιόλου 87, Αθήνα 105 51","categoryIds":["desserts"],"categories":["Dessert Shops"],"distanceKm":0.09996155554652533},{"id":"cheapEatsRestaurants_72f8dec93abe","slug":"i-volvi-72f8","kind":"restaurant","name":"Η Βόλβη","lat":37.97981742118138,"lng":23.72787228689906,"url":"https://maps.app.goo.gl/x2HbvpDyfiYLua7z6?g_st=ipc","address":"Ευριπίδου 24-26, Αθήνα 105 51","categoryIds":["cheap-eats"],"categories":["Gyros & Cheap Eats"],"distanceKm":0.12021863285566375},{"id":"greekRestaurants_9d442e3cec12","slug":"diporto-9d44","kind":"restaurant","name":"Δίπορτο","lat":37.9807615601589,"lng":23.725828141444957,"url":"https://maps.app.goo.gl/5PAR192kZJY8s4Hs8","address":"Sokratous 9 &, Θεάτρου 2, Αθήνα 105 52","categoryIds":["greek-restaurants"],"categories":["Greek Restaurants"],"distanceKm":0.13862112608336846},{"id":"vegetarianRestaurants_d9013916b890","slug":"dosa-house-d901","kind":"restaurant","name":"DOSA HOUSE","lat":37.98064310554285,"lng":23.725600541419325,"url":"https://maps.app.goo.gl/tYKvBnpT4mY8nvB58?g_st=ipc","address":"Θεάτρου 3, Αθήνα 105 52","categoryIds":["vegetarian"],"categories":["Vegetarian Friendly Restaurants"],"distanceKm":0.15975569232696654}],"sameRegion":[],"mentionedGuides":[],"canonicalSlug":"psomas-n-mokka-kafekopteio-a-e-e-9ae1","isCanonicalEntity":true,"enrichment":{"summary_en":"ΨΩΜΑΣ, Ν., \"ΜΟΚΚΑ ΚΑΦΕΚΟΠΤΕΙΟ\" Α.Ε.Ε. is a curated restaurant in Αθήνα 105 51 in the Coffee & Brunch Spots collection. It is connected to 277 nearby Googlementor picks to help travelers build a stronger local route.","summary_el":"ΨΩΜΑΣ, Ν., \"ΜΟΚΚΑ ΚΑΦΕΚΟΠΤΕΙΟ\" Α.Ε.Ε. είναι ένα επιλεγμένο σημείο φαγητού στην περιοχή Αθήνα 105 51 και ανήκει στη συλλογή Coffee & Brunch Spots. Συνδέεται με 277 κοντινές προτάσεις του Googlementor για πιο ολοκληρωμένη εμπειρία.","vibe_tags":["curated","daytime-favorite"],"best_for":["first-time visitors","food lovers"],"visit_moments":["early morning","late brunch"],"practical_note":"Address and direct map link are available for easy turn-by-turn access.","nearby_walkable_count":277,"nearby_count_2km":602,"confidence":0.98}},"__N_SSG":true}