{"pageProps":{"entity":{"id":"coffeeBrunchRestaurants_8cd2a3bebc65","slug":"red-jane-bakery-8cd2","kind":"restaurant","name":"Red Jαne Bakery","lat":35.51226915120583,"lng":24.01521028800191,"url":"https://maps.app.goo.gl/qBPXWtniji8hcKB88?g_st=ipc","address":"Kidonias 101, Chania 731 36","categoryIds":["coffee-brunch"],"categories":["Coffee & Brunch Spots"]},"sameCategory":[{"id":"coffeeBrunchRestaurants_4060062a68f1","slug":"carte-postale-4060","kind":"restaurant","name":"Carte Postale","lat":35.523454895956455,"lng":24.056556730944372,"url":"https://maps.app.goo.gl/5NWTh15BbgeGgYsx6?g_st=ipc","address":"Michail Kalorizikou 2, Chania 731 33","categoryIds":["coffee-brunch"],"categories":["Coffee & Brunch Spots"]},{"id":"coffeeBrunchRestaurants_0e2f635e730f","slug":"savoidakis-bakery-patisserie-rethymno-0e2f","kind":"restaurant","name":"Σαβοϊδάκης Bakery & Patisserie, Ρέθυμνο","lat":35.364498475258735,"lng":24.48871039963828,"url":"https://maps.app.goo.gl/JMMKwevbapcLZ5jw5?g_st=ipc","address":"Mark. Portaliou 57, Rethymno 741 50","categoryIds":["coffee-brunch","desserts"],"categories":["Coffee & Brunch Spots","Dessert Shops"],"legacySlugs":["savoidakis-bakery-patisserie-rethymno-b443"]},{"id":"coffeeBrunchRestaurants_22ed699a380f","slug":"mosaic-milos-22ed","kind":"restaurant","name":"Mosaic Milos","lat":36.74431276131015,"lng":24.421917244173116,"url":"https://maps.app.goo.gl/5Mzweh8YnbTNhVaQ9?g_st=ipc","address":"Plaka 848 00","categoryIds":["coffee-brunch","rooftop-lounges"],"categories":["Coffee & Brunch Spots","Rooftop Lounges"],"legacySlugs":["mosaic-milos-55f4"]},{"id":"coffeeBrunchRestaurants_71a1ad70f79c","slug":"pounta-71a1","kind":"restaurant","name":"Pounta","lat":36.62857034644093,"lng":24.920634222757425,"url":"https://maps.app.goo.gl/QSbpTWeVNhvVqhFt6?g_st=ipc","address":"Folegandros 840 11","categoryIds":["coffee-brunch"],"categories":["Coffee & Brunch Spots"]},{"id":"coffeeBrunchRestaurants_2e5d658747f2","slug":"svoronos-bakery-2e5d","kind":"restaurant","name":"Svoronos Bakery","lat":36.419048608663665,"lng":25.432096523213673,"url":"https://maps.app.goo.gl/UiCZYg6Gt2wABcPE8?g_st=ipc","address":"Greece, 25is Martiou, Thira 847 00","categoryIds":["coffee-brunch"],"categories":["Coffee & Brunch Spots"]},{"id":"coffeeBrunchRestaurants_bd7fc0151f49","slug":"fasolu-restaurant-beach-bar-bd7f","kind":"restaurant","name":"Fasolu Restaurant - Beach Bar","lat":36.941116049216255,"lng":24.753293392899685,"url":"https://maps.app.goo.gl/Lb3CYfu5rPNFtURu7?g_st=ipc","address":"Fassolou Beach, 840 03","categoryIds":["coffee-brunch"],"categories":["Coffee & Brunch Spots"]},{"id":"coffeeBrunchRestaurants_c3458e08944b","slug":"to-stavri-bakery-to-stayri-c345","kind":"restaurant","name":"To Stavri bakery (Το Σταυρί)","lat":36.97380305039157,"lng":24.72319061672324,"url":"https://maps.app.goo.gl/uYWL7LrV5mmCq24M8?g_st=ipc","address":"Epar.Od. Limani Kamaron-Artemonas, Apollonia 840 03","categoryIds":["coffee-brunch"],"categories":["Coffee & Brunch Spots"]},{"id":"coffeeBrunchRestaurants_efd5bd610439","slug":"threefolds-sifnos-efd5","kind":"restaurant","name":"Threefolds sifnos","lat":36.974665514362115,"lng":24.72381923558153,"url":"https://maps.app.goo.gl/PqpVut6E24nuqAUq6?g_st=ipc","address":"Απολλωνία 840 03","categoryIds":["coffee-brunch"],"categories":["Coffee & Brunch Spots"]}],"nearby":[{"id":"municipalities_a217cf921275","slug":"chania-a217","kind":"municipality","name":"Χανιά","lat":35.5138,"lng":24.018,"aliases":["Chania","Hania","Χάνια","Χανιών","Χανια","Xania"],"region":"Δυτική Κρήτη","name_en":"Chania","region_en":"West Crete","distanceKm":0.3045185554699127},{"id":"cheapEatsRestaurants_620134dd9978","slug":"oasis-6201","kind":"restaurant","name":"Oasis","lat":35.51332964693983,"lng":24.021015604554556,"url":"https://maps.app.goo.gl/cmq1VkqB1tUYSWUX9?g_st=ipc","address":"Voloudaki 4, Chania 731 34","categoryIds":["cheap-eats"],"categories":["Gyros & Cheap Eats"],"distanceKm":0.5385151178596772},{"id":"cheapEatsRestaurants_57bd67d6d5e4","slug":"delish-food-streat-story-57bd","kind":"restaurant","name":"Delish Food Streat Story","lat":35.515029891736845,"lng":24.02042482402925,"url":"https://maps.app.goo.gl/UfCwCDqjCiAuobpi9?g_st=ipc","address":"Tsouderon 69, Chania 731 32","categoryIds":["cheap-eats"],"categories":["Gyros & Cheap Eats"],"distanceKm":0.5630195713199786},{"id":"greekRestaurants_4a595232b3a3","slug":"o-koympes-4a59","kind":"restaurant","name":"Ο Κουμπές","lat":35.5043816279159,"lng":24.026404656039464,"url":"https://maps.app.goo.gl/aq1X1YzrveFNjWCR6?g_st=ipc","address":"Παναγούλη 1, Χανιά 731 34","categoryIds":["greek-restaurants"],"categories":["Greek Restaurants"],"distanceKm":1.3401265293085565},{"id":"cheapEatsRestaurants_e3e8b9399916","slug":"chicktok-e3e8","kind":"restaurant","name":"Chicktok","lat":35.509944678509925,"lng":24.031396796267106,"url":"https://maps.app.goo.gl/BCA2nTq76iJ2grhB7?g_st=ipc","address":"Papanastasiou 2, Chania 731 34","categoryIds":["cheap-eats"],"categories":["Gyros & Cheap Eats"],"distanceKm":1.4877141383553456},{"id":"fishTavernasRestaurants_052e930b9594","slug":"thalassino-ageri-052e","kind":"restaurant","name":"Thalassino Ageri","lat":35.519850213268185,"lng":24.037118927264085,"url":"https://maps.app.goo.gl/6SKxxTD4XKy95nvdA?g_st=ipc","address":"Vivilaki str 35 Tabakaria, Chania 731 33","categoryIds":["fish-tavernas","luxury-dining"],"categories":["Fish Tavernas","Luxury Dining"],"legacySlugs":["thalassino-ageri-7d75"],"distanceKm":2.1546409304318934},{"id":"coffeeBrunchRestaurants_4060062a68f1","slug":"carte-postale-4060","kind":"restaurant","name":"Carte Postale","lat":35.523454895956455,"lng":24.056556730944372,"url":"https://maps.app.goo.gl/5NWTh15BbgeGgYsx6?g_st=ipc","address":"Michail Kalorizikou 2, Chania 731 33","categoryIds":["coffee-brunch"],"categories":["Coffee & Brunch Spots"],"distanceKm":3.9433694771145182},{"id":"italianRestaurants_d9cd36fbb3ef","slug":"don-rosario-restaurant-d9cd","kind":"restaurant","name":"Don Rosario Restaurant","lat":35.47882388836681,"lng":24.099356912172677,"url":"https://maps.app.goo.gl/bPiGaxVDa8GANuXW8?g_st=ipc","address":"Πλατάνι 732 00","categoryIds":["italian"],"categories":["Italian Restaurants"],"distanceKm":8.477145852245993}],"sameRegion":[],"mentionedGuides":[],"canonicalSlug":"red-jane-bakery-8cd2","isCanonicalEntity":true,"enrichment":{"summary_en":"Red Jαne Bakery is a curated restaurant in Chania 731 36 in the Coffee & Brunch Spots collection. It is connected to 3 nearby Googlementor picks to help travelers build a stronger local route.","summary_el":"Red Jαne Bakery είναι ένα επιλεγμένο σημείο φαγητού στην περιοχή Chania 731 36 και ανήκει στη συλλογή Coffee & Brunch Spots. Συνδέεται με 3 κοντινές προτάσεις του Googlementor για πιο ολοκληρωμένη εμπειρία.","vibe_tags":["curated","daytime-favorite"],"best_for":["first-time visitors","food lovers"],"visit_moments":["early morning","late brunch"],"practical_note":"Address and direct map link are available for easy turn-by-turn access.","nearby_walkable_count":3,"nearby_count_2km":5,"confidence":0.9}},"__N_SSG":true}