{"pageProps":{"entity":{"id":"asianRestaurants_54f96c10eabf","slug":"shisan-sushi-bar-54f9","kind":"restaurant","name":"Shisan Sushi Bar","lat":37.97750088660989,"lng":23.729162812696888,"url":"https://maps.app.goo.gl/EXv9MbMpLAGJ5z8p9?g_st=ipc","address":"Καλαμιώτου 25, Αθήνα 106 81","categoryIds":["asian"],"categories":["Asian Restaurants"]},"sameCategory":[{"id":"asianRestaurants_427d94265987","slug":"shisan-sushi-bar-427d","kind":"restaurant","name":"Shisan Sushi Bar","lat":37.977337086650145,"lng":23.730266018891072,"url":"https://maps.app.goo.gl/nPpYrXs7ZyBAs7gx9?g_st=ipc","address":"Ρόμβης 24Α, Αθήνα 105 62","categoryIds":["asian"],"categories":["Asian Restaurants"]},{"id":"asianRestaurants_3e39975f70d5","slug":"streetwok-3e39","kind":"restaurant","name":"StreetWok","lat":37.97689230907057,"lng":23.727592595188877,"url":"https://maps.app.goo.gl/qhpXyetVXaLisBEWA?g_st=ipc","address":"Αιόλου 21, Αθήνα 105 63","categoryIds":["asian","cheap-eats"],"categories":["Asian Restaurants","Gyros & Cheap Eats"],"legacySlugs":["streetwok-7239"]},{"id":"asianRestaurants_464e7e4c810b","slug":"tanpopo-464e","kind":"restaurant","name":"Tanpopo","lat":37.9795596589589,"lng":23.72974278108181,"url":"https://maps.app.goo.gl/H2M3yGFhApNA288V8?g_st=ipc","address":"Αριστείδου 1, Ευριπίδου 2, Αθήνα 105 59","categoryIds":["asian"],"categories":["Asian Restaurants"]},{"id":"asianRestaurants_c5be8384da5c","slug":"hanoi-athens-authentic-vietnamese-food-c5be","kind":"restaurant","name":"HANOI ATHENS - AUTHENTIC VIETNAMESE FOOD","lat":37.97561643327209,"lng":23.73154671347612,"url":"https://maps.app.goo.gl/WvsC9Ebt7yScnxNH8?g_st=ipc","address":"Πετράκη 12, Αθήνα 105 63","categoryIds":["asian","vegetarian"],"categories":["Asian Restaurants","Vegetarian Friendly Restaurants"],"legacySlugs":["hanoi-athens-authentic-vietnamese-food-1e56"]},{"id":"asianRestaurants_145a81e4039e","slug":"akira-sushi-bar-athens-japanese-restaurant-145a","kind":"restaurant","name":"Akira Sushi Bar | Athens Japanese Restaurant","lat":37.979592346362566,"lng":23.73239256912945,"url":"https://maps.app.goo.gl/y6KSXjJTao7NPHZG8?g_st=ipc","address":"Σταδίου 30 &, Κοραή 4, Αθήνα 105 64","categoryIds":["asian"],"categories":["Asian Restaurants"]},{"id":"asianRestaurants_c79d456ae7d7","slug":"noodle-bar-c79d","kind":"restaurant","name":"Noodle Bar","lat":37.97469670323124,"lng":23.731836375056524,"url":"https://maps.app.goo.gl/2JAZWHPydSGiN1Vz5?g_st=ipc","address":"Απόλλωνος 11, Αθήνα 105 57","categoryIds":["asian"],"categories":["Asian Restaurants"]},{"id":"asianRestaurants_42df17dcd2e4","slug":"dosirak-42df","kind":"restaurant","name":"Dosirak","lat":37.97494107666411,"lng":23.732376863056064,"url":"https://maps.app.goo.gl/PwDtN3ePd5r7qvjc7?g_st=ipc","address":"Βουλής 33, Αθήνα 105 57","categoryIds":["asian"],"categories":["Asian Restaurants"]},{"id":"asianRestaurants_e28b11d8898b","slug":"nolan-e28b","kind":"restaurant","name":"Nolan","lat":37.97479795746223,"lng":23.732371775380916,"url":"https://maps.app.goo.gl/X3KiMCEXwDEoAj3N6?g_st=ipc","address":"Βουλής 31 - 33, Αθήνα 105 57","categoryIds":["asian","luxury-dining"],"categories":["Asian Restaurants","Luxury Dining"],"legacySlugs":["nolan-d22b"]}],"nearby":[{"id":"cheapEatsRestaurants_5f988e7e01fc","slug":"food-str-5f98","kind":"restaurant","name":"Food Str","lat":37.977285336004456,"lng":23.72911901973204,"url":"https://maps.app.goo.gl/tiAdgVLPy9vMcbLd6?g_st=ipc","address":"Καλαμιώτου 14, Αθήνα 105 60","categoryIds":["cheap-eats"],"categories":["Gyros & Cheap Eats"],"distanceKm":0.024273547201297558},{"id":"greekRestaurants_193dd3b500da","slug":"to-paradosiako-193d","kind":"restaurant","name":"Το Παραδοσιακό","lat":37.977707115390295,"lng":23.728787167486587,"url":"https://maps.app.goo.gl/NeJoupJj8mkFs1fXA","address":"Κολοκοτρώνη 59, Αθήνα 105 60","categoryIds":["greek-restaurants"],"categories":["Greek Restaurants"],"distanceKm":0.04012383889079603},{"id":"vegetarianRestaurants_c42b13d2db7e","slug":"shedia-home-cafe-restaurant-giftshop-c42b","kind":"restaurant","name":"Shedia Home - Cafe, Restaurant & Giftshop","lat":37.977833037817305,"lng":23.72875153673485,"url":"https://maps.app.goo.gl/9Dfe1mtSN788EyGb7?g_st=ipc","address":"Κολοκοτρώνη 56, Αθήνα 105 60","categoryIds":["vegetarian"],"categories":["Vegetarian Friendly Restaurants"],"distanceKm":0.051609618254222306},{"id":"vegetarianRestaurants_5b207cd61024","slug":"av-it-5b20","kind":"restaurant","name":"AV IT","lat":37.976939825548584,"lng":23.728942581826033,"url":"https://maps.app.goo.gl/Kt7esiHQgo5rmoWc7?g_st=ipc","address":"Καλαμιώτου 8, Αθήνα 105 60","categoryIds":["vegetarian"],"categories":["Vegetarian Friendly Restaurants"],"distanceKm":0.06530521164865644},{"id":"vegetarianRestaurants_66f29ff77bdf","slug":"inloveagain-specialty-coffee-66f2","kind":"restaurant","name":"InLoveAgain. Specialty coffee","lat":37.97733209854113,"lng":23.72987682666704,"url":"https://maps.app.goo.gl/GuskwaqjTh2E9fc66?g_st=ipc","address":"Κλειτίου 3, Αθήνα 105 60","categoryIds":["vegetarian"],"categories":["Vegetarian Friendly Restaurants"],"distanceKm":0.06533685269838231},{"id":"dessertsRestaurants_0b6ae51a593c","slug":"koykoyvagia-0b6a","kind":"restaurant","name":"Κουκουβάγια","lat":37.97736767389115,"lng":23.728413094267065,"url":"https://maps.app.goo.gl/CMZY3dTRrJ7tTadz6?g_st=ipc","address":"Σκουζέ 1, Αθήνα 105 60","categoryIds":["desserts"],"categories":["Dessert Shops"],"distanceKm":0.06736143502396397},{"id":"burgersRestaurants_594f0da03951","slug":"the-smashers-athens-594f","kind":"restaurant","name":"The Smashers Athens","lat":37.976855263908405,"lng":23.728850035341498,"url":"https://maps.app.goo.gl/eZb9zRu5ZEKX8jLZ6?g_st=ipc","address":"Καλαμιώτου 7, Αθήνα 105 63","categoryIds":["burgers"],"categories":["Burger Spots"],"distanceKm":0.07684646593308744},{"id":"burgersRestaurants_7c6e8e764472","slug":"the-smashers-athens-7c6e","kind":"restaurant","name":"The Smashers Athens","lat":37.97685470027012,"lng":23.728849657560023,"url":"https://maps.app.goo.gl/uKyi2SUBZv1EWPoV7?g_st=ic","address":"Kalamiotou 7, Athina 105 63","categoryIds":["burgers"],"categories":["Burger Spots"],"distanceKm":0.07691682913545773}],"sameRegion":[],"mentionedGuides":[],"canonicalSlug":"shisan-sushi-bar-54f9","isCanonicalEntity":true,"enrichment":{"summary_en":"Shisan Sushi Bar is a curated restaurant in Αθήνα 106 81 in the Asian Restaurants collection. It is connected to 316 nearby Googlementor picks to help travelers build a stronger local route.","summary_el":"Shisan Sushi Bar είναι ένα επιλεγμένο σημείο φαγητού στην περιοχή Αθήνα 106 81 και ανήκει στη συλλογή Asian Restaurants. Συνδέεται με 316 κοντινές προτάσεις του Googlementor για πιο ολοκληρωμένη εμπειρία.","vibe_tags":["curated"],"best_for":["first-time visitors","food lovers"],"visit_moments":["lunch stop","dinner stop"],"practical_note":"Address and direct map link are available for easy turn-by-turn access.","nearby_walkable_count":316,"nearby_count_2km":652,"confidence":0.98}},"__N_SSG":true}