{"pageProps":{"entity":{"id":"italianRestaurants_cb2ae306e209","slug":"signora-trattoria-cb2a","kind":"restaurant","name":"Signora Trattoria","lat":40.63157039493222,"lng":22.94755320492566,"url":"https://maps.app.goo.gl/QzosxSTGJyN4yoBfA?g_st=ipc","address":"P. Mela 38, Paleon Patron Germanou 19, Thessaloniki 546 22","categoryIds":["italian"],"categories":["Italian Restaurants"]},"sameCategory":[{"id":"italianRestaurants_d3fb4b2d1274","slug":"osteria-dai-fioi-d3fb","kind":"restaurant","name":"Osteria dai Fioi","lat":40.633770916934814,"lng":22.950440152016508,"url":"https://maps.app.goo.gl/ptx8MrTs166UDsu79?g_st=ipc","address":"Leonida Iasonidou 9, Thessaloniki 546 35","categoryIds":["italian"],"categories":["Italian Restaurants"]},{"id":"italianRestaurants_7c05bdca6535","slug":"apallou-7c05","kind":"restaurant","name":"Apallou","lat":40.6319800622151,"lng":22.942842887749638,"url":"https://maps.app.goo.gl/gJ5jrWEXwAbU6ynW8?g_st=ipc","address":"Μητροπόλεως &, Karolou Ntil 10, Thessaloniki 546 23","categoryIds":["italian"],"categories":["Italian Restaurants"]},{"id":"italianRestaurants_cb35e3b45188","slug":"margherita-cb35","kind":"restaurant","name":"MARGHERITA","lat":40.631390383048206,"lng":22.94264327325537,"url":"https://maps.app.goo.gl/TiNtp5tDGN6Eji5d9?g_st=ipc","address":"Proxenou Koromila 11, Thessaloniki 546 23","categoryIds":["italian"],"categories":["Italian Restaurants"]},{"id":"cheapEatsRestaurants_284a6ef1dfeb","slug":"the-last-slice-284a","kind":"restaurant","name":"The Last Slice","lat":40.63188753569458,"lng":22.94190837965703,"url":"https://maps.app.goo.gl/iyZQfPWo4E2pskqX8?g_st=ipc","address":"Proxenou Koromila 1, Thessaloniki 546 23","categoryIds":["cheap-eats","italian"],"categories":["Gyros & Cheap Eats","Italian Restaurants"],"legacySlugs":["the-last-slice-2302"]},{"id":"italianRestaurants_d4a8673af302","slug":"rosticceria-di-salonicco-d4a8","kind":"restaurant","name":"Rosticceria di Salonicco","lat":40.633588139092396,"lng":22.954063296681706,"url":"https://maps.app.goo.gl/WqcXyq1eyTArWEmP6?g_st=ipc","address":"Armenopoulou 27, Thessaloniki 546 35","categoryIds":["italian"],"categories":["Italian Restaurants"]},{"id":"italianRestaurants_60ef8fd1f6df","slug":"high-school-pizza-bar-60ef","kind":"restaurant","name":"High School Pizza Bar","lat":40.63257762535487,"lng":22.939550561883348,"url":"https://maps.app.goo.gl/CkxsQoyZaG8gTuWG9?g_st=ipc","address":"Leof. Nikis 9Α, Thessaloniki 546 24","categoryIds":["italian"],"categories":["Italian Restaurants"]},{"id":"italianRestaurants_e8e93eefa319","slug":"cena-e8e9","kind":"restaurant","name":"Cena","lat":40.63453379937182,"lng":22.938924721124444,"url":"https://maps.app.goo.gl/M6cnfrHcMrMNBhMNA?g_st=ipc","address":"Rogkoti 4, Thessaloniki 546 24","categoryIds":["italian"],"categories":["Italian Restaurants"]},{"id":"cheapEatsRestaurants_e80e8a708de9","slug":"salento-wood-fired-street-food-e80e","kind":"restaurant","name":"Salento Wood Fired Street Food","lat":40.639269734572295,"lng":22.943990430297482,"url":"https://maps.app.goo.gl/6mWAWHUbEwXuAb589?g_st=ipc","address":"El. Venizelou 76, Thessaloniki 546 31","categoryIds":["cheap-eats","italian"],"categories":["Gyros & Cheap Eats","Italian Restaurants"],"legacySlugs":["salento-wood-fired-street-food-39b7"]}],"nearby":[{"id":"coffeeBrunchRestaurants_e317c423742b","slug":"spoon-e317","kind":"restaurant","name":"Spoon","lat":40.631612141451626,"lng":22.94743751548318,"url":"https://maps.app.goo.gl/22Pm73g59e2LeoJQ7?g_st=ipc","address":"P. Mela 38, Thessaloniki 546 22","categoryIds":["coffee-brunch"],"categories":["Coffee & Brunch Spots"],"distanceKm":0.010810118293564177},{"id":"coffeeBrunchRestaurants_ad573219eedf","slug":"ergon-agora-ad57","kind":"restaurant","name":"ERGON Agora","lat":40.63187081672803,"lng":22.94735121723834,"url":"https://maps.app.goo.gl/ozYptsUfXEMA3PdNA?g_st=ipc","address":"P. Mela 42, Thessaloniki 546 22","categoryIds":["coffee-brunch"],"categories":["Coffee & Brunch Spots"],"distanceKm":0.03750275056284563},{"id":"dessertsRestaurants_af6c4ad80b58","slug":"senol-af6c","kind":"restaurant","name":"Senol","lat":40.631655999978115,"lng":22.9479848979778,"url":"https://maps.app.goo.gl/TQFwjdg19bCqCfpz8?g_st=ipc","address":"Paleon Patron Germanou 23, Thessaloniki 546 22","categoryIds":["desserts"],"categories":["Dessert Shops"],"distanceKm":0.037652444804010414},{"id":"burgersRestaurants_0c007445e9cc","slug":"balboa-thessaloniki-0c00","kind":"restaurant","name":"Balboa Thessaloniki","lat":40.631911246314864,"lng":22.947511059222414,"url":"https://maps.app.goo.gl/Lys3ApFbCS6C7HCt8","address":"P. Mela 42, Thessaloniki 546 22","categoryIds":["burgers","cheap-eats"],"categories":["Burger Spots","Gyros & Cheap Eats"],"legacySlugs":["balboa-thessaloniki-bd4c"],"distanceKm":0.03806744859193714},{"id":"dessertsRestaurants_07f7d8449744","slug":"tzeneral-zacharoplasteio-07f7","kind":"restaurant","name":"Tzeneral Ζαχαροπλαστείο","lat":40.631986554661324,"lng":22.94743879678818,"url":"https://maps.app.goo.gl/tBpAuNdF8KmF9aXe6?g_st=ipc","address":"P. Mela 44, Thessaloniki 546 22","categoryIds":["desserts"],"categories":["Dessert Shops"],"distanceKm":0.04727126235157945},{"id":"greekRestaurants_dd92d680950f","slug":"local-thessaloniki-dd92","kind":"restaurant","name":"LOCAL Thessaloniki","lat":40.631447319193505,"lng":22.946995352889463,"url":"https://maps.app.goo.gl/iMk8Tx82t81vQe5y5?g_st=ipc","address":"Παλαιών Πατρών Γερμανού 17, Θεσσαλονίκη 546 22","categoryIds":["greek-restaurants"],"categories":["Greek Restaurants"],"distanceKm":0.04902453771974969},{"id":"coffeeBrunchRestaurants_f6927d333ac7","slug":"local-thessaloniki-f692","kind":"restaurant","name":"LOCAL Thessaloniki","lat":40.63143794324686,"lng":22.94699527001704,"url":"https://maps.app.goo.gl/RCLyEycZ8dqaLJjT6?g_st=ipc","address":"Paleon Patron Germanou 17, Thessaloniki 546 22","categoryIds":["coffee-brunch"],"categories":["Coffee & Brunch Spots"],"distanceKm":0.04933240977873038},{"id":"vegetarianRestaurants_ae93f5705c93","slug":"mushroom-skg-ae93","kind":"restaurant","name":"mushroom skg","lat":40.63168703304935,"lng":22.946978697189547,"url":"https://maps.app.goo.gl/F7WJFJ3rEhib4fX86?g_st=ipc","address":"Zefxidos 10, Thessaloniki 546 22","categoryIds":["vegetarian"],"categories":["Vegetarian Friendly Restaurants"],"distanceKm":0.05018589770850432}],"sameRegion":[],"mentionedGuides":[],"canonicalSlug":"signora-trattoria-cb2a","isCanonicalEntity":true,"enrichment":{"summary_en":"Signora Trattoria is a curated restaurant in Thessaloniki 546 22 in the Italian Restaurants collection. It is connected to 172 nearby Googlementor picks to help travelers build a stronger local route.","summary_el":"Signora Trattoria είναι ένα επιλεγμένο σημείο φαγητού στην περιοχή Thessaloniki 546 22 και ανήκει στη συλλογή Italian Restaurants. Συνδέεται με 172 κοντινές προτάσεις του Googlementor για πιο ολοκληρωμένη εμπειρία.","vibe_tags":["curated"],"best_for":["first-time visitors","food lovers"],"visit_moments":["lunch stop","dinner stop"],"practical_note":"Address and direct map link are available for easy turn-by-turn access.","nearby_walkable_count":172,"nearby_count_2km":266,"confidence":0.98}},"__N_SSG":true}