{"pageProps":{"entity":{"id":"dessertsRestaurants_f98eb7c31fa7","slug":"solo-gelato-agia-paraskevi-f98e","kind":"restaurant","name":"Solo Gelato Agia Paraskevi","lat":38.010730173792794,"lng":23.824059390812284,"url":"https://maps.app.goo.gl/q2uK9vCzk28wfiSB6?g_st=ipc","address":"Αγίου Ιωάννου 23B, Αγ. Παρασκευή 153 42","categoryIds":["desserts"],"categories":["Dessert Shops"]},"sameCategory":[{"id":"dessertsRestaurants_4de4990e8c52","slug":"galaktopoleio-stamoy-4de4","kind":"restaurant","name":"Γαλακτοπωλείο ΣΤΑΜΟΥ","lat":38.01272894935628,"lng":23.81812735076741,"url":"https://maps.app.goo.gl/45pSKohNfJSTdCAA6?g_st=ipc","address":"Λεωφ. Μεσογείων 400b, Αγ. Παρασκευή 153 42","categoryIds":["desserts"],"categories":["Dessert Shops"]},{"id":"dessertsRestaurants_456ff03615cf","slug":"poulette-456f","kind":"restaurant","name":"Poulette","lat":38.01540164071511,"lng":23.819922887018567,"url":"https://maps.app.goo.gl/HvM2PHcBBq1Dcqka8?g_st=ipc","address":"Ellinoservikis Filias 64, Ag. Paraskevi 153 43","categoryIds":["desserts"],"categories":["Dessert Shops"]},{"id":"dessertsRestaurants_78c1b48a02f1","slug":"le-greche-agia-paraskevi-78c1","kind":"restaurant","name":"Le Greche Agia Paraskevi","lat":38.013608144326774,"lng":23.83072625387381,"url":"https://maps.app.goo.gl/bgontMhqzf4bbQEm7?g_st=ipc","address":"Λεωφ. Μεσογείων 456, Αγ. Παρασκευή 153 41","categoryIds":["desserts"],"categories":["Dessert Shops"]},{"id":"dessertsRestaurants_0abf80a62983","slug":"zacharoplasteia-kosmikon-ag-paraskeyi-0abf","kind":"restaurant","name":"ΖΑΧΑΡΟΠΛΑΣΤΕΙΑ ΚΟΣΜΙΚΟΝ ΑΓ.ΠΑΡΑΣΚΕΥΗ","lat":38.015552019857395,"lng":23.816005253846708,"url":"https://maps.app.goo.gl/KMvANWbGzpUHc27L8?g_st=ipc","address":"Χαλανδρίου 34, Αγ. Παρασκευή 153 43","categoryIds":["desserts"],"categories":["Dessert Shops"]},{"id":"dessertsRestaurants_7da559b75445","slug":"zacharoplasteia-konstantinidis-7da5","kind":"restaurant","name":"Ζαχαροπλαστεία Κωνσταντινίδης","lat":38.01171233220572,"lng":23.81400562383525,"url":"https://maps.app.goo.gl/qEsfTTzyhzLukvSx9?g_st=ipc","address":"Λεωφ. Μεσογείων 368, Αγ. Παρασκευή 153 41","categoryIds":["desserts"],"categories":["Dessert Shops"]},{"id":"dessertsRestaurants_7fcc53b965fc","slug":"koletsas-7fcc","kind":"restaurant","name":"Κολέτσας","lat":38.02545147763619,"lng":23.823091396273647,"url":"https://maps.app.goo.gl/LLAgTzMRsxERgimg9?g_st=ipc","address":"Μεταμορφώσεως 50, Χαλάνδρι 152 34","categoryIds":["desserts"],"categories":["Dessert Shops"]},{"id":"dessertsRestaurants_26e3d9025bbd","slug":"andrias-26e3","kind":"restaurant","name":"Ανδριάς","lat":38.01747699050525,"lng":23.845245187937905,"url":"https://maps.app.goo.gl/UStQ38USzcHtSQQz8?g_st=ipc","address":"Κλεισθένους 80, Γέρακας 153 44","categoryIds":["desserts"],"categories":["Dessert Shops"]},{"id":"dessertsRestaurants_4b614377342f","slug":"a-la-gkrek-4b61","kind":"restaurant","name":"Α λα γκρεκ","lat":38.01997084545109,"lng":23.803610791226863,"url":"https://maps.app.goo.gl/ErAvKczSJTMADaCZ7?g_st=ipc","address":"Αγίας Παρασκευής 65, Χαλάνδρι 152 34","categoryIds":["desserts"],"categories":["Dessert Shops"]}],"nearby":[{"id":"cheapEatsRestaurants_2194bc1389f8","slug":"pita-pan-2194","kind":"restaurant","name":"Πίτα Παν","lat":38.012724500083856,"lng":23.82116799472927,"url":"https://maps.app.goo.gl/dizAr5MBZxwBUbmGA?g_st=ipc","address":"Ευεργέτου Γιαβάση 1, Αγ. Παρασκευή 153 42","categoryIds":["cheap-eats"],"categories":["Gyros & Cheap Eats"],"distanceKm":0.3366657891380306},{"id":"mexicanRestaurants_8063d3de98b0","slug":"juan-s-cantina-8063","kind":"restaurant","name":"Juan's Cantina","lat":38.01206107178295,"lng":23.81957316690922,"url":"https://maps.app.goo.gl/BrMEKeu7hk8gqjtQ6?g_st=ipc","address":"Ευεργέτου Γιαβάση 13Α, Αγ. Παρασκευή 153 42","categoryIds":["mexican"],"categories":["Mexican Restaurants"],"distanceKm":0.41997239679748405},{"id":"cheapEatsRestaurants_ba28713d01c5","slug":"jackaroo-ba28","kind":"restaurant","name":"Jackaroo","lat":38.012488048135104,"lng":23.81953806352836,"url":"https://maps.app.goo.gl/ixb3zjYZ1Wg65gYq8?g_st=ipc","address":"Ηρ. Πολυτεχνείου 8, Αγ. Παρασκευή 153 43","categoryIds":["cheap-eats"],"categories":["Gyros & Cheap Eats"],"distanceKm":0.44171175698874127},{"id":"greekRestaurants_f89c37a413b6","slug":"taverna-o-morias-f89c","kind":"restaurant","name":"Ταβέρνα Ο ΜΩΡΙΑΣ","lat":38.00860400302697,"lng":23.81934480669425,"url":"https://maps.app.goo.gl/bRVKBMdQ27pSumbD9?g_st=ipc","address":"Ειρήνης 56, Αγ. Παρασκευή 153 41","categoryIds":["greek-restaurants"],"categories":["Greek Restaurants"],"distanceKm":0.47592533404505055},{"id":"coffeeBrunchRestaurants_f0c9993cb8f3","slug":"piccadilly-cafe-bar-f0c9","kind":"restaurant","name":"Piccadilly Cafe - Bar","lat":38.00719392579973,"lng":23.82715472856948,"url":"https://maps.app.goo.gl/sjLV2JRan1wDF2hM6?g_st=ipc","address":"Eleftherias, Αγίου Ιωάννου 63, Αγ. Παρασκευή 153 42","categoryIds":["coffee-brunch"],"categories":["Coffee & Brunch Spots"],"distanceKm":0.47766077049358613},{"id":"coffeeBrunchRestaurants_047701412132","slug":"big-spoon-0477","kind":"restaurant","name":"Big Spoon","lat":38.00695313454604,"lng":23.827222163103215,"url":"https://maps.app.goo.gl/xKV3uQ5sHdPxcNpR6?g_st=ipc","address":"Αγίου Ιωάννου 65, Αγ. Παρασκευή 153 42","categoryIds":["coffee-brunch"],"categories":["Coffee & Brunch Spots"],"distanceKm":0.5031626311819115},{"id":"coffeeBrunchRestaurants_a15eff32047d","slug":"wallstreet-athens-a15e","kind":"restaurant","name":"WallStreet Athens","lat":38.01470612030241,"lng":23.8212081874615,"url":"https://maps.app.goo.gl/mBES32gA39m1YfEdA?g_st=ipc","address":"Ελπίδος, Δημ. Γούναρη 2-4, Αγ. Παρασκευή 153 43","categoryIds":["coffee-brunch"],"categories":["Coffee & Brunch Spots"],"distanceKm":0.5077898074287689},{"id":"dessertsRestaurants_4de4990e8c52","slug":"galaktopoleio-stamoy-4de4","kind":"restaurant","name":"Γαλακτοπωλείο ΣΤΑΜΟΥ","lat":38.01272894935628,"lng":23.81812735076741,"url":"https://maps.app.goo.gl/45pSKohNfJSTdCAA6?g_st=ipc","address":"Λεωφ. Μεσογείων 400b, Αγ. Παρασκευή 153 42","categoryIds":["desserts"],"categories":["Dessert Shops"],"distanceKm":0.5652287588130909}],"sameRegion":[],"mentionedGuides":[],"canonicalSlug":"solo-gelato-agia-paraskevi-f98e","isCanonicalEntity":true,"enrichment":{"summary_en":"Solo Gelato Agia Paraskevi is a curated restaurant in Αγ. Παρασκευή 153 42 in the Dessert Shops collection. It is connected to 12 nearby Googlementor picks to help travelers build a stronger local route.","summary_el":"Solo Gelato Agia Paraskevi είναι ένα επιλεγμένο σημείο φαγητού στην περιοχή Αγ. Παρασκευή 153 42 και ανήκει στη συλλογή Dessert Shops. Συνδέεται με 12 κοντινές προτάσεις του Googlementor για πιο ολοκληρωμένη εμπειρία.","vibe_tags":["curated","sweet-stop"],"best_for":["first-time visitors","food lovers"],"visit_moments":["afternoon break","after dinner"],"practical_note":"Address and direct map link are available for easy turn-by-turn access.","nearby_walkable_count":12,"nearby_count_2km":39,"confidence":0.98}},"__N_SSG":true}