{"pageProps":{"entity":{"id":"cheapEatsRestaurants_93e5a087f2a2","slug":"soyvlakia-o-mpilis-93e5","kind":"restaurant","name":"Σουβλάκια \"ο ΜΠΙΛΗΣ\"","lat":37.97112327966262,"lng":23.64443348855245,"url":"https://maps.app.goo.gl/pWZio4wYos7hfNkq6?g_st=ipc","address":"Προύσης 22, Νίκαια 184 53","categoryIds":["cheap-eats"],"categories":["Gyros & Cheap Eats"]},"sameCategory":[{"id":"cheapEatsRestaurants_3d78bb5a465c","slug":"makis-psitopoleio-soyvlatzidiko-3d78","kind":"restaurant","name":"\"Μάκης\" Ψητοπωλείο-Σουβλατζίδικο","lat":37.97402598918491,"lng":23.643093504500488,"url":"https://maps.app.goo.gl/43quDvAwPQhkbk6t5?g_st=ipc","address":"Π. Τσαλδάρη 262, Νίκαια 184 53","categoryIds":["cheap-eats"],"categories":["Gyros & Cheap Eats"]},{"id":"cheapEatsRestaurants_9166d63b45f7","slug":"enty-9166","kind":"restaurant","name":"ΕΝΤΥ","lat":37.96700050503918,"lng":23.65031239624474,"url":"https://maps.app.goo.gl/TJbtwJ75EUsRPcRt8?g_st=ipc","address":"Δημ. Καρακουλουξή 4, Νίκαια 184 54","categoryIds":["cheap-eats"],"categories":["Gyros & Cheap Eats"]},{"id":"cheapEatsRestaurants_e1efa6cc4eb9","slug":"kebab-hub-e1ef","kind":"restaurant","name":"KEBAB HUB","lat":37.96544893408382,"lng":23.64762675898248,"url":"https://maps.app.goo.gl/1jU1MDHhWUfkjuNTA?g_st=ipc","address":"Εφέσου 49, Νίκαια 184 50","categoryIds":["cheap-eats"],"categories":["Gyros & Cheap Eats"]},{"id":"cheapEatsRestaurants_1416b33a5bdb","slug":"dealers-real-street-food-1416","kind":"restaurant","name":"Dealers Real Street Food","lat":37.97630275309409,"lng":23.649623466165345,"url":"https://maps.app.goo.gl/6hPX1uNfh9QEYJND7?g_st=ipc","address":"Ταξιαρχών 18, Κορυδαλλός 181 20","categoryIds":["cheap-eats"],"categories":["Gyros & Cheap Eats"]},{"id":"cheapEatsRestaurants_a7b0441198ed","slug":"kempaptzidikon-aivali-nikaia-a7b0","kind":"restaurant","name":"Κεμπαπτζίδικον Αϊβαλί Νίκαια","lat":37.97771284812105,"lng":23.63690051700111,"url":"https://maps.app.goo.gl/v85fF9CDnUXK4e4e6?g_st=ipc","address":"Ελλησπόντου 43, Νίκαια 184 51","categoryIds":["cheap-eats"],"categories":["Gyros & Cheap Eats"]},{"id":"cheapEatsRestaurants_91979e529e27","slug":"aganaktisi-9197","kind":"restaurant","name":"Αγανάκτηση","lat":37.978045238767244,"lng":23.651711441065746,"url":"https://maps.app.goo.gl/eNiYkaAyndviywoc9?g_st=ipc","address":"Σερρών 44 &, Ταξιαρχών, Κορυδαλλός 181 20","categoryIds":["cheap-eats"],"categories":["Gyros & Cheap Eats"]},{"id":"cheapEatsRestaurants_e6d18e573896","slug":"to-kochyli-afoi-rekka-e6d1","kind":"restaurant","name":"ΤΟ ΚΟΧΥΛΙ (Αφοί Ρέκκα)","lat":37.97958803504725,"lng":23.650262049500654,"url":"https://maps.app.goo.gl/dW3a2SovSeGnxXCRA?g_st=ipc","address":"Κορυδαλλός 181 20","categoryIds":["cheap-eats"],"categories":["Gyros & Cheap Eats"]},{"id":"cheapEatsRestaurants_2f84b1901b79","slug":"soyvlakia-o-serkos-2f84","kind":"restaurant","name":"Σουβλάκια ο Σέρκος","lat":37.96321249323642,"lng":23.6546161405587,"url":"https://maps.app.goo.gl/g55ZF34fH7dzCpi29?g_st=ipc","address":"Ίωνος Δραγούμη 39-41, Πειραιάς 185 42","categoryIds":["cheap-eats"],"categories":["Gyros & Cheap Eats"]}],"nearby":[{"id":"fishTavernasRestaurants_a8b54e1ce79d","slug":"kempaptzidiko-machalas-a8b5","kind":"restaurant","name":"ΚΕΜΠΑΠΤΖΙΔΙΚΟ ΜΑΧΑΛΑΣ","lat":37.97098229288963,"lng":23.644519445693433,"url":"https://maps.app.goo.gl/ynWdVgiTz6C4H7y9A?g_st=ipc","address":"Π. Τσαλδάρη, 241-243, Νίκαια 184 50","categoryIds":["fish-tavernas"],"categories":["Fish Tavernas"],"distanceKm":0.01739372392540156},{"id":"cheapEatsRestaurants_3d78bb5a465c","slug":"makis-psitopoleio-soyvlatzidiko-3d78","kind":"restaurant","name":"\"Μάκης\" Ψητοπωλείο-Σουβλατζίδικο","lat":37.97402598918491,"lng":23.643093504500488,"url":"https://maps.app.goo.gl/43quDvAwPQhkbk6t5?g_st=ipc","address":"Π. Τσαλδάρη 262, Νίκαια 184 53","categoryIds":["cheap-eats"],"categories":["Gyros & Cheap Eats"],"distanceKm":0.3434740431200584},{"id":"italianRestaurants_deede59c2ee6","slug":"la-greca-nikaia-deed","kind":"restaurant","name":"La Greca Νίκαια","lat":37.96989287630008,"lng":23.649375358414368,"url":"https://maps.app.goo.gl/TRUJmqRbfNqYTojR9?g_st=ipc","address":"Ανακρέοντος 5, Νίκαια 184 53","categoryIds":["italian"],"categories":["Italian Restaurants"],"distanceKm":0.45428598206139575},{"id":"municipalities_40326566c574","slug":"nikaia-4032","kind":"municipality","name":"Νίκαια","lat":37.9667,"lng":23.6472,"aliases":["Nikaia","Nikea"],"region":"Δυτικά Προάστια","name_en":"Nikaia","region_en":"Western Suburbs","distanceKm":0.5483839060097121},{"id":"coffeeBrunchRestaurants_267612a1ea40","slug":"tolis-sweet-s-n-eats-2676","kind":"restaurant","name":"Τόλης sweet's n' eats","lat":37.97589864090017,"lng":23.642161221415883,"url":"https://maps.app.goo.gl/Q5js7BApZATn8jx1A?g_st=ipc","address":"Πλ. Δημοκρατίας, Νίκαια 184 51","categoryIds":["coffee-brunch"],"categories":["Coffee & Brunch Spots"],"distanceKm":0.5671217616414403},{"id":"asianRestaurants_cb2b61b87e3c","slug":"toukta-thai-food-cb2b","kind":"restaurant","name":"Toukta Thai food","lat":37.96875566688742,"lng":23.650805513802922,"url":"https://maps.app.goo.gl/U33KjMR5URvuLe1m6?g_st=ipc","address":"Ιωνίας 3, Νίκαια 184 50","categoryIds":["asian"],"categories":["Asian Restaurants"],"distanceKm":0.617496893481742},{"id":"fishTavernasRestaurants_ae0677e73373","slug":"zarkadoylas-ta-kavoyrakia-ae06","kind":"restaurant","name":"ΖΑΡΚΑΔΟΥΛΑΣ - ΤΑ ΚΑΒΟΥΡΑΚΙΑ","lat":37.966878654895595,"lng":23.649066817348377,"url":"https://maps.app.goo.gl/NBfwV1GcmoeRk6M28?g_st=ipc","address":"Βιθυνίας 32, Νίκαια 184 50","categoryIds":["fish-tavernas"],"categories":["Fish Tavernas"],"distanceKm":0.6226790120260982},{"id":"cheapEatsRestaurants_9166d63b45f7","slug":"enty-9166","kind":"restaurant","name":"ΕΝΤΥ","lat":37.96700050503918,"lng":23.65031239624474,"url":"https://maps.app.goo.gl/TJbtwJ75EUsRPcRt8?g_st=ipc","address":"Δημ. Καρακουλουξή 4, Νίκαια 184 54","categoryIds":["cheap-eats"],"categories":["Gyros & Cheap Eats"],"distanceKm":0.6897380374188319}],"sameRegion":[],"mentionedGuides":[],"canonicalSlug":"soyvlakia-o-mpilis-93e5","isCanonicalEntity":true,"enrichment":{"summary_en":"Σουβλάκια \"ο ΜΠΙΛΗΣ\" is a curated restaurant in Νίκαια 184 53 in the Gyros & Cheap Eats collection. It is connected to 12 nearby Googlementor picks to help travelers build a stronger local route.","summary_el":"Σουβλάκια \"ο ΜΠΙΛΗΣ\" είναι ένα επιλεγμένο σημείο φαγητού στην περιοχή Νίκαια 184 53 και ανήκει στη συλλογή Gyros & Cheap Eats. Συνδέεται με 12 κοντινές προτάσεις του Googlementor για πιο ολοκληρωμένη εμπειρία.","vibe_tags":["curated","budget-friendly"],"best_for":["first-time visitors","food lovers","budget travelers"],"visit_moments":["lunch stop","dinner stop"],"practical_note":"Address and direct map link are available for easy turn-by-turn access.","nearby_walkable_count":12,"nearby_count_2km":28,"confidence":0.98}},"__N_SSG":true}