{"pageProps":{"entity":{"id":"cheapEatsRestaurants_a8812958586b","slug":"soyvlaki-o-kostas-1950-syntagma-a881","kind":"restaurant","name":"Σουβλάκι Ο Κώστας 1950 συνταγμα","lat":37.97431166724141,"lng":23.734074792444165,"url":"https://maps.app.goo.gl/FGrKA3NWxxuCNCKSA?g_st=ipc","address":"Φιλελλήνων 7, Αθήνα 105 57","categoryIds":["cheap-eats"],"categories":["Gyros & Cheap Eats"]},"sameCategory":[{"id":"cheapEatsRestaurants_62f01dc2ec9e","slug":"iliada-62f0","kind":"restaurant","name":"ILIADA","lat":37.97276950938018,"lng":23.73338516103142,"url":"https://maps.app.goo.gl/zskFwnAEHYv2rZ486?g_st=ipc","address":"Κυδαθηναίων 1 - 3, Αθήνα 105 57","categoryIds":["cheap-eats"],"categories":["Gyros & Cheap Eats"]},{"id":"cheapEatsRestaurants_fa954f16db19","slug":"i-kantina-tis-karagiorgi-servias-o-kritikos-fa95","kind":"restaurant","name":"Η καντίνα της Καραγιώργη Σερβίας (Ο Κρητικός)","lat":37.97642356412653,"lng":23.734100321342698,"url":"https://maps.app.goo.gl/EeFjaZknqeTjfN8V6?g_st=ipc","address":"Καραγιώργη Σερβίας 2, Αθήνα 105 62","categoryIds":["cheap-eats"],"categories":["Gyros & Cheap Eats"]},{"id":"cheapEatsRestaurants_1bc4d9fd56dd","slug":"harry-s-kitchen-1bc4","kind":"restaurant","name":"Harry's Kitchen","lat":37.97623023407263,"lng":23.732424722550896,"url":"https://maps.app.goo.gl/4ThbHca8EWSeyv4f9?g_st=ipc","address":"Αθανασίου Αξαρλιάν 2, Αθήνα 105 63","categoryIds":["cheap-eats"],"categories":["Gyros & Cheap Eats"]},{"id":"cheapEatsRestaurants_3392ef0104b3","slug":"focacceria-napul-e-3392","kind":"restaurant","name":"Focacceria Napul’e","lat":37.97562561163699,"lng":23.730612422068372,"url":"https://maps.app.goo.gl/1Z8wuAKBZ1px7oFG6?g_st=ipc","address":"Πετράκη 30, Αθήνα 105 63","categoryIds":["cheap-eats"],"categories":["Gyros & Cheap Eats"]},{"id":"cheapEatsRestaurants_fb9d26e8cad9","slug":"meat-the-greek-fb9d","kind":"restaurant","name":"Meat the Greek","lat":37.97583452449836,"lng":23.730527268129777,"url":"https://maps.app.goo.gl/4GCcGcuQpLTaTXZf8?g_st=ipc","address":"Φωκίωνος 2-4, Αθήνα 105 63","categoryIds":["cheap-eats"],"categories":["Gyros & Cheap Eats"]},{"id":"cheapEatsRestaurants_7f568e47c0a8","slug":"fuddy-duddy-7f56","kind":"restaurant","name":"FUDDY DUDDY","lat":37.97744212384706,"lng":23.73144118284602,"url":"https://maps.app.goo.gl/vVmR4bTFHYKewmjK9?g_st=ipc","address":"Λέκκα 32, Αθήνα 105 62","categoryIds":["cheap-eats"],"categories":["Gyros & Cheap Eats"]},{"id":"burgersRestaurants_3c1c73d21fec","slug":"meat-n-roses-kolonaki-3c1c","kind":"restaurant","name":"Meat n Roses Kolonaki","lat":37.97828442263524,"lng":23.735087640545906,"url":"https://maps.app.goo.gl/qGwCStnKNtrJzrtm6?g_st=ipc","address":"Αμερικής 7, Αθήνα 106 72","categoryIds":["burgers","cheap-eats"],"categories":["Burger Spots","Gyros & Cheap Eats"],"legacySlugs":["meat-n-roses-kolonaki-9219"]},{"id":"gyrosSouvlakiRestaurants_514910b62a38","slug":"souvlaki-monastiraki-5149","kind":"restaurant","name":"Souvlaki Monastiraki","lat":37.975,"lng":23.729,"url":"https://maps.app.goo.gl/sample29","address":"Mitropoleos 2, Athina 105 63","categoryIds":["cheap-eats"],"categories":["Gyros & Cheap Eats"]}],"nearby":[{"id":"asianRestaurants_50c893ba0bac","slug":"ikura-sushi-korean-food-50c8","kind":"restaurant","name":"IKURA Sushi - Korean food","lat":37.97430159758245,"lng":23.73415791767136,"url":"https://maps.app.goo.gl/rG3Ram1UiVYEUuFt9?g_st=ipc","address":"Φιλελλήνων 7, Αθήνα 105 57","categoryIds":["asian"],"categories":["Asian Restaurants"],"distanceKm":0.007371747570595062},{"id":"italianRestaurants_a85b9e4df417","slug":"brigante-syntagma-a85b","kind":"restaurant","name":"Brigante (Σύνταγμα)","lat":37.97426577787846,"lng":23.734179177201504,"url":"https://maps.app.goo.gl/RmErpGj8TndJSV9v7?g_st=ipc","address":"Ξενοφώντος 6, Αθήνα 105 57","categoryIds":["italian"],"categories":["Italian Restaurants"],"distanceKm":0.010476355118102295},{"id":"asianRestaurants_43504a2d050f","slug":"shiraki-athens-4350","kind":"restaurant","name":"Shiraki Athens","lat":37.97450335727445,"lng":23.733167658895514,"url":"https://maps.app.goo.gl/WStEy7p33ZAzDLCY7?g_st=ipc","address":"Νίκης 17, Αθήνα 105 57","categoryIds":["asian"],"categories":["Asian Restaurants"],"distanceKm":0.08232067805947635},{"id":"asianRestaurants_8d5a854c9f57","slug":"koi-sushi-bar-8d5a","kind":"restaurant","name":"Koi Sushi Bar","lat":37.9746059285853,"lng":23.73317074110448,"url":"https://maps.app.goo.gl/cap6URyugQKPXeA47?g_st=ipc","address":"Νίκης 15, Αθήνα 105 57","categoryIds":["asian"],"categories":["Asian Restaurants"],"distanceKm":0.08573266413320445},{"id":"coffeeBrunchRestaurants_f0eff25de691","slug":"amandine-s-bagels-f0ef","kind":"restaurant","name":"Amandine's Bagels","lat":37.97477039083452,"lng":23.73321799541619,"url":"https://maps.app.goo.gl/spidgemnNTyMgFML7?g_st=ipc","address":"Νίκης 13, Αθήνα 105 57","categoryIds":["coffee-brunch"],"categories":["Coffee & Brunch Spots"],"distanceKm":0.09078518942629568},{"id":"coffeeBrunchRestaurants_72ee5296056d","slug":"holy-llama-72ee","kind":"restaurant","name":"Holy Llama","lat":37.97397500358649,"lng":23.73312528899751,"url":"https://maps.app.goo.gl/5KzgeBBfEf77x8sL7?g_st=ipc","address":"Nikis, Syntagma 23, Αθήνα 105 57","categoryIds":["coffee-brunch","vegetarian"],"categories":["Coffee & Brunch Spots","Vegetarian Friendly Restaurants"],"legacySlugs":["holy-llama-4c1a"],"distanceKm":0.09125904585163906},{"id":"asianRestaurants_d1a59d966352","slug":"east-pearl-chinese-restaurant-d1a5","kind":"restaurant","name":"East Pearl Chinese restaurant","lat":37.97475497132636,"lng":23.732999717791024,"url":"https://maps.app.goo.gl/X4tWaVESeHdhnYpi6?g_st=ipc","address":"Απόλλωνος 2, Αθήνα 105 57","categoryIds":["asian"],"categories":["Asian Restaurants"],"distanceKm":0.106347619767863},{"id":"luxuryDiningRestaurants_ea67b94ccce5","slug":"art-lounge-rooftop-ea67","kind":"restaurant","name":"Art Lounge Rooftop","lat":37.97343240978713,"lng":23.73349750420062,"url":"https://maps.app.goo.gl/ou4XFAAMpTQ3uTaeA?g_st=ipc","address":"Ναυάρχου Νικοδήμου 1, Αθήνα 105 57","categoryIds":["luxury-dining","rooftop-lounges"],"categories":["Luxury Dining","Rooftop Lounges"],"legacySlugs":["art-lounge-rooftop-f22b"],"distanceKm":0.1100876735572706}],"sameRegion":[],"mentionedGuides":[{"slug":"athens-airport-to-city-guide-el","title":"Πώς να Πάτε από το Αεροδρόμιο της Αθήνας στο Κέντρο"},{"slug":"athens-airport-to-city-guide","title":"Getting From Athens Airport to the City Center"},{"slug":"athens-hop-on-hop-off-guide-el","title":"Οδηγός για τα Hop-On-Hop-Off Λεωφορεία της Αθήνας"},{"slug":"athens-hop-on-hop-off-guide","title":"Ultimate Guide to Athens Hop-On-Hop-Off Bus Tours"},{"slug":"athens-layover-6-hours-guide-el","title":"Πώς να Αξιοποιήσετε 6 Ώρες Αναμονής στην Αθήνα"},{"slug":"athens-layover-6-hours-guide","title":"How to Spend a 6 Hour Layover in Athens"},{"slug":"best-greek-souvenirs-athens-el","title":"Καλύτερα Ελληνικά Σουβενίρ στην Αθήνα: Οδηγός Αγορών"},{"slug":"best-greek-souvenirs-athens","title":"Best Greek Souvenirs in Athens: Shopping Guide"}],"canonicalSlug":"soyvlaki-o-kostas-1950-syntagma-a881","isCanonicalEntity":true,"enrichment":{"summary_en":"Σουβλάκι Ο Κώστας 1950 συνταγμα is a curated restaurant in Αθήνα 105 57 in the Gyros & Cheap Eats collection. It is connected to 253 nearby Googlementor picks to help travelers build a stronger local route.","summary_el":"Σουβλάκι Ο Κώστας 1950 συνταγμα είναι ένα επιλεγμένο σημείο φαγητού στην περιοχή Αθήνα 105 57 και ανήκει στη συλλογή Gyros & Cheap Eats. Συνδέεται με 253 κοντινές προτάσεις του Googlementor για πιο ολοκληρωμένη εμπειρία.","vibe_tags":["curated","budget-friendly"],"best_for":["first-time visitors","food lovers","budget travelers"],"visit_moments":["lunch stop","dinner stop"],"practical_note":"Address and direct map link are available for easy turn-by-turn access.","nearby_walkable_count":253,"nearby_count_2km":652,"confidence":0.98}},"__N_SSG":true}