{"pageProps":{"entity":{"id":"greekRestaurants_cd7bd8c142b3","slug":"ta-peyka-cd7b","kind":"restaurant","name":"Τα Πεύκα","lat":38.060680665394344,"lng":23.798177860938093,"url":"https://maps.app.goo.gl/47TqLWgDNWfa9U2QA","address":"Χαϊμαντά Δημητρίου 34, Μαρούσι 151 22","categoryIds":["greek-restaurants"],"categories":["Greek Restaurants"]},"sameCategory":[{"id":"greekRestaurants_1ff9a64c2696","slug":"kempaptzidikon-mparmpalias-maroysi-1ff9","kind":"restaurant","name":"Κεμπαπτζιδικον Μπαρμπαλιάς Μαρούσι","lat":38.05149931311812,"lng":23.790028540438847,"url":"https://maps.app.goo.gl/NL3SuAhkVPXxocnF9","address":"Βύρωνος 19, Μαρούσι 151 22","categoryIds":["greek-restaurants"],"categories":["Greek Restaurants"]},{"id":"greekRestaurants_81215dd76f6b","slug":"artisanal-8121","kind":"restaurant","name":"Artisanal","lat":38.067981010642875,"lng":23.811453792339574,"url":"https://maps.app.goo.gl/WsfMSGTo3b3Mq3hS6","address":"Ζηρίνη 2, Κηφισιά 145 62","categoryIds":["greek-restaurants"],"categories":["Greek Restaurants"]},{"id":"greekRestaurants_ee1040d986a2","slug":"o-tzitzikas-kai-o-mermigkas-ee10","kind":"restaurant","name":"Ο Τζίτζικας και ο Μέρμηγκας","lat":38.071444564634874,"lng":23.81158159449847,"url":"https://maps.app.goo.gl/Baz66z9eF1nXkQDe8","address":"Γεωρ. Δροσίνη 12, Κηφισιά 145 62","categoryIds":["greek-restaurants"],"categories":["Greek Restaurants"]},{"id":"greekRestaurants_b3a06913c0a6","slug":"striggla-b3a0","kind":"restaurant","name":"Striggla","lat":38.046725624480935,"lng":23.806442690864635,"url":"https://maps.app.goo.gl/zrq9BbB4MU8m8xEA7","address":"Αγίου Κωνσταντίνου 56, Μαρούσι 151 24","categoryIds":["greek-restaurants"],"categories":["Greek Restaurants"]},{"id":"greekRestaurants_191a2f7954ba","slug":"to-aythaireto-191a","kind":"restaurant","name":"ΤΟ ΑΥΘΑΙΡΕΤΟ","lat":38.05739141623042,"lng":23.82532230565926,"url":"https://maps.app.goo.gl/oF5WnEmN9HdHPyPo9","address":"Πεύκων 10, Μαρούσι 151 26","categoryIds":["greek-restaurants"],"categories":["Greek Restaurants"]},{"id":"greekRestaurants_b901d82ee343","slug":"vasilis-kifisia-b901","kind":"restaurant","name":"Βασίλης Κηφισιά","lat":38.08032122894861,"lng":23.814581872798477,"url":"https://maps.app.goo.gl/eB16zN6dJoMUydyJA","address":"Λεωφ. Κηφισίας 284, Κηφισιά 145 61","categoryIds":["greek-restaurants"],"categories":["Greek Restaurants"]},{"id":"greekRestaurants_96a815ab2fda","slug":"spitjack-golden-hall-96a8","kind":"restaurant","name":"Spitjack Golden Hall","lat":38.034373053538495,"lng":23.793186418589283,"url":"https://maps.app.goo.gl/MjaG7qgQXBbLTT8n7","address":"Λεωφ. Κηφισίας 37A, Μαρούσι 151 23","categoryIds":["greek-restaurants"],"categories":["Greek Restaurants"]},{"id":"greekRestaurants_be5c399cb3b9","slug":"to-vietnam-be5c","kind":"restaurant","name":"Το Βιετνάμ","lat":38.0615311115762,"lng":23.764059030004713,"url":"https://maps.app.goo.gl/xC1aTbCCv97NuUkz6?g_st=ipc","address":"Agiou Konstantinou 18, Metamorfosi 144 52","categoryIds":["greek-restaurants"],"categories":["Greek Restaurants"]}],"nearby":[{"id":"coffeeBrunchRestaurants_37b671b3632a","slug":"alepou-37b6","kind":"restaurant","name":"Alepou","lat":38.060273733807854,"lng":23.79751630322254,"url":"https://maps.app.goo.gl/heYFVvSaJ4P8dDiS6?g_st=ipc","address":"Βαρβαρεσου, Πεύκη 151 21","categoryIds":["coffee-brunch"],"categories":["Coffee & Brunch Spots"],"distanceKm":0.07349924649335411},{"id":"italianRestaurants_602b491bd8e4","slug":"puff-daddy-pizzeria-602b","kind":"restaurant","name":"Puff Daddy Pizzeria","lat":38.06473867888921,"lng":23.799010812565253,"url":"https://maps.app.goo.gl/kgXB1etikXQDGo7k6?g_st=ipc","address":"Σκρα 16, Πεύκη 151 21","categoryIds":["italian"],"categories":["Italian Restaurants"],"distanceKm":0.45708506204180854},{"id":"dessertsRestaurants_11d8eb3a5116","slug":"solo-gelato-pefki-11d8","kind":"restaurant","name":"Solo Gelato Pefki","lat":38.058776038280556,"lng":23.79284350703131,"url":"https://maps.app.goo.gl/SjAsiViMGast8vsf9?g_st=ipc","address":"Σοφούλη 3, Πεύκη 151 21","categoryIds":["desserts"],"categories":["Dessert Shops"],"distanceKm":0.5128059309035687},{"id":"municipalities_3dd9311bd3cf","slug":"peyki-3dd9","kind":"municipality","name":"Πεύκη","lat":38.06,"lng":23.792,"aliases":["Pefki","Pefkakia","Πευκη","Peuki","Pefka"],"region":"Βόρεια Προάστια","name_en":"Pefki","region_en":"Northern Suburbs","distanceKm":0.5461456220371151},{"id":"familyFriendly_a0024b80ee95","slug":"block-games-a002","kind":"restaurant","name":"Block Games","lat":38.05634420757886,"lng":23.803830698656842,"url":"https://maps.app.goo.gl/KumHXE484XwJxn489?g_st=ipc","address":"Περικλέους 1, Μαρούσι 151 22","categoryIds":["family-friendly"],"categories":["Kid Friendly Locations"],"distanceKm":0.6909826426938563},{"id":"burgersRestaurants_6d610eb79dbd","slug":"taz-smash-burger-6d61","kind":"restaurant","name":"Taz Smash Burger","lat":38.05644521597169,"lng":23.804667787562405,"url":"https://maps.app.goo.gl/tj3ojXGmrnTvMA9c7?g_st=ipc","address":"Περικλέους 2, Μαρούσι 151 22","categoryIds":["burgers"],"categories":["Burger Spots"],"distanceKm":0.738016024923229},{"id":"asianRestaurants_02d0f232a272","slug":"new-great-wall-marousi-02d0","kind":"restaurant","name":"New Great Wall Marousi","lat":38.05713122309269,"lng":23.805863056780513,"url":"https://maps.app.goo.gl/UXfhhMjtr2rYJfNW7?g_st=ipc","address":"Βασ. Αμαλίας 1, Μαρούσι 151 22","categoryIds":["asian"],"categories":["Asian Restaurants"],"distanceKm":0.780069847323088},{"id":"cheapEatsRestaurants_484ec346fe11","slug":"souzi-tros-street-food-484e","kind":"restaurant","name":"SOUZI TROS street food","lat":38.0550996125921,"lng":23.804743752516742,"url":"https://maps.app.goo.gl/Q2YtxKh8LosNGyHJ6?g_st=ipc","address":"Σπύρου Λέκκα 9, Μαρούσι 151 24","categoryIds":["cheap-eats"],"categories":["Gyros & Cheap Eats"],"distanceKm":0.8459301998133033}],"sameRegion":[],"mentionedGuides":[],"canonicalSlug":"ta-peyka-cd7b","isCanonicalEntity":true,"enrichment":{"summary_en":"Τα Πεύκα is a curated restaurant in Μαρούσι 151 22 in the Greek Restaurants collection. It is connected to 7 nearby Googlementor picks to help travelers build a stronger local route.","summary_el":"Τα Πεύκα είναι ένα επιλεγμένο σημείο φαγητού στην περιοχή Μαρούσι 151 22 και ανήκει στη συλλογή Greek Restaurants. Συνδέεται με 7 κοντινές προτάσεις του Googlementor για πιο ολοκληρωμένη εμπειρία.","vibe_tags":["curated"],"best_for":["first-time visitors","food lovers"],"visit_moments":["lunch stop","dinner stop"],"practical_note":"Address and direct map link are available for easy turn-by-turn access.","nearby_walkable_count":7,"nearby_count_2km":48,"confidence":0.98}},"__N_SSG":true}