{"pageProps":{"entity":{"id":"greekRestaurants_7b51b9a8d590","slug":"taverna-o-giannoylis-7b51","kind":"restaurant","name":"Ταβέρνα Ο Γιαννούλης","lat":37.07476079820257,"lng":25.35214595404142,"url":"https://maps.app.goo.gl/jk1SQcCbpGGpyJxP8?g_st=ipc","address":"Unnamed Road, Αγ. Προκόπιος 843 00","categoryIds":["greek-restaurants"],"categories":["Greek Restaurants"]},"sameCategory":[{"id":"greekRestaurants_e19d898df0e1","slug":"taverna-paradeisos-naxos-e19d","kind":"restaurant","name":"Ταβέρνα Παράδεισος | Νάξος","lat":37.06269869849226,"lng":25.355485426360563,"url":"https://maps.app.goo.gl/snSuBibKoHzbKRP3A?g_st=ipc","address":"Μαραγκας 843 00","categoryIds":["greek-restaurants"],"categories":["Greek Restaurants"]},{"id":"greekRestaurants_1f1aa19a1160","slug":"yazoo-summer-bliss-1f1a","kind":"restaurant","name":"Yazoo Summer Bliss","lat":37.05947332168921,"lng":25.35827570673648,"url":"https://maps.app.goo.gl/NhU86ckth6hj5Sat7?g_st=ipc","address":"Beach, Πλάκα 843 00","categoryIds":["greek-restaurants"],"categories":["Greek Restaurants"]},{"id":"greekRestaurants_1d1d2978a995","slug":"nissaki-restaurant-since-1971-1d1d","kind":"restaurant","name":"Nissaki Restaurant since 1971","lat":37.1004793636916,"lng":25.373689522155757,"url":"https://maps.app.goo.gl/1p3SN2L3QLT24UKX8?g_st=ipc","address":"Αγίου Γεωργίου, Νάξος 843 00","categoryIds":["greek-restaurants"],"categories":["Greek Restaurants"]},{"id":"greekRestaurants_533382eda428","slug":"to-elliniko-restaurant-5333","kind":"restaurant","name":"To Elliniko Restaurant","lat":37.10045212673621,"lng":25.377603556843287,"url":"https://maps.app.goo.gl/Xqt8tsmindBjCsXV8?g_st=ipc","address":"Ιωάννου Παπαρηγοπούλου, Νάξος 843 00","categoryIds":["greek-restaurants"],"categories":["Greek Restaurants"]},{"id":"greekRestaurants_e47501c318a2","slug":"maro-e475","kind":"restaurant","name":"Μάρω","lat":37.10154028987827,"lng":25.3766315671974,"url":"https://maps.app.goo.gl/zA4x53E8WYhDfBig6?g_st=ipc","address":"Πλ. Πέτρου Ευριπαίου, Νάξος 843 00","categoryIds":["greek-restaurants"],"categories":["Greek Restaurants"]},{"id":"greekRestaurants_7781d11d6267","slug":"musique-cafe-restaurant-7781","kind":"restaurant","name":"Musique Cafe - Restaurant","lat":37.103293290914934,"lng":25.374723030497336,"url":"https://maps.app.goo.gl/ShCS95qz2nMgxP8EA?g_st=ipc","address":"Αριάδνης, Νάξος 843 00","categoryIds":["greek-restaurants"],"categories":["Greek Restaurants"]},{"id":"greekRestaurants_130710e212e4","slug":"mpoylamatsis-1307","kind":"restaurant","name":"Μπουλαμάτσης","lat":37.10647098604559,"lng":25.37521889326687,"url":"https://maps.app.goo.gl/HtLuBm5ry7CugcJL6?g_st=ipc","address":"Νάξος 843 00","categoryIds":["greek-restaurants"],"categories":["Greek Restaurants"]},{"id":"greekRestaurants_3b45d35e6fd1","slug":"irini-s-restaurant-3b45","kind":"restaurant","name":"Irini's Restaurant","lat":37.1071372692847,"lng":25.374640994171585,"url":"https://maps.app.goo.gl/YgF63yZMU9zTQLo56?g_st=ipc","address":"Protopapadaki, Hora, Naxos, Νάξος 843 00","categoryIds":["greek-restaurants"],"categories":["Greek Restaurants"]}],"nearby":[{"id":"coffeeBrunchRestaurants_11b9ac0dc44e","slug":"macao-beach-naxos-11b9","kind":"restaurant","name":"Macao beach naxos","lat":37.07477452112851,"lng":25.350720849700185,"url":"https://maps.app.goo.gl/VMcfVNerQn3tSzED8?g_st=ipc","address":"Agios Prokopios 843 00","categoryIds":["coffee-brunch"],"categories":["Coffee & Brunch Spots"],"distanceKm":0.12643992797966538},{"id":"fishTavernasRestaurants_e4bded96d41b","slug":"akrogiali-restaurant-studios-e4bd","kind":"restaurant","name":"Akrogiali Restaurant- Studios","lat":37.06850212174682,"lng":25.355709551048015,"url":"https://maps.app.goo.gl/f5SYBYZkLKJhZSov6?g_st=ipc","address":"Αγ. Αννα 843 00","categoryIds":["fish-tavernas"],"categories":["Fish Tavernas"],"distanceKm":0.7643837695904898},{"id":"familyFriendly_2da660f5cea1","slug":"aqua-fun-2da6","kind":"restaurant","name":"Aqua Fun","lat":37.082347515027855,"lng":25.35405984069226,"url":"https://maps.app.goo.gl/kxZ4WVVMgAh5nHj19?g_st=ipc","address":"ΣΤΕΛΙΔΑ, Ag. Prokopios 843 00","categoryIds":["family-friendly"],"categories":["Kid Friendly Locations"],"distanceKm":0.860520492630263},{"id":"coffeeBrunchRestaurants_1ed3ff082f80","slug":"goat-in-a-boat-1ed3","kind":"restaurant","name":"goat in a boat","lat":37.06717854640464,"lng":25.356316886639643,"url":"https://maps.app.goo.gl/RjakHZ5s5a6HV2Rj8?g_st=ipc","address":"Αγ. Αννα 843 00","categoryIds":["coffee-brunch"],"categories":["Coffee & Brunch Spots"],"distanceKm":0.9207433297243199},{"id":"greekRestaurants_e19d898df0e1","slug":"taverna-paradeisos-naxos-e19d","kind":"restaurant","name":"Ταβέρνα Παράδεισος | Νάξος","lat":37.06269869849226,"lng":25.355485426360563,"url":"https://maps.app.goo.gl/snSuBibKoHzbKRP3A?g_st=ipc","address":"Μαραγκας 843 00","categoryIds":["greek-restaurants"],"categories":["Greek Restaurants"],"distanceKm":1.373580930641442},{"id":"greekRestaurants_1f1aa19a1160","slug":"yazoo-summer-bliss-1f1a","kind":"restaurant","name":"Yazoo Summer Bliss","lat":37.05947332168921,"lng":25.35827570673648,"url":"https://maps.app.goo.gl/NhU86ckth6hj5Sat7?g_st=ipc","address":"Beach, Πλάκα 843 00","categoryIds":["greek-restaurants"],"categories":["Greek Restaurants"],"distanceKm":1.7847735844943031},{"id":"coffeeBrunchRestaurants_06b43145276e","slug":"yazoo-summer-bliss-06b4","kind":"restaurant","name":"Yazoo Summer Bliss","lat":37.05936629317493,"lng":25.358292075823126,"url":"https://maps.app.goo.gl/6st7M6E2gAiTKTuK7?g_st=ipc","address":"Beach, Plaka 843 00","categoryIds":["coffee-brunch"],"categories":["Coffee & Brunch Spots"],"distanceKm":1.7965526890588521},{"id":"mexicanRestaurants_983dcb8a2e0a","slug":"picasso-on-the-beach-naxos-983d","kind":"restaurant","name":"Picasso on the beach - Naxos","lat":37.05943119973437,"lng":25.358989286042366,"url":"https://maps.app.goo.gl/dyPRjYQnHRARiSJ79?g_st=ipc","address":"Beach, Plaka, Ag. Anna 843 00","categoryIds":["mexican"],"categories":["Mexican Restaurants"],"distanceKm":1.809485750599212}],"sameRegion":[],"mentionedGuides":[],"canonicalSlug":"taverna-o-giannoylis-7b51","isCanonicalEntity":true,"enrichment":{"summary_en":"Ταβέρνα Ο Γιαννούλης is a curated restaurant in Αγ. Προκόπιος 843 00 in the Greek Restaurants collection. It is connected to 2 nearby Googlementor picks to help travelers build a stronger local route.","summary_el":"Ταβέρνα Ο Γιαννούλης είναι ένα επιλεγμένο σημείο φαγητού στην περιοχή Αγ. Προκόπιος 843 00 και ανήκει στη συλλογή Greek Restaurants. Συνδέεται με 2 κοντινές προτάσεις του Googlementor για πιο ολοκληρωμένη εμπειρία.","vibe_tags":["curated"],"best_for":["first-time visitors","food lovers"],"visit_moments":["lunch stop","dinner stop"],"practical_note":"Address and direct map link are available for easy turn-by-turn access.","nearby_walkable_count":2,"nearby_count_2km":9,"confidence":0.9}},"__N_SSG":true}