{"pageProps":{"entity":{"id":"greekRestaurants_9800452eacf2","slug":"taverna-thea-9800","kind":"restaurant","name":"Ταβέρνα Θέα","lat":38.144279854273236,"lng":23.79258851371657,"url":"https://maps.app.goo.gl/fYR8XP1Em51pwvSn8","address":"Τατοΐου, Αχαρνές 136 72","categoryIds":["greek-restaurants"],"categories":["Greek Restaurants"]},"sameCategory":[{"id":"greekRestaurants_5df0a2118a6f","slug":"agios-merkoyrios-5df0","kind":"restaurant","name":"Άγιος Μερκούριος","lat":38.1455087216868,"lng":23.79177367608356,"url":"https://maps.app.goo.gl/WBkCLkjPiQY1AwSH6","address":"Ά Φυλακιο Πυροσβεστικής, ΒΑΡΥΜΠΟΜΠΗ 136 73","categoryIds":["greek-restaurants"],"categories":["Greek Restaurants"]},{"id":"greekRestaurants_3985a63bf69c","slug":"taverna-pappas-3985","kind":"restaurant","name":"Ταβέρνα Παππάς","lat":38.13707378465122,"lng":23.751130974888763,"url":"https://maps.app.goo.gl/cf1v4bYNnpWbWW7u9","address":"Θεσσαλονίκης 2, Αχαρνές 136 76","categoryIds":["greek-restaurants"],"categories":["Greek Restaurants"]},{"id":"greekRestaurants_88c2247c1ee0","slug":"kivotos-88c2","kind":"restaurant","name":"Κιβωτός","lat":38.09806564019595,"lng":23.80316229730133,"url":"https://maps.app.goo.gl/U5NQdUWeNcGPMbcs9","address":"Διός 32, Κηφισιά 145 64","categoryIds":["greek-restaurants"],"categories":["Greek Restaurants"]},{"id":"greekRestaurants_7971743137f0","slug":"tavernier-7971","kind":"restaurant","name":"Tavernier","lat":38.09316882456775,"lng":23.805434203164346,"url":"https://maps.app.goo.gl/irth7CYMSHY5DX7t5","address":"Ελπίδος 24, Κηφισιά 145 64","categoryIds":["greek-restaurants"],"categories":["Greek Restaurants"]},{"id":"greekRestaurants_c38384cb3d4e","slug":"gakias-c383","kind":"restaurant","name":"Γάκιας","lat":38.09024721634053,"lng":23.815925478181978,"url":"https://maps.app.goo.gl/5fW7sQn1VfXFue1i8","address":"Ευαγγελίστριας και Κρήνης, Νέα Ερυθραία 146 71","categoryIds":["greek-restaurants"],"categories":["Greek Restaurants"]},{"id":"greekRestaurants_5d8a4cf10a66","slug":"o-laios-taverna-5d8a","kind":"restaurant","name":"Ο Λάιος Ταβέρνα","lat":38.10626654490386,"lng":23.736261492242534,"url":"https://maps.app.goo.gl/r5ZTDusqKfZ21E9b8","address":"Λεωφ. Κωνσταντίνου Καραμανλή 6, Αχαρνές 136 72","categoryIds":["greek-restaurants"],"categories":["Greek Restaurants"]},{"id":"greekRestaurants_ea49f706ac3a","slug":"vathis-taverna-kifisia-ea49","kind":"restaurant","name":"Βαθης - Ταβέρνα - Κηφισιά","lat":38.08767324286352,"lng":23.812020752033984,"url":"https://maps.app.goo.gl/8zy6QLVSBAEWjShh9","address":"Κύρου 7, Κηφισιά 145 64","categoryIds":["greek-restaurants"],"categories":["Greek Restaurants"]},{"id":"greekRestaurants_b22d69737b66","slug":"parasia-istories-geyseon-b22d","kind":"restaurant","name":"Παρασιά Ιστορίες Γεύσεων","lat":38.08628061091575,"lng":23.81539216213334,"url":"https://maps.app.goo.gl/FtKavrSVarJSeYwXA","address":"Σκιάθου 3, Κηφισιά 145 64","categoryIds":["greek-restaurants"],"categories":["Greek Restaurants"]}],"nearby":[{"id":"greekRestaurants_5df0a2118a6f","slug":"agios-merkoyrios-5df0","kind":"restaurant","name":"Άγιος Μερκούριος","lat":38.1455087216868,"lng":23.79177367608356,"url":"https://maps.app.goo.gl/WBkCLkjPiQY1AwSH6","address":"Ά Φυλακιο Πυροσβεστικής, ΒΑΡΥΜΠΟΜΠΗ 136 73","categoryIds":["greek-restaurants"],"categories":["Greek Restaurants"],"distanceKm":0.15410743765155088},{"id":"familyFriendly_03b3e4324315","slug":"northern-suburbs-riding-club-03b3","kind":"restaurant","name":"Northern Suburbs Riding Club","lat":38.120645518273435,"lng":23.786586294729055,"url":"https://maps.app.goo.gl/56QDyzWUMbJuYDJ66?g_st=ic","address":"Tatoiou 137, Acharnes 136 72","categoryIds":["family-friendly"],"categories":["Kid Friendly Locations"],"distanceKm":2.679941005334442},{"id":"greekRestaurants_3985a63bf69c","slug":"taverna-pappas-3985","kind":"restaurant","name":"Ταβέρνα Παππάς","lat":38.13707378465122,"lng":23.751130974888763,"url":"https://maps.app.goo.gl/cf1v4bYNnpWbWW7u9","address":"Θεσσαλονίκης 2, Αχαρνές 136 76","categoryIds":["greek-restaurants"],"categories":["Greek Restaurants"],"distanceKm":3.7131331110147117},{"id":"municipalities_51534bbed11a","slug":"ekali-5153","kind":"municipality","name":"Εκάλη","lat":38.1177,"lng":23.8368,"region":"Βόρεια Προάστια","name_en":"Ekali","region_en":"North Suburbs","distanceKm":4.867131439540367},{"id":"familyFriendly_914b28d0bdc8","slug":"playmobil-funpark-914b","kind":"restaurant","name":"PLAYMOBIL FunPark","lat":38.101749739078855,"lng":23.80667805908177,"url":"https://maps.app.goo.gl/iUSz6s7BVEgZACCj9?g_st=ipc","address":"Αμαλιάδος 4, Κηφισιά 145 64","categoryIds":["family-friendly"],"categories":["Kid Friendly Locations"],"distanceKm":4.88709880770033},{"id":"municipalities_21a4cf6d5b03","slug":"nea-erythraia-21a4","kind":"municipality","name":"Νέα Ερυθραία","lat":38.1025,"lng":23.817,"region":"Βόρεια Προάστια","name_en":"Nea Erythraia","region_en":"Northern Suburbs","distanceKm":5.112976500674069},{"id":"familyFriendly_53d1fe8092e8","slug":"parko-andrea-papandreoy-53d1","kind":"restaurant","name":"Πάρκο Ανδρέα Παπανδρέου","lat":38.1031196150353,"lng":23.81935226972679,"url":"https://maps.app.goo.gl/DqJ2RQU9EoTQdjWRA?g_st=ipc","address":"146 71, Αισχύλου 18, Νέα Ερυθραία 146 71","categoryIds":["family-friendly"],"categories":["Kid Friendly Locations"],"distanceKm":5.140835474167177},{"id":"greekRestaurants_88c2247c1ee0","slug":"kivotos-88c2","kind":"restaurant","name":"Κιβωτός","lat":38.09806564019595,"lng":23.80316229730133,"url":"https://maps.app.goo.gl/U5NQdUWeNcGPMbcs9","address":"Διός 32, Κηφισιά 145 64","categoryIds":["greek-restaurants"],"categories":["Greek Restaurants"],"distanceKm":5.221369100574226}],"sameRegion":[],"mentionedGuides":[],"canonicalSlug":"taverna-thea-9800","isCanonicalEntity":true,"enrichment":{"summary_en":"Ταβέρνα Θέα is a curated restaurant in Αχαρνές 136 72 in the Greek Restaurants collection. It is connected to 1 nearby Googlementor picks to help travelers build a stronger local route.","summary_el":"Ταβέρνα Θέα είναι ένα επιλεγμένο σημείο φαγητού στην περιοχή Αχαρνές 136 72 και ανήκει στη συλλογή Greek Restaurants. Συνδέεται με 1 κοντινές προτάσεις του Googlementor για πιο ολοκληρωμένη εμπειρία.","vibe_tags":["curated"],"best_for":["first-time visitors","food lovers"],"visit_moments":["lunch stop","dinner stop"],"practical_note":"Address and direct map link are available for easy turn-by-turn access.","nearby_walkable_count":1,"nearby_count_2km":1,"confidence":0.9}},"__N_SSG":true}