{"pageProps":{"entity":{"id":"fishTavernasRestaurants_f11f3f78b977","slug":"taverna-ta-tria-pitharia-f11f","kind":"restaurant","name":"Taverna Ta Tria Pitharia","lat":40.83585839690305,"lng":24.305213402843865,"url":"https://maps.app.goo.gl/4hp3qTvHqzD6ZvsJ7?g_st=ipc","address":"Nikis, Nea Peramos 640 07","categoryIds":["fish-tavernas"],"categories":["Fish Tavernas"]},"sameCategory":[{"id":"fishTavernasRestaurants_aecb96de4396","slug":"savvas-aecb","kind":"restaurant","name":"Savvas","lat":40.942255728565115,"lng":24.425243186310322,"url":"https://maps.app.goo.gl/HRHjPKGDuwcWxApM7?g_st=ipc","address":"Thasou 29, Kavala 652 01","categoryIds":["fish-tavernas"],"categories":["Fish Tavernas"]},{"id":"fishTavernasRestaurants_9e4956f003d0","slug":"tzanis-9e49","kind":"restaurant","name":"Tzanis","lat":40.33107915875693,"lng":23.922485829473047,"url":"https://maps.app.goo.gl/gztDX78ELvSAM2Bu8?g_st=ipc","address":"Αμμουλιανή, Ammouliani 630 75","categoryIds":["fish-tavernas"],"categories":["Fish Tavernas"]},{"id":"fishTavernasRestaurants_ba7d3e309d85","slug":"aristos-fish-restaurant-ba7d","kind":"restaurant","name":"Aristos Fish Restaurant","lat":40.23383447373684,"lng":23.73191385396379,"url":"https://maps.app.goo.gl/LnFKcNNyuXLtSFgcA?g_st=ipc","address":"Ormos Panagias 630 78","categoryIds":["fish-tavernas"],"categories":["Fish Tavernas"]},{"id":"fishTavernasRestaurants_89407965d754","slug":"bubo-8940","kind":"restaurant","name":"Bubo","lat":40.19122023224205,"lng":23.803994678989536,"url":"https://maps.app.goo.gl/oD1rDfLpCw74E1w19?g_st=ipc","address":"5RR3+FH, Sithonia 630 78","categoryIds":["fish-tavernas"],"categories":["Fish Tavernas"]},{"id":"fishTavernasRestaurants_65768adf2a19","slug":"ta-vrahakia-6576","kind":"restaurant","name":"Ta Vrahakia","lat":40.097540490283095,"lng":23.98106959598484,"url":"https://maps.app.goo.gl/s3bXAQZmTZm8mRD49?g_st=ipc","address":"Sarti, 630 72","categoryIds":["fish-tavernas"],"categories":["Fish Tavernas"]},{"id":"fishTavernasRestaurants_5ddf9e953038","slug":"thymari-taverna-5ddf","kind":"restaurant","name":"Thymari taverna","lat":40.21611233902217,"lng":23.666893873150787,"url":"https://maps.app.goo.gl/PcZJeEER8XQLBzFZ8?g_st=ipc","address":"παραλία Νικήτης, Nikiti 630 88","categoryIds":["fish-tavernas"],"categories":["Fish Tavernas"]},{"id":"fishTavernasRestaurants_eaca4ed31815","slug":"akrogiali-2-eaca","kind":"restaurant","name":"Akrogiali 2","lat":40.21686489057887,"lng":23.665587945674364,"url":"https://maps.app.goo.gl/oid3twRv2Aw1mCyb9?g_st=ipc","address":"Neakitou 1, Nikiti 630 88","categoryIds":["fish-tavernas"],"categories":["Fish Tavernas"]},{"id":"fishTavernasRestaurants_e355b9bd1307","slug":"arsanas-restaurant-e355","kind":"restaurant","name":"Arsanas Restaurant","lat":40.2141250129841,"lng":23.668831311582355,"url":"https://maps.app.goo.gl/RAaNDUnjFSAhBEiK6?g_st=ipc","address":"Epar.Od. Nikitis-Sartis, Sithonia 630 88","categoryIds":["fish-tavernas","luxury-dining"],"categories":["Fish Tavernas","Luxury Dining"],"legacySlugs":["arsanas-restaurant-8335"]}],"nearby":[{"id":"municipalities_48180ac7ab6a","slug":"kavala-4818","kind":"municipality","name":"Καβάλα","lat":40.937,"lng":24.406,"region":"Κεντρική Μακεδονία","name_en":"Kavala","region_en":"Central Macedonia","distanceKm":14.080710041181838},{"id":"rooftopLoungesRestaurants_bb49421d891b","slug":"swell-roof-garden-bb49","kind":"restaurant","name":"Swell Roof Garden","lat":40.93644468023091,"lng":24.41131352952831,"url":"https://maps.app.goo.gl/u2rtEnenzWiQA1C79?g_st=ipc","address":"El. Venizelou 17, Kavala 653 02","categoryIds":["rooftop-lounges"],"categories":["Rooftop Lounges"],"distanceKm":14.305610634827236},{"id":"dessertsRestaurants_63113ea4bb9d","slug":"ntinos-patisserie-6311","kind":"restaurant","name":"Ntinos Patisserie","lat":40.93677597847986,"lng":24.41089117085129,"url":"https://maps.app.goo.gl/k1igYo9JRosLStDy7?g_st=ipc","address":"El. Venizelou 25, Kavala 653 02","categoryIds":["desserts"],"categories":["Dessert Shops"],"distanceKm":14.312351703306518},{"id":"dessertsRestaurants_429ae1be11cf","slug":"evangelou-confectionary-429a","kind":"restaurant","name":"Evangelou Confectionary","lat":40.93760506506312,"lng":24.410866727456785,"url":"https://maps.app.goo.gl/RP9XvJeTKjnB3SyW7?g_st=ipc","address":"P. Mela 6, Kavala 653 02","categoryIds":["desserts"],"categories":["Dessert Shops"],"distanceKm":14.383443453562629},{"id":"dessertsRestaurants_45b658e0e38d","slug":"marantidis-konstantinos-45b6","kind":"restaurant","name":"Marantidis Konstantinos","lat":40.940415746394464,"lng":24.418722029538895,"url":"https://maps.app.goo.gl/DuCK5b9RjUfShnnG8?g_st=ipc","address":"Sappeon 7, Kavala 652 01","categoryIds":["desserts"],"categories":["Dessert Shops"],"distanceKm":15.040447312405737},{"id":"fishTavernasRestaurants_aecb96de4396","slug":"savvas-aecb","kind":"restaurant","name":"Savvas","lat":40.942255728565115,"lng":24.425243186310322,"url":"https://maps.app.goo.gl/HRHjPKGDuwcWxApM7?g_st=ipc","address":"Thasou 29, Kavala 652 01","categoryIds":["fish-tavernas"],"categories":["Fish Tavernas"],"distanceKm":15.54905866548033},{"id":"mustSeeAttractions_e57cfb521268","slug":"archaeological-site-of-philippi-e57c","kind":"restaurant","name":"Archaeological Site of Philippi","lat":41.012686338997746,"lng":24.287678993251607,"url":"https://maps.app.goo.gl/1Uc3YFqdrM7dERMj7?g_st=ipc","address":"EO Dramas Kavalas, Filippi 640 03","categoryIds":["attractions"],"categories":["Must-See Attractions"],"distanceKm":19.717480429094973},{"id":"coffeeBrunchRestaurants_3f658622b548","slug":"sklaris-3f65","kind":"restaurant","name":"Sklaris","lat":40.972805070668926,"lng":24.140591861373508,"url":"https://maps.app.goo.gl/1UACMfNmgegpjXm16?g_st=ipc","address":"Serron 17, Ag. Christoforos 640 01","categoryIds":["coffee-brunch"],"categories":["Coffee & Brunch Spots"],"distanceKm":20.57409681574042}],"sameRegion":[],"mentionedGuides":[],"canonicalSlug":"taverna-ta-tria-pitharia-f11f","isCanonicalEntity":true,"enrichment":{"summary_en":"Taverna Ta Tria Pitharia is a curated restaurant in Nea Peramos 640 07 in the Fish Tavernas collection. It is connected to 0 nearby Googlementor picks to help travelers build a stronger local route.","summary_el":"Taverna Ta Tria Pitharia είναι ένα επιλεγμένο σημείο φαγητού στην περιοχή Nea Peramos 640 07 και ανήκει στη συλλογή Fish Tavernas. Συνδέεται με 0 κοντινές προτάσεις του Googlementor για πιο ολοκληρωμένη εμπειρία.","vibe_tags":["curated","seafood-local"],"best_for":["first-time visitors","food lovers"],"visit_moments":["lunch stop","dinner stop"],"practical_note":"Address and direct map link are available for easy turn-by-turn access.","nearby_walkable_count":0,"nearby_count_2km":0,"confidence":0.9}},"__N_SSG":true}