{"pageProps":{"entity":{"id":"dessertsRestaurants_d6f56e7bfdf1","slug":"terkenlis-ktel-makedonias-d6f5","kind":"restaurant","name":"Τερκενλής ΚΤΕΛ Μακεδονίας","lat":40.654156711472844,"lng":22.902064012379874,"url":"https://maps.app.goo.gl/M3GHqH2wSqH8EMUj7?g_st=ipc","address":"Monastiriou, Menemeni 546 28","categoryIds":["desserts"],"categories":["Dessert Shops"]},"sameCategory":[{"id":"dessertsRestaurants_19a8d37c0b4c","slug":"cinnabon-19a8","kind":"restaurant","name":"Cinnabon","lat":40.646492769432,"lng":22.920799139987686,"url":"https://maps.app.goo.gl/Ndu5vJgYbtj4ou9s5?g_st=ipc","address":"Giannitson 61, Thessaloniki 546 27","categoryIds":["desserts"],"categories":["Dessert Shops"]},{"id":"dessertsRestaurants_31d6f488c2f0","slug":"terkenlis-ose-31d6","kind":"restaurant","name":"Terkenlis OSE","lat":40.64470252527838,"lng":22.92850176756682,"url":"https://maps.app.goo.gl/6mo1DJtrfFXMber56?g_st=ipc","address":"Monastiriou, Thessaloniki 546 27","categoryIds":["desserts"],"categories":["Dessert Shops"]},{"id":"dessertsRestaurants_72b74e57e81d","slug":"pastelopoiion-72b7","kind":"restaurant","name":"Pastelopoiḯon","lat":40.63949021546042,"lng":22.936170041434007,"url":"https://maps.app.goo.gl/QqgTsF7F3e7rFPXh6?g_st=ipc","address":"Dodekanisou 3, Thessaloniki 546 26","categoryIds":["desserts"],"categories":["Dessert Shops"]},{"id":"dessertsRestaurants_0eed40d3488f","slug":"helios-pastry-shop-0eed","kind":"restaurant","name":"Helios Pastry Shop","lat":40.639377492095335,"lng":22.93909008861793,"url":"https://maps.app.goo.gl/wxVoFxomNfq7egVX7?g_st=ipc","address":"Adigonidon 7, Thessaloniki 546 30","categoryIds":["desserts"],"categories":["Dessert Shops"]},{"id":"dessertsRestaurants_77934967676e","slug":"souffler-7793","kind":"restaurant","name":"Soufflér","lat":40.63479159488401,"lng":22.93892769842922,"url":"https://maps.app.goo.gl/BLrPEMBFAqcE5fZP6?g_st=ipc","address":"Rogkoti 4, Thessaloniki 546 24","categoryIds":["desserts"],"categories":["Dessert Shops"]},{"id":"dessertsRestaurants_70ba1f9e9560","slug":"sokolata-agapitos-patisserie-1944-70ba","kind":"restaurant","name":"Sokolata Agapitos Patisserie 1944","lat":40.63465415609907,"lng":22.93927735818438,"url":"https://maps.app.goo.gl/M7U7vTzULNaTuLAg7?g_st=ic","address":"Tsimiski 10, Thessaloniki 546 24","categoryIds":["desserts"],"categories":["Dessert Shops"]},{"id":"dessertsRestaurants_e887adc877c7","slug":"choureal-choux-profiterole-e887","kind":"restaurant","name":"CHOUREAL - Choux & Profiterole","lat":40.63486867839386,"lng":22.939852872521865,"url":"https://maps.app.goo.gl/UwfdcZR8Tfa1XRB89?g_st=ipc","address":"El. Venizelou 20, Thessaloniki 546 24","categoryIds":["desserts"],"categories":["Dessert Shops"]},{"id":"dessertsRestaurants_dcc7c5a7a10c","slug":"proficherie-dcc7","kind":"restaurant","name":"PROFICHÉRIE","lat":40.635435050961,"lng":22.940491002950786,"url":"https://maps.app.goo.gl/vrmA8yCaVwtzavyo7?g_st=ic","address":"El. Venizelou 28, Thessaloniki 546 24","categoryIds":["desserts"],"categories":["Dessert Shops"]}],"nearby":[{"id":"municipalities_2ba5701b87ab","slug":"ampelokipoi-menemeni-2ba5","kind":"municipality","name":"Αμπελόκηποι - Μενεμένη","lat":40.6589,"lng":22.9083,"region":"Δυτική Θεσσαλονίκη","name_en":"Ampelokipoi - Menemeni","region_en":"West Thessaloniki","distanceKm":0.7449168607791052},{"id":"cheapEatsRestaurants_78b831279473","slug":"steakhouse-makis-78b8","kind":"restaurant","name":"Steakhouse MAKIS","lat":40.663898455247235,"lng":22.911569590344406,"url":"https://maps.app.goo.gl/ATqXPJfCjdXR8wes9?g_st=ipc","address":"Aristotélous 35, Evosmos 562 24","categoryIds":["cheap-eats"],"categories":["Gyros & Cheap Eats"],"distanceKm":1.3477043767548114},{"id":"burgersRestaurants_535690910e30","slug":"broz-skg-burger-house-5356","kind":"restaurant","name":"Broz.Skg burger house","lat":40.664244931546285,"lng":22.911627282487927,"url":"https://maps.app.goo.gl/ka8qRW51kJox7mce6?g_st=ipc","address":"Aristotélous 39, Evosmos 562 24","categoryIds":["burgers"],"categories":["Burger Spots"],"distanceKm":1.3816952838030476},{"id":"greekRestaurants_b101b37c957d","slug":"ladokolla-apo-to-kordelio-sto-charmankioi-b101","kind":"restaurant","name":"Λαδόκολλα - Από το Κορδελιό στο Χαρμάνκιοϊ","lat":40.66651626452892,"lng":22.8973438821838,"url":"https://maps.app.goo.gl/CWnRci4QKtgu8y7y6?g_st=ipc","address":"Μεγ. Αλεξάνδρου 31, Ελευθέριο Κορδελιό 563 34","categoryIds":["greek-restaurants"],"categories":["Greek Restaurants"],"distanceKm":1.4308303333254653},{"id":"cheapEatsRestaurants_260862299166","slug":"dia-cheiros-aretoy-2608","kind":"restaurant","name":"Δια Χειρός Αρέτου","lat":40.66705307967295,"lng":22.898083719400002,"url":"https://maps.app.goo.gl/Ce9N11e1dVKsZ2t17?g_st=ipc","address":"Kon/nou Karamanli 37, Eleftherio Kordelio 563 34","categoryIds":["cheap-eats"],"categories":["Gyros & Cheap Eats"],"distanceKm":1.472789175356059},{"id":"cheapEatsRestaurants_547f03a545e5","slug":"crats-fried-chicken-eyosmoy-547f","kind":"restaurant","name":"Crats Fried Chicken Ευόσμου","lat":40.66578126903803,"lng":22.911725635585793,"url":"https://maps.app.goo.gl/BYpMVurWN1yMNmFh8?g_st=ipc","address":"Aristotélous 67, Evosmos 562 24","categoryIds":["cheap-eats"],"categories":["Gyros & Cheap Eats"],"distanceKm":1.5280611915132296},{"id":"cheapEatsRestaurants_da038af38ca1","slug":"devido-da03","kind":"restaurant","name":"Devido","lat":40.66696798830783,"lng":22.91206522121093,"url":"https://maps.app.goo.gl/ghxqsvRTJj4mWN988?g_st=ipc","address":"Karaoli ke Dimitriou 89, Evosmos 562 24","categoryIds":["cheap-eats"],"categories":["Gyros & Cheap Eats"],"distanceKm":1.6556007674640865},{"id":"burgersRestaurants_e6cca423021b","slug":"rookie-skg-e6cc","kind":"restaurant","name":"Rookie.skg","lat":40.66725084444489,"lng":22.911546340289146,"url":"https://maps.app.goo.gl/UbXbrxK1VEFkvDdp7?g_st=ipc","address":"P. Mela 28, Evosmos 562 24","categoryIds":["burgers","cheap-eats"],"categories":["Burger Spots","Gyros & Cheap Eats"],"legacySlugs":["rookie-skg-91f7"],"distanceKm":1.6612286023168212}],"sameRegion":[],"mentionedGuides":[],"canonicalSlug":"terkenlis-ktel-makedonias-d6f5","isCanonicalEntity":true,"enrichment":{"summary_en":"Τερκενλής ΚΤΕΛ Μακεδονίας is a curated restaurant in Menemeni 546 28 in the Dessert Shops collection. It is connected to 1 nearby Googlementor picks to help travelers build a stronger local route.","summary_el":"Τερκενλής ΚΤΕΛ Μακεδονίας είναι ένα επιλεγμένο σημείο φαγητού στην περιοχή Menemeni 546 28 και ανήκει στη συλλογή Dessert Shops. Συνδέεται με 1 κοντινές προτάσεις του Googlementor για πιο ολοκληρωμένη εμπειρία.","vibe_tags":["curated","sweet-stop"],"best_for":["first-time visitors","food lovers"],"visit_moments":["afternoon break","after dinner"],"practical_note":"Address and direct map link are available for easy turn-by-turn access.","nearby_walkable_count":1,"nearby_count_2km":21,"confidence":0.9}},"__N_SSG":true}