{"pageProps":{"entity":{"id":"coffeeBrunchRestaurants_4c5186ad6b82","slug":"the-roosters-vrilissia-4c51","kind":"restaurant","name":"The Roosters Vrilissia","lat":38.037656279094364,"lng":23.82632315275067,"url":"https://maps.app.goo.gl/Ujy91XzzUb5AuEK38?g_st=ipc","address":"Θέτιδος 1 &, Ομήρου 2, Βριλήσσια 152 38","categoryIds":["coffee-brunch"],"categories":["Coffee & Brunch Spots"]},"sameCategory":[{"id":"coffeeBrunchRestaurants_a0c4a7f4af97","slug":"oi-pites-tis-giagias-eyridikis-a0c4","kind":"restaurant","name":"Οι πίτες της γιαγιάς Ευριδίκης","lat":38.03426712689994,"lng":23.833618598910473,"url":"https://maps.app.goo.gl/SZ38YLhtn9HgUGAZ9?g_st=ipc","address":"Κύπρου 25, Βριλήσσια 152 35","categoryIds":["coffee-brunch"],"categories":["Coffee & Brunch Spots"]},{"id":"coffeeBrunchRestaurants_b9882b026b76","slug":"montakioy-maroysi-b988","kind":"restaurant","name":"ΜΟΝΤΑΚΙΟΥ ΜΑΡΟΥΣΙ","lat":38.03797108447277,"lng":23.80161359245891,"url":"https://maps.app.goo.gl/P3WZt5PaHNoTambf6?g_st=ipc","address":"Ρωμανού Μελωδού 1, Μαρούσι 151 25","categoryIds":["coffee-brunch"],"categories":["Coffee & Brunch Spots"]},{"id":"coffeeBrunchRestaurants_fee7b450e2e2","slug":"bored-c-mon-hub-fee7","kind":"restaurant","name":"Bored, C'mon hub","lat":38.02345514252141,"lng":23.803073599949013,"url":"https://maps.app.goo.gl/VKSg4V9NPf89H1ha7?g_st=ipc","address":"Λεωφ. Πεντέλης 15, Χαλάνδρι 152 34","categoryIds":["coffee-brunch"],"categories":["Coffee & Brunch Spots"]},{"id":"coffeeBrunchRestaurants_a15eff32047d","slug":"wallstreet-athens-a15e","kind":"restaurant","name":"WallStreet Athens","lat":38.01470612030241,"lng":23.8212081874615,"url":"https://maps.app.goo.gl/mBES32gA39m1YfEdA?g_st=ipc","address":"Ελπίδος, Δημ. Γούναρη 2-4, Αγ. Παρασκευή 153 43","categoryIds":["coffee-brunch"],"categories":["Coffee & Brunch Spots"]},{"id":"coffeeBrunchRestaurants_1645d021693b","slug":"butterfly-all-day-bar-1645","kind":"restaurant","name":"Butterfly All Day Bar","lat":38.02255116891241,"lng":23.802059077338257,"url":"https://maps.app.goo.gl/iFPzHyPcLoNrFRsNA?g_st=ipc","address":"Λεωφόρος Πεντέλης 8 , Στρατάρχου Παπάγου 5, Χαλάνδρι 152 33","categoryIds":["coffee-brunch"],"categories":["Coffee & Brunch Spots"]},{"id":"coffeeBrunchRestaurants_7046edfbce5c","slug":"janet-craig-7046","kind":"restaurant","name":"Janet Craig","lat":38.05641063632366,"lng":23.806182036715274,"url":"https://maps.app.goo.gl/o5wNnYy8d5rdfCBx5?g_st=ipc","address":"28ης Οκτωβρίου 5, Μαρούσι 151 24","categoryIds":["coffee-brunch"],"categories":["Coffee & Brunch Spots"]},{"id":"coffeeBrunchRestaurants_15371932080b","slug":"willow-cafe-chalandri-1537","kind":"restaurant","name":"Willow Cafe Χαλάνδρι","lat":38.03103124415517,"lng":23.796167188145933,"url":"https://maps.app.goo.gl/KjpKvzNXdWoxzDFA7?g_st=ipc","address":"Ριζαρείου 9, Χαλάνδρι 152 33","categoryIds":["coffee-brunch"],"categories":["Coffee & Brunch Spots"]},{"id":"coffeeBrunchRestaurants_19b78b1041b1","slug":"fisi-the-project-19b7","kind":"restaurant","name":"Fisi The Project","lat":38.02103923737401,"lng":23.803142982241283,"url":"https://maps.app.goo.gl/9VmK3qL1LECkBAycA?g_st=ipc","address":"Αγίου Γεωργίου 28, Χαλάνδρι 152 31","categoryIds":["coffee-brunch"],"categories":["Coffee & Brunch Spots"]}],"nearby":[{"id":"italianRestaurants_206a9064f7f4","slug":"forget-about-it-206a","kind":"restaurant","name":"Forget About It","lat":38.03770860286521,"lng":23.82639404104221,"url":"https://maps.app.goo.gl/T4kAMQjZQmhxQyFN7?g_st=ipc","address":"Θέτιδος 1, Βριλήσσια 152 38","categoryIds":["italian"],"categories":["Italian Restaurants"],"distanceKm":0.008508404092567826},{"id":"burgersRestaurants_cdde40de0c45","slug":"the-burger-dudes-cdde","kind":"restaurant","name":"The Burger Dudes","lat":38.037808685524865,"lng":23.82651013380888,"url":"https://maps.app.goo.gl/nCm18QqReRW4TNmb6?g_st=ipc","address":"Θέτιδος 1, Βριλήσσια 152 35","categoryIds":["burgers"],"categories":["Burger Spots"],"distanceKm":0.02356581248398536},{"id":"dessertsRestaurants_6ff752e919a0","slug":"nana-gioti-6ff7","kind":"restaurant","name":"Nana Gioti","lat":38.03608519844928,"lng":23.825679872970344,"url":"https://maps.app.goo.gl/AeWy5Es4sYdLyFSs7?g_st=ic","address":"Leof. Pentelis 24, Vrilissia 152 35","categoryIds":["desserts"],"categories":["Dessert Shops"],"distanceKm":0.18355568389414184},{"id":"burgersRestaurants_fe3476589c94","slug":"barbara-que-fe34","kind":"restaurant","name":"BarBara Que","lat":38.035803199648754,"lng":23.82668456854574,"url":"https://maps.app.goo.gl/qDrH9onsxTkW9iau8?g_st=ipc","address":"Εθ. Αντιστάσεως 27, Βριλήσσια 152 35","categoryIds":["burgers"],"categories":["Burger Spots"],"distanceKm":0.20846996563554157},{"id":"cheapEatsRestaurants_26f9a7f050c1","slug":"the-handmade-souvlaki-ascension-26f9","kind":"restaurant","name":"The Handmade souvlaki Ascension","lat":38.035547141118364,"lng":23.82691676685056,"url":"https://maps.app.goo.gl/bx6SursnbZv26g7m7?g_st=ic","address":"Eth. Antistaseos 26, Vrilissia 152 35","categoryIds":["cheap-eats"],"categories":["Gyros & Cheap Eats"],"distanceKm":0.2402185498686829},{"id":"cheapEatsRestaurants_8375fe8079e7","slug":"umami-8375","kind":"restaurant","name":"umami","lat":38.03544459297975,"lng":23.82429599041442,"url":"https://maps.app.goo.gl/f1Pk44iqYYgPwZeK9?g_st=ipc","address":"Λεωφ. Πεντέλης 7A, Βριλήσσια 152 35","categoryIds":["cheap-eats"],"categories":["Gyros & Cheap Eats"],"distanceKm":0.30331522881824435},{"id":"cheapEatsRestaurants_5a1b3de4b0cd","slug":"ta-soyvlakia-tis-giagias-5a1b","kind":"restaurant","name":"Τα σουβλάκια της γιαγιάς","lat":38.04199101993577,"lng":23.824597588199378,"url":"https://maps.app.goo.gl/K9azEutYtVeRFeTB9?g_st=ipc","address":"Κυπρίων Αγωνιστών 50, Μαρούσι 151 26","categoryIds":["cheap-eats"],"categories":["Gyros & Cheap Eats"],"distanceKm":0.5051350208421841},{"id":"coffeeBrunchRestaurants_a0c4a7f4af97","slug":"oi-pites-tis-giagias-eyridikis-a0c4","kind":"restaurant","name":"Οι πίτες της γιαγιάς Ευριδίκης","lat":38.03426712689994,"lng":23.833618598910473,"url":"https://maps.app.goo.gl/SZ38YLhtn9HgUGAZ9?g_st=ipc","address":"Κύπρου 25, Βριλήσσια 152 35","categoryIds":["coffee-brunch"],"categories":["Coffee & Brunch Spots"],"distanceKm":0.741793269782982}],"sameRegion":[],"mentionedGuides":[{"slug":"american-college-of-greece-agia-paraskevi-guide-el","title":"American College of Greece: Οδηγός Αγίας Παρασκευής"},{"slug":"american-college-of-greece-agia-paraskevi-guide","title":"American College of Greece: Welcome to Agia Paraskevi"}],"canonicalSlug":"the-roosters-vrilissia-4c51","isCanonicalEntity":true,"enrichment":{"summary_en":"The Roosters Vrilissia is a curated restaurant in Βριλήσσια 152 38 in the Coffee & Brunch Spots collection. It is connected to 10 nearby Googlementor picks to help travelers build a stronger local route.","summary_el":"The Roosters Vrilissia είναι ένα επιλεγμένο σημείο φαγητού στην περιοχή Βριλήσσια 152 38 και ανήκει στη συλλογή Coffee & Brunch Spots. Συνδέεται με 10 κοντινές προτάσεις του Googlementor για πιο ολοκληρωμένη εμπειρία.","vibe_tags":["curated","daytime-favorite"],"best_for":["first-time visitors","food lovers"],"visit_moments":["early morning","late brunch"],"practical_note":"Address and direct map link are available for easy turn-by-turn access.","nearby_walkable_count":10,"nearby_count_2km":33,"confidence":0.98}},"__N_SSG":true}