{"pageProps":{"entity":{"id":"coffeeBrunchRestaurants_fe6dc1179f31","slug":"the-roosters-ilisia-fe6d","kind":"restaurant","name":"The Roosters Ilisia","lat":37.97416538642229,"lng":23.75106552061932,"url":"https://maps.app.goo.gl/owWsQcbJ7FzLk2VC9?g_st=ipc","address":"Ίωνος Δραγούμη 58, Αθήνα 115 28","categoryIds":["coffee-brunch"],"categories":["Coffee & Brunch Spots"]},"sameCategory":[{"id":"coffeeBrunchRestaurants_6e5370c63d00","slug":"moden-6e53","kind":"restaurant","name":"Moden","lat":37.971223973274974,"lng":23.748242971172175,"url":"https://maps.app.goo.gl/LCSd8nHPjaUEMAGx8?g_st=ipc","address":"Αμασείας 6 &, Πρατίνου 53, Αθήνα 116 34","categoryIds":["coffee-brunch"],"categories":["Coffee & Brunch Spots"]},{"id":"coffeeBrunchRestaurants_fbed74066d32","slug":"gran-caffe-italiano-fbed","kind":"restaurant","name":"Gran Caffè Italiano","lat":37.97787235686609,"lng":23.750751437299407,"url":"https://maps.app.goo.gl/6qkVJ1W6HAGxTfVV8?g_st=ipc","address":"Μονής Πετράκη 3, & Υψηλάντου 44, Αθήνα 115 21","categoryIds":["coffee-brunch"],"categories":["Coffee & Brunch Spots"]},{"id":"coffeeBrunchRestaurants_0854c47f51bb","slug":"lot-51-0854","kind":"restaurant","name":"LOT 51","lat":37.97889236924369,"lng":23.75608261699221,"url":"https://maps.app.goo.gl/XPiz8gPX1disrJLV9?g_st=ipc","address":"Παπαδιαμαντοπούλου 24Β, Αθήνα 115 28","categoryIds":["coffee-brunch"],"categories":["Coffee & Brunch Spots"]},{"id":"coffeeBrunchRestaurants_512abfbcd215","slug":"monokeros-bakery-512a","kind":"restaurant","name":"Monokeros Bakery","lat":37.96998792256903,"lng":23.745206716967704,"url":"https://maps.app.goo.gl/vPfqSycBZPnB31CG6?g_st=ipc","address":"Φαίδρου 4, Αθήνα 116 35","categoryIds":["coffee-brunch"],"categories":["Coffee & Brunch Spots"]},{"id":"coffeeBrunchRestaurants_6c5755f458a3","slug":"vasilissa-melissa-athina-6c57","kind":"restaurant","name":"Βασίλισσα μέλισσα Αθήνα","lat":37.97835486257647,"lng":23.745084929463765,"url":"https://maps.app.goo.gl/gMvoN4EZdoGpDeZ47?g_st=ipc","address":"Πατριάρχου Ιωακείμ 45, Αθήνα 106 76","categoryIds":["coffee-brunch"],"categories":["Coffee & Brunch Spots"]},{"id":"coffeeBrunchRestaurants_218e6a31a50d","slug":"poco-a-poco-218e","kind":"restaurant","name":"Poco a poco","lat":37.977055798633465,"lng":23.743703400457175,"url":"https://maps.app.goo.gl/hkFGzq8fmpCWam4f8?g_st=ipc","address":"Loukianou 13, Athina 106 75","categoryIds":["coffee-brunch"],"categories":["Coffee & Brunch Spots"]},{"id":"coffeeBrunchRestaurants_3c4532938684","slug":"tromero-paidi-3c45","kind":"restaurant","name":"Τρομερό παιδί","lat":37.979193977677895,"lng":23.756620823918542,"url":"https://maps.app.goo.gl/LhCE2aHEwVVToKhc6?g_st=ipc","address":"Παπαδιαμαντοπούλου 30, Αθήνα 115 28","categoryIds":["coffee-brunch"],"categories":["Coffee & Brunch Spots"]},{"id":"coffeeBrunchRestaurants_0ab06e0868e5","slug":"me-kolonaki-0ab0","kind":"restaurant","name":"me kolonaki","lat":37.9765612906505,"lng":23.742423758521817,"url":"https://maps.app.goo.gl/LxVhS9ugcHWgEPFa7?g_st=ipc","address":"Καψάλη 10, Αθήνα 106 74","categoryIds":["coffee-brunch"],"categories":["Coffee & Brunch Spots"]}],"nearby":[{"id":"luxuryDiningRestaurants_b76457bf515f","slug":"vezene-athens-b764","kind":"restaurant","name":"Vezené Athens","lat":37.97470285308878,"lng":23.751002243210046,"url":"https://maps.app.goo.gl/u2HXnXpcXqTUxdbF6?g_st=ipc","address":"Βρασίδα 11, Αθήνα 115 28","categoryIds":["luxury-dining"],"categories":["Luxury Dining"],"distanceKm":0.06002039056367819},{"id":"cheapEatsRestaurants_ba468327c890","slug":"pita-pan-ba46","kind":"restaurant","name":"Πίτα Παν","lat":37.973982654052946,"lng":23.750253307976614,"url":"https://maps.app.goo.gl/WYXA6LyZWmcPcu219?g_st=ipc","address":"Ιοφώντος 33, Αθήνα 116 34","categoryIds":["cheap-eats"],"categories":["Gyros & Cheap Eats"],"distanceKm":0.07403628977497681},{"id":"luxuryDiningRestaurants_fd7f4b7743de","slug":"ox-athens-fd7f","kind":"restaurant","name":"Ox Athens","lat":37.975866043758764,"lng":23.75171237040956,"url":"https://maps.app.goo.gl/Em7n6W5HcPciEXPN7?g_st=ipc","address":"Χατζηγιάννη Μέξη 9, Αθήνα 115 28","categoryIds":["luxury-dining"],"categories":["Luxury Dining"],"distanceKm":0.19742130952096376},{"id":"burgersRestaurants_bfe01035e2db","slug":"agora-select-bfe0","kind":"restaurant","name":"Agora Select","lat":37.97626574663726,"lng":23.751456733864202,"url":"https://maps.app.goo.gl/GxR6tX8MHegtVPLA7?g_st=ipc","address":"Χατζηγιάννη Μέξη 8 και, Κων/νου Βεντήρη 9, Αθήνα 115 28","categoryIds":["burgers","greek-restaurants"],"categories":["Burger Spots","Greek Restaurants"],"legacySlugs":["agora-select-aecd"],"distanceKm":0.23605334123995708},{"id":"luxuryDiningRestaurants_5f111a9bb710","slug":"seeds-restaurant-5f11","kind":"restaurant","name":"Seeds Restaurant","lat":37.97301735223458,"lng":23.75389127288081,"url":"https://maps.app.goo.gl/dJm31W4p6fxcPwDr7?g_st=ipc","address":"Oumplianis 14, Diocharous 27, & 161 21","categoryIds":["luxury-dining"],"categories":["Luxury Dining"],"distanceKm":0.27865034190885524},{"id":"cheapEatsRestaurants_c3e978d4eac2","slug":"5f-c3e9","kind":"restaurant","name":"5Φ","lat":37.97277642269308,"lng":23.753966804299914,"url":"https://maps.app.goo.gl/Jtpipww8tzt83Z1fA?g_st=ipc","address":"Diocharous 31 &, Κλεισούρας, Αθήνα 161 21","categoryIds":["cheap-eats","greek-restaurants"],"categories":["Gyros & Cheap Eats","Greek Restaurants"],"legacySlugs":["5f-7edc"],"distanceKm":0.29753542010151307},{"id":"luxuryDiningRestaurants_0dfbfc3ae821","slug":"cookoovaya-0dfb","kind":"restaurant","name":"Cookoovaya","lat":37.976921193543475,"lng":23.751481425496852,"url":"https://maps.app.goo.gl/eVWjuM8b4LpyY8yk7?g_st=ipc","address":"Χατζηγιάννη Μέξη 2a, Αθήνα 115 28","categoryIds":["luxury-dining"],"categories":["Luxury Dining"],"distanceKm":0.308592595103588},{"id":"vegetarianRestaurants_273e01494cb2","slug":"groceristas-273e","kind":"restaurant","name":"Groceristas","lat":37.97253235052261,"lng":23.747890805995713,"url":"https://maps.app.goo.gl/s2jj4xW4U6Pk7W3N9?g_st=ipc","address":"Σπύρου Μερκούρη 50, Αθήνα 116 34","categoryIds":["vegetarian"],"categories":["Vegetarian Friendly Restaurants"],"distanceKm":0.3322831847254054}],"sameRegion":[],"mentionedGuides":[],"canonicalSlug":"the-roosters-ilisia-fe6d","isCanonicalEntity":true,"enrichment":{"summary_en":"The Roosters Ilisia is a curated restaurant in Αθήνα 115 28 in the Coffee & Brunch Spots collection. It is connected to 54 nearby Googlementor picks to help travelers build a stronger local route.","summary_el":"The Roosters Ilisia είναι ένα επιλεγμένο σημείο φαγητού στην περιοχή Αθήνα 115 28 και ανήκει στη συλλογή Coffee & Brunch Spots. Συνδέεται με 54 κοντινές προτάσεις του Googlementor για πιο ολοκληρωμένη εμπειρία.","vibe_tags":["curated","daytime-favorite"],"best_for":["first-time visitors","food lovers"],"visit_moments":["early morning","late brunch"],"practical_note":"Address and direct map link are available for easy turn-by-turn access.","nearby_walkable_count":54,"nearby_count_2km":383,"confidence":0.98}},"__N_SSG":true}