{"pageProps":{"entity":{"id":"rooftopLoungesRestaurants_62315092aa2e","slug":"theathine-6231","kind":"restaurant","name":"Theathine","lat":37.976366087632414,"lng":23.72946341912717,"url":"https://maps.app.goo.gl/5zX4VEAQCzogaiPF9?g_st=ipc","address":"Ερμού 46, Αθήνα 105 63","categoryIds":["rooftop-lounges"],"categories":["Rooftop Lounges"]},"sameCategory":[{"id":"rooftopLoungesRestaurants_dccec8a54ab2","slug":"taratsa-athens-dcce","kind":"restaurant","name":"Taratsa Athens","lat":37.97577225088555,"lng":23.729185158634564,"url":"https://maps.app.goo.gl/jwnF2SS5G6PYqRPf9?g_st=ipc","address":"Μητροπόλεως 60, Αθήνα 105 63","categoryIds":["rooftop-lounges"],"categories":["Rooftop Lounges"]},{"id":"luxuryDiningRestaurants_2a500f95083c","slug":"the-zillers-rooftop-gastronomy-2a50","kind":"restaurant","name":"The Zillers Rooftop Gastronomy","lat":37.97561073825588,"lng":23.729618727455946,"url":"https://maps.app.goo.gl/3rX2B6EznK5THCsX9?g_st=ipc","address":"Μητροπόλεως 54, Αθήνα 105 63","categoryIds":["luxury-dining","rooftop-lounges"],"categories":["Luxury Dining","Rooftop Lounges"],"legacySlugs":["the-zillers-rooftop-gastronomy-deda"]},{"id":"luxuryDiningRestaurants_83e86c45f94e","slug":"dolli-s-83e8","kind":"restaurant","name":"DOLLI•S","lat":37.97581257538226,"lng":23.728126338151636,"url":"https://maps.app.goo.gl/otc3c7Va7CjPm1DW6?g_st=ipc","address":"Μητροπόλεως 49, Αθήνα 105 56","categoryIds":["luxury-dining","rooftop-lounges"],"categories":["Luxury Dining","Rooftop Lounges"],"legacySlugs":["dolli-s-6749"]},{"id":"rooftopLoungesRestaurants_f5cf87cae9d4","slug":"city-zen-all-day-bar-restaurant-f5cf","kind":"restaurant","name":"City ZEN All Day Bar Restaurant","lat":37.97627508580123,"lng":23.72741558524515,"url":"https://maps.app.goo.gl/jqRmCH3g4tS3Er5o8?g_st=ipc","address":"Αιόλου 11, Αθήνα 105 55","categoryIds":["rooftop-lounges"],"categories":["Rooftop Lounges"]},{"id":"luxuryDiningRestaurants_1ec414f34680","slug":"okra-1ec4","kind":"restaurant","name":"Okra","lat":37.976265060511366,"lng":23.727023267502062,"url":"https://maps.app.goo.gl/WKQy9EmSUhqhWCug7?g_st=ipc","address":"Μητροπόλεως 82, Αθήνα 105 55","categoryIds":["luxury-dining","rooftop-lounges"],"categories":["Luxury Dining","Rooftop Lounges"],"legacySlugs":["okra-912c"]},{"id":"rooftopLoungesRestaurants_986af6d41f8f","slug":"ermou-18-beyond-the-horizon-986a","kind":"restaurant","name":"Ermou 18 Beyond the Horizon","lat":37.97612467035227,"lng":23.731892472806617,"url":"https://maps.app.goo.gl/29x8TUkS1Zi5ckeK6?g_st=ipc","address":"Ermou 18 Beyond the Horizon","categoryIds":["rooftop-lounges"],"categories":["Rooftop Lounges"]},{"id":"rooftopLoungesRestaurants_a01decd3b001","slug":"ergon-house-athens-a01d","kind":"restaurant","name":"ERGON House Athens","lat":37.975246808550054,"lng":23.73151614516128,"url":"https://maps.app.goo.gl/B5dVNDQK9SeSRhFZ9?g_st=ipc","address":"23, Μητροπόλεως Street, Αθήνα 105 57","categoryIds":["rooftop-lounges"],"categories":["Rooftop Lounges"]},{"id":"rooftopLoungesRestaurants_fb4de5c9639b","slug":"elysium-athens-rooftop-dining-cocktails-fb4d","kind":"restaurant","name":"Elysium Athens Rooftop | Dining & Cocktails","lat":37.97568079594514,"lng":23.731930908514958,"url":"https://maps.app.goo.gl/XadarqG8B9MPBT9e7?g_st=ipc","address":"15-17, Ερμού 105 63, Αθήνα","categoryIds":["rooftop-lounges"],"categories":["Rooftop Lounges"]}],"nearby":[{"id":"coffeeBrunchRestaurants_86c49b223ca7","slug":"gaya-athens-86c4","kind":"restaurant","name":"GAYA Athens","lat":37.97655155960143,"lng":23.729000167842386,"url":"https://maps.app.goo.gl/wY2FhMBr8ApzzSLw5?g_st=ipc","address":"Καλαμιώτου 2, Αθήνα 105 63","categoryIds":["coffee-brunch"],"categories":["Coffee & Brunch Spots"],"distanceKm":0.0455417151531358},{"id":"greekRestaurants_9a0e0e6e3a9d","slug":"feedel-urban-gastronomy-9a0e","kind":"restaurant","name":"Feedέλ Urban Gastronomy","lat":37.976600766846424,"lng":23.729911306320325,"url":"https://maps.app.goo.gl/Uppwoqd1GbSaLvCe7","address":"Κτενά 1, Αθήνα 105 63","categoryIds":["greek-restaurants","luxury-dining"],"categories":["Greek Restaurants","Luxury Dining"],"legacySlugs":["feedel-urban-gastronomy-858d"],"distanceKm":0.04713941093614814},{"id":"vegetarianRestaurants_b74f212f3c6f","slug":"vegan-beat-athens-b74f","kind":"restaurant","name":"Vegan Beat Athens","lat":37.976741727063335,"lng":23.729824452963804,"url":"https://maps.app.goo.gl/2r2EDKFSvkng4GkF9?g_st=ipc","address":"Περικλέους 56, Αθήνα 105 60","categoryIds":["vegetarian"],"categories":["Vegetarian Friendly Restaurants"],"distanceKm":0.052402920478180695},{"id":"vegetarianRestaurants_1564131c7925","slug":"vietnam-street-food-1564","kind":"restaurant","name":"VIETNAM STREET FOOD","lat":37.97675287050778,"lng":23.729819366572254,"url":"https://maps.app.goo.gl/WYdqmMy3mDqLNW7e8?g_st=ipc","address":"Περικλέους 56, Αθήνα 105 60","categoryIds":["vegetarian"],"categories":["Vegetarian Friendly Restaurants"],"distanceKm":0.05313281234617581},{"id":"fishTavernasRestaurants_96126d9ba88c","slug":"zisis-9612","kind":"restaurant","name":"Ζήσης","lat":37.97677236195616,"lng":23.729130321852065,"url":"https://maps.app.goo.gl/B6NXu9TchhZNtX1m9?g_st=ipc","address":"Αθηναΐδος 3, Αθήνα 105 63","categoryIds":["fish-tavernas"],"categories":["Fish Tavernas"],"distanceKm":0.0537890239245802},{"id":"vegetarianRestaurants_7a48cadc1cba","slug":"sugar-killer-7a48","kind":"restaurant","name":"Sugar Killer","lat":37.976654957150416,"lng":23.730157941231223,"url":"https://maps.app.goo.gl/326sYhMHWCiSjUJW9?g_st=ipc","address":"Περικλέους 33, Αθήνα 105 63","categoryIds":["vegetarian"],"categories":["Vegetarian Friendly Restaurants"],"distanceKm":0.06882999840052217},{"id":"rooftopLoungesRestaurants_dccec8a54ab2","slug":"taratsa-athens-dcce","kind":"restaurant","name":"Taratsa Athens","lat":37.97577225088555,"lng":23.729185158634564,"url":"https://maps.app.goo.gl/jwnF2SS5G6PYqRPf9?g_st=ipc","address":"Μητροπόλεως 60, Αθήνα 105 63","categoryIds":["rooftop-lounges"],"categories":["Rooftop Lounges"],"distanceKm":0.07039207825829084},{"id":"vegetarianRestaurants_dd280fa872e6","slug":"not-just-falafel-vegeterian-food-athens-vegan-friendly-dd28","kind":"restaurant","name":"Not Just Falafel | Vegeterian food Athens | Vegan Friendly","lat":37.97672606756175,"lng":23.730150682547393,"url":"https://maps.app.goo.gl/rugWqM8JRvoZaHPm9?g_st=ipc","address":"Ρόμβης 16, Αθήνα 105 62","categoryIds":["vegetarian"],"categories":["Vegetarian Friendly Restaurants"],"distanceKm":0.07232563254964075}],"sameRegion":[],"mentionedGuides":[],"canonicalSlug":"theathine-6231","isCanonicalEntity":true,"enrichment":{"summary_en":"Theathine is a curated restaurant in Αθήνα 105 63 in the Rooftop Lounges collection. It is connected to 309 nearby Googlementor picks to help travelers build a stronger local route.","summary_el":"Theathine είναι ένα επιλεγμένο σημείο φαγητού στην περιοχή Αθήνα 105 63 και ανήκει στη συλλογή Rooftop Lounges. Συνδέεται με 309 κοντινές προτάσεις του Googlementor για πιο ολοκληρωμένη εμπειρία.","vibe_tags":["curated","city-views"],"best_for":["first-time visitors","food lovers"],"visit_moments":["golden hour","night out"],"practical_note":"Address and direct map link are available for easy turn-by-turn access.","nearby_walkable_count":309,"nearby_count_2km":659,"confidence":0.98}},"__N_SSG":true}