{"pageProps":{"entity":{"id":"italianRestaurants_3be4af98c471","slug":"trattoria-capanna-3be4","kind":"restaurant","name":"Trattoria Capanna","lat":37.978619151360974,"lng":23.74496219249258,"url":"https://maps.app.goo.gl/TbrGKuznviUTnbH8A?g_st=ipc","address":"Πλουτάρχου 38, Αθήνα 106 75","categoryIds":["italian","luxury-dining"],"categories":["Italian Restaurants","Luxury Dining"],"legacySlugs":["trattoria-capanna-78fc"]},"sameCategory":[{"id":"italianRestaurants_0a253e52c51e","slug":"gorlomi-0a25","kind":"restaurant","name":"Gorlomi","lat":37.97728908184003,"lng":23.74514067416134,"url":"https://maps.app.goo.gl/XB7Fy2Zdva4f5Hrv6?g_st=ipc","address":"Πλουτάρχου 9, Αθήνα 106 75","categoryIds":["italian","luxury-dining"],"categories":["Italian Restaurants","Luxury Dining"],"legacySlugs":["gorlomi-6cf0"]},{"id":"italianRestaurants_11b5c7ddc2cb","slug":"lolita-s-athens-11b5","kind":"restaurant","name":"Lolita's Athens","lat":38.00900399306317,"lng":23.779848762939032,"url":"https://maps.app.goo.gl/yBBC5XtbjE87q2fEA?g_st=ipc","address":"Λεωφ. Κηφισίας 340, Νέο Ψυχικό 154 51","categoryIds":["italian","luxury-dining"],"categories":["Italian Restaurants","Luxury Dining"],"legacySlugs":["lolita-s-athens-c233"]},{"id":"italianRestaurants_9ab88b8b6007","slug":"innamorata-9ab8","kind":"restaurant","name":"Innamorata","lat":38.01461502802222,"lng":23.785308731358,"url":"https://maps.app.goo.gl/6pHzTzWoidEixrLw8?g_st=ipc","address":"Likourgou 5Α, Chalandri 152 31","categoryIds":["italian","luxury-dining"],"categories":["Italian Restaurants","Luxury Dining"],"legacySlugs":["innamorata-4f87"]},{"id":"italianRestaurants_26670e11b304","slug":"mercato-2667","kind":"restaurant","name":"Mercato","lat":37.804876583131545,"lng":23.768732488679262,"url":"https://maps.app.goo.gl/WygPaRiVJpzqrZBi8","address":"Apollonos 40, Vouliagmeni 166 71","categoryIds":["italian","luxury-dining"],"categories":["Italian Restaurants","Luxury Dining"],"legacySlugs":["mercato-ae1b"]},{"id":"italianRestaurants_ef50c7962b4c","slug":"napule-tinos-restaurant-ef50","kind":"restaurant","name":"Napule Tinos Restaurant","lat":37.561247297622636,"lng":25.19153362351099,"url":"https://maps.app.goo.gl/KMmm7YcXtzQmk7Zh8?g_st=ipc","address":"Τριαντάρος 842 00","categoryIds":["italian","luxury-dining"],"categories":["Italian Restaurants","Luxury Dining"],"legacySlugs":["napule-tinos-restaurant-5194"]},{"id":"luxuryDiningRestaurants_16ebd8c6efae","slug":"forte-charitos-restaurant-16eb","kind":"restaurant","name":"Forte Charitos Restaurant","lat":37.97881342237638,"lng":23.745155145341098,"url":"https://maps.app.goo.gl/LvCPT5L2JR5q3a5TA?g_st=ipc","address":"Χάρητος 43, Αθήνα 106 76","categoryIds":["luxury-dining"],"categories":["Luxury Dining"]},{"id":"italianRestaurants_468953c2e15e","slug":"malconi-s-italian-restaurant-4689","kind":"restaurant","name":"Malconi's Italian Restaurant","lat":37.9782776822669,"lng":23.744765633446125,"url":"https://maps.app.goo.gl/q6QEwwnvQiVfYob8A?g_st=ipc","address":"Patriarhou Ioakim 43 &, Πλουτάρχου 23, Αθήνα 106 75","categoryIds":["italian"],"categories":["Italian Restaurants"]},{"id":"luxuryDiningRestaurants_ed36498bd60c","slug":"woowoo-athens-ed36","kind":"restaurant","name":"WooWoo Athens","lat":37.97826618328873,"lng":23.744714006159654,"url":"https://maps.app.goo.gl/gH4BTnSVsyBMroV17?g_st=ipc","address":"Πατριάρχου Ιωακείμ 43, Αθήνα 106 75","categoryIds":["luxury-dining"],"categories":["Luxury Dining"]}],"nearby":[{"id":"luxuryDiningRestaurants_16ebd8c6efae","slug":"forte-charitos-restaurant-16eb","kind":"restaurant","name":"Forte Charitos Restaurant","lat":37.97881342237638,"lng":23.745155145341098,"url":"https://maps.app.goo.gl/LvCPT5L2JR5q3a5TA?g_st=ipc","address":"Χάρητος 43, Αθήνα 106 76","categoryIds":["luxury-dining"],"categories":["Luxury Dining"],"distanceKm":0.027434634492001533},{"id":"coffeeBrunchRestaurants_6c5755f458a3","slug":"vasilissa-melissa-athina-6c57","kind":"restaurant","name":"Βασίλισσα μέλισσα Αθήνα","lat":37.97835486257647,"lng":23.745084929463765,"url":"https://maps.app.goo.gl/gMvoN4EZdoGpDeZ47?g_st=ipc","address":"Πατριάρχου Ιωακείμ 45, Αθήνα 106 76","categoryIds":["coffee-brunch"],"categories":["Coffee & Brunch Spots"],"distanceKm":0.0312946917688367},{"id":"italianRestaurants_468953c2e15e","slug":"malconi-s-italian-restaurant-4689","kind":"restaurant","name":"Malconi's Italian Restaurant","lat":37.9782776822669,"lng":23.744765633446125,"url":"https://maps.app.goo.gl/q6QEwwnvQiVfYob8A?g_st=ipc","address":"Patriarhou Ioakim 43 &, Πλουτάρχου 23, Αθήνα 106 75","categoryIds":["italian"],"categories":["Italian Restaurants"],"distanceKm":0.041695332777007654},{"id":"luxuryDiningRestaurants_ed36498bd60c","slug":"woowoo-athens-ed36","kind":"restaurant","name":"WooWoo Athens","lat":37.97826618328873,"lng":23.744714006159654,"url":"https://maps.app.goo.gl/gH4BTnSVsyBMroV17?g_st=ipc","address":"Πατριάρχου Ιωακείμ 43, Αθήνα 106 75","categoryIds":["luxury-dining"],"categories":["Luxury Dining"],"distanceKm":0.04487344779452834},{"id":"dessertsRestaurants_01136de60da9","slug":"l-arte-del-gelato-0113","kind":"restaurant","name":"L’arte del gelato","lat":37.97826235491174,"lng":23.745310264522946,"url":"https://maps.app.goo.gl/EjfGShRdB64dNF5s7?g_st=ipc","address":"Πατριάρχου Ιωακείμ 48-50, Αθήνα 106 76","categoryIds":["desserts"],"categories":["Dessert Shops"],"distanceKm":0.050047590656468306},{"id":"burgersRestaurants_349cb9dc8b75","slug":"smash-n-bun-349c","kind":"restaurant","name":"Smash'n Bun","lat":37.97817483675376,"lng":23.745292656199194,"url":"https://maps.app.goo.gl/4n21xowaSG1Zg8d79?g_st=ipc","address":"Πατριάρχου Ιωακείμ 48, Αθήνα 106 76","categoryIds":["burgers"],"categories":["Burger Spots"],"distanceKm":0.05727005532212075},{"id":"dessertsRestaurants_e77e22a5c2ea","slug":"patisserie-despina-e77e","kind":"restaurant","name":"Patisserie Despina","lat":37.97835834410638,"lng":23.74575820284903,"url":"https://maps.app.goo.gl/RjyUkSTj6TwcuZnn6?g_st=ipc","address":"Patriarchou Ioakim 56, Athina 106 76","categoryIds":["desserts"],"categories":["Dessert Shops"],"distanceKm":0.07555629877007057},{"id":"greekRestaurants_1f74ff05ff24","slug":"estiatorio-filippoy-1f74","kind":"restaurant","name":"Εστιατόριο Φιλίππου","lat":37.979221094535326,"lng":23.744501065071557,"url":"https://maps.app.goo.gl/Zq4cnAxJ4Dx6qQUq8","address":"Ξενοκράτους 19, Αθήνα 106 75","categoryIds":["greek-restaurants"],"categories":["Greek Restaurants"],"distanceKm":0.07818922448827888}],"sameRegion":[],"mentionedGuides":[],"canonicalSlug":"trattoria-capanna-3be4","isCanonicalEntity":true,"enrichment":{"summary_en":"Trattoria Capanna is a curated restaurant in Αθήνα 106 75 in the Italian Restaurants collection. It is connected to 73 nearby Googlementor picks to help travelers build a stronger local route.","summary_el":"Trattoria Capanna είναι ένα επιλεγμένο σημείο φαγητού στην περιοχή Αθήνα 106 75 και ανήκει στη συλλογή Italian Restaurants. Συνδέεται με 73 κοντινές προτάσεις του Googlementor για πιο ολοκληρωμένη εμπειρία.","vibe_tags":["curated","premium-dining"],"best_for":["first-time visitors","food lovers","special occasions"],"visit_moments":["lunch stop","dinner stop"],"practical_note":"Address and direct map link are available for easy turn-by-turn access.","nearby_walkable_count":73,"nearby_count_2km":569,"confidence":0.98}},"__N_SSG":true}