{"pageProps":{"entity":{"id":"italianRestaurants_a131f0639f33","slug":"trattoria-italia-d-onofrio-a131","kind":"restaurant","name":"Trattoria Italia D'onofrio","lat":37.96439892270411,"lng":23.71376404461326,"url":"https://maps.app.goo.gl/QybTqvRE6JzNcqyYA?g_st=ipc","address":"Βαρνουντος 6, Αθήνα 117 41","categoryIds":["italian"],"categories":["Italian Restaurants"]},"sameCategory":[{"id":"italianRestaurants_5abecb9e2aaa","slug":"voylkanizater-5abe","kind":"restaurant","name":"Βουλκανιζατέρ","lat":37.96367095489114,"lng":23.724556596700353,"url":"https://maps.app.goo.gl/HebUjJkB8SUt6Xp36?g_st=ipc","address":"Οδυσσέα Ανδρούτσου 17, Αθήνα 117 41","categoryIds":["italian"],"categories":["Italian Restaurants"]},{"id":"italianRestaurants_20d0a7e98724","slug":"dei-fratelli-ristorante-italiano-20d0","kind":"restaurant","name":"Dei Fratelli - Ristorante Italiano","lat":37.954535351071335,"lng":23.71576098163187,"url":"https://maps.app.goo.gl/hbqzvikXoNEXvdgj7?g_st=ipc","address":"ΚΡΑΤΗΤΟΣ 10 &, Σπαθαρη, Νέα Σμύρνη 171 21","categoryIds":["italian"],"categories":["Italian Restaurants"]},{"id":"italianRestaurants_c197477778a8","slug":"fratti-bistro-c197","kind":"restaurant","name":"Fratti Bistro","lat":37.96852406982216,"lng":23.725725056108836,"url":"https://maps.app.goo.gl/v5TXqxqHKdw7mrCr5?g_st=ipc","address":"Φράττι 1, Αθήνα 117 42","categoryIds":["italian"],"categories":["Italian Restaurants"]},{"id":"italianRestaurants_13c8863a9591","slug":"pizza-dough-13c8","kind":"restaurant","name":"Pizza Dough!","lat":37.96630825345609,"lng":23.72750504939054,"url":"https://maps.app.goo.gl/nNiwhy5xKwpgF7Lo6?g_st=ipc","address":"Δημητρακοπούλου 17, Αθήνα 117 42","categoryIds":["italian"],"categories":["Italian Restaurants"]},{"id":"italianRestaurants_d5b2689c4a11","slug":"romatella-pinsa-romana-d5b2","kind":"restaurant","name":"Romatella - Pinsa Romana","lat":37.96690380968513,"lng":23.72869589039828,"url":"https://maps.app.goo.gl/qy2UDY83bx3RhcUU9?g_st=ipc","address":"Φαλήρου 4, Αθήνα 117 42","categoryIds":["italian"],"categories":["Italian Restaurants"]},{"id":"italianRestaurants_354541199b79","slug":"aglio-olio-peperoncino-3545","kind":"restaurant","name":"AGLIO, OLIO & PEPERONCINO","lat":37.96798831953671,"lng":23.7299912754838,"url":"https://maps.app.goo.gl/EgPatpb6TGQzX94s6?g_st=ipc","address":"Πορίνου 13, Αθήνα 117 42","categoryIds":["italian"],"categories":["Italian Restaurants"]},{"id":"italianRestaurants_297de75e2491","slug":"la-bella-napoli-297d","kind":"restaurant","name":"La Bella Napoli","lat":37.95333874485214,"lng":23.726510881566565,"url":"https://maps.app.goo.gl/viysAA695txjhPLE6?g_st=ipc","address":"Ρουμπέση 64, Αθήνα 172 30","categoryIds":["italian"],"categories":["Italian Restaurants"]},{"id":"italianRestaurants_f99f052e2cb0","slug":"tartufo-cucina-italiana-f99f","kind":"restaurant","name":"Tartufo Cucina Italiana","lat":37.97745304334609,"lng":23.72475266844782,"url":"https://maps.app.goo.gl/VGYffngsR22p4GZ36?g_st=ipc","address":"Αγ. Θέκλας 9, Αθήνα 105 54","categoryIds":["italian"],"categories":["Italian Restaurants"]}],"nearby":[{"id":"fishTavernasRestaurants_edc276d1ee37","slug":"papalina-edc2","kind":"restaurant","name":"Παπαλίνα","lat":37.96476188274757,"lng":23.713898599739846,"url":"https://maps.app.goo.gl/JpVSQDpzvzWZWivJ9?g_st=ipc","address":"Πραμάντων 20, Αθήνα 117 41","categoryIds":["fish-tavernas"],"categories":["Fish Tavernas"],"distanceKm":0.04204777014243228},{"id":"fishTavernasRestaurants_29b7a2cb7567","slug":"parkbench-29b7","kind":"restaurant","name":"PARKBENCH","lat":37.96471554544835,"lng":23.714402162518947,"url":"https://maps.app.goo.gl/ZwWcfuMochSRxPUk8?g_st=ipc","address":"Πραμάντων 10, Αθήνα 117 41","categoryIds":["fish-tavernas"],"categories":["Fish Tavernas"],"distanceKm":0.06609752203344788},{"id":"greekRestaurants_c751a3d5b17d","slug":"koyvelos-c751","kind":"restaurant","name":"Κουβελος","lat":37.96561446275287,"lng":23.714982571965468,"url":"https://maps.app.goo.gl/FmVVezpy5Uwrec5e9","address":"Γενναίου Κολοκοτρώνη 66, Αθήνα 117 41","categoryIds":["greek-restaurants"],"categories":["Greek Restaurants"],"distanceKm":0.17227771756271165},{"id":"asianRestaurants_674b8df64d5a","slug":"ceci-hong-kong-hot-pot-restaurant-674b","kind":"restaurant","name":"Ceci Hong Kong Hot Pot Restaurant","lat":37.96299269251651,"lng":23.714788342397448,"url":"https://maps.app.goo.gl/qSsZbhQeQPjLVDck8?g_st=ipc","address":"Λεωφ. Ελ. Βενιζέλου 14, Αθήνα 176 76","categoryIds":["asian"],"categories":["Asian Restaurants"],"distanceKm":0.18031524366573384},{"id":"municipalities_0889636ab7df","slug":"petralona-0889","kind":"municipality","name":"Πετράλωνα","lat":37.9656,"lng":23.7108,"region":"Κέντρο Αθήνας","name_en":"Petralona","region_en":"Athens Center","distanceKm":0.2921546617940782},{"id":"burgersRestaurants_0329702a3adc","slug":"hankypanky-0329","kind":"restaurant","name":"HankyPanky","lat":37.967400114692225,"lng":23.71303845092353,"url":"https://maps.app.goo.gl/nQP3ShaVnqxgTCSC7?g_st=ipc","address":"Δεινοχαρους 1, Αθήνα 118 52","categoryIds":["burgers"],"categories":["Burger Spots"],"distanceKm":0.33972524522308795},{"id":"coffeeBrunchRestaurants_ae05cdf60e88","slug":"adad-books-cafe-ae05","kind":"restaurant","name":"Adad Books & Café","lat":37.96743015453438,"lng":23.712567122435633,"url":"https://maps.app.goo.gl/5eeqssWqrJZXeHGk6?g_st=ipc","address":"Ανταίου 1, Αθήνα 118 52","categoryIds":["coffee-brunch"],"categories":["Coffee & Brunch Spots"],"distanceKm":0.3530118628398431},{"id":"greekRestaurants_3bad5c31fe5b","slug":"kappari-3bad","kind":"restaurant","name":"Κάππαρη","lat":37.967385035347,"lng":23.71216312954278,"url":"https://maps.app.goo.gl/3JxpXTF4ssEgfTEA9?g_st=ipc","address":"Dorieon 36, Athina 118 51","categoryIds":["greek-restaurants"],"categories":["Greek Restaurants"],"distanceKm":0.36048132573939834}],"sameRegion":[],"mentionedGuides":[],"canonicalSlug":"trattoria-italia-d-onofrio-a131","isCanonicalEntity":true,"enrichment":{"summary_en":"Trattoria Italia D'onofrio is a curated restaurant in Αθήνα 117 41 in the Italian Restaurants collection. It is connected to 32 nearby Googlementor picks to help travelers build a stronger local route.","summary_el":"Trattoria Italia D'onofrio είναι ένα επιλεγμένο σημείο φαγητού στην περιοχή Αθήνα 117 41 και ανήκει στη συλλογή Italian Restaurants. Συνδέεται με 32 κοντινές προτάσεις του Googlementor για πιο ολοκληρωμένη εμπειρία.","vibe_tags":["curated"],"best_for":["first-time visitors","food lovers"],"visit_moments":["lunch stop","dinner stop"],"practical_note":"Address and direct map link are available for easy turn-by-turn access.","nearby_walkable_count":32,"nearby_count_2km":381,"confidence":0.98}},"__N_SSG":true}