{"pageProps":{"entity":{"id":"dessertsRestaurants_96b542039411","slug":"trigona-panoramatos-drossa-proin-giannis-96b5","kind":"restaurant","name":"Τρίγωνα Πανοράματος Δροσσά (πρώην Γιάννης)","lat":40.549930484948774,"lng":23.019231796608217,"url":"https://maps.app.goo.gl/iU3xLN5pQr3ggcxF9?g_st=ipc","address":"Tavaki 24, Thermi 570 01","categoryIds":["desserts"],"categories":["Dessert Shops"]},"sameCategory":[{"id":"dessertsRestaurants_ab7dd444d3fa","slug":"nick-alexoudas-ab7d","kind":"restaurant","name":"NICK ALEXOUDAS","lat":40.547044888222544,"lng":23.01874068673441,"url":"https://maps.app.goo.gl/SVoXU7LGnn3dArUNA?g_st=ipc","address":"Agiou Nikolaou 2, Thermi 570 01","categoryIds":["desserts"],"categories":["Dessert Shops"]},{"id":"dessertsRestaurants_04457d12c48e","slug":"yammy-donuts-0445","kind":"restaurant","name":"Yammy Donuts","lat":40.54588944546194,"lng":23.02111857717177,"url":"https://maps.app.goo.gl/BFRCZLpVmbK8YGZm9?g_st=ipc","address":"Tsaldari 5, Thermi 570 01","categoryIds":["desserts"],"categories":["Dessert Shops"]},{"id":"burgersRestaurants_d5586ce24d0b","slug":"osten-d558","kind":"restaurant","name":"OSTEN","lat":40.55792173583846,"lng":23.01007604885629,"url":"https://maps.app.goo.gl/JrNCtkPthNJns9L16?g_st=ipc","address":"4χλμ, Χαρ. Θέρμης, Thessaloniki 570 01","categoryIds":["burgers","desserts"],"categories":["Burger Spots","Dessert Shops"],"legacySlugs":["osten-07fc"]},{"id":"dessertsRestaurants_f4e918b1bdf0","slug":"cinnabon-f4e9","kind":"restaurant","name":"Cinnabon","lat":40.55623010232396,"lng":22.993413011236047,"url":"https://maps.app.goo.gl/NCWBKtbPRQENGDWW7?g_st=ipc","address":"11ο Χμ, A/D Thessalonikis Neon Moudanion, 570 01","categoryIds":["desserts"],"categories":["Dessert Shops"]},{"id":"dessertsRestaurants_8fbacc0c06a7","slug":"terkenlis-8fba","kind":"restaurant","name":"Terkenlis","lat":40.55633315795377,"lng":22.993299667914595,"url":"https://maps.app.goo.gl/jz8nuACpM2Fnauw9A?g_st=ipc","address":"11ο χλμ, ΘΕΣΣΑΛΟΝΙΚΗΣ-ΜΟΥΔΑΝΙΩΝ, 555 35","categoryIds":["desserts"],"categories":["Dessert Shops"]},{"id":"dessertsRestaurants_ade0c81c0696","slug":"terkenlis-sa-ade0","kind":"restaurant","name":"Terkenlis SA","lat":40.53095135339602,"lng":23.040855842977592,"url":"https://maps.app.goo.gl/akE1bVgaSKcamD5a9?g_st=ipc","address":"EO Thessalonikis Poligirou, Thermi 570 01","categoryIds":["desserts"],"categories":["Dessert Shops"]},{"id":"coffeeBrunchRestaurants_5b87d322c2b5","slug":"pink-dot-cafe-5b87","kind":"restaurant","name":"Pink Dot Cafe","lat":40.548406580479465,"lng":22.98186227348721,"url":"https://maps.app.goo.gl/CG2fgJcxKmWaKuAV6?g_st=ipc","address":"Leof. Georgikis Scholis 84, Pilea 570 01","categoryIds":["coffee-brunch","desserts"],"categories":["Coffee & Brunch Spots","Dessert Shops"],"legacySlugs":["pink-dot-cafe-f1a3"]},{"id":"dessertsRestaurants_2befb2db83ce","slug":"terkenlis-2bef","kind":"restaurant","name":"Terkenlis","lat":40.525256969361955,"lng":22.97500623617725,"url":"https://maps.app.goo.gl/NfxGujkvPGiZ6Nah7?g_st=ipc","address":"Macedonia, airport, Thessaloniki","categoryIds":["desserts"],"categories":["Dessert Shops"]}],"nearby":[{"id":"familyFriendly_42d11ef19ff8","slug":"cloud-22-family-room-42d1","kind":"restaurant","name":"Cloud 22 Family Room","lat":40.54922868058373,"lng":23.01923766208044,"url":"https://maps.app.goo.gl/Pz6v5LnzAbK4gQGx6?g_st=ic","address":"Tavaki 17, Thermi 570 01","categoryIds":["family-friendly"],"categories":["Kid Friendly Locations"],"distanceKm":0.07803865847054701},{"id":"cheapEatsRestaurants_0353751e2b08","slug":"grn-thermi-0353","kind":"restaurant","name":"ΓΡΝ Θέρμη","lat":40.54741782851475,"lng":23.01948092443365,"url":"https://maps.app.goo.gl/uCq2bBxGLbG7MnvB6?g_st=ipc","address":"Agiou Nikolaou 30, Thermi 570 01","categoryIds":["cheap-eats"],"categories":["Gyros & Cheap Eats"],"distanceKm":0.28018644087429007},{"id":"dessertsRestaurants_ab7dd444d3fa","slug":"nick-alexoudas-ab7d","kind":"restaurant","name":"NICK ALEXOUDAS","lat":40.547044888222544,"lng":23.01874068673441,"url":"https://maps.app.goo.gl/SVoXU7LGnn3dArUNA?g_st=ipc","address":"Agiou Nikolaou 2, Thermi 570 01","categoryIds":["desserts"],"categories":["Dessert Shops"],"distanceKm":0.32353570628062983},{"id":"cheapEatsRestaurants_530bf90a8d2b","slug":"lordon-530b","kind":"restaurant","name":"Lordon","lat":40.546997157219394,"lng":23.020384247436283,"url":"https://maps.app.goo.gl/3FBZX7roU6fjgkTS6?g_st=ipc","address":"Πλατεία Παραμάνα 18, Thermi 570 01","categoryIds":["cheap-eats"],"categories":["Gyros & Cheap Eats"],"distanceKm":0.3403955671245159},{"id":"dessertsRestaurants_04457d12c48e","slug":"yammy-donuts-0445","kind":"restaurant","name":"Yammy Donuts","lat":40.54588944546194,"lng":23.02111857717177,"url":"https://maps.app.goo.gl/BFRCZLpVmbK8YGZm9?g_st=ipc","address":"Tsaldari 5, Thermi 570 01","categoryIds":["desserts"],"categories":["Dessert Shops"],"distanceKm":0.4767848474101138},{"id":"asianRestaurants_7dd246309f18","slug":"asian-house-7dd2","kind":"restaurant","name":"Asian House","lat":40.54562547325916,"lng":23.019251018244844,"url":"https://maps.app.goo.gl/hpPuEp42bUMb6wxz5?g_st=ipc","address":"Vasilikis Tavaki 27, Thermi 570 01","categoryIds":["asian"],"categories":["Asian Restaurants"],"distanceKm":0.4786982140969522},{"id":"coffeeBrunchRestaurants_b47f6bd0d6ab","slug":"bahamas-urban-brunch-bar-b47f","kind":"restaurant","name":"Bahamas Urban |Brunch| Bar","lat":40.55455255928708,"lng":23.018985570943435,"url":"https://maps.app.goo.gl/MseUiktgczouvbdp7?g_st=ipc","address":"Thermis-Panoramatos Rd 7, Thermi 570 01","categoryIds":["coffee-brunch"],"categories":["Coffee & Brunch Spots"],"distanceKm":0.5143720607775937},{"id":"familyFriendly_9807fa41d38f","slug":"lemures-family-lifestyle-play-hub-9807","kind":"restaurant","name":"Lemures Family Lifestyle & Play Hub","lat":40.54355927563734,"lng":23.019251786146132,"url":"https://maps.app.goo.gl/Cv1bZomhT5nP8ZDp6?g_st=ic","address":"Vasilikis Tavaki 6, Thermi 570 01","categoryIds":["family-friendly"],"categories":["Kid Friendly Locations"],"distanceKm":0.7084481653903908}],"sameRegion":[],"mentionedGuides":[],"canonicalSlug":"trigona-panoramatos-drossa-proin-giannis-96b5","isCanonicalEntity":true,"enrichment":{"summary_en":"Τρίγωνα Πανοράματος Δροσσά (πρώην Γιάννης) is a curated restaurant in Thermi 570 01 in the Dessert Shops collection. It is connected to 8 nearby Googlementor picks to help travelers build a stronger local route.","summary_el":"Τρίγωνα Πανοράματος Δροσσά (πρώην Γιάννης) είναι ένα επιλεγμένο σημείο φαγητού στην περιοχή Thermi 570 01 και ανήκει στη συλλογή Dessert Shops. Συνδέεται με 8 κοντινές προτάσεις του Googlementor για πιο ολοκληρωμένη εμπειρία.","vibe_tags":["curated","sweet-stop"],"best_for":["first-time visitors","food lovers"],"visit_moments":["afternoon break","after dinner"],"practical_note":"Address and direct map link are available for easy turn-by-turn access.","nearby_walkable_count":8,"nearby_count_2km":20,"confidence":0.98}},"__N_SSG":true}