{"pageProps":{"entity":{"id":"greekRestaurants_489dcbab3d02","slug":"troyfa-mezedopoleio-489d","kind":"restaurant","name":"Τρούφα Μεζεδοπωλείο","lat":40.673704664191845,"lng":22.915531200227242,"url":"https://maps.app.goo.gl/NQbg2QuYmJZjW8Ha6?g_st=ipc","address":"Olimpiados 101, Evosmos 562 24","categoryIds":["greek-restaurants"],"categories":["Greek Restaurants"]},"sameCategory":[{"id":"greekRestaurants_91be864c5607","slug":"to-traino-91be","kind":"restaurant","name":"Το Τραίνο","lat":40.67703057575148,"lng":22.918208800232915,"url":"https://maps.app.goo.gl/vzgBa3uY1wT8n7z49?g_st=ipc","address":"Eth. Antistaseos 102, Evosmos 562 24","categoryIds":["greek-restaurants"],"categories":["Greek Restaurants"]},{"id":"greekRestaurants_335a73f8c28f","slug":"to-dilavo-335a","kind":"restaurant","name":"Το Δίλαβο","lat":40.67696648177201,"lng":22.91974503350985,"url":"https://maps.app.goo.gl/WbYog3HDi7k69z6Y6?g_st=ipc","address":"Αντώνη Τρίτση 98, Εύοσμος 562 24","categoryIds":["greek-restaurants"],"categories":["Greek Restaurants"]},{"id":"greekRestaurants_7f8b3d2ad28e","slug":"backxes-7f8b","kind":"restaurant","name":"Backξες","lat":40.66851175512014,"lng":22.912875049998018,"url":"https://maps.app.goo.gl/4QcvwjevNtMp66VDA?g_st=ipc","address":"Καρατασου, Τσάμη - Καρατάσου 7, Θεσσαλονίκη 562 24","categoryIds":["greek-restaurants"],"categories":["Greek Restaurants"]},{"id":"greekRestaurants_726e02b8b685","slug":"anama-726e","kind":"restaurant","name":"Anama","lat":40.67309178488354,"lng":22.90614317972579,"url":"https://maps.app.goo.gl/Bt17EdhYtg5pRDnb8?g_st=ipc","address":"Κολοκοτρώνη 10, Εύοσμος 562 24","categoryIds":["greek-restaurants"],"categories":["Greek Restaurants"]},{"id":"greekRestaurants_1519d05a3bce","slug":"mantemi-casual-dining-1519","kind":"restaurant","name":"ΜΑΝΤΕΜΙ | Casual Dining","lat":40.67409229961713,"lng":22.905893700060766,"url":"https://maps.app.goo.gl/A7GLofJnsBowRAkj8?g_st=ipc","address":"Meandrou 79, Evosmos 562 24","categoryIds":["greek-restaurants"],"categories":["Greek Restaurants"]},{"id":"greekRestaurants_a8a1bbc57cf3","slug":"mezedopoleio-sto-dentro-a8a1","kind":"restaurant","name":"Μεζεδοπωλείο στο δέντρο","lat":40.673779680558496,"lng":22.92834851143696,"url":"https://maps.app.goo.gl/94LTg5t1pACd8qHWA?g_st=ipc","address":"Στρ. Μακρυγιάννη 39, Σταυρούπολη 564 31","categoryIds":["greek-restaurants"],"categories":["Greek Restaurants"]},{"id":"greekRestaurants_b101b37c957d","slug":"ladokolla-apo-to-kordelio-sto-charmankioi-b101","kind":"restaurant","name":"Λαδόκολλα - Από το Κορδελιό στο Χαρμάνκιοϊ","lat":40.66651626452892,"lng":22.8973438821838,"url":"https://maps.app.goo.gl/CWnRci4QKtgu8y7y6?g_st=ipc","address":"Μεγ. Αλεξάνδρου 31, Ελευθέριο Κορδελιό 563 34","categoryIds":["greek-restaurants"],"categories":["Greek Restaurants"]},{"id":"greekRestaurants_35929975107f","slug":"tandur-meze-bar-3592","kind":"restaurant","name":"Tandur meze-bar","lat":40.65350641836204,"lng":22.93893939189117,"url":"https://maps.app.goo.gl/i8gDRLqa1MtexdZ17?g_st=ipc","address":"Αγίου Γεωργίου 42, Νεάπολη 567 27","categoryIds":["greek-restaurants"],"categories":["Greek Restaurants"]}],"nearby":[{"id":"cheapEatsRestaurants_a08661b07d70","slug":"peter-steakhouse-a086","kind":"restaurant","name":"Peter Steakhouse","lat":40.67380649867122,"lng":22.919338610112415,"url":"https://maps.app.goo.gl/okGWtgt8ngD1WL4a9?g_st=ipc","address":"Protomagias 21, Evosmos 562 24","categoryIds":["cheap-eats"],"categories":["Gyros & Cheap Eats"],"distanceKm":0.32129331180901244},{"id":"greekRestaurants_91be864c5607","slug":"to-traino-91be","kind":"restaurant","name":"Το Τραίνο","lat":40.67703057575148,"lng":22.918208800232915,"url":"https://maps.app.goo.gl/vzgBa3uY1wT8n7z49?g_st=ipc","address":"Eth. Antistaseos 102, Evosmos 562 24","categoryIds":["greek-restaurants"],"categories":["Greek Restaurants"],"distanceKm":0.43331160582497624},{"id":"fishTavernasRestaurants_15430c4d106f","slug":"to-nydri-estiatorio-thalassinon-1543","kind":"restaurant","name":"Το Νυδρί - Εστιατόριο θαλασσινών","lat":40.67126625480558,"lng":22.91091682845982,"url":"https://maps.app.goo.gl/Gtf6Gmdcb6wNtEXw5?g_st=ipc","address":"Achilleos 34, Θεσσαλονίκη 562 24","categoryIds":["fish-tavernas"],"categories":["Fish Tavernas"],"distanceKm":0.4742975017559738},{"id":"greekRestaurants_335a73f8c28f","slug":"to-dilavo-335a","kind":"restaurant","name":"Το Δίλαβο","lat":40.67696648177201,"lng":22.91974503350985,"url":"https://maps.app.goo.gl/WbYog3HDi7k69z6Y6?g_st=ipc","address":"Αντώνη Τρίτση 98, Εύοσμος 562 24","categoryIds":["greek-restaurants"],"categories":["Greek Restaurants"],"distanceKm":0.507770273726605},{"id":"burgersRestaurants_d1dcd32d4d8e","slug":"stivos-burger-steak-d1dc","kind":"restaurant","name":"STIVOS BURGER & STEAK","lat":40.669593987579994,"lng":22.91138406394072,"url":"https://maps.app.goo.gl/7TUUVwTEcxqLX9347?g_st=ipc","address":"Ευαγγελισμού της Θεοτόκου 43, Evosmos 562 24","categoryIds":["burgers","cheap-eats"],"categories":["Burger Spots","Gyros & Cheap Eats"],"legacySlugs":["stivos-burger-steak-c884"],"distanceKm":0.5755490157796465},{"id":"greekRestaurants_7f8b3d2ad28e","slug":"backxes-7f8b","kind":"restaurant","name":"Backξες","lat":40.66851175512014,"lng":22.912875049998018,"url":"https://maps.app.goo.gl/4QcvwjevNtMp66VDA?g_st=ipc","address":"Καρατασου, Τσάμη - Καρατάσου 7, Θεσσαλονίκη 562 24","categoryIds":["greek-restaurants"],"categories":["Greek Restaurants"],"distanceKm":0.6193555908313981},{"id":"burgersRestaurants_8809fdd68e04","slug":"jokerman-8809","kind":"restaurant","name":"JOKERMAN","lat":40.668414646990946,"lng":22.912364509174097,"url":"https://maps.app.goo.gl/Mz4wckU7VyfPoiNe7?g_st=ipc","address":"Meg. Alexandrou 87, Evosmos 562 24","categoryIds":["burgers"],"categories":["Burger Spots"],"distanceKm":0.6460130598014553},{"id":"cheapEatsRestaurants_f921d077e63d","slug":"psitopoleio-nikos-f921","kind":"restaurant","name":"Ψητοπωλείο \"ΝΙΚΟΣ\"","lat":40.66963563529277,"lng":22.908013940571315,"url":"https://maps.app.goo.gl/LAQoYu8du3ZFbwSR7?g_st=ipc","address":"Meg. Alexandrou 56, Evosmos 562 24","categoryIds":["cheap-eats"],"categories":["Gyros & Cheap Eats"],"distanceKm":0.7788748464944967}],"sameRegion":[],"mentionedGuides":[],"canonicalSlug":"troyfa-mezedopoleio-489d","isCanonicalEntity":true,"enrichment":{"summary_en":"Τρούφα Μεζεδοπωλείο is a curated restaurant in Evosmos 562 24 in the Greek Restaurants collection. It is connected to 13 nearby Googlementor picks to help travelers build a stronger local route.","summary_el":"Τρούφα Μεζεδοπωλείο είναι ένα επιλεγμένο σημείο φαγητού στην περιοχή Evosmos 562 24 και ανήκει στη συλλογή Greek Restaurants. Συνδέεται με 13 κοντινές προτάσεις του Googlementor για πιο ολοκληρωμένη εμπειρία.","vibe_tags":["curated"],"best_for":["first-time visitors","food lovers"],"visit_moments":["lunch stop","dinner stop"],"practical_note":"Address and direct map link are available for easy turn-by-turn access.","nearby_walkable_count":13,"nearby_count_2km":28,"confidence":0.98}},"__N_SSG":true}