{"pageProps":{"entity":{"id":"fishTavernasRestaurants_5a1acfab0629","slug":"tsouknida-5a1a","kind":"restaurant","name":"Tsouknída","lat":40.64197017301936,"lng":23.01608188028885,"url":"https://maps.app.goo.gl/xAJUBaZ5Hv4Rggaw9","address":"28is Oktovriou 0, Asvestochori 570 10","categoryIds":["fish-tavernas"],"categories":["Fish Tavernas"]},"sameCategory":[{"id":"fishTavernasRestaurants_4b85b6df400f","slug":"alepoy-mezedopoleio-4b85","kind":"restaurant","name":"Αλεπού Μεζεδοπωλείο","lat":40.607668350364605,"lng":22.993173165196392,"url":"https://maps.app.goo.gl/fMUK2hozw9hQG8zN8?g_st=ipc","address":"17is Noemvriou 26, Thessaloniki 555 34","categoryIds":["fish-tavernas"],"categories":["Fish Tavernas"]},{"id":"fishTavernasRestaurants_482591e75ff4","slug":"kritamos-meze-bar-4825","kind":"restaurant","name":"Kritamos Meze-Bar","lat":40.61409377580344,"lng":22.97473899193856,"url":"https://maps.app.goo.gl/PC1XeAa9i5F1wcwX7?g_st=ipc","address":"Tirolois 38, Thessaloniki 543 51","categoryIds":["fish-tavernas"],"categories":["Fish Tavernas"]},{"id":"fishTavernasRestaurants_f7102e19ba0d","slug":"koukida-fun-seafood-f710","kind":"restaurant","name":"Koukida Fun-Seafood","lat":40.643445839214266,"lng":22.95570392041812,"url":"https://maps.app.goo.gl/B9KYRcx4RDrq1Zh48?g_st=ipc","address":"Agrafon 13, Thessaloniki 546 34","categoryIds":["fish-tavernas"],"categories":["Fish Tavernas"]},{"id":"fishTavernasRestaurants_58ab1d4f1af2","slug":"ouzerie-lola-58ab","kind":"restaurant","name":"Ouzerie Lola","lat":40.63145175292193,"lng":22.952078380847976,"url":"https://maps.app.goo.gl/idPwmz3cDUMQDRf87?g_st=ipc","address":"Agapinou 10, Thessaloniki 546 21","categoryIds":["fish-tavernas"],"categories":["Fish Tavernas"]},{"id":"fishTavernasRestaurants_3eebfb65840d","slug":"glykanisos-3eeb","kind":"restaurant","name":"Glykanisos","lat":40.59789425560311,"lng":22.984970079796003,"url":"https://maps.app.goo.gl/uuxCBL4zdiCK3Cui9?g_st=ipc","address":"Meg. Alexandrou 46, Pilea 555 35","categoryIds":["fish-tavernas"],"categories":["Fish Tavernas"]},{"id":"fishTavernasRestaurants_ec7fddf4df43","slug":"mourga-ec7f","kind":"restaurant","name":"Mourga","lat":40.635412338789585,"lng":22.94963013274726,"url":"https://maps.app.goo.gl/u7q8zzuEjPhJ53mR7?g_st=ipc","address":"Christopoulou 12, Thessaloniki 546 35","categoryIds":["fish-tavernas"],"categories":["Fish Tavernas"]},{"id":"fishTavernasRestaurants_00693f87c0e2","slug":"new-galerius-0069","kind":"restaurant","name":"New Galerius","lat":40.631035931747235,"lng":22.949361572047398,"url":"https://maps.app.goo.gl/gjbLLdPASWWyhgcMA?g_st=ipc","address":"Apellou 3, Thessaloniki 546 22","categoryIds":["fish-tavernas"],"categories":["Fish Tavernas"]},{"id":"fishTavernasRestaurants_d45de4d8396f","slug":"marea-sea-spirit-d45d","kind":"restaurant","name":"MAREA sea spirit","lat":40.628341964657956,"lng":22.947576121389986,"url":"https://maps.app.goo.gl/Ck1Kd1PfuHwFhziJ6?g_st=ipc","address":"Margariti Lori 13, Thessaloniki 546 22","categoryIds":["fish-tavernas"],"categories":["Fish Tavernas"]}],"nearby":[{"id":"greekRestaurants_a67af598b2d1","slug":"to-loukoumi-a67a","kind":"restaurant","name":"To Loukoumi","lat":40.65097171601764,"lng":22.998975430300302,"url":"https://maps.app.goo.gl/T4aEjoreJoEqYGcE7?g_st=ipc","address":"Leof. Papanikolaou 150, Pefka 570 10","categoryIds":["greek-restaurants"],"categories":["Greek Restaurants"],"distanceKm":1.756361376527418},{"id":"familyFriendly_fddc2b47a16c","slug":"family-sports-club-fddc","kind":"restaurant","name":"Family Sports Club","lat":40.655661119206584,"lng":22.9951268038431,"url":"https://maps.app.goo.gl/P3RfiqzgWLJwu2HN6?g_st=ipc","address":"Tositsa 18, Thessaloniki 570 10","categoryIds":["family-friendly"],"categories":["Kid Friendly Locations"],"distanceKm":2.333024990601473},{"id":"municipalities_773b45e35a7d","slug":"peyka-773b","kind":"municipality","name":"Πεύκα","lat":40.663,"lng":22.985,"region":"Ανατολική Θεσσαλονίκη","name_en":"Pefka","region_en":"East Thessaloniki","distanceKm":3.5133358013507947},{"id":"coffeeBrunchRestaurants_38190cc1f3e8","slug":"morrison-the-premium-rooftop-3819","kind":"restaurant","name":"Morrison • The Premium Rooftop","lat":40.60821540217915,"lng":22.998740403846558,"url":"https://maps.app.goo.gl/WNgG79yhRyL6k5GA9?g_st=ipc","address":"17is Noemvriou 87, Pilea 555 35","categoryIds":["coffee-brunch","rooftop-lounges"],"categories":["Coffee & Brunch Spots","Rooftop Lounges"],"legacySlugs":["morrison-the-premium-rooftop-2f03"],"distanceKm":4.028605004526835},{"id":"greekRestaurants_532b03b35deb","slug":"trygetes-532b","kind":"restaurant","name":"Trygetes","lat":40.609449198477655,"lng":22.99030105913949,"url":"https://maps.app.goo.gl/Rf62EziGTreVjA668?g_st=ipc","address":"17is Noemvriou 12, Pilea 555 34","categoryIds":["greek-restaurants"],"categories":["Greek Restaurants"],"distanceKm":4.220261962226723},{"id":"burgersRestaurants_96feec737ac7","slug":"brothers-in-law-96fe","kind":"restaurant","name":"Brothers In Law","lat":40.610811655039555,"lng":22.98741536304393,"url":"https://maps.app.goo.gl/VFJTVUrK126W1Uku9?g_st=ipc","address":"Grigoriou Lampraki 244, Pilea 543 52","categoryIds":["burgers"],"categories":["Burger Spots"],"distanceKm":4.225733830422197},{"id":"greekRestaurants_e5e2b9a4516b","slug":"strovolos-e5e2","kind":"restaurant","name":"Στρόβολος","lat":40.609636107203336,"lng":22.989436108652693,"url":"https://maps.app.goo.gl/yxZrsFbF6G2pXQQK9?g_st=ipc","address":"Μεσολογγίου 17 νοεμβριου, Θεσσαλονίκη 555 35","categoryIds":["greek-restaurants"],"categories":["Greek Restaurants"],"distanceKm":4.240718658396817},{"id":"dessertsRestaurants_0447f5ff16d8","slug":"pie-serres-lambrakis-0447","kind":"restaurant","name":"Pie \"SERRES\" Lambrakis","lat":40.611438946577884,"lng":22.985616518677983,"url":"https://maps.app.goo.gl/t2b2XQwYxmP3pkBd6?g_st=ipc","address":"Grigoriou Lampraki 222, Thessaloniki 555 34","categoryIds":["desserts"],"categories":["Dessert Shops"],"distanceKm":4.258625384320368}],"sameRegion":[],"mentionedGuides":[],"canonicalSlug":"tsouknida-5a1a","isCanonicalEntity":true,"enrichment":{"summary_en":"Tsouknída is a curated restaurant in Asvestochori 570 10 in the Fish Tavernas collection. It is connected to 0 nearby Googlementor picks to help travelers build a stronger local route.","summary_el":"Tsouknída είναι ένα επιλεγμένο σημείο φαγητού στην περιοχή Asvestochori 570 10 και ανήκει στη συλλογή Fish Tavernas. Συνδέεται με 0 κοντινές προτάσεις του Googlementor για πιο ολοκληρωμένη εμπειρία.","vibe_tags":["curated","seafood-local"],"best_for":["first-time visitors","food lovers"],"visit_moments":["lunch stop","dinner stop"],"practical_note":"Address and direct map link are available for easy turn-by-turn access.","nearby_walkable_count":0,"nearby_count_2km":1,"confidence":0.9}},"__N_SSG":true}