{"pageProps":{"entity":{"id":"fishTavernasRestaurants_ce6329f6bd44","slug":"vallis-restaurant-syrtaki-ce63","kind":"restaurant","name":"Vallis Restaurant Syrtaki","lat":37.66509395086791,"lng":24.035863264626645,"url":"https://maps.app.goo.gl/YDzUffe7ge8q4jKf9?g_st=ipc","address":"195 00, Λεωφ. Σουνίου 114, Κάτω Σούνιο 195 00","categoryIds":["fish-tavernas"],"categories":["Fish Tavernas"]},"sameCategory":[{"id":"fishTavernasRestaurants_4f8b38351522","slug":"akrogiali-4f8b","kind":"restaurant","name":"Ακρογιάλι","lat":37.65493906656911,"lng":24.024336259308715,"url":"https://maps.app.goo.gl/79yGx1u8SDf1eccW7?g_st=ipc","address":"Lavrion 195 00","categoryIds":["fish-tavernas"],"categories":["Fish Tavernas"]},{"id":"fishTavernasRestaurants_0d4e91934017","slug":"psarotaverna-o-ilias-0d4e","kind":"restaurant","name":"Ψαροταβέρνα Ο Ηλίας","lat":37.65514957480802,"lng":24.024008483511512,"url":"https://maps.app.goo.gl/HjnPeLQuxSvNKiyCA?g_st=ipc","address":"Σούνιο 195 00","categoryIds":["fish-tavernas"],"categories":["Fish Tavernas"]},{"id":"fishTavernasRestaurants_3d3979b06e71","slug":"taverna-stamatis-3d39","kind":"restaurant","name":"Ταβέρνα Σταμάτης","lat":37.662782663333054,"lng":24.004791713992123,"url":"https://maps.app.goo.gl/gJf1KcE3sZPjDyz8A?g_st=ipc","address":"Λεωφόρος Αθηνών Σουνίου,Εσπερίδες, Σούνιο 195 00","categoryIds":["fish-tavernas"],"categories":["Fish Tavernas"]},{"id":"fishTavernasRestaurants_250ac79e5fa5","slug":"marida-soynio-250a","kind":"restaurant","name":"Μαρίδα Σούνιο","lat":37.663243704417745,"lng":24.000465853725956,"url":"https://maps.app.goo.gl/8emqMV9UqAiZvW9q9?g_st=ipc","address":"64,5 χλμ. παραλιακη Αθηνων-Σουνίου, Λεγραινα, Σούνιο 195 00","categoryIds":["fish-tavernas"],"categories":["Fish Tavernas"]},{"id":"fishTavernasRestaurants_57dd1c9928eb","slug":"theodoros-eleni-57dd","kind":"restaurant","name":"Θεόδωρος & Ελένη","lat":37.66821016175742,"lng":23.995505349183023,"url":"https://maps.app.goo.gl/5HLB654RHJNN8sJg6?g_st=ipc","address":"Λεωφ. Λεγραινών, Λαυρεωτική 195 00","categoryIds":["fish-tavernas"],"categories":["Fish Tavernas"]},{"id":"fishTavernasRestaurants_747917a1e974","slug":"agkyra-7479","kind":"restaurant","name":"Άγκυρα","lat":37.714457783213085,"lng":24.05577913623349,"url":"https://maps.app.goo.gl/FXSCcGp2kJVSweSb7?g_st=ipc","address":"Ψαραγορά Λαύριο 3, Ανδρέα Αλεξάνδρου, Λαύριο 195 00","categoryIds":["fish-tavernas"],"categories":["Fish Tavernas"]},{"id":"fishTavernasRestaurants_c99168937472","slug":"rerras-c991","kind":"restaurant","name":"Ρέρρας","lat":37.714742366222666,"lng":24.055779972024514,"url":"https://maps.app.goo.gl/vTuWH4xsgnxg1ctN7?g_st=ipc","address":"Κων/νου Πλειώνη, Ανδρέα Αλεξάνδρου και, Λαύριο 195 00","categoryIds":["fish-tavernas"],"categories":["Fish Tavernas"]},{"id":"fishTavernasRestaurants_06b05ccb28e3","slug":"o-foros-psarotaverna-06b0","kind":"restaurant","name":"Ο Φόρος Ψαροταβέρνα","lat":37.730230476020374,"lng":24.052869189449837,"url":"https://maps.app.goo.gl/3QEEjs3jdS92q1p9A?g_st=ipc","address":"Θορικό 195 00","categoryIds":["fish-tavernas"],"categories":["Fish Tavernas"]}],"nearby":[{"id":"fishTavernasRestaurants_4f8b38351522","slug":"akrogiali-4f8b","kind":"restaurant","name":"Ακρογιάλι","lat":37.65493906656911,"lng":24.024336259308715,"url":"https://maps.app.goo.gl/79yGx1u8SDf1eccW7?g_st=ipc","address":"Lavrion 195 00","categoryIds":["fish-tavernas"],"categories":["Fish Tavernas"],"distanceKm":1.518101028044862},{"id":"fishTavernasRestaurants_0d4e91934017","slug":"psarotaverna-o-ilias-0d4e","kind":"restaurant","name":"Ψαροταβέρνα Ο Ηλίας","lat":37.65514957480802,"lng":24.024008483511512,"url":"https://maps.app.goo.gl/HjnPeLQuxSvNKiyCA?g_st=ipc","address":"Σούνιο 195 00","categoryIds":["fish-tavernas"],"categories":["Fish Tavernas"],"distanceKm":1.5204277205592673},{"id":"municipalities_6a5242e17dc2","slug":"soynio-6a52","kind":"municipality","name":"Σούνιο","lat":37.65,"lng":24.0333,"region":"Νότια Αττική","name_en":"Sounio","region_en":"South Attica","distanceKm":1.6934710416051655},{"id":"mustSeeAttractions_4af28e33d14a","slug":"naos-poseidona-4af2","kind":"restaurant","name":"Ναός Ποσειδώνα","lat":37.65020662017392,"lng":24.024585105239044,"url":"https://maps.app.goo.gl/TiGdJ3goZZvH3vQTA?g_st=ipc","address":"Σούνιο 195 00","categoryIds":["attractions"],"categories":["Must-See Attractions"],"distanceKm":1.930291513097102},{"id":"mustSeeAttractions_d2b428b50440","slug":"archaiologikos-choros-soynioy-d2b4","kind":"restaurant","name":"Αρχαιολογικός Χώρος Σουνίου","lat":37.65015898457581,"lng":24.02460331248824,"url":"https://maps.app.goo.gl/H1hDYWZinAPpvjKR9?g_st=ipc","address":"Λαυρεωτική 195 00","categoryIds":["attractions"],"categories":["Must-See Attractions"],"distanceKm":1.9340141523946446},{"id":"fishTavernasRestaurants_3d3979b06e71","slug":"taverna-stamatis-3d39","kind":"restaurant","name":"Ταβέρνα Σταμάτης","lat":37.662782663333054,"lng":24.004791713992123,"url":"https://maps.app.goo.gl/gJf1KcE3sZPjDyz8A?g_st=ipc","address":"Λεωφόρος Αθηνών Σουνίου,Εσπερίδες, Σούνιο 195 00","categoryIds":["fish-tavernas"],"categories":["Fish Tavernas"],"distanceKm":2.7470541314608963},{"id":"fishTavernasRestaurants_250ac79e5fa5","slug":"marida-soynio-250a","kind":"restaurant","name":"Μαρίδα Σούνιο","lat":37.663243704417745,"lng":24.000465853725956,"url":"https://maps.app.goo.gl/8emqMV9UqAiZvW9q9?g_st=ipc","address":"64,5 χλμ. παραλιακη Αθηνων-Σουνίου, Λεγραινα, Σούνιο 195 00","categoryIds":["fish-tavernas"],"categories":["Fish Tavernas"],"distanceKm":3.122555526266894},{"id":"fishTavernasRestaurants_57dd1c9928eb","slug":"theodoros-eleni-57dd","kind":"restaurant","name":"Θεόδωρος & Ελένη","lat":37.66821016175742,"lng":23.995505349183023,"url":"https://maps.app.goo.gl/5HLB654RHJNN8sJg6?g_st=ipc","address":"Λεωφ. Λεγραινών, Λαυρεωτική 195 00","categoryIds":["fish-tavernas"],"categories":["Fish Tavernas"],"distanceKm":3.569147697154296}],"sameRegion":[],"mentionedGuides":[],"canonicalSlug":"vallis-restaurant-syrtaki-ce63","isCanonicalEntity":true,"enrichment":{"summary_en":"Vallis Restaurant Syrtaki is a curated restaurant in Κάτω Σούνιο 195 00 in the Fish Tavernas collection. It is connected to 0 nearby Googlementor picks to help travelers build a stronger local route.","summary_el":"Vallis Restaurant Syrtaki είναι ένα επιλεγμένο σημείο φαγητού στην περιοχή Κάτω Σούνιο 195 00 και ανήκει στη συλλογή Fish Tavernas. Συνδέεται με 0 κοντινές προτάσεις του Googlementor για πιο ολοκληρωμένη εμπειρία.","vibe_tags":["curated","seafood-local"],"best_for":["first-time visitors","food lovers"],"visit_moments":["lunch stop","dinner stop"],"practical_note":"Address and direct map link are available for easy turn-by-turn access.","nearby_walkable_count":0,"nearby_count_2km":5,"confidence":0.9}},"__N_SSG":true}