{"pageProps":{"entity":{"id":"municipalities_d9c8f1d08440","slug":"alexandroypoli-d9c8","kind":"municipality","name":"Αλεξανδρούπολη","lat":40.85,"lng":25.873,"region":"Ανατολική Μακεδονία και Θράκη","name_en":"Alexandroupoli","region_en":"Eastern Macedonia & Thrace"},"sameCategory":[],"nearby":[{"id":"burgersRestaurants_2c0faaef9d53","slug":"holy-smoke-bbq-streetfood-2c0f","kind":"restaurant","name":"Holy Smoke BBQ Streetfood","lat":40.846110747356505,"lng":25.87110606697465,"url":"https://maps.app.goo.gl/QRyzxeSuPPkZ7om56?g_st=ipc","address":"Eth. Antistaseos 136, Alexandroupoli 681 00","categoryIds":["burgers","cheap-eats"],"categories":["Burger Spots","Gyros & Cheap Eats"],"legacySlugs":["holy-smoke-bbq-streetfood-b910"],"distanceKm":0.46087311649410057},{"id":"fishTavernasRestaurants_2332c66868ee","slug":"st-george-s-tavern-2332","kind":"restaurant","name":"St George's Tavern","lat":40.84895697847809,"lng":25.756806933273776,"url":"https://maps.app.goo.gl/Lq4bMhx6VUhzaNx37?g_st=ipc","address":"RQX4+HP, Makri 68150","categoryIds":["fish-tavernas"],"categories":["Fish Tavernas"],"distanceKm":9.773829693674395},{"id":"municipalities_6919fbdafc9e","slug":"samothraki-6919","kind":"municipality","name":"Σαμοθράκη","lat":40.556,"lng":25.526,"region":"Ανατολική Μακεδονία και Θράκη","name_en":"Samothraki","region_en":"Eastern Macedonia & Thrace","distanceKm":43.86726358328275},{"id":"municipalities_b35c4092fc93","slug":"komotini-b35c","kind":"municipality","name":"Κομοτηνή","lat":41.1236,"lng":25.412,"region":"Ανατολική Μακεδονία και Θράκη","name_en":"Komotini","region_en":"Eastern Macedonia & Thrace","distanceKm":49.222254427084756},{"id":"municipalities_10b14dbcbc1b","slug":"xanthi-10b1","kind":"municipality","name":"Ξάνθη","lat":41.14,"lng":24.885,"region":"Ανατολική Μακεδονία και Θράκη","name_en":"Xanthi","region_en":"Eastern Macedonia & Thrace","distanceKm":88.96796631493359},{"id":"municipalities_246c9a1bf42b","slug":"orestiada-246c","kind":"municipality","name":"Ορεστιάδα","lat":41.5,"lng":26.53,"region":"Ανατολική Μακεδονία και Θράκη","name_en":"Orestiada","region_en":"Eastern Macedonia & Thrace","distanceKm":90.81607241330619},{"id":"municipalities_25a63b7a432c","slug":"thasos-25a6","kind":"municipality","name":"Θάσος","lat":40.751,"lng":24.708,"region":"Ανατολική Μακεδονία και Θράκη","name_en":"Thasos","region_en":"Eastern Macedonia & Thrace","distanceKm":98.67718000134604},{"id":"municipalities_8789afaef2a4","slug":"drama-8789","kind":"municipality","name":"Δράμα","lat":41.151,"lng":24.145,"region":"Ανατολική Μακεδονία και Θράκη","name_en":"Drama","region_en":"Eastern Macedonia & Thrace","distanceKm":148.8219893264321}],"sameRegion":[{"id":"municipalities_10b14dbcbc1b","slug":"xanthi-10b1","kind":"municipality","name":"Ξάνθη","lat":41.14,"lng":24.885,"region":"Ανατολική Μακεδονία και Θράκη","name_en":"Xanthi","region_en":"Eastern Macedonia & Thrace"},{"id":"municipalities_246c9a1bf42b","slug":"orestiada-246c","kind":"municipality","name":"Ορεστιάδα","lat":41.5,"lng":26.53,"region":"Ανατολική Μακεδονία και Θράκη","name_en":"Orestiada","region_en":"Eastern Macedonia & Thrace"},{"id":"municipalities_25a63b7a432c","slug":"thasos-25a6","kind":"municipality","name":"Θάσος","lat":40.751,"lng":24.708,"region":"Ανατολική Μακεδονία και Θράκη","name_en":"Thasos","region_en":"Eastern Macedonia & Thrace"},{"id":"municipalities_6919fbdafc9e","slug":"samothraki-6919","kind":"municipality","name":"Σαμοθράκη","lat":40.556,"lng":25.526,"region":"Ανατολική Μακεδονία και Θράκη","name_en":"Samothraki","region_en":"Eastern Macedonia & Thrace"},{"id":"municipalities_8789afaef2a4","slug":"drama-8789","kind":"municipality","name":"Δράμα","lat":41.151,"lng":24.145,"region":"Ανατολική Μακεδονία και Θράκη","name_en":"Drama","region_en":"Eastern Macedonia & Thrace"},{"id":"municipalities_b35c4092fc93","slug":"komotini-b35c","kind":"municipality","name":"Κομοτηνή","lat":41.1236,"lng":25.412,"region":"Ανατολική Μακεδονία και Θράκη","name_en":"Komotini","region_en":"Eastern Macedonia & Thrace"}],"mentionedGuides":[],"canonicalSlug":"alexandroypoli-d9c8","enrichment":{"summary_en":"Αλεξανδρούπολη is a curated neighborhood area in Ανατολική Μακεδονία και Θράκη. It is connected to 1 nearby Googlementor picks to help travelers build a stronger local route.","summary_el":"Αλεξανδρούπολη είναι ένα επιλεγμένο σημείο ενδιαφέροντος στην περιοχή Ανατολική Μακεδονία και Θράκη. Συνδέεται με 1 κοντινές προτάσεις του Googlementor για πιο ολοκληρωμένη εμπειρία.","vibe_tags":["local-neighborhood","base-for-exploring"],"best_for":["first-time visitors","walk-and-explore days","return visitors"],"visit_moments":["late morning walks","sunset exploration"],"practical_note":"1 curated places are within walkable distance from this area center.","nearby_walkable_count":1,"nearby_count_2km":1,"confidence":0.55},"areaContext":null,"intentContexts":[]},"__N_SSG":true}