{"pageProps":{"entity":{"id":"cheapEatsRestaurants_bbf053953e0b","slug":"leyteris-o-politis-ap-to-1951-bbf0","kind":"restaurant","name":"Λευτέρης ο Πολίτης (Απ'το 1951)","lat":37.98519549438972,"lng":23.72733221380902,"url":"https://maps.app.goo.gl/ChqL23bz9HeKVK9L8?g_st=ipc","address":"Σατωβριάνδου 20, Αθήνα 104 32","categoryIds":["cheap-eats"],"categories":["Gyros & Cheap Eats"]},"sameCategory":[{"id":"cheapEatsRestaurants_d410e8bfc12e","slug":"delicious-souvlaki-d410","kind":"restaurant","name":"Delicious Souvlaki","lat":37.98375720535008,"lng":23.72706851408364,"url":"https://maps.app.goo.gl/ULZUzVZRtCP5wbNN7?g_st=ipc","address":"Π. Τσαλδάρη 4, Αθήνα 104 31","categoryIds":["cheap-eats"],"categories":["Gyros & Cheap Eats"]},{"id":"cheapEatsRestaurants_63f6617fb3ad","slug":"falafel-al-sharq-63f6","kind":"restaurant","name":"Falafel Al Sharq","lat":37.98752255014304,"lng":23.726184432262915,"url":"https://maps.app.goo.gl/2RdBMYynhYxYXVUJ7?g_st=ipc","address":"Λιοσίων 1, Αθήνα 104 38","categoryIds":["cheap-eats","vegetarian"],"categories":["Gyros & Cheap Eats","Vegetarian Friendly Restaurants"],"legacySlugs":["falafel-al-sharq-46b7"]},{"id":"cheapEatsRestaurants_7a147c673f5b","slug":"soyvlaki-i-leivadia-7a14","kind":"restaurant","name":"Σουβλάκι Η Λειβαδιά","lat":37.984552486382015,"lng":23.7305119942548,"url":"https://maps.app.goo.gl/DMoZEUMYCkZLa2k59?g_st=ipc","address":"Κάνιγγος 2-4, Αθήνα 106 77","categoryIds":["cheap-eats"],"categories":["Gyros & Cheap Eats"]},{"id":"cheapEatsRestaurants_5338053c1323","slug":"cocoretsi-5338","kind":"restaurant","name":"Cocoretsi","lat":37.984933091622935,"lng":23.73142125517845,"url":"https://maps.app.goo.gl/sz7bawT1imNu9L696?g_st=ipc","address":"Ακαδημίας 95, Αθήνα 106 77","categoryIds":["cheap-eats"],"categories":["Gyros & Cheap Eats"]},{"id":"cheapEatsRestaurants_0f0ae09c0d4e","slug":"guerilla-chef-burgers-0f0a","kind":"restaurant","name":"Guerilla Chef Burgers","lat":37.98671993993366,"lng":23.731787435580728,"url":"https://maps.app.goo.gl/K2QVLnm9vHS1E3cF9?g_st=ipc","address":"37.98671993993366, 23.731787435580728","categoryIds":["cheap-eats"],"categories":["Gyros & Cheap Eats"]},{"id":"cheapEatsRestaurants_cab7e72e3b11","slug":"psitopoleion-giorgos-manos-cab7","kind":"restaurant","name":"Ψητοπωλείον Γιώργος - Μάνος","lat":37.9855993281782,"lng":23.733208439532696,"url":"https://maps.app.goo.gl/jYKrRJuSFDD632N47?g_st=ipc","address":"Θεμιστοκλέους 39, Αθήνα 106 77","categoryIds":["cheap-eats"],"categories":["Gyros & Cheap Eats"]},{"id":"cheapEatsRestaurants_eaf8d8c0d190","slug":"bouloukos-kebab-eaf8","kind":"restaurant","name":"Bouloukos Kebab","lat":37.980172161906935,"lng":23.72690266572384,"url":"https://maps.app.goo.gl/eUePB41Ppi2PT7NL7?g_st=ipc","address":"Αθηνάς 53, Αθήνα 105 52","categoryIds":["cheap-eats"],"categories":["Gyros & Cheap Eats"]},{"id":"cheapEatsRestaurants_724c8ca91031","slug":"mangal-724c","kind":"restaurant","name":"Mangal","lat":37.98648075392058,"lng":23.733903117356245,"url":"https://maps.app.goo.gl/fZ3o2N67Ya2WA1aQA?g_st=ipc","address":"Σολωμού 12, Αθήνα 106 83","categoryIds":["cheap-eats"],"categories":["Gyros & Cheap Eats"]},{"id":"cheapEatsRestaurants_d1e6c2dac993","slug":"o-thomas-d1e6","kind":"restaurant","name":"\"Ο Θωμάς\"","lat":37.990509282943826,"lng":23.72671200338313,"url":"https://maps.app.goo.gl/sNkqRi8WyMgYec9D6?g_st=ipc","address":"Αχαρνών 33, Αθήνα 104 39","categoryIds":["cheap-eats"],"categories":["Gyros & Cheap Eats"]},{"id":"cheapEatsRestaurants_72f8dec93abe","slug":"i-volvi-72f8","kind":"restaurant","name":"Η Βόλβη","lat":37.97981742118138,"lng":23.72787228689906,"url":"https://maps.app.goo.gl/x2HbvpDyfiYLua7z6?g_st=ipc","address":"Ευριπίδου 24-26, Αθήνα 105 51","categoryIds":["cheap-eats"],"categories":["Gyros & Cheap Eats"]},{"id":"cheapEatsRestaurants_e6b3f1094174","slug":"krispy-by-jackaroo-e6b3","kind":"restaurant","name":"Krispy by Jackaroo","lat":37.97957426393904,"lng":23.728377000107947,"url":"https://maps.app.goo.gl/R1wrCFqhDWYwJViQ7?g_st=ipc","address":"Evripidou 15, Athina 105 60","categoryIds":["cheap-eats"],"categories":["Gyros & Cheap Eats"]},{"id":"cheapEatsRestaurants_cda079c65f38","slug":"lorda-cda0","kind":"restaurant","name":"Λόρδα","lat":37.986574816164286,"lng":23.734456878858524,"url":"https://maps.app.goo.gl/nBaQ33jw6JEZQp7X9?g_st=ipc","address":"Σπύρου Τρικούπη 3, Αθήνα 106 83","categoryIds":["cheap-eats"],"categories":["Gyros & Cheap Eats"]}],"nearby":[{"id":"dessertsRestaurants_ebf937ba8b50","slug":"stani-ebf9","kind":"restaurant","name":"Στάνη","lat":37.9854576770231,"lng":23.727929129339035,"url":"https://maps.app.goo.gl/eghkbGAv61qnF46Z8?g_st=ipc","address":"Μαρίκας Κοτοπούλη 10, Αθήνα 104 32","categoryIds":["desserts"],"categories":["Dessert Shops"],"distanceKm":0.059888736271441326},{"id":"dessertsRestaurants_bc01e604b5d0","slug":"loykoymades-chanion-th-ktistaki-bc01","kind":"restaurant","name":"Λουκουμάδες Χανίων Θ.Κτιστάκη","lat":37.98396443932887,"lng":23.726671901662836,"url":"https://maps.app.goo.gl/JiNj7VSFZZXUBr419?g_st=ipc","address":"Σωκράτους 59, Αθήνα 104 31","categoryIds":["desserts"],"categories":["Dessert Shops"],"distanceKm":0.1486172055290422},{"id":"cheapEatsRestaurants_d410e8bfc12e","slug":"delicious-souvlaki-d410","kind":"restaurant","name":"Delicious Souvlaki","lat":37.98375720535008,"lng":23.72706851408364,"url":"https://maps.app.goo.gl/ULZUzVZRtCP5wbNN7?g_st=ipc","address":"Π. Τσαλδάρη 4, Αθήνα 104 31","categoryIds":["cheap-eats"],"categories":["Gyros & Cheap Eats"],"distanceKm":0.16159166200496217},{"id":"cheapEatsRestaurants_63f6617fb3ad","slug":"falafel-al-sharq-63f6","kind":"restaurant","name":"Falafel Al Sharq","lat":37.98752255014304,"lng":23.726184432262915,"url":"https://maps.app.goo.gl/2RdBMYynhYxYXVUJ7?g_st=ipc","address":"Λιοσίων 1, Αθήνα 104 38","categoryIds":["cheap-eats","vegetarian"],"categories":["Gyros & Cheap Eats","Vegetarian Friendly Restaurants"],"legacySlugs":["falafel-al-sharq-46b7"],"distanceKm":0.2776212060170846},{"id":"cheapEatsRestaurants_7a147c673f5b","slug":"soyvlaki-i-leivadia-7a14","kind":"restaurant","name":"Σουβλάκι Η Λειβαδιά","lat":37.984552486382015,"lng":23.7305119942548,"url":"https://maps.app.goo.gl/DMoZEUMYCkZLa2k59?g_st=ipc","address":"Κάνιγγος 2-4, Αθήνα 106 77","categoryIds":["cheap-eats"],"categories":["Gyros & Cheap Eats"],"distanceKm":0.287704653006261},{"id":"fishTavernasRestaurants_9e5577c171da","slug":"i-stoa-allios-9e55","kind":"restaurant","name":"Η Στοά Αλλιώς","lat":37.984455169051934,"lng":23.73057480489291,"url":"https://maps.app.goo.gl/SAabW9ijLcFRSozJ6?g_st=ipc","address":"Γαμβέτα 14, Αθήνα 106 77","categoryIds":["fish-tavernas"],"categories":["Fish Tavernas"],"distanceKm":0.29586655548091073},{"id":"greekRestaurants_56884a3a4523","slug":"i-kriti-pl-kaniggos-5688","kind":"restaurant","name":"Η Κρήτη, πλ. Κανιγγος","lat":37.985209028957776,"lng":23.730887169410018,"url":"https://maps.app.goo.gl/QasSnVbzBbfxtArw5","address":"Βερανζέρου 5, Αθήνα 106 77","categoryIds":["greek-restaurants"],"categories":["Greek Restaurants"],"distanceKm":0.31156163490224603},{"id":"fishTavernasRestaurants_94c27f69eb82","slug":"trata-94c2","kind":"restaurant","name":"ΤΡΑΤΑ","lat":37.9842462216536,"lng":23.73093735061636,"url":"https://maps.app.goo.gl/hterjoYbDhkZzWVF7?g_st=ipc","address":"Νικηταρά, Αθήνα 106 78","categoryIds":["fish-tavernas"],"categories":["Fish Tavernas"],"distanceKm":0.3331233353608504},{"id":"vegetarianRestaurants_a3ef401ec9a4","slug":"royal-curry-house-a3ef","kind":"restaurant","name":"Royal Curry House","lat":37.983044455575836,"lng":23.724361585760793,"url":"https://maps.app.goo.gl/PaZHwjdG5hcj4fEe9?g_st=ipc","address":"Βούλγαρη 7, Αθήνα 104 37","categoryIds":["vegetarian"],"categories":["Vegetarian Friendly Restaurants"],"distanceKm":0.353542030406379},{"id":"luxuryDiningRestaurants_3c3010cb0fe8","slug":"pharaoh-3c30","kind":"restaurant","name":"Pharaoh","lat":37.986974430593506,"lng":23.73075500920587,"url":"https://maps.app.goo.gl/1WxR8XYsFmsyuWyp7?g_st=ipc","address":"Solomou 54, Athina 106 82","categoryIds":["luxury-dining"],"categories":["Luxury Dining"],"distanceKm":0.35932069213377377},{"id":"cheapEatsRestaurants_5338053c1323","slug":"cocoretsi-5338","kind":"restaurant","name":"Cocoretsi","lat":37.984933091622935,"lng":23.73142125517845,"url":"https://maps.app.goo.gl/sz7bawT1imNu9L696?g_st=ipc","address":"Ακαδημίας 95, Αθήνα 106 77","categoryIds":["cheap-eats"],"categories":["Gyros & Cheap Eats"],"distanceKm":0.35955206018195596},{"id":"coffeeBrunchRestaurants_36f81684a0dd","slug":"kolor-36f8","kind":"restaurant","name":"kolor.","lat":37.98351287018702,"lng":23.730837222364755,"url":"https://maps.app.goo.gl/p5U6oKL1b1TdeuVD9?g_st=ipc","address":"Εμμανουήλ Μπενάκη 7-9, Αθήνα 106 78","categoryIds":["coffee-brunch"],"categories":["Coffee & Brunch Spots"],"distanceKm":0.35967798303459536},{"id":"vegetarianRestaurants_90f93033da7a","slug":"up-kyttariki-threpsi-90f9","kind":"restaurant","name":"UP - Κυτταρική Θρέψη","lat":37.984784636631375,"lng":23.731547822244607,"url":"https://maps.app.goo.gl/GaPAS9YHhNwunuDSA?g_st=ipc","address":"Ακαδημίας 91 &, Themistokleous, Athina 106 77","categoryIds":["vegetarian"],"categories":["Vegetarian Friendly Restaurants"],"distanceKm":0.37227287988153857},{"id":"greekRestaurants_2a6cdbb60ef0","slug":"balkan-restaurant-2a6c","kind":"restaurant","name":"Balkan Restaurant","lat":37.985310593490546,"lng":23.722959936018757,"url":"https://maps.app.goo.gl/CKhBpbV2aiz5Bpov8","address":"Ακομινάτου 13, Αθήνα 104 37","categoryIds":["greek-restaurants"],"categories":["Greek Restaurants"],"distanceKm":0.3834019137690136},{"id":"coffeeBrunchRestaurants_728ff1b5d2a5","slug":"motiv-728f","kind":"restaurant","name":"MOTIV","lat":37.98356771821389,"lng":23.731211011656264,"url":"https://maps.app.goo.gl/cfAQd1ZN4MrBL9T99?g_st=ipc","address":"Εμμανουήλ Μπενάκη 20, Αθήνα 106 78","categoryIds":["coffee-brunch"],"categories":["Coffee & Brunch Spots"],"distanceKm":0.3851269148751532},{"id":"italianRestaurants_ed5df50f2107","slug":"dilien-ed5d","kind":"restaurant","name":"Dilien","lat":37.98733679240523,"lng":23.730994400110465,"url":"https://maps.app.goo.gl/yeGNTXa4VUk4Paqs5","address":"Stournari 43, Athina 106 82","categoryIds":["italian"],"categories":["Italian Restaurants"],"distanceKm":0.39962722467705075},{"id":"vegetarianRestaurants_ea997a3c2b69","slug":"handwich-athens-ea99","kind":"restaurant","name":"Handwich Athens","lat":37.98638339493441,"lng":23.731698144915832,"url":"https://maps.app.goo.gl/WwKS8hQTt3PyFTcN9?g_st=ipc","address":"Τζώρτζ 3, Αθήνα 106 82","categoryIds":["vegetarian"],"categories":["Vegetarian Friendly Restaurants"],"distanceKm":0.40478697271070024},{"id":"rooftopLoungesRestaurants_bda24dde9bba","slug":"titania-hotel-athens-bda2","kind":"restaurant","name":"Titania Hotel Athens","lat":37.98298183652686,"lng":23.731011710839574,"url":"https://maps.app.goo.gl/xqLuVZ72UNxG6j6w5?g_st=ipc","address":"Πανεπιστημίου 52, Αθήνα 106 78","categoryIds":["rooftop-lounges"],"categories":["Rooftop Lounges"],"distanceKm":0.4056852373694811},{"id":"vegetarianRestaurants_20a67f5f31e5","slug":"early-bites-20a6","kind":"restaurant","name":"Early bites","lat":37.98184714479862,"lng":23.729463542688077,"url":"https://maps.app.goo.gl/qZXBVvFNkiYBgdiVA?g_st=ipc","address":"Γεωρ. Σταύρου 6, Αθήνα 105 59","categoryIds":["vegetarian"],"categories":["Vegetarian Friendly Restaurants"],"distanceKm":0.4165503043913743},{"id":"burgersRestaurants_cd431d540de7","slug":"guerilla-chef-burgers-cd43","kind":"restaurant","name":"Guerilla Chef Burgers","lat":37.98670260429295,"lng":23.731789751446545,"url":"https://maps.app.goo.gl/dpwZgAJWWe2cfPeG9?g_st=ipc","address":"Σολωμού 33, Αθήνα 106 82","categoryIds":["burgers"],"categories":["Burger Spots"],"distanceKm":0.42508439677446486},{"id":"cheapEatsRestaurants_0f0ae09c0d4e","slug":"guerilla-chef-burgers-0f0a","kind":"restaurant","name":"Guerilla Chef Burgers","lat":37.98671993993366,"lng":23.731787435580728,"url":"https://maps.app.goo.gl/K2QVLnm9vHS1E3cF9?g_st=ipc","address":"37.98671993993366, 23.731787435580728","categoryIds":["cheap-eats"],"categories":["Gyros & Cheap Eats"],"distanceKm":0.4256617982363166},{"id":"greekRestaurants_eec032d0bea1","slug":"atitamos-eec0","kind":"restaurant","name":"Ατίταμος","lat":37.98622715652684,"lng":23.73236663557607,"url":"https://maps.app.goo.gl/VfeckYbAHrSRw3Qo8","address":"Καποδιστρίου 2, Αθήνα 106 83","categoryIds":["greek-restaurants"],"categories":["Greek Restaurants"],"distanceKm":0.45588515795757084},{"id":"rooftopLoungesRestaurants_f8aeb4ce5c33","slug":"olympias-athinas-f8ae","kind":"restaurant","name":"Olympias Athinas","lat":37.98091887904227,"lng":23.72707749971783,"url":"https://maps.app.goo.gl/GanjxfuK53HVBugq8?g_st=ipc","address":"Αθηνάς 57, Αθήνα 105 51","categoryIds":["rooftop-lounges"],"categories":["Rooftop Lounges"],"distanceKm":0.47606163464428547},{"id":"coffeeBrunchRestaurants_9ae1dd6e7d5a","slug":"psomas-n-mokka-kafekopteio-a-e-e-9ae1","kind":"restaurant","name":"ΨΩΜΑΣ, Ν., \"ΜΟΚΚΑ ΚΑΦΕΚΟΠΤΕΙΟ\" Α.Ε.Ε.","lat":37.98083447984655,"lng":23.727407040678795,"url":"https://maps.app.goo.gl/oAY3rXKoej3BQGy39?g_st=ipc","address":"Αθηνάς 44, Αθήνα 105 51","categoryIds":["coffee-brunch"],"categories":["Coffee & Brunch Spots"],"distanceKm":0.48496703553702275}],"sameRegion":[],"mentionedGuides":[],"canonicalSlug":"leyteris-o-politis-ap-to-1951-bbf0","enrichment":{"summary_en":"Λευτέρης ο Πολίτης (Απ'το 1951) is a curated restaurant in Αθήνα 104 32 in the Gyros & Cheap Eats collection. It is connected to 118 nearby Googlementor picks to help travelers build a stronger local route.","summary_el":"Λευτέρης ο Πολίτης (Απ'το 1951) είναι ένα επιλεγμένο σημείο φαγητού στην περιοχή Αθήνα 104 32 και ανήκει στη συλλογή Gyros & Cheap Eats. Συνδέεται με 118 κοντινές προτάσεις του Googlementor για πιο ολοκληρωμένη εμπειρία.","vibe_tags":["curated","budget-friendly"],"best_for":["first-time visitors","food lovers","budget travelers"],"visit_moments":["lunch stop","dinner stop"],"practical_note":"Address and direct map link are available for easy turn-by-turn access.","nearby_walkable_count":118,"nearby_count_2km":546,"confidence":0.98},"areaContext":{"slug":"metaxoyrgeio","name":"Metaxourgeio","nameEl":"Μεταξουργείο"},"intentContexts":[{"href":"/cheap-eats/metaxoyrgeio","label":"Gyros & Cheap Eats in Metaxourgeio","categorySlug":"cheap-eats","categoryName":"Gyros & Cheap Eats","areaSlug":"metaxoyrgeio","areaName":"Metaxourgeio","areaNameEl":"Μεταξουργείο"}]},"__N_SSG":true}