{"pageProps":{"entity":{"id":"mustSeeAttractions_616648db6ed1","slug":"porto-katsiki-6166","kind":"restaurant","name":"Porto Katsiki","lat":38.601119061578444,"lng":20.550313570650722,"url":"https://maps.app.goo.gl/vwCXBmq1Cpbwnz9c6?g_st=ipc","address":"JH32+48, Apollonioi 310 82","categoryIds":["attractions"],"categories":["Must-See Attractions"]},"sameCategory":[{"id":"mustSeeAttractions_5b0540533ca6","slug":"melissani-cave-5b05","kind":"restaurant","name":"Melissani Cave","lat":38.25698727901152,"lng":20.6235483284677,"url":"https://maps.app.goo.gl/DamgwWTndmBhKj5W9?g_st=ipc","address":"Σάμη 280 80","categoryIds":["attractions"],"categories":["Must-See Attractions"]},{"id":"mustSeeAttractions_cf30313c597a","slug":"byzantine-walls-of-nikopolis-cf30","kind":"restaurant","name":"Byzantine Walls of Nikopolis","lat":39.0118446526379,"lng":20.732022944510806,"url":"https://maps.app.goo.gl/VMrzqGqwGc2EoieJ7?g_st=ipc","address":"Unnamed Road, 481 00","categoryIds":["attractions"],"categories":["Must-See Attractions"]},{"id":"mustSeeAttractions_6493befc2e7b","slug":"nicopolis-6493","kind":"restaurant","name":"Nicopolis","lat":39.02636525396993,"lng":20.733626410935955,"url":"https://maps.app.goo.gl/satDDwkecYRf2TSBA?g_st=ipc","address":"Nicopolis 481 00","categoryIds":["attractions"],"categories":["Must-See Attractions"]},{"id":"mustSeeAttractions_ed63de4c6ad6","slug":"paralia-voutoumi-ed63","kind":"restaurant","name":"Paralia Voutoumi","lat":39.15774095957267,"lng":20.227494022688056,"url":"https://maps.app.goo.gl/zBjCseaorqmLUWjo6?g_st=ipc","address":"490 82","categoryIds":["attractions"],"categories":["Must-See Attractions"]},{"id":"mustSeeAttractions_20af350a9d06","slug":"blue-caves-zakynthos-20af","kind":"restaurant","name":"Blue Caves Zakynthos","lat":37.93034342843555,"lng":20.705251154680667,"url":"https://maps.app.goo.gl/aFhekQczUnCUCkXt7?g_st=ipc","address":"Porthmos Zakinthou","categoryIds":["attractions"],"categories":["Must-See Attractions"]},{"id":"mustSeeAttractions_08514e911c7d","slug":"navagio-0851","kind":"restaurant","name":"Navagio","lat":37.85945060305929,"lng":20.624902110473712,"url":"https://maps.app.goo.gl/7zGrDtLoU6SSdcuS9?g_st=ipc","address":"Elatia 290 91","categoryIds":["attractions"],"categories":["Must-See Attractions"]},{"id":"mustSeeAttractions_49ba95768f7d","slug":"archaeological-site-of-dodoni-49ba","kind":"restaurant","name":"Archaeological Site of Dodoni","lat":39.54577918295188,"lng":20.784950664414183,"url":"https://maps.app.goo.gl/5eDCvX8HkvWgXBL19?g_st=ipc","address":"Dodoni 455 00","categoryIds":["attractions"],"categories":["Must-See Attractions"]},{"id":"mustSeeAttractions_55879b7962ff","slug":"perama-cave-5587","kind":"restaurant","name":"Perama Cave","lat":39.694982816550095,"lng":20.846498129141942,"url":"https://maps.app.goo.gl/tihw1UrAiri8GoD29?g_st=ipc","address":"19, Spilaiou, Σπηλαίου 19, Πέραμα, Perama 455 00","categoryIds":["attractions"],"categories":["Must-See Attractions"]},{"id":"mustSeeAttractions_95bea16be675","slug":"old-town-of-corfu-95be","kind":"restaurant","name":"Old Town of Corfu","lat":39.62343987783881,"lng":19.92891594231962,"url":"https://maps.app.goo.gl/iFY1Kcc4UwLiyRGc7?g_st=ipc","address":"Corfu 491 00","categoryIds":["attractions"],"categories":["Must-See Attractions"]},{"id":"mustSeeAttractions_9807d4208c78","slug":"archaeological-site-of-olympia-9807","kind":"restaurant","name":"Archaeological Site of Olympia","lat":37.638459018633775,"lng":21.62988056909868,"url":"https://maps.app.goo.gl/XwgzhKtMosL3r1vr5?g_st=ipc","address":"Archaia Olympia 270 65","categoryIds":["attractions"],"categories":["Must-See Attractions"]},{"id":"mustSeeAttractions_8df91757921b","slug":"zagori-8df9","kind":"restaurant","name":"Zagori","lat":39.96846543207807,"lng":20.729047055658157,"url":"https://maps.app.goo.gl/rVafr1wHovCRyoj77?g_st=ipc","address":"Papingo 440 04","categoryIds":["attractions"],"categories":["Must-See Attractions"]},{"id":"mustSeeAttractions_c9dd48bbc2ef","slug":"pindos-national-park-c9dd","kind":"restaurant","name":"Pindos National Park","lat":39.94128033875326,"lng":20.950852335589502,"url":"https://maps.app.goo.gl/MwFRaHm4xMSpQ3w87?g_st=ipc","address":"WXR2+G8 Tymphaea","categoryIds":["attractions"],"categories":["Must-See Attractions"]}],"nearby":[{"id":"greekRestaurants_1e63838830e5","slug":"taverna-giannis-katerina-in-vournikas-lefkada-1e63","kind":"restaurant","name":"Taverna Giannis Katerina in Vournikas, Lefkada","lat":38.66752502818192,"lng":20.654150574474798,"url":"https://maps.app.goo.gl/SsCXaEhZqto5RDfV6?g_st=ipc","address":"Βουρνικας 310 82","categoryIds":["greek-restaurants"],"categories":["Greek Restaurants"],"distanceKm":11.656333321951054},{"id":"fishTavernasRestaurants_deef9d161177","slug":"tavern-zolithros-deef","kind":"restaurant","name":"Tavern Zolithros","lat":38.63883302731558,"lng":20.699578514278645,"url":"https://maps.app.goo.gl/tsdwoX24ZG7uLKB6A?g_st=ipc","address":"Epar.Od. Porou, Lefkada 311 00","categoryIds":["fish-tavernas"],"categories":["Fish Tavernas"],"distanceKm":13.62890042803199},{"id":"greekRestaurants_e4a6c55ef106","slug":"t-aloni-e4a6","kind":"restaurant","name":"T'Aloni","lat":38.718102837279,"lng":20.601347450819645,"url":"https://maps.app.goo.gl/1ZUJJmBiae2uGevP7?g_st=ipc","address":"Greece, Επαρ.Οδ. Λευκάδας - Βασιλίκης, Χορτάτα 310 82","categoryIds":["greek-restaurants"],"categories":["Greek Restaurants"],"distanceKm":13.742043967488723},{"id":"greekRestaurants_3b8a788327c2","slug":"pavlos-taverna-3b8a","kind":"restaurant","name":"Pavlos Taverna","lat":38.68581647887406,"lng":20.688297137443023,"url":"https://maps.app.goo.gl/ihQGJVLaCRwDgTPC6?g_st=ipc","address":"38°41'09.1\"N 20°41'17.3\"E, Χαραδιάτικα 311 00","categoryIds":["greek-restaurants"],"categories":["Greek Restaurants"],"distanceKm":15.241564088053478},{"id":"greekRestaurants_5b79ce0986b5","slug":"taverna-dimitris-5b79","kind":"restaurant","name":"Ταβέρνα Δημήτρης","lat":38.701351826545626,"lng":20.6910843134411,"url":"https://maps.app.goo.gl/g9mTBjMTZaLgmLJV6?g_st=ipc","address":"Μεγάλο Αυλάκι, Αγ. Χριστόφορος 311 00","categoryIds":["greek-restaurants"],"categories":["Greek Restaurants"],"distanceKm":16.542524345257796},{"id":"greekRestaurants_b0e6188690d8","slug":"taverna-pantazis-b0e6","kind":"restaurant","name":"Ταβέρνα Πανταζής","lat":38.70139865323847,"lng":20.691084581555593,"url":"https://maps.app.goo.gl/Jen92tnRfBazNiWcA?g_st=ipc","address":"Μεγάλο Αυλάκι, Αγ. Χριστόφορος 311 00","categoryIds":["greek-restaurants"],"categories":["Greek Restaurants"],"distanceKm":16.546047134592403},{"id":"fishTavernasRestaurants_8c846286bb7f","slug":"hippocampus-restaurant-8c84","kind":"restaurant","name":"Hippocampus Restaurant","lat":38.68645020644706,"lng":20.712029545342183,"url":"https://maps.app.goo.gl/dycgkVizrbH5BJsH7?g_st=ipc","address":"Γενί 311 00","categoryIds":["fish-tavernas"],"categories":["Fish Tavernas"],"distanceKm":16.9494417656814},{"id":"greekRestaurants_74a64e97d094","slug":"alati-all-day-bar-restaurant-74a6","kind":"restaurant","name":"Alati All-Day Bar & Restaurant","lat":38.43970476008307,"lng":20.536535224973786,"url":"https://maps.app.goo.gl/qijnd11tiKx6sFE87?g_st=ipc","address":"Κεφαλονιά Παραλία Αλατιές, 280 84","categoryIds":["greek-restaurants"],"categories":["Greek Restaurants"],"distanceKm":17.988433490707706},{"id":"greekRestaurants_90eadbf70442","slug":"basilico-restaurant-nidri-lefkada-90ea","kind":"restaurant","name":"Basilico Restaurant Nidri Lefkada","lat":38.70626000795254,"lng":20.709794846088023,"url":"https://maps.app.goo.gl/cefnGXGEhd1wv2Dc8?g_st=ipc","address":"Ακτή Αριστοτέλη Ωνάση 34, Νυδρί 310 84","categoryIds":["greek-restaurants"],"categories":["Greek Restaurants"],"distanceKm":18.12373524070838},{"id":"greekRestaurants_d21bba9d342c","slug":"rachi-food-feelings-d21b","kind":"restaurant","name":"RACHI Food & Feelings","lat":38.75825764413059,"lng":20.616346707590512,"url":"https://maps.app.goo.gl/JGrrpXUs2MQoXr7q9?g_st=ipc","address":"Εξάνθεια 310 80","categoryIds":["greek-restaurants"],"categories":["Greek Restaurants"],"distanceKm":18.389172881942812},{"id":"greekRestaurants_6942525c12c1","slug":"the-barrel-restaurant-6942","kind":"restaurant","name":"The Barrel Restaurant","lat":38.70813316851677,"lng":20.712139832547678,"url":"https://maps.app.goo.gl/pBSGBnhjGPMcZiCm9?g_st=ipc","address":"Παραλία Νυδρίου, Νυδρί 310 84","categoryIds":["greek-restaurants"],"categories":["Greek Restaurants"],"distanceKm":18.413572886092314},{"id":"greekRestaurants_711020d4f316","slug":"pardalo-katsiki-7110","kind":"restaurant","name":"Παρδαλό Κατσίκι","lat":38.76029753827684,"lng":20.64847159329693,"url":"https://maps.app.goo.gl/8pTbVRTApz74Yc7Y6?g_st=ipc","address":"Καρυά 310 80","categoryIds":["greek-restaurants"],"categories":["Greek Restaurants"],"distanceKm":19.64388126552189},{"id":"luxuryDiningRestaurants_d0c9da73f0ff","slug":"amente-restaurant-cocktail-bar-d0c9","kind":"restaurant","name":"Amente Restaurant & Cocktail bar","lat":38.772581566319595,"lng":20.61911835255244,"url":"https://maps.app.goo.gl/gfJazr3nBs7Z4eio6?g_st=ipc","address":"Varagas, Drimonas 311 00","categoryIds":["luxury-dining"],"categories":["Luxury Dining"],"distanceKm":19.97917850941349},{"id":"greekRestaurants_3127804c6fd3","slug":"drymonaki-3127","kind":"restaurant","name":"Drymonaki","lat":38.773138866298765,"lng":20.628773219324636,"url":"https://maps.app.goo.gl/PtQK43FC1oh4H367A?g_st=ipc","address":"Επαρ.Οδ. Λευκάδας - Κάτω Εξανθείας, Δρυμώνας 311 00","categoryIds":["greek-restaurants"],"categories":["Greek Restaurants"],"distanceKm":20.303824660123478},{"id":"fishTavernasRestaurants_da16f2b84772","slug":"errikos-fish-tavern-da16","kind":"restaurant","name":"Errikos Fish Tavern","lat":38.66357210962554,"lng":20.783477705259653,"url":"https://maps.app.goo.gl/Exf4TBgcUy5RfeRQA?g_st=ipc","address":"Meganisi 310 83","categoryIds":["fish-tavernas"],"categories":["Fish Tavernas"],"distanceKm":21.410576363912043},{"id":"greekRestaurants_a07fccbcdfe3","slug":"taverna-o-minas-a07f","kind":"restaurant","name":"Ταβέρνα Ο Μηνάς","lat":38.745408998983734,"lng":20.72626254060498,"url":"https://maps.app.goo.gl/CMgtZcma5cpMYi7v9?g_st=ipc","address":"Νικιάνα 311 00","categoryIds":["greek-restaurants"],"categories":["Greek Restaurants"],"distanceKm":22.15244945160959},{"id":"greekRestaurants_b44de7a44b82","slug":"breath-of-zorbas-b44d","kind":"restaurant","name":"Breath of Zorbas","lat":38.75308739240382,"lng":20.721497707378486,"url":"https://maps.app.goo.gl/qhkhSbqR6wdTPs2u6?g_st=ipc","address":"Ανάσα του Ζορμπά, Νικιάνα 311 00","categoryIds":["greek-restaurants"],"categories":["Greek Restaurants"],"distanceKm":22.50262403149922},{"id":"fishTavernasRestaurants_1f52f6889767","slug":"ta-kanioria-tavern-1f52","kind":"restaurant","name":"Ta Kanioria Tavern","lat":38.79179727346099,"lng":20.720165771019264,"url":"https://maps.app.goo.gl/EbWqYiGwVkKbLu5h6?g_st=ipc","address":"Λυγιά 311 00","categoryIds":["fish-tavernas"],"categories":["Fish Tavernas"],"distanceKm":25.822958621076108},{"id":"fishTavernasRestaurants_7810838c2d0c","slug":"psaropoula-7810","kind":"restaurant","name":"Psaropoúla","lat":38.82126467879608,"lng":20.655911390455394,"url":"https://maps.app.goo.gl/64Q772kGwY6K6Mps8?g_st=ipc","address":"Τσουκαλαδες, Tsoukalades Λευκαδα, Lefkada 311 00","categoryIds":["fish-tavernas"],"categories":["Fish Tavernas"],"distanceKm":26.137582260430268},{"id":"greekRestaurants_0ef8cfb2d853","slug":"kolokythas-oikogeneiaki-taverna-0ef8","kind":"restaurant","name":"ΚΟΛΟΚΥΘΑΣ Οικογενειακή Ταβέρνα","lat":38.79965914314924,"lng":20.740469326628666,"url":"https://maps.app.goo.gl/DdneXWByi7dQmATLA?g_st=ipc","address":"Πλαγια αιτολοκαρνανιας Πλαγιά, Πλαγιά 300 02","categoryIds":["greek-restaurants"],"categories":["Greek Restaurants"],"distanceKm":27.562304704421347},{"id":"coffeeBrunchRestaurants_819a67237a78","slug":"zimis-819a","kind":"restaurant","name":"Zimis","lat":38.83034594976957,"lng":20.704090375704506,"url":"https://maps.app.goo.gl/qftMEppMQDEhweUP7?g_st=ipc","address":"Efstathiou Zakka 12, Lefkada 311 00","categoryIds":["coffee-brunch"],"categories":["Coffee & Brunch Spots"],"distanceKm":28.769519120044777},{"id":"municipalities_1d2e36065111","slug":"leykada-1d2e","kind":"municipality","name":"Λευκάδα","lat":38.83,"lng":20.71,"region":"Ιόνιο","name_en":"Lefkada","region_en":"Ionian Islands","distanceKm":28.977073313733218},{"id":"luxuryDiningRestaurants_8b20ccb20498","slug":"mastelo-restaurant-bar-8b20","kind":"restaurant","name":"Mastelo Restaurant & Bar","lat":38.83239517619771,"lng":20.705692089105533,"url":"https://maps.app.goo.gl/3X5uukpGejXWctER8?g_st=ipc","address":"Mitropoleos 11, Lefkada 311 00","categoryIds":["luxury-dining"],"categories":["Luxury Dining"],"distanceKm":29.03575907951049},{"id":"dessertsRestaurants_c1858394016b","slug":"fresco-gelato-artigianale-c185","kind":"restaurant","name":"Fresco gelato artigianale","lat":38.833202680203854,"lng":20.707021375147267,"url":"https://maps.app.goo.gl/ewEbAmjuJdZBCseQ7?g_st=ipc","address":"Ioannou Mela 69, Lefkada 311 00","categoryIds":["desserts"],"categories":["Dessert Shops"],"distanceKm":29.16885619387282}],"sameRegion":[],"mentionedGuides":[],"canonicalSlug":"porto-katsiki-6166","enrichment":{"summary_en":"Porto Katsiki is a curated restaurant in Apollonioi 310 82 in the Must-See Attractions collection. It is connected to 0 nearby Googlementor picks to help travelers build a stronger local route.","summary_el":"Porto Katsiki είναι ένα επιλεγμένο σημείο φαγητού στην περιοχή Apollonioi 310 82 και ανήκει στη συλλογή Must-See Attractions. Συνδέεται με 0 κοντινές προτάσεις του Googlementor για πιο ολοκληρωμένη εμπειρία.","vibe_tags":["curated"],"best_for":["first-time visitors","food lovers"],"visit_moments":["lunch stop","dinner stop"],"practical_note":"Address and direct map link are available for easy turn-by-turn access.","nearby_walkable_count":0,"nearby_count_2km":0,"confidence":0.9},"areaContext":null,"intentContexts":[]},"__N_SSG":true}