{"pageProps":{"entity":{"id":"coffeeBrunchRestaurants_f04e1b347f8a","slug":"tabya-f04e","kind":"restaurant","name":"Tabya","lat":40.6330498721733,"lng":22.954427623261545,"url":"https://maps.app.goo.gl/FxsAHzVitWKgJyqY8?g_st=ipc","address":"Kon/nou Melenikou 14, Thessaloniki 546 35","categoryIds":["coffee-brunch"],"categories":["Coffee & Brunch Spots"]},"sameCategory":[{"id":"coffeeBrunchRestaurants_cec31106b257","slug":"canela-kamara-cec3","kind":"restaurant","name":"CANELA KAMARA","lat":40.63288705394979,"lng":22.951924664943846,"url":"https://maps.app.goo.gl/uer9gPdcnKtNqaiA8?g_st=ipc","address":"Vasou 2, Thessaloniki 546 35","categoryIds":["coffee-brunch"],"categories":["Coffee & Brunch Spots"]},{"id":"cheapEatsRestaurants_14153fc76d40","slug":"because-bagel-1415","kind":"restaurant","name":"Because Bagel","lat":40.63057520882739,"lng":22.951254328665513,"url":"https://maps.app.goo.gl/F867e4fDb8YFQcHN9?g_st=ipc","address":"Al. Svolou 41, Thessaloniki 546 21","categoryIds":["cheap-eats","coffee-brunch"],"categories":["Gyros & Cheap Eats","Coffee & Brunch Spots"],"legacySlugs":["because-bagel-f384"]},{"id":"coffeeBrunchRestaurants_1ba6faa5ef16","slug":"naked-1ba6","kind":"restaurant","name":"NAKED","lat":40.6351156138034,"lng":22.949358819047884,"url":"https://maps.app.goo.gl/tVt4qfxaTjfyP7oG8?g_st=ipc","address":"Filippou 62, Thessaloniki 546 35","categoryIds":["coffee-brunch"],"categories":["Coffee & Brunch Spots"]},{"id":"coffeeBrunchRestaurants_8c2176607636","slug":"donkey-garden-8c21","kind":"restaurant","name":"Donkey Garden","lat":40.63233978923016,"lng":22.94821185116991,"url":"https://maps.app.goo.gl/Kev7Tos1LbMdirKcA?g_st=ipc","address":"Skra 3, Thessaloniki 546 22","categoryIds":["coffee-brunch"],"categories":["Coffee & Brunch Spots"]},{"id":"coffeeBrunchRestaurants_24b6a5a5bc93","slug":"brunchsin-24b6","kind":"restaurant","name":"Brunchsin","lat":40.63142362221095,"lng":22.94824040063862,"url":"https://maps.app.goo.gl/oQiMBEdPePBk3uAQ9?g_st=ipc","address":"Paleon Patron Germanou 26, Thessaloniki 546 22","categoryIds":["coffee-brunch"],"categories":["Coffee & Brunch Spots"]},{"id":"coffeeBrunchRestaurants_3e6cfb10198f","slug":"shed-3e6c","kind":"restaurant","name":"shed","lat":40.63516182787635,"lng":22.9483681936243,"url":"https://maps.app.goo.gl/bczd7kAPu1ihwt9fA?g_st=ipc","address":"Patriarchoi Dionisii E 11, Thessaloniki 546 35","categoryIds":["coffee-brunch"],"categories":["Coffee & Brunch Spots"]},{"id":"coffeeBrunchRestaurants_b5c74e889058","slug":"bunny-tail-b5c7","kind":"restaurant","name":"Bunny Tail","lat":40.63263326905148,"lng":22.947686149858708,"url":"https://maps.app.goo.gl/5s2tkstCJrJZyR4TA?g_st=ipc","address":"Αλεξάνδρου Σβώλου 1, Patriarchou Ioakim 2, Thessaloniki 546 22","categoryIds":["coffee-brunch"],"categories":["Coffee & Brunch Spots"]},{"id":"cheapEatsRestaurants_360afa6ead29","slug":"salu-deli-bar-360a","kind":"restaurant","name":"Salu Deli Bar","lat":40.62815289802217,"lng":22.952006929781376,"url":"https://maps.app.goo.gl/Mew4X3m69PgK4Y2TA?g_st=ipc","address":"Manousagiannaki 20, Thessaloniki 546 21","categoryIds":["cheap-eats","coffee-brunch"],"categories":["Gyros & Cheap Eats","Coffee & Brunch Spots"],"legacySlugs":["salu-deli-bar-e516"]},{"id":"coffeeBrunchRestaurants_a1cebd140b7f","slug":"fluffy-brunch-a1ce","kind":"restaurant","name":"Fluffy Brunch","lat":40.630856001242115,"lng":22.948097521947723,"url":"https://maps.app.goo.gl/kPU1qrdrjXANCqMt7?g_st=ipc","address":"Pl. Navarinou 10, Thessaloniki 546 22","categoryIds":["coffee-brunch"],"categories":["Coffee & Brunch Spots"]},{"id":"coffeeBrunchRestaurants_203d902848ee","slug":"philia-thessaloniki-203d","kind":"restaurant","name":"Philia Thessaloniki","lat":40.63033915762918,"lng":22.94834718792844,"url":"https://maps.app.goo.gl/RLKeacGYRRwh2No58?g_st=ic","address":"Pl. Navarinou 5, Thessaloniki 546 22","categoryIds":["coffee-brunch"],"categories":["Coffee & Brunch Spots"]},{"id":"coffeeBrunchRestaurants_e317c423742b","slug":"spoon-e317","kind":"restaurant","name":"Spoon","lat":40.631612141451626,"lng":22.94743751548318,"url":"https://maps.app.goo.gl/22Pm73g59e2LeoJQ7?g_st=ipc","address":"P. Mela 38, Thessaloniki 546 22","categoryIds":["coffee-brunch"],"categories":["Coffee & Brunch Spots"]},{"id":"coffeeBrunchRestaurants_ad573219eedf","slug":"ergon-agora-ad57","kind":"restaurant","name":"ERGON Agora","lat":40.63187081672803,"lng":22.94735121723834,"url":"https://maps.app.goo.gl/ozYptsUfXEMA3PdNA?g_st=ipc","address":"P. Mela 42, Thessaloniki 546 22","categoryIds":["coffee-brunch"],"categories":["Coffee & Brunch Spots"]}],"nearby":[{"id":"italianRestaurants_d4a8673af302","slug":"rosticceria-di-salonicco-d4a8","kind":"restaurant","name":"Rosticceria di Salonicco","lat":40.633588139092396,"lng":22.954063296681706,"url":"https://maps.app.goo.gl/WqcXyq1eyTArWEmP6?g_st=ipc","address":"Armenopoulou 27, Thessaloniki 546 35","categoryIds":["italian"],"categories":["Italian Restaurants"],"distanceKm":0.06728672455960168},{"id":"burgersRestaurants_d933f81e3617","slug":"pass-the-smashed-d933","kind":"restaurant","name":"Pass The Smashed","lat":40.63217264797822,"lng":22.953233528916606,"url":"https://maps.app.goo.gl/gnzc1t32pqqQF6sQ7?g_st=ic","address":"Episkopou Kitrous Nikolaou 2, Thessaloniki 546 35","categoryIds":["burgers"],"categories":["Burger Spots"],"distanceKm":0.1402431725573852},{"id":"vegetarianRestaurants_43af59721fc8","slug":"omg-in-skg-43af","kind":"restaurant","name":"OMG in SKG","lat":40.63186182844344,"lng":22.953097770969947,"url":"https://maps.app.goo.gl/b6twRtPbJbTuXUe26?g_st=ipc","address":"Episkopou Kitrous Nikolaou 1, Thessaloniki 546 35","categoryIds":["vegetarian"],"categories":["Vegetarian Friendly Restaurants"],"distanceKm":0.17333536702411453},{"id":"cheapEatsRestaurants_3a84f1e5b6b2","slug":"pizza-chris-3a84","kind":"restaurant","name":"Pizza Chris","lat":40.634238789767664,"lng":22.952894059300746,"url":"https://maps.app.goo.gl/rMq3J3GrNZNoRMpZ9?g_st=ipc","address":"Armenopoulou 17, Thessaloniki 546 35","categoryIds":["cheap-eats"],"categories":["Gyros & Cheap Eats"],"distanceKm":0.1849973104893029},{"id":"cheapEatsRestaurants_7ae963e72327","slug":"last-bite-7ae9","kind":"restaurant","name":"LAST BITE","lat":40.63432876296427,"lng":22.95290522955353,"url":"https://maps.app.goo.gl/qLtPEtu7Ux91nEnP8?g_st=ipc","address":"Kiriakou Manolaki 1, Thessaloniki 546 35","categoryIds":["cheap-eats","desserts"],"categories":["Gyros & Cheap Eats","Dessert Shops"],"legacySlugs":["last-bite-cc54"],"distanceKm":0.1916409127175129},{"id":"greekRestaurants_64b68d7e42ed","slug":"oinohoos-64b6","kind":"restaurant","name":"Oinohoos","lat":40.63481540848585,"lng":22.95364872951098,"url":"https://maps.app.goo.gl/roxmt796zNAdVec76?g_st=ipc","address":"Kon/nou Melenikou 39, Thessaloniki 546 35","categoryIds":["greek-restaurants"],"categories":["Greek Restaurants"],"distanceKm":0.2070289330601103},{"id":"coffeeBrunchRestaurants_cec31106b257","slug":"canela-kamara-cec3","kind":"restaurant","name":"CANELA KAMARA","lat":40.63288705394979,"lng":22.951924664943846,"url":"https://maps.app.goo.gl/uer9gPdcnKtNqaiA8?g_st=ipc","address":"Vasou 2, Thessaloniki 546 35","categoryIds":["coffee-brunch"],"categories":["Coffee & Brunch Spots"],"distanceKm":0.21198781581868112},{"id":"cheapEatsRestaurants_3f9006febdb5","slug":"life-and-chicken-3f90","kind":"restaurant","name":"Life And Chicken","lat":40.63311964993022,"lng":22.951739765062324,"url":"https://maps.app.goo.gl/fczSwQFG8SAVzjsu7?g_st=ipc","address":"Κέντρο, Θεσσαλονίκη, Patriarchou Ioakim 26, Thessaloniki 546 35","categoryIds":["cheap-eats"],"categories":["Gyros & Cheap Eats"],"distanceKm":0.22694843977184787},{"id":"mustSeeAttractions_6c182d5c56d9","slug":"arch-of-galerius-6c18","kind":"restaurant","name":"Arch of Galerius","lat":40.6322250425038,"lng":22.95175086035539,"url":"https://maps.app.goo.gl/VHhyUKPZMLXo4AeBA?g_st=ipc","address":"Egnatia 144, Thessaloniki 546 22","categoryIds":["attractions"],"categories":["Must-See Attractions"],"distanceKm":0.2437913298761677},{"id":"cheapEatsRestaurants_360554fc9fc3","slug":"christos-3605","kind":"restaurant","name":"Christos","lat":40.63147006963023,"lng":22.952399705195514,"url":"https://maps.app.goo.gl/NQPjMfCoN4AKJD3m8?g_st=ipc","address":"Egnatia 150, Thessaloniki 546 21","categoryIds":["cheap-eats"],"categories":["Gyros & Cheap Eats"],"distanceKm":0.2452418392236349},{"id":"fishTavernasRestaurants_58ab1d4f1af2","slug":"ouzerie-lola-58ab","kind":"restaurant","name":"Ouzerie Lola","lat":40.63145175292193,"lng":22.952078380847976,"url":"https://maps.app.goo.gl/idPwmz3cDUMQDRf87?g_st=ipc","address":"Agapinou 10, Thessaloniki 546 21","categoryIds":["fish-tavernas"],"categories":["Fish Tavernas"],"distanceKm":0.26623104556317767},{"id":"cheapEatsRestaurants_59b46ad1098f","slug":"gouda-luck-59b4","kind":"restaurant","name":"Gouda luck","lat":40.632030062154726,"lng":22.9512395674924,"url":"https://maps.app.goo.gl/w5kby75ZDPeF56mp7?g_st=ic","address":"Egnatia 144, Thessaloniki 546 22","categoryIds":["cheap-eats"],"categories":["Gyros & Cheap Eats"],"distanceKm":0.2919498658820339},{"id":"mustSeeAttractions_aab957c1e5d6","slug":"ataturk-museum-of-thessaloniki-aab9","kind":"restaurant","name":"Ataturk Museum of Thessaloniki","lat":40.63574901751839,"lng":22.954355092076376,"url":"https://maps.app.goo.gl/RFapK1M21jxWogbVA?g_st=ipc","address":"Apostolou Pavlou 17, Thessaloniki 546 34","categoryIds":["attractions"],"categories":["Must-See Attractions"],"distanceKm":0.3001936679687907},{"id":"vegetarianRestaurants_8b165a3d11ad","slug":"tarantoula-8b16","kind":"restaurant","name":"Tarantoúla","lat":40.635244984518486,"lng":22.952246319112277,"url":"https://maps.app.goo.gl/8ipQFrqJVpwS17GS7?g_st=ipc","address":"Olympou 127, Thessaloniki 546 35","categoryIds":["vegetarian"],"categories":["Vegetarian Friendly Restaurants"],"distanceKm":0.3057096073037862},{"id":"greekRestaurants_c3b293abf29a","slug":"taverna-asylo-c3b2","kind":"restaurant","name":"Ταβέρνα Άσυλο","lat":40.634483959485976,"lng":22.957970652421718,"url":"https://maps.app.goo.gl/YcnTd1dcPwKyoKFT9?g_st=ipc","address":"Πανεπιστημίου 2, Αγ. Παύλος 546 36","categoryIds":["greek-restaurants"],"categories":["Greek Restaurants"],"distanceKm":0.3388443940245185},{"id":"italianRestaurants_d3fb4b2d1274","slug":"osteria-dai-fioi-d3fb","kind":"restaurant","name":"Osteria dai Fioi","lat":40.633770916934814,"lng":22.950440152016508,"url":"https://maps.app.goo.gl/ptx8MrTs166UDsu79?g_st=ipc","address":"Leonida Iasonidou 9, Thessaloniki 546 35","categoryIds":["italian"],"categories":["Italian Restaurants"],"distanceKm":0.34590269191296535},{"id":"cheapEatsRestaurants_aa2a8e3577a2","slug":"liga-ke-kala-aa2a","kind":"restaurant","name":"Liga ke kala","lat":40.63627784998205,"lng":22.954179728027064,"url":"https://maps.app.goo.gl/KNAkyJUgnkqkuPQs9?g_st=ipc","address":"Kassandrou 132, Thessaloniki 546 34","categoryIds":["cheap-eats"],"categories":["Gyros & Cheap Eats"],"distanceKm":0.3595437816054047},{"id":"cheapEatsRestaurants_c01da58dabd8","slug":"pizza-romea-c01d","kind":"restaurant","name":"Pizza Romea","lat":40.636170436374,"lng":22.952743400099628,"url":"https://maps.app.goo.gl/jsFLzjxU7rbpCatGA?g_st=ipc","address":"Ag. Dimitriou 135, Thessaloniki 546 35","categoryIds":["cheap-eats"],"categories":["Gyros & Cheap Eats"],"distanceKm":0.3749678854214604},{"id":"greekRestaurants_8cc725e89b2f","slug":"doxa-8cc7","kind":"restaurant","name":"Δόξα","lat":40.63645880387639,"lng":22.95480906477019,"url":"https://maps.app.goo.gl/v7a1JB4C1wDKAViy6?g_st=ipc","address":"Αποστόλου Παύλου 25, Θεσσαλονίκη 546 34","categoryIds":["greek-restaurants"],"categories":["Greek Restaurants"],"distanceKm":0.38042003495810844},{"id":"asianRestaurants_aa56878cf133","slug":"nagomi-jpn-aa56","kind":"restaurant","name":"Nagomi Jpn","lat":40.63061239454344,"lng":22.951225233616498,"url":"https://maps.app.goo.gl/8UyTpuy2ncGK15GJ6?g_st=ic","address":"Al. Svolou 41, Thessaloniki 546 22","categoryIds":["asian","desserts"],"categories":["Asian Restaurants","Dessert Shops"],"legacySlugs":["nagomi-jpn-eccd"],"distanceKm":0.3827395578259256},{"id":"cheapEatsRestaurants_14153fc76d40","slug":"because-bagel-1415","kind":"restaurant","name":"Because Bagel","lat":40.63057520882739,"lng":22.951254328665513,"url":"https://maps.app.goo.gl/F867e4fDb8YFQcHN9?g_st=ipc","address":"Al. Svolou 41, Thessaloniki 546 21","categoryIds":["cheap-eats","coffee-brunch"],"categories":["Gyros & Cheap Eats","Coffee & Brunch Spots"],"legacySlugs":["because-bagel-f384"],"distanceKm":0.38396238527892923},{"id":"dessertsRestaurants_9d142e026cde","slug":"gelati-e-amore-9d14","kind":"restaurant","name":"Gelati e Amore","lat":40.63013548543496,"lng":22.951618020186764,"url":"https://maps.app.goo.gl/vMrAJXJCUj5tn2mDA?g_st=ipc","address":"Al. Svolou 44, Thessaloniki 546 21","categoryIds":["desserts"],"categories":["Dessert Shops"],"distanceKm":0.40153699876162874},{"id":"cheapEatsRestaurants_76d0caaa7f9f","slug":"giok-balik-76d0","kind":"restaurant","name":"Giok Balik","lat":40.62972191102995,"lng":22.952456612586893,"url":"https://maps.app.goo.gl/1CjK5eGEVn2bdjxz8?g_st=ipc","address":"Eth. Aminis 34, Thessaloniki 546 21","categoryIds":["cheap-eats"],"categories":["Gyros & Cheap Eats"],"distanceKm":0.4057141563080414},{"id":"greekRestaurants_6297c85e5b73","slug":"to-limeri-6297","kind":"restaurant","name":"Το λημέρι","lat":40.63585070853852,"lng":22.950530015801274,"url":"https://maps.app.goo.gl/WWLkDZFBAptyzgH88?g_st=ipc","address":"Ολύμπου 116, Θεσσαλονίκη 546 35","categoryIds":["greek-restaurants"],"categories":["Greek Restaurants"],"distanceKm":0.4529519446438002}],"sameRegion":[],"mentionedGuides":[],"canonicalSlug":"tabya-f04e","enrichment":{"summary_en":"Tabya is a curated restaurant in Thessaloniki 546 35 in the Coffee & Brunch Spots collection. It is connected to 110 nearby Googlementor picks to help travelers build a stronger local route.","summary_el":"Tabya είναι ένα επιλεγμένο σημείο φαγητού στην περιοχή Thessaloniki 546 35 και ανήκει στη συλλογή Coffee & Brunch Spots. Συνδέεται με 110 κοντινές προτάσεις του Googlementor για πιο ολοκληρωμένη εμπειρία.","vibe_tags":["curated","daytime-favorite"],"best_for":["first-time visitors","food lovers"],"visit_moments":["early morning","late brunch"],"practical_note":"Address and direct map link are available for easy turn-by-turn access.","nearby_walkable_count":110,"nearby_count_2km":269,"confidence":0.98},"areaContext":{"slug":"triandria","name":"Triandria","nameEl":"Τριανδρία"},"intentContexts":[{"href":"/brunch/triandria","label":"Coffee & Brunch Spots in Triandria","categorySlug":"brunch","categoryName":"Coffee & Brunch Spots","areaSlug":"triandria","areaName":"Triandria","areaNameEl":"Τριανδρία"}]},"__N_SSG":true}