{"pageProps":{"entity":{"id":"asianRestaurants_11df834afa0a","slug":"axi-11df","kind":"restaurant","name":"AXI - 阿锡早点","lat":37.98134764148285,"lng":23.721168322095103,"url":"https://maps.app.goo.gl/BQFSgk7VHKmzvjWN9?g_st=ipc","address":"Athens, Greece, Akadimou, 104 36","categoryIds":["asian"],"categories":["Asian Restaurants"]},"sameCategory":[{"id":"asianRestaurants_d23972f8388f","slug":"noodle-shop-d239","kind":"restaurant","name":"Noodle Shop - 相遇面馆","lat":37.98145210842213,"lng":23.721054788106656,"url":"https://maps.app.goo.gl/Za9q8z3zwF4WhUQs8?g_st=ipc","address":"Ακαδήμου 4, Αθήνα 104 36","categoryIds":["asian"],"categories":["Asian Restaurants"]},{"id":"asianRestaurants_f31c7fe7455a","slug":"168-bar-f31c","kind":"restaurant","name":"168 Bar","lat":37.97952828529781,"lng":23.72107861467235,"url":"https://maps.app.goo.gl/kfZE6p7Ddwomz7Zd9?g_st=ipc","address":"Διπύλου 6, Αθήνα 105 53","categoryIds":["asian"],"categories":["Asian Restaurants"]},{"id":"asianRestaurants_3e39975f70d5","slug":"streetwok-3e39","kind":"restaurant","name":"StreetWok","lat":37.97689230907057,"lng":23.727592595188877,"url":"https://maps.app.goo.gl/qhpXyetVXaLisBEWA?g_st=ipc","address":"Αιόλου 21, Αθήνα 105 63","categoryIds":["asian"],"categories":["Asian Restaurants"]},{"id":"asianRestaurants_464e7e4c810b","slug":"tanpopo-464e","kind":"restaurant","name":"Tanpopo","lat":37.9795596589589,"lng":23.72974278108181,"url":"https://maps.app.goo.gl/H2M3yGFhApNA288V8?g_st=ipc","address":"Αριστείδου 1, Ευριπίδου 2, Αθήνα 105 59","categoryIds":["asian"],"categories":["Asian Restaurants"]},{"id":"asianRestaurants_54f96c10eabf","slug":"shisan-sushi-bar-54f9","kind":"restaurant","name":"Shisan Sushi Bar","lat":37.97750088660989,"lng":23.729162812696888,"url":"https://maps.app.goo.gl/EXv9MbMpLAGJ5z8p9?g_st=ipc","address":"Καλαμιώτου 25, Αθήνα 106 81","categoryIds":["asian"],"categories":["Asian Restaurants"]},{"id":"asianRestaurants_f1cd493b50d2","slug":"zafran-indian-kitchen-f1cd","kind":"restaurant","name":"Zafran Indian Kitchen","lat":37.977657888236905,"lng":23.712403701256626,"url":"https://maps.app.goo.gl/JyaNzBjgKky4afGL8?g_st=ipc","address":"Περσεφόνης 25, Αθήνα 118 54","categoryIds":["asian"],"categories":["Asian Restaurants"]},{"id":"asianRestaurants_427d94265987","slug":"shisan-sushi-bar-427d","kind":"restaurant","name":"Shisan Sushi Bar","lat":37.977337086650145,"lng":23.730266018891072,"url":"https://maps.app.goo.gl/nPpYrXs7ZyBAs7gx9?g_st=ipc","address":"Ρόμβης 24Α, Αθήνα 105 62","categoryIds":["asian"],"categories":["Asian Restaurants"]},{"id":"asianRestaurants_145a81e4039e","slug":"akira-sushi-bar-athens-japanese-restaurant-145a","kind":"restaurant","name":"Akira Sushi Bar | Athens Japanese Restaurant","lat":37.979592346362566,"lng":23.73239256912945,"url":"https://maps.app.goo.gl/y6KSXjJTao7NPHZG8?g_st=ipc","address":"Σταδίου 30 &, Κοραή 4, Αθήνα 105 64","categoryIds":["asian"],"categories":["Asian Restaurants"]}],"nearby":[{"id":"cheapEatsRestaurants_8113009fd5ab","slug":"axi-8113","kind":"restaurant","name":"AXI - 阿锡早点","lat":37.98134764148285,"lng":23.721168322095103,"url":"https://maps.app.goo.gl/QAxCvjDtdvgbPe3b7?g_st=ipc","address":"Athens, Greece, Akadimou, 104 36","categoryIds":["cheap-eats"],"categories":["Gyros & Cheap Eats"],"distanceKm":0},{"id":"asianRestaurants_d23972f8388f","slug":"noodle-shop-d239","kind":"restaurant","name":"Noodle Shop - 相遇面馆","lat":37.98145210842213,"lng":23.721054788106656,"url":"https://maps.app.goo.gl/Za9q8z3zwF4WhUQs8?g_st=ipc","address":"Ακαδήμου 4, Αθήνα 104 36","categoryIds":["asian"],"categories":["Asian Restaurants"],"distanceKm":0.015295494565789129},{"id":"greekRestaurants_8c5628ce57f7","slug":"seychelles-8c56","kind":"restaurant","name":"Σεϋχέλλες","lat":37.9823149491854,"lng":23.720253813195804,"url":"https://maps.app.goo.gl/iUj8NxtUsYKhihFV9","address":"Κεραμεικού 49, Αθήνα 104 36","categoryIds":["greek-restaurants"],"categories":["Greek Restaurants"],"distanceKm":0.1341394137991307},{"id":"cheapEatsRestaurants_ee7a3b30b5dc","slug":"galiantra-ee7a","kind":"restaurant","name":"Γαλιάντρα","lat":37.982766279881204,"lng":23.72018754800204,"url":"https://maps.app.goo.gl/WkvoPR33PQyg4HdDA?g_st=ipc","address":"Γιατράκου 4, Αθήνα 104 36","categoryIds":["cheap-eats"],"categories":["Gyros & Cheap Eats"],"distanceKm":0.17964573940789044},{"id":"coffeeBrunchRestaurants_427065b8cb6b","slug":"okupa-kitchen-listening-bar-4270","kind":"restaurant","name":"Okupa Kitchen & Listening Bar","lat":37.979629344397615,"lng":23.720723846557707,"url":"https://maps.app.goo.gl/qmz7mBRbaa6QhTDd8?g_st=ipc","address":"Σαμουήλ Καλογήρου 3, Αθήνα 105 53","categoryIds":["coffee-brunch"],"categories":["Coffee & Brunch Spots"],"distanceKm":0.1949969177593141},{"id":"asianRestaurants_f31c7fe7455a","slug":"168-bar-f31c","kind":"restaurant","name":"168 Bar","lat":37.97952828529781,"lng":23.72107861467235,"url":"https://maps.app.goo.gl/kfZE6p7Ddwomz7Zd9?g_st=ipc","address":"Διπύλου 6, Αθήνα 105 53","categoryIds":["asian"],"categories":["Asian Restaurants"],"distanceKm":0.20245590811523734},{"id":"burgersRestaurants_73788d5c5e26","slug":"street-habit-burgers-sandwiches-7378","kind":"restaurant","name":"Street Habit Burgers & Sandwiches","lat":37.982308190228395,"lng":23.718935233979323,"url":"https://maps.app.goo.gl/ypf3MAMpnquGQSrr6?g_st=ipc","address":"Λεωνίδου 41, Μαραθώνος 20, Αθήνα 104 36","categoryIds":["burgers"],"categories":["Burger Spots"],"distanceKm":0.2229651958633499},{"id":"greekRestaurants_6dad5c0e5b55","slug":"to-aygo-toy-kokkora-6dad","kind":"restaurant","name":"Το Αυγό Του Κόκκορα","lat":37.98270365301358,"lng":23.719206888648312,"url":"https://maps.app.goo.gl/iKbPmGsQDpnYazKs9","address":"Λεωνίδου 46, Αθήνα 104 36","categoryIds":["greek-restaurants"],"categories":["Greek Restaurants"],"distanceKm":0.22866479938623369}],"sameRegion":[],"mentionedGuides":[]},"__N_SSG":true}