{"pageProps":{"entity":{"id":"dessertsRestaurants_2849c272c636","slug":"bufala-gelato-glyfada-2849","kind":"restaurant","name":"Bufala Gelato (Γλυφάδα)","lat":37.86176317702974,"lng":23.755337811216418,"url":"https://maps.app.goo.gl/51dbhckNQVJ8yNh37?g_st=ipc","address":"Αρτέμιδος 1, Γλυφάδα 166 74","categoryIds":["desserts"],"categories":["Dessert Shops"]},"sameCategory":[{"id":"dessertsRestaurants_cd41f487bdde","slug":"l-arte-del-gelato-cd41","kind":"restaurant","name":"L'arte del Gelato","lat":37.86184048032113,"lng":23.755183232681343,"url":"https://maps.app.goo.gl/JTFmtLwXRBHhcLCs8?g_st=ipc","address":"Αρτέμιδος 1, Γλυφάδα 166 74","categoryIds":["desserts"],"categories":["Dessert Shops"]},{"id":"dessertsRestaurants_ba7be89e8ea8","slug":"iceroll-ba7b","kind":"restaurant","name":"IceRoll","lat":37.86208515594954,"lng":23.755076469134906,"url":"https://maps.app.goo.gl/w1pmpophQeL2Fp7M9?g_st=ipc","address":"Γιαννιτσοπούλου 2, Γλυφάδα 166 74","categoryIds":["desserts"],"categories":["Dessert Shops"]},{"id":"dessertsRestaurants_dbb06fc87d85","slug":"choureal-choux-profiterole-dbb0","kind":"restaurant","name":"Choureal - Choux & Profiterole","lat":37.86175367207503,"lng":23.751100149395214,"url":"https://maps.app.goo.gl/PTmrU95w2y1tQWmE7?g_st=ipc","address":"Lazaraki 39, Glifada 166 75","categoryIds":["desserts"],"categories":["Dessert Shops"]},{"id":"dessertsRestaurants_cdd2ff99e09f","slug":"choureal-choux-profiterole-cdd2","kind":"restaurant","name":"Choureal - Choux & Profiterole","lat":37.86175419711277,"lng":23.7510964996929,"url":"https://maps.app.goo.gl/jqVCKVDpx8nte58k7?g_st=ipc","address":"Lazaraki 39, Glifada 166 75","categoryIds":["desserts"],"categories":["Dessert Shops"]},{"id":"dessertsRestaurants_2ea0c1d8df4a","slug":"routina-glyfada-2ea0","kind":"restaurant","name":"Routina Glyfada","lat":37.86189651923641,"lng":23.7499341335772,"url":"https://maps.app.goo.gl/sSMfazw5iP79eG8K7?g_st=ipc","address":"Δούσμανη 8, Γλυφάδα 166 75","categoryIds":["desserts"],"categories":["Dessert Shops"]},{"id":"dessertsRestaurants_18a065b2a830","slug":"despina-patisserie-18a0","kind":"restaurant","name":"Despina Patisserie","lat":37.861200491297915,"lng":23.749911676405425,"url":"https://maps.app.goo.gl/2bahw7piY4dbXkYo7?g_st=ipc","address":"Leof. Poseidonos 83, Glifada 166 75","categoryIds":["desserts"],"categories":["Dessert Shops"]},{"id":"dessertsRestaurants_1645b1ac4da2","slug":"despina-patisserie-1645","kind":"restaurant","name":"Despina Patisserie","lat":37.86120193496575,"lng":23.74991092954331,"url":"https://maps.app.goo.gl/BcZzqDj73wXq14WVA?g_st=ipc","address":"Leof. Poseidonos 83, Glifada 166 75","categoryIds":["desserts"],"categories":["Dessert Shops"]},{"id":"dessertsRestaurants_69cd6eee7bdc","slug":"feticcio-69cd","kind":"restaurant","name":"Feticcio","lat":37.86242143862677,"lng":23.7483896053031,"url":"https://maps.app.goo.gl/DZAdZa4SXmpc2YmZ9?g_st=ipc","address":"Ανδρέα Παπανδρέου 4, Γλυφάδα 166 75","categoryIds":["desserts"],"categories":["Dessert Shops"]}],"nearby":[{"id":"dessertsRestaurants_cd41f487bdde","slug":"l-arte-del-gelato-cd41","kind":"restaurant","name":"L'arte del Gelato","lat":37.86184048032113,"lng":23.755183232681343,"url":"https://maps.app.goo.gl/JTFmtLwXRBHhcLCs8?g_st=ipc","address":"Αρτέμιδος 1, Γλυφάδα 166 74","categoryIds":["desserts"],"categories":["Dessert Shops"],"distanceKm":0.016063435128374423},{"id":"dessertsRestaurants_ba7be89e8ea8","slug":"iceroll-ba7b","kind":"restaurant","name":"IceRoll","lat":37.86208515594954,"lng":23.755076469134906,"url":"https://maps.app.goo.gl/w1pmpophQeL2Fp7M9?g_st=ipc","address":"Γιαννιτσοπούλου 2, Γλυφάδα 166 74","categoryIds":["desserts"],"categories":["Dessert Shops"],"distanceKm":0.04252264232874735},{"id":"coffeeBrunchRestaurants_03882dd46eb2","slug":"paul-glyfada-0388","kind":"restaurant","name":"PAUL Γλυφάδα","lat":37.86192343683842,"lng":23.754387329250314,"url":"https://maps.app.goo.gl/yKiejsAj4L7LG4cJ7?g_st=ipc","address":"Κύπρου 70, Γλυφάδα 166 74","categoryIds":["coffee-brunch"],"categories":["Coffee & Brunch Spots"],"distanceKm":0.08532221211885348},{"id":"burgersRestaurants_dcffa319373f","slug":"just-burgers-dcff","kind":"restaurant","name":"Just Burgers","lat":37.86233017342334,"lng":23.756048198703365,"url":"https://maps.app.goo.gl/JHVusoRbYHy3Y7vt5?g_st=ipc","address":"Βασ. Γεωργίου Β 10, Γλυφάδα 166 74","categoryIds":["burgers"],"categories":["Burger Spots"],"distanceKm":0.0886797039184515},{"id":"coffeeBrunchRestaurants_375d22b1c4b8","slug":"oven-manufactory-375d","kind":"restaurant","name":"Oven Manufactory","lat":37.861722119771066,"lng":23.756544787345767,"url":"https://maps.app.goo.gl/Hnd2mHRaJKRkA5F46?g_st=ipc","address":"Αρτέμιδος 9, Γλυφάδα 166 74","categoryIds":["coffee-brunch"],"categories":["Coffee & Brunch Spots"],"distanceKm":0.10605600915925602},{"id":"burgersRestaurants_7ec8204450a0","slug":"ekiben-kitchen-glyfada-7ec8","kind":"restaurant","name":"Ekiben Kitchen Glyfada","lat":37.86117702366519,"lng":23.756394837020224,"url":"https://maps.app.goo.gl/bR7jaQSkxn33eLgq7","address":"Laodikis 41, Glifada 166 74","categoryIds":["burgers"],"categories":["Burger Spots"],"distanceKm":0.11339686880004833},{"id":"asianRestaurants_6985f147fd97","slug":"ekiben-kitchen-glyfada-6985","kind":"restaurant","name":"Ekiben Kitchen Glyfada","lat":37.861176848381916,"lng":23.75639518380584,"url":"https://maps.app.goo.gl/bR7jaQSkxn33eLgq7","address":"Laodikis 41, Glifada 166 74","categoryIds":["asian"],"categories":["Asian Restaurants"],"distanceKm":0.11343298400138942},{"id":"burgersRestaurants_da84a1508542","slug":"ekiben-kitchen-glyfada-da84","kind":"restaurant","name":"Ekiben Kitchen Glyfada","lat":37.861176009715045,"lng":23.756396095505576,"url":"https://maps.app.goo.gl/nBtptoxrUvHyuGTz6?g_st=ic","address":"Laodikis 41, Glifada 166 74","categoryIds":["burgers"],"categories":["Burger Spots"],"distanceKm":0.11355208353064122}],"sameRegion":[],"mentionedGuides":[]},"__N_SSG":true}