{"pageProps":{"entity":{"id":"cheapEatsRestaurants_598437c8481b","slug":"gyradiko-o-christos-5984","kind":"restaurant","name":"Γυραδικο \"Ο Χρήστος\"","lat":37.7173396733135,"lng":24.054314949086613,"url":"https://maps.app.goo.gl/Kg9SVim1DWH8Lytb6?g_st=ipc","address":"Λεωφ. Σουνίου 6, Λαύριο 195 00","categoryIds":["cheap-eats"],"categories":["Gyros & Cheap Eats"]},"sameCategory":[{"id":"cheapEatsRestaurants_d994fad95b5a","slug":"aroma-elladas-d994","kind":"restaurant","name":"Άρωμα Ελλάδας","lat":37.80578649121729,"lng":23.9833913286695,"url":"https://maps.app.goo.gl/cDRv243YonNg2qnB6?g_st=ipc","address":"Ευεργέτη Κωνσταντίνου Πρίφτη 57, Κερατέα 190 01","categoryIds":["cheap-eats"],"categories":["Gyros & Cheap Eats"]},{"id":"cheapEatsRestaurants_2fe91c5ec4e8","slug":"pita-lagonisi-2fe9","kind":"restaurant","name":"Πίτα Λαγονήσι","lat":37.787769077925994,"lng":23.886240321695578,"url":"https://maps.app.goo.gl/gnVwTeJ7a9GqoCGQ9?g_st=ipc","address":"Λεωφ. Καλυβίων 4, Σαρωνικός 190 10","categoryIds":["cheap-eats"],"categories":["Gyros & Cheap Eats"]},{"id":"cheapEatsRestaurants_34ddf07c2336","slug":"estiatorio-psistaria-sotiris-34dd","kind":"restaurant","name":"Εστιατόριο Ψησταριά Σωτήρης","lat":37.87939587296456,"lng":23.933984566615596,"url":"https://maps.app.goo.gl/U5qLZ6nCR7tW5r3u7?g_st=ipc","address":"Μυριννουντος 10, Μαρκόπουλο Μεσογαίας 190 03","categoryIds":["cheap-eats"],"categories":["Gyros & Cheap Eats"]},{"id":"cheapEatsRestaurants_0c78537a51b9","slug":"pitta-fan-grill-0c78","kind":"restaurant","name":"ΠΙΤΤΑ FAN grill","lat":37.84574550115403,"lng":23.82243212849934,"url":"https://maps.app.goo.gl/xQ5Aqm4jpK3KEQLx8?g_st=ipc","address":"Λεωφ. Ευελπίδων 364, Κίτσι 194 00","categoryIds":["cheap-eats"],"categories":["Gyros & Cheap Eats"]},{"id":"cheapEatsRestaurants_b59c9010c8a4","slug":"zachos-b59c","kind":"restaurant","name":"Ζάχος","lat":37.821251970598816,"lng":23.80344271241433,"url":"https://maps.app.goo.gl/DsP5tZnJxShfNf3H9?g_st=ipc","address":"Βασ. Κωνσταντίνου 94, Βάρη 166 72","categoryIds":["cheap-eats"],"categories":["Gyros & Cheap Eats"]},{"id":"cheapEatsRestaurants_cf5c14c0c783","slug":"zachos-gkril-cf5c","kind":"restaurant","name":"Ζάχος Γκριλ","lat":37.81320496162539,"lng":23.782770964184124,"url":"https://maps.app.goo.gl/bEtWEwaW2PfwcEhW9?g_st=ipc","address":"Ερμού 1, Βουλιαγμένη 166 71","categoryIds":["cheap-eats"],"categories":["Gyros & Cheap Eats"]},{"id":"cheapEatsRestaurants_9085d6dbdfe8","slug":"street-food-park-9085","kind":"restaurant","name":"Street Food Park","lat":37.85905594962557,"lng":23.764660793565383,"url":"https://maps.app.goo.gl/8bfdGPL68FsznR1SA?g_st=ipc","address":"Παρ. Λεωφ. Βουλιαγμένης 153, Γλυφάδα 166 74","categoryIds":["cheap-eats"],"categories":["Gyros & Cheap Eats"]},{"id":"cheapEatsRestaurants_fda4a4f93016","slug":"psitopoleio-to-pyrnari-fda4","kind":"restaurant","name":"Ψητοπωλείο «Το Πυρνάρι»","lat":37.874394232840224,"lng":23.766043784078654,"url":"https://maps.app.goo.gl/qS5CXA1L9CMHWtaN7?g_st=ipc","address":"Ανθέων 33, Γλυφάδα 166 74","categoryIds":["cheap-eats"],"categories":["Gyros & Cheap Eats"]}],"nearby":[{"id":"greekRestaurants_d71e6913cb90","slug":"gyradiko-o-christos-d71e","kind":"restaurant","name":"Γυραδικο Ο Χρήστος","lat":37.71739386499137,"lng":24.054309535577552,"url":"https://maps.app.goo.gl/QyQBQ66ua51RomM56?g_st=ipc","address":"Λεωφ. Σουνίου 6, Λαύριο 195 00","categoryIds":["greek-restaurants"],"categories":["Greek Restaurants"],"distanceKm":0.006044624099913146},{"id":"dessertsRestaurants_af542a277d7b","slug":"solo-gelato-layrio-af54","kind":"restaurant","name":"Solo Gelato Λαύριο","lat":37.715574795821375,"lng":24.054591619024354,"url":"https://maps.app.goo.gl/N2FmFnyANGsotRZs7?g_st=ipc","address":"Πλ. Ηρ. Πολυτεχνείου 28, Λαύριο 195 00","categoryIds":["desserts"],"categories":["Dessert Shops"],"distanceKm":0.1977485990400849},{"id":"fishTavernasRestaurants_c99168937472","slug":"rerras-c991","kind":"restaurant","name":"Ρέρρας","lat":37.714742366222666,"lng":24.055779972024514,"url":"https://maps.app.goo.gl/vTuWH4xsgnxg1ctN7?g_st=ipc","address":"Κων/νου Πλειώνη, Ανδρέα Αλεξάνδρου και, Λαύριο 195 00","categoryIds":["fish-tavernas"],"categories":["Fish Tavernas"],"distanceKm":0.3162528362407089},{"id":"fishTavernasRestaurants_747917a1e974","slug":"agkyra-7479","kind":"restaurant","name":"Άγκυρα","lat":37.714457783213085,"lng":24.05577913623349,"url":"https://maps.app.goo.gl/FXSCcGp2kJVSweSb7?g_st=ipc","address":"Ψαραγορά Λαύριο 3, Ανδρέα Αλεξάνδρου, Λαύριο 195 00","categoryIds":["fish-tavernas"],"categories":["Fish Tavernas"],"distanceKm":0.3453642735585233},{"id":"greekRestaurants_b0e401ff0ee4","slug":"koytsi-katsika-layrio-b0e4","kind":"restaurant","name":"Κουτσή Κατσίκα Λαύριο","lat":37.712808004930835,"lng":24.055992621254646,"url":"https://maps.app.goo.gl/GZaKZri1vc4Knfup7?g_st=ipc","address":"Κουντουριώτη, Λιμάνι Λαυρίου 6, Λαύριο 195 00","categoryIds":["greek-restaurants"],"categories":["Greek Restaurants"],"distanceKm":0.5250629715295921},{"id":"fishTavernasRestaurants_06b05ccb28e3","slug":"o-foros-psarotaverna-06b0","kind":"restaurant","name":"Ο Φόρος Ψαροταβέρνα","lat":37.730230476020374,"lng":24.052869189449837,"url":"https://maps.app.goo.gl/3QEEjs3jdS92q1p9A?g_st=ipc","address":"Θορικό 195 00","categoryIds":["fish-tavernas"],"categories":["Fish Tavernas"],"distanceKm":1.4390209083261016},{"id":"municipalities_84c97cf0a61f","slug":"layreotiki-84c9","kind":"municipality","name":"Λαυρεωτική","lat":37.7333,"lng":24.0667,"region":"Ανατολικά Προάστια","name_en":"Lavreotiki","region_en":"Eastern Suburbs","distanceKm":2.0823267014622595},{"id":"wineriesVineyards_fb04a0d726bd","slug":"oinopoieio-prifti-fb04","kind":"restaurant","name":"Οινοποιείο Πρίφτη","lat":37.742934639668164,"lng":24.024928046003534,"url":"https://maps.app.goo.gl/s9SpDZV9kTGdK3aE6?g_st=ipc","address":"Μαρκάτι 190 01","categoryIds":["wineries-vineyards"],"categories":["Wineries & Vineyards"],"distanceKm":3.8443544912887657}],"sameRegion":[],"mentionedGuides":[]},"__N_SSG":true}