{"pageProps":{"entity":{"id":"cheapEatsRestaurants_f4150c2850c0","slug":"i-leivadia-f415","kind":"restaurant","name":"Η Λειβαδιά","lat":37.87979270265205,"lng":23.758582732685436,"url":"https://maps.app.goo.gl/BFkQxfbJJTqb7Qp87?g_st=ipc","address":"Ανδρέα Παπανδρέου 126, Γλυφάδα 165 61","categoryIds":["cheap-eats"],"categories":["Gyros & Cheap Eats"]},"sameCategory":[{"id":"cheapEatsRestaurants_685be47e5df7","slug":"to-ariston-685b","kind":"restaurant","name":"Το Άριστον","lat":37.88039754118748,"lng":23.75713413104173,"url":"https://maps.app.goo.gl/4zqMC4Phrwrov3rL6?g_st=ipc","address":"Σοφίας Βέμπο 22, Γλυφάδα 166 75","categoryIds":["cheap-eats"],"categories":["Gyros & Cheap Eats"]},{"id":"cheapEatsRestaurants_fda4a4f93016","slug":"psitopoleio-to-pyrnari-fda4","kind":"restaurant","name":"Ψητοπωλείο «Το Πυρνάρι»","lat":37.874394232840224,"lng":23.766043784078654,"url":"https://maps.app.goo.gl/qS5CXA1L9CMHWtaN7?g_st=ipc","address":"Ανθέων 33, Γλυφάδα 166 74","categoryIds":["cheap-eats"],"categories":["Gyros & Cheap Eats"]},{"id":"cheapEatsRestaurants_14277405021c","slug":"aristofanis-geyseis-estiatoria-psitopoleia-ano-glyfada-1427","kind":"restaurant","name":"Αριστοφάνης Γεύσεις | Εστιατόρια | Ψητοπωλεία Άνω Γλυφάδα","lat":37.890796486374335,"lng":23.76076987782631,"url":"https://maps.app.goo.gl/vR5rdW1p8psGAbRc7?g_st=ipc","address":"Δημ. Γούναρη 46, Ελληνικό 167 77","categoryIds":["cheap-eats"],"categories":["Gyros & Cheap Eats"]},{"id":"cheapEatsRestaurants_25ffd4c0ef7f","slug":"elliniko-soyvlaki-ap-to1990-25ff","kind":"restaurant","name":"Ελληνικό Σουβλάκι (απ'το1990)","lat":37.892191582868755,"lng":23.75361437896675,"url":"https://maps.app.goo.gl/RAbojGiNVh4trirv7?g_st=ipc","address":"Λεωφ. Ιασωνίδου 40, Ελληνικό 167 77","categoryIds":["cheap-eats"],"categories":["Gyros & Cheap Eats"]},{"id":"cheapEatsRestaurants_30dc64b199b4","slug":"hashtag-burger-30dc","kind":"restaurant","name":"Hashtag#Burger","lat":37.89370791965242,"lng":23.763218653107806,"url":"https://maps.app.goo.gl/qc79j4xVCW7hJv396?g_st=ipc","address":"Γεωρ. Γεννηματά 26, Γλυφάδα 165 62","categoryIds":["cheap-eats"],"categories":["Gyros & Cheap Eats"]},{"id":"cheapEatsRestaurants_af98640fcbbd","slug":"amam-estiatorio-glyfada-af98","kind":"restaurant","name":"ΑΜΑΜ - ΕΣΤΙΑΤΟΡΙΟ - ΓΛΥΦΑΔΑ","lat":37.89588121968674,"lng":23.761096554642833,"url":"https://maps.app.goo.gl/2gazVN316J2yH7Wu7?g_st=ipc","address":"Γεωρ. Γεννηματά 11, Γλυφάδα 165 62","categoryIds":["cheap-eats"],"categories":["Gyros & Cheap Eats"]},{"id":"cheapEatsRestaurants_4792fbe09c71","slug":"zahoulis-glyfada-4792","kind":"restaurant","name":"ZAHOULIS GLYFADA","lat":37.86453214322605,"lng":23.747876477019613,"url":"https://maps.app.goo.gl/mDh3F8ASwiDrm4yK9?g_st=ipc","address":"Γεωρ. Κονδύλη 7, Γλυφάδα 166 75","categoryIds":["cheap-eats"],"categories":["Gyros & Cheap Eats"]},{"id":"cheapEatsRestaurants_9085d6dbdfe8","slug":"street-food-park-9085","kind":"restaurant","name":"Street Food Park","lat":37.85905594962557,"lng":23.764660793565383,"url":"https://maps.app.goo.gl/8bfdGPL68FsznR1SA?g_st=ipc","address":"Παρ. Λεωφ. Βουλιαγμένης 153, Γλυφάδα 166 74","categoryIds":["cheap-eats"],"categories":["Gyros & Cheap Eats"]}],"nearby":[{"id":"italianRestaurants_18486d8f87b6","slug":"mamy-blue-pizza-napoletana-glyfada-1848","kind":"restaurant","name":"Mamy Blue - Pizza Napoletana Glyfada","lat":37.8796152626329,"lng":23.758507788324675,"url":"https://maps.app.goo.gl/Viv8JcHoZX8wKXaV9?g_st=ipc","address":"Ανδρέα Παπανδρέου 126, Γλυφάδα 165 61","categoryIds":["italian"],"categories":["Italian Restaurants"],"distanceKm":0.0207979465753044},{"id":"dessertsRestaurants_b4416b6328f3","slug":"sovolos-zacharoplasteio-foyrnos-b441","kind":"restaurant","name":"Sovolos - Ζαχαροπλαστείο - Φούρνος","lat":37.88041660741069,"lng":23.757712624330377,"url":"https://maps.app.goo.gl/P3uyZ1oH1pSEfex39?g_st=ipc","address":"Σοφίας Βέμπο 29, Γλυφάδα 165 61","categoryIds":["desserts"],"categories":["Dessert Shops"],"distanceKm":0.10317283241680662},{"id":"cheapEatsRestaurants_685be47e5df7","slug":"to-ariston-685b","kind":"restaurant","name":"Το Άριστον","lat":37.88039754118748,"lng":23.75713413104173,"url":"https://maps.app.goo.gl/4zqMC4Phrwrov3rL6?g_st=ipc","address":"Σοφίας Βέμπο 22, Γλυφάδα 166 75","categoryIds":["cheap-eats"],"categories":["Gyros & Cheap Eats"],"distanceKm":0.14383062387036463},{"id":"burgersRestaurants_5acf17248b99","slug":"ryotei-118-5acf","kind":"restaurant","name":"Ryōtei 118","lat":37.879368551864765,"lng":23.76330532043917,"url":"https://maps.app.goo.gl/4KM3cF4mGHbENQpa6?g_st=ipc","address":"Δημ. Γούναρη 118, Γλυφάδα 166 74","categoryIds":["burgers"],"categories":["Burger Spots"],"distanceKm":0.4171596100899628},{"id":"asianRestaurants_84fbfd57e68e","slug":"ryotei-118-84fb","kind":"restaurant","name":"Ryōtei 118","lat":37.879367097165485,"lng":23.763308738653866,"url":"https://maps.app.goo.gl/XC6EcCoyBojTFzQp9?g_st=ipc","address":"Δημ. Γούναρη 118, Γλυφάδα 166 74","categoryIds":["asian"],"categories":["Asian Restaurants"],"distanceKm":0.4174760023633076},{"id":"burgersRestaurants_04aae23bfaf8","slug":"ryotei118-04aa","kind":"restaurant","name":"Ryōtei118","lat":37.87936597686111,"lng":23.763366153792095,"url":"https://maps.app.goo.gl/h4ktRtKS7BsVfu9u9?g_st=ic","address":"Dim. Gounari 118, Glifada 166 74","categoryIds":["burgers"],"categories":["Burger Spots"],"distanceKm":0.4224970064743464},{"id":"burgersRestaurants_ba4a0b5f3045","slug":"ryotei118-ba4a","kind":"restaurant","name":"Ryōtei118","lat":37.87936856839685,"lng":23.763367179515893,"url":"https://maps.app.goo.gl/jQiZ1pYw63j3q8zG9","address":"Dim. Gounari 118, Glifada 166 74","categoryIds":["burgers"],"categories":["Burger Spots"],"distanceKm":0.42255419448585585},{"id":"dessertsRestaurants_f3a8bc3cdfa9","slug":"ourse-athens-f3a8","kind":"restaurant","name":"Ourse Athens","lat":37.88207729717418,"lng":23.76284471292179,"url":"https://maps.app.goo.gl/diDUu1LQKinrZXQT9?g_st=ipc","address":"Μυστρά 39, Γλυφάδα 165 61","categoryIds":["desserts"],"categories":["Dessert Shops"],"distanceKm":0.4521603144021155}],"sameRegion":[],"mentionedGuides":[]},"__N_SSG":true}