{"pageProps":{"entity":{"id":"coffeeBrunchRestaurants_b086083463ae","slug":"join-juice-bars-b086","kind":"restaurant","name":"JOIN juice bars","lat":40.60107511267006,"lng":22.949804539088774,"url":"https://maps.app.goo.gl/LQXcNjB3LwE4q56r7?g_st=ipc","address":"Marias Kallas 1, Thessaloniki 546 45","categoryIds":["coffee-brunch"],"categories":["Coffee & Brunch Spots"]},"sameCategory":[{"id":"coffeeBrunchRestaurants_b83fc8a35279","slug":"byrek-b83f","kind":"restaurant","name":"Byrek","lat":40.604437611308434,"lng":22.958000236614392,"url":"https://maps.app.goo.gl/hxd33pfTMwrTNJ6K6?g_st=ic","address":"Petrou Sindika 46, Thessaloniki 542 48","categoryIds":["coffee-brunch"],"categories":["Coffee & Brunch Spots"]},{"id":"coffeeBrunchRestaurants_f80aae297d57","slug":"the-coffee-rawsters-f80a","kind":"restaurant","name":"The Coffee Rawsters","lat":40.605074813300206,"lng":22.958339804305506,"url":"https://maps.app.goo.gl/6bHEuH2VrUaoPjxN6?g_st=ipc","address":"Delfon 117, Thessaloniki 546 44","categoryIds":["coffee-brunch"],"categories":["Coffee & Brunch Spots"]},{"id":"coffeeBrunchRestaurants_346744718646","slug":"thegia-more-than-a-bakery-3467","kind":"restaurant","name":"ΘΕΓΙΑ more than a bakery","lat":40.59152214019956,"lng":22.948474846251315,"url":"https://maps.app.goo.gl/Rk9qKb5jkoYV7x6HA?g_st=ipc","address":"Themistokli Sofouli 65, Kalamaria 551 31","categoryIds":["coffee-brunch"],"categories":["Coffee & Brunch Spots"]},{"id":"coffeeBrunchRestaurants_7f4ca735b5ec","slug":"laterna-7f4c","kind":"restaurant","name":"Laterna","lat":40.597256928464596,"lng":22.96766795433404,"url":"https://maps.app.goo.gl/UuEUGrB58srruWFPA?g_st=ipc","address":"Voulgari 64, Thessaloniki 542 49","categoryIds":["coffee-brunch"],"categories":["Coffee & Brunch Spots"]},{"id":"coffeeBrunchRestaurants_4980bf5534c8","slug":"avenue-modern-cuisine-4980","kind":"restaurant","name":"AVENUE - Modern Cuisine","lat":40.6155426258885,"lng":22.952060123633387,"url":"https://maps.app.goo.gl/sbWsHkcndnd2Zv547?g_st=ipc","address":"Leof. Meg. Alexandrou 6, Thessaloniki 546 41","categoryIds":["coffee-brunch"],"categories":["Coffee & Brunch Spots"]},{"id":"coffeeBrunchRestaurants_3f47d83b09c0","slug":"butterflies-and-hurricanes-3f47","kind":"restaurant","name":"Butterflies And Hurricanes","lat":40.61464844201882,"lng":22.960841697890658,"url":"https://maps.app.goo.gl/Gesp19RwCPBWQ9s58?g_st=ipc","address":"Pindarou 1, Thessaloniki 546 39","categoryIds":["coffee-brunch"],"categories":["Coffee & Brunch Spots"]},{"id":"coffeeBrunchRestaurants_f9825eace7fc","slug":"les-zazous-f982","kind":"restaurant","name":"Les Zazous","lat":40.58600004577793,"lng":22.93944264109209,"url":"https://maps.app.goo.gl/timwhn386UbaBApm7?g_st=ipc","address":"Themistokli Sofouli 108, Kalamaria 551 31","categoryIds":["coffee-brunch"],"categories":["Coffee & Brunch Spots"]},{"id":"coffeeBrunchRestaurants_395eba0202c2","slug":"orange-395e","kind":"restaurant","name":"Orange","lat":40.61657039911688,"lng":22.959405836121938,"url":"https://maps.app.goo.gl/GeBX3Ci17XiZV9go6?g_st=ipc","address":"Konstantinoupoleos 21, Thessaloniki 546 40","categoryIds":["coffee-brunch"],"categories":["Coffee & Brunch Spots"]}],"nearby":[{"id":"vegetarianRestaurants_124c931734e1","slug":"join-juice-bars-124c","kind":"restaurant","name":"JOIN juice bars","lat":40.60107621263692,"lng":22.9498057867803,"url":"https://maps.app.goo.gl/ZhpdC4uUpyfMLEVM6?g_st=ipc","address":"Marias Kallas 1, Thessaloniki 546 45","categoryIds":["vegetarian"],"categories":["Vegetarian Friendly Restaurants"],"distanceKm":0.00016141828662486144},{"id":"asianRestaurants_0af7fecfc049","slug":"asian-house-0af7","kind":"restaurant","name":"Asian House","lat":40.6013142217221,"lng":22.95026357792361,"url":"https://maps.app.goo.gl/cFAfVvor8tZQsjbz6?g_st=ipc","address":"Koromila 3, Thessaloniki 546 45","categoryIds":["asian"],"categories":["Asian Restaurants"],"distanceKm":0.04699817107042277},{"id":"dessertsRestaurants_1eb1d7d0a39b","slug":"trigona-elenidis-antheon-1eb1","kind":"restaurant","name":"Τρίγωνα Ελενίδης (Ανθέων)","lat":40.601144746020374,"lng":22.95082783427097,"url":"https://maps.app.goo.gl/f4c7NqVni4s54aXE6?g_st=ipc","address":"Geor. Papandreou 6, Thessaloniki 546 45","categoryIds":["desserts"],"categories":["Dessert Shops"],"distanceKm":0.08673870946863795},{"id":"greekRestaurants_f3f4dd42dcb0","slug":"rinokeros-f3f4","kind":"restaurant","name":"Rinókeros","lat":40.59858749847681,"lng":22.9516822591396,"url":"https://maps.app.goo.gl/6Kk5vxpU7Goxr2Zq7?g_st=ipc","address":"25is Martiou 2, Thessaloniki 546 46","categoryIds":["greek-restaurants"],"categories":["Greek Restaurants"],"distanceKm":0.3188184099483751},{"id":"vegetarianRestaurants_02c8bc386448","slug":"falafeleria-02c8","kind":"restaurant","name":"Falafeleria","lat":40.5988199696969,"lng":22.95250846403434,"url":"https://maps.app.goo.gl/snuFukejKVaEqQ597?g_st=ipc","address":"25is Martiou 14, Thessaloniki 546 46","categoryIds":["vegetarian"],"categories":["Vegetarian Friendly Restaurants"],"distanceKm":0.33910874685876263},{"id":"cheapEatsRestaurants_811c63bc08c5","slug":"devido-811c","kind":"restaurant","name":"Devido","lat":40.599230791467505,"lng":22.95314409507896,"url":"https://maps.app.goo.gl/2EFX2fMBPiwhmmAv5?g_st=ipc","address":"25is Martiou 17, Thessaloniki 546 45","categoryIds":["cheap-eats"],"categories":["Gyros & Cheap Eats"],"distanceKm":0.34864363631986267},{"id":"greekRestaurants_c2f14c425e63","slug":"alatorigani-c2f1","kind":"restaurant","name":"Αλατορίγανη","lat":40.60015243009011,"lng":22.95443250325129,"url":"https://maps.app.goo.gl/8H2pummkPQFjon5o8?g_st=ipc","address":"Λεωφ. Βασιλίσσης Όλγας 177, Θεσσαλονίκη 546 45","categoryIds":["greek-restaurants"],"categories":["Greek Restaurants"],"distanceKm":0.4039678456178358},{"id":"burgersRestaurants_8a735b95eb4f","slug":"paul-s-burger-8a73","kind":"restaurant","name":"Paul’s Burger","lat":40.59788362738132,"lng":22.95216160608432,"url":"https://maps.app.goo.gl/9L8fryr5EiA3D5rR9?g_st=ipc","address":"Geor. Papandreou 38, Thessaloniki 546 46","categoryIds":["burgers"],"categories":["Burger Spots"],"distanceKm":0.40686537138852163}],"sameRegion":[],"mentionedGuides":[]},"__N_SSG":true}