{"pageProps":{"entity":{"id":"coffeeBrunchRestaurants_7101d26f85dd","slug":"montakioy-neo-psychiko-7101","kind":"restaurant","name":"ΜΟΝΤΑΚΙΟΥ - ΝΕΟ ΨΥΧΙΚΟ","lat":38.00899356630051,"lng":23.779485267398293,"url":"https://maps.app.goo.gl/e75yZ6CbqLTXVusq7?g_st=ipc","address":"Λεωφ. Κηφισίας 340, Νέο Ψυχικό 154 51","categoryIds":["coffee-brunch"],"categories":["Coffee & Brunch Spots"]},"sameCategory":[{"id":"coffeeBrunchRestaurants_3bc65dffef91","slug":"hide-seek-all-day-bar-restaurant-3bc6","kind":"restaurant","name":"Hide & Seek - All day bar restaurant","lat":38.01697332433943,"lng":23.786770693061168,"url":"https://maps.app.goo.gl/6jRQwexkVc3z2pR59?g_st=ipc","address":"Λεωφ. Κηφισίας 254, Χαλάνδρι 152 31","categoryIds":["coffee-brunch"],"categories":["Coffee & Brunch Spots"]},{"id":"coffeeBrunchRestaurants_a82e7e155ac7","slug":"micafetal-a82e","kind":"restaurant","name":"miCafetal","lat":38.00628521283868,"lng":23.79310128971578,"url":"https://maps.app.goo.gl/eFtNz9rPLtHdLmHP6?g_st=ipc","address":"Ηρ. Πολυτεχνείου 17, Χαλάνδρι 152 31","categoryIds":["coffee-brunch"],"categories":["Coffee & Brunch Spots"]},{"id":"coffeeBrunchRestaurants_e4c2bdc534b9","slug":"bookali-e4c2","kind":"restaurant","name":"bookAli","lat":38.00429979988101,"lng":23.794394502333493,"url":"https://maps.app.goo.gl/36ShHJ9gS1j7CesG9?g_st=ipc","address":"Λεωφ. Μεσογείων 236, Χολαργός 155 61","categoryIds":["coffee-brunch"],"categories":["Coffee & Brunch Spots"]},{"id":"coffeeBrunchRestaurants_848168a5d6a3","slug":"cornell-8481","kind":"restaurant","name":"Cornell","lat":38.00169766553315,"lng":23.79390617469456,"url":"https://maps.app.goo.gl/GzFQB9fD18CsSH7k9?g_st=ipc","address":"Αετιδέων 18 &, Βουτσινά, Χολαργός 155 61","categoryIds":["coffee-brunch"],"categories":["Coffee & Brunch Spots"]},{"id":"coffeeBrunchRestaurants_30b7a9a0db9b","slug":"palia-agora-30b7","kind":"restaurant","name":"Palia Agora","lat":38.023405893296015,"lng":23.786302411937246,"url":"https://maps.app.goo.gl/xrBYBKpsUdVTC1vj6?g_st=ipc","address":"Κεχαγιά 26, Φιλοθέη 152 37","categoryIds":["coffee-brunch"],"categories":["Coffee & Brunch Spots"]},{"id":"coffeeBrunchRestaurants_3e3ae547e829","slug":"hidden-cholargos-3e3a","kind":"restaurant","name":"Hidden Χολαργός","lat":38.00530967929583,"lng":23.799191777899182,"url":"https://maps.app.goo.gl/NV3sFCcDPqZUeRzWA?g_st=ipc","address":"Πυθαγόρα, Χίου 6, Χολαργός 155 62","categoryIds":["coffee-brunch"],"categories":["Coffee & Brunch Spots"]},{"id":"coffeeBrunchRestaurants_13c765a56547","slug":"gardenista-13c7","kind":"restaurant","name":"Gardenista","lat":38.022288294318166,"lng":23.791808518147295,"url":"https://maps.app.goo.gl/Ae2mzr6PphQKvoxT8?g_st=ipc","address":"Παπανικολή 18, Χαλάνδρι 152 32","categoryIds":["coffee-brunch"],"categories":["Coffee & Brunch Spots"]},{"id":"coffeeBrunchRestaurants_e07c2fe046a1","slug":"koulouri-lab-e07c","kind":"restaurant","name":"Koulouri Lab","lat":38.02001411382259,"lng":23.797606580273964,"url":"https://maps.app.goo.gl/PenVFxTnARKzLw62A?g_st=ipc","address":"Ανδρέα Παπανδρέου 36, Αθήνα 152 32","categoryIds":["coffee-brunch"],"categories":["Coffee & Brunch Spots"]}],"nearby":[{"id":"dessertsRestaurants_578f4bf4ed9c","slug":"dimitris-economides-athens-578f","kind":"restaurant","name":"Dimitris Economides Athens","lat":38.008931143721306,"lng":23.779615664170734,"url":"https://maps.app.goo.gl/wRvmhWMFJRUQ21b49?g_st=ipc","address":"Λεωφ. Κηφισίας 340, Νέο Ψυχικό 154 51","categoryIds":["desserts"],"categories":["Dessert Shops"],"distanceKm":0.013367644037330425},{"id":"luxuryDiningRestaurants_e53f7f76a550","slug":"dimitris-economides-athens-e53f","kind":"restaurant","name":"Dimitris Economides Athens","lat":38.00891269766893,"lng":23.779612298452548,"url":"https://maps.app.goo.gl/s1dqcjcL1yJpKM4D7?g_st=ipc","address":"Λεωφ. Κηφισίας 340, Νέο Ψυχικό 154 51","categoryIds":["luxury-dining"],"categories":["Luxury Dining"],"distanceKm":0.014308184728540268},{"id":"italianRestaurants_11b5c7ddc2cb","slug":"lolita-s-athens-11b5","kind":"restaurant","name":"Lolita's Athens","lat":38.00900399306317,"lng":23.779848762939032,"url":"https://maps.app.goo.gl/yBBC5XtbjE87q2fEA?g_st=ipc","address":"Λεωφ. Κηφισίας 340, Νέο Ψυχικό 154 51","categoryIds":["italian"],"categories":["Italian Restaurants"],"distanceKm":0.03186768519216625},{"id":"luxuryDiningRestaurants_c233036bba05","slug":"lolita-s-athens-c233","kind":"restaurant","name":"Lolita's Athens","lat":38.00900352290236,"lng":23.77984898036716,"url":"https://maps.app.goo.gl/wWwjB1wyAhWAY8CR9?g_st=ipc","address":"Λεωφ. Κηφισίας 340, Νέο Ψυχικό 154 51","categoryIds":["luxury-dining"],"categories":["Luxury Dining"],"distanceKm":0.031884863930680366},{"id":"dessertsRestaurants_bdb87120c3b8","slug":"athina-kon-bdb8","kind":"restaurant","name":"ΑΘΗΝΑΪΚΟΝ","lat":38.00959872140439,"lng":23.78101021168435,"url":"https://maps.app.goo.gl/ACrYfvjmkufL8q3g9?g_st=ipc","address":"Νικολάου Μάντζαρου 1 &, Εθ. Αντιστάσεως, Νέο Ψυχικό 154 51","categoryIds":["desserts"],"categories":["Dessert Shops"],"distanceKm":0.14959182789377465},{"id":"mexicanRestaurants_9da2b83be820","slug":"sanchez-athens-9da2","kind":"restaurant","name":"Sanchez Athens","lat":38.007276659968724,"lng":23.777915941580243,"url":"https://maps.app.goo.gl/kDVM5wdPB9hfwk4G6?g_st=ipc","address":"Ολυμπιονικών 310, Νέο Ψυχικό 154 51","categoryIds":["mexican"],"categories":["Mexican Restaurants"],"distanceKm":0.23526913730799387},{"id":"greekRestaurants_f0ef65b37af1","slug":"klimataria-f0ef","kind":"restaurant","name":"Κληματαριά","lat":38.00778653011235,"lng":23.78331764900774,"url":"https://maps.app.goo.gl/KjvZHvC6ghfyBWSu9?g_st=ipc","address":"Κωστή Παλαμά 29, Νέο Ψυχικό 154 51","categoryIds":["greek-restaurants"],"categories":["Greek Restaurants"],"distanceKm":0.3615972045492449},{"id":"asianRestaurants_01f6cf956e90","slug":"hachiko-sushi-tales-cocktails-psychiko-01f6","kind":"restaurant","name":"Hachikō Sushi Tales & Cocktails Psychiko","lat":38.0061489322681,"lng":23.777100959451648,"url":"https://maps.app.goo.gl/zRs2QPwRWoXnA8cn9","address":"Olimpionikon 280, Neo Psichiko 154 51","categoryIds":["asian"],"categories":["Asian Restaurants"],"distanceKm":0.37906430205606584}],"sameRegion":[],"mentionedGuides":[]},"__N_SSG":true}