{"pageProps":{"payload":{"area":{"id":"municipalities_4149fa79e27b","name":"Ακρόπολη","nameEn":"Acropolis","region":"Κέντρο Αθήνας","regionEn":"Athens Center","lat":37.9715,"lng":23.7257,"urlSlug":"akropoli","aliases":["Ακρόπολη","Acropolis","Ακρόπολη Athens Center","Acropolis Athens Center","akropoli-4149","akropoli"]},"category":{"id":"vegetarian","name":"Vegetarian Friendly Restaurants","urlSlug":"vegetarian","aliases":["vegetarian","Vegetarian Friendly Restaurants","vegetarian-friendly-restaurants"]},"entities":[{"entity":{"id":"vegetarianRestaurants_e1e5ea98ec84","slug":"jaipur-palace-plaka-e1e5","kind":"restaurant","name":"Jaipur Palace Plaka","lat":37.9746957700778,"lng":23.728563859316758,"url":"https://maps.app.goo.gl/aNRwgGJgRT99wmHt5?g_st=ipc","address":"Mnisikleous 7B, Athina 105 56","categoryIds":["vegetarian"],"categories":["Vegetarian Friendly Restaurants"]},"distanceKm":0.43507793858851845},{"entity":{"id":"vegetarianRestaurants_e6883030e4ea","slug":"ice-queen-gelato-e688","kind":"restaurant","name":"Ice Queen Gelato","lat":37.968753421978654,"lng":23.729718347993035,"url":"https://maps.app.goo.gl/jmPCpHeGd8TDVHaq5?g_st=ipc","address":"Μακρυγιάννη 9, Αθήνα 117 42","categoryIds":["vegetarian"],"categories":["Vegetarian Friendly Restaurants"]},"distanceKm":0.46620506737913353},{"entity":{"id":"vegetarianRestaurants_6103b84128cb","slug":"vegan-tour-athens-6103","kind":"restaurant","name":"Vegan tour Athens","lat":37.97635862482565,"lng":23.725860112285382,"url":"https://maps.app.goo.gl/HNSYbNbjWA38vytK7?g_st=ipc","address":"Πλ. Μοναστηρακίου, Αθήνα 105 55","categoryIds":["vegetarian"],"categories":["Vegetarian Friendly Restaurants"]},"distanceKm":0.5404366907606846},{"entity":{"id":"vegetarianRestaurants_aff422e1c3ba","slug":"mama-tierra-acropolis-vegan-street-food-aff4","kind":"restaurant","name":"Mama Tierra Acropolis - Vegan street food","lat":37.967546083723775,"lng":23.729864462543613,"url":"https://maps.app.goo.gl/3M9tmest5ooaQwtE8?g_st=ipc","address":"Χατζηχρήστου 29, Αθήνα 117 42","categoryIds":["vegetarian"],"categories":["Vegetarian Friendly Restaurants"]},"distanceKm":0.5714550925178179},{"entity":{"id":"vegetarianRestaurants_f6b4938b2d93","slug":"happy-blender-f6b4","kind":"restaurant","name":"HAPPY BLENDER","lat":37.97632639671211,"lng":23.72337814744719,"url":"https://maps.app.goo.gl/CNcvWTpCEhrBWFrb6?g_st=ipc","address":"Ηφαίστου 39, Αθήνα 105 55","categoryIds":["vegetarian"],"categories":["Vegetarian Friendly Restaurants"]},"distanceKm":0.5739649743394626},{"entity":{"id":"vegetarianRestaurants_dec02adf0761","slug":"falafel-bar-to-revithi-dec0","kind":"restaurant","name":"falafel bar ΤΟ ΡΕΒΙΘΙ","lat":37.966315717999265,"lng":23.72611010025494,"url":"https://maps.app.goo.gl/NHi65wsjDNQkMwXH6?g_st=ipc","address":"Παρθενώνος 1, Αθήνα 117 42","categoryIds":["vegetarian"],"categories":["Vegetarian Friendly Restaurants"]},"distanceKm":0.5775856998089036},{"entity":{"id":"vegetarianRestaurants_7e314f6791f9","slug":"fontana-7e31","kind":"restaurant","name":"Fontana","lat":37.976643434278735,"lng":23.727544640785275,"url":"https://maps.app.goo.gl/AuBtWGWtH3xRZBEV8?g_st=ipc","address":"Αιόλου 17, Αθήνα 105 51","categoryIds":["vegetarian"],"categories":["Vegetarian Friendly Restaurants"]},"distanceKm":0.5943403018559711},{"entity":{"id":"vegetarianRestaurants_bddb739d813a","slug":"plan-e-t-ice-cream-bddb","kind":"restaurant","name":"Plan(e)t Ice Cream","lat":37.976877362334406,"lng":23.72538097636171,"url":"https://maps.app.goo.gl/9hUg9Uc89kW2GUqL6?g_st=ipc","address":"Ερμού 86, Αθήνα 105 54","categoryIds":["vegetarian"],"categories":["Vegetarian Friendly Restaurants"]},"distanceKm":0.5985889379988926},{"entity":{"id":"vegetarianRestaurants_981aa1875a12","slug":"indian-haveli-981a","kind":"restaurant","name":"Indian Haveli","lat":37.96857000104929,"lng":23.731444541000045,"url":"https://maps.app.goo.gl/2tEYTJw1y4aL2Rgo7?g_st=ipc","address":"Λεωφ. Ανδρέα Συγγρού 12, Αθήνα 117 42","categoryIds":["vegetarian"],"categories":["Vegetarian Friendly Restaurants"]},"distanceKm":0.5997643896920969},{"entity":{"id":"vegetarianRestaurants_21104db9215f","slug":"the-brunchers-2110","kind":"restaurant","name":"The Brunchers","lat":37.977231132541924,"lng":23.724930584606714,"url":"https://maps.app.goo.gl/3bSGpHkX69LYwsFY7?g_st=ipc","address":"Αγ. Θέκλας 5, Αθήνα 105 54","categoryIds":["vegetarian"],"categories":["Vegetarian Friendly Restaurants"]},"distanceKm":0.6408315767566347},{"entity":{"id":"vegetarianRestaurants_b15388cdd5d4","slug":"wild-souls-athens-voulis-b153","kind":"restaurant","name":"Wild Souls Athens Voulis","lat":37.97449199299614,"lng":23.73213651821812,"url":"https://maps.app.goo.gl/ynTY6phLf8WCv9oj7?g_st=ipc","address":"Βουλής 36, Αθήνα 105 57","categoryIds":["vegetarian"],"categories":["Vegetarian Friendly Restaurants"]},"distanceKm":0.6549807053162764},{"entity":{"id":"vegetarianRestaurants_089d08918f7a","slug":"the-doc-s-burger-bar-089d","kind":"restaurant","name":"The Doc's Burger Bar","lat":37.977440412426056,"lng":23.725635777283433,"url":"https://maps.app.goo.gl/tKAx8hEqAm45KgqJ7?g_st=ipc","address":"Ανδρέα Μιαούλη 10, Αθήνα 105 54","categoryIds":["vegetarian"],"categories":["Vegetarian Friendly Restaurants"]},"distanceKm":0.6605677108669659},{"entity":{"id":"vegetarianRestaurants_5b207cd61024","slug":"av-it-5b20","kind":"restaurant","name":"AV IT","lat":37.976939825548584,"lng":23.728942581826033,"url":"https://maps.app.goo.gl/Kt7esiHQgo5rmoWc7?g_st=ipc","address":"Καλαμιώτου 8, Αθήνα 105 60","categoryIds":["vegetarian"],"categories":["Vegetarian Friendly Restaurants"]},"distanceKm":0.6683294678161286},{"entity":{"id":"vegetarianRestaurants_0b779d858e7d","slug":"this-is-loco-0b77","kind":"restaurant","name":"This is Loco","lat":37.96543262432146,"lng":23.72690669294173,"url":"https://maps.app.goo.gl/MEpoJDcSSJVJXukd8?g_st=ipc","address":"Φαλήρου 47, Αθήνα 117 42","categoryIds":["vegetarian"],"categories":["Vegetarian Friendly Restaurants"]},"distanceKm":0.6829035421162118},{"entity":{"id":"vegetarianRestaurants_8d8ca2489312","slug":"avocado-8d8c","kind":"restaurant","name":"Avocado","lat":37.97391324129181,"lng":23.73289192634984,"url":"https://maps.app.goo.gl/MrghLEMjktpmCFH58?g_st=ipc","address":"Νίκης 30, Αθήνα 105 57","categoryIds":["vegetarian"],"categories":["Vegetarian Friendly Restaurants"]},"distanceKm":0.6851457528726433},{"entity":{"id":"vegetarianRestaurants_8f0cf3873ae8","slug":"4-seasons-bio-organic-food-market-8f0c","kind":"restaurant","name":"4 Seasons Bio - Organic Food Market","lat":37.97393047054411,"lng":23.732888082947863,"url":"https://maps.app.goo.gl/VntknhKAe4PaVfpM6?g_st=ipc","address":"Νίκης 30, Αθήνα 105 57","categoryIds":["vegetarian"],"categories":["Vegetarian Friendly Restaurants"]},"distanceKm":0.685588654980476},{"entity":{"id":"vegetarianRestaurants_b74f212f3c6f","slug":"vegan-beat-athens-b74f","kind":"restaurant","name":"Vegan Beat Athens","lat":37.976741727063335,"lng":23.729824452963804,"url":"https://maps.app.goo.gl/2r2EDKFSvkng4GkF9?g_st=ipc","address":"Περικλέους 56, Αθήνα 105 60","categoryIds":["vegetarian"],"categories":["Vegetarian Friendly Restaurants"]},"distanceKm":0.6858698620134117},{"entity":{"id":"vegetarianRestaurants_1564131c7925","slug":"vietnam-street-food-1564","kind":"restaurant","name":"VIETNAM STREET FOOD","lat":37.97675287050778,"lng":23.729819366572254,"url":"https://maps.app.goo.gl/WYdqmMy3mDqLNW7e8?g_st=ipc","address":"Περικλέους 56, Αθήνα 105 60","categoryIds":["vegetarian"],"categories":["Vegetarian Friendly Restaurants"]},"distanceKm":0.6866886039602967},{"entity":{"id":"vegetarianRestaurants_1e566f65ffd6","slug":"hanoi-athens-authentic-vietnamese-food-1e56","kind":"restaurant","name":"HANOI ATHENS - AUTHENTIC VIETNAMESE FOOD","lat":37.97561477697918,"lng":23.73154522490793,"url":"https://maps.app.goo.gl/zv5KFNF6qGqi2KRn7?g_st=ipc","address":"Πετράκη 12, Αθήνα 105 63","categoryIds":["vegetarian"],"categories":["Vegetarian Friendly Restaurants"]},"distanceKm":0.686918714033554},{"entity":{"id":"vegetarianRestaurants_43a8a2b5eb46","slug":"winners-vegan-43a8","kind":"restaurant","name":"Winners Vegan","lat":37.97376452131408,"lng":23.73300918304916,"url":"https://maps.app.goo.gl/DFHjTpp5KFC8PQMg6?g_st=ipc","address":"Νίκης 27, Αθήνα 105 57","categoryIds":["vegetarian"],"categories":["Vegetarian Friendly Restaurants"]},"distanceKm":0.6883956519423806},{"entity":{"id":"vegetarianRestaurants_4db58e18de0e","slug":"peas-vegan-4db5","kind":"restaurant","name":"Peas Vegan","lat":37.965309081383936,"lng":23.72648212033699,"url":"https://maps.app.goo.gl/8AeCWeh7LczgaD87A?g_st=ipc","address":"Φαλήρου 40, Αθήνα 117 42","categoryIds":["vegetarian"],"categories":["Vegetarian Friendly Restaurants"]},"distanceKm":0.6918044881759361},{"entity":{"id":"vegetarianRestaurants_7a48cadc1cba","slug":"sugar-killer-7a48","kind":"restaurant","name":"Sugar Killer","lat":37.976654957150416,"lng":23.730157941231223,"url":"https://maps.app.goo.gl/326sYhMHWCiSjUJW9?g_st=ipc","address":"Περικλέους 33, Αθήνα 105 63","categoryIds":["vegetarian"],"categories":["Vegetarian Friendly Restaurants"]},"distanceKm":0.69372457451399},{"entity":{"id":"vegetarianRestaurants_dd280fa872e6","slug":"not-just-falafel-vegeterian-food-athens-vegan-friendly-dd28","kind":"restaurant","name":"Not Just Falafel | Vegeterian food Athens | Vegan Friendly","lat":37.97672606756175,"lng":23.730150682547393,"url":"https://maps.app.goo.gl/rugWqM8JRvoZaHPm9?g_st=ipc","address":"Ρόμβης 16, Αθήνα 105 62","categoryIds":["vegetarian"],"categories":["Vegetarian Friendly Restaurants"]},"distanceKm":0.699917229063717},{"entity":{"id":"vegetarianRestaurants_4c1ab480871b","slug":"holy-llama-4c1a","kind":"restaurant","name":"Holy Llama","lat":37.97396404211014,"lng":23.73311973333826,"url":"https://maps.app.goo.gl/YFcMYw6afMUaqBMC9?g_st=ipc","address":"Nikis, Syntagma 23, Αθήνα 105 57","categoryIds":["vegetarian"],"categories":["Vegetarian Friendly Restaurants"]},"distanceKm":0.7057360720659246},{"entity":{"id":"vegetarianRestaurants_66f29ff77bdf","slug":"inloveagain-specialty-coffee-66f2","kind":"restaurant","name":"InLoveAgain. Specialty coffee","lat":37.97733209854113,"lng":23.72987682666704,"url":"https://maps.app.goo.gl/GuskwaqjTh2E9fc66?g_st=ipc","address":"Κλειτίου 3, Αθήνα 105 60","categoryIds":["vegetarian"],"categories":["Vegetarian Friendly Restaurants"]},"distanceKm":0.7447083942611445},{"entity":{"id":"vegetarianRestaurants_c42b13d2db7e","slug":"shedia-home-cafe-restaurant-giftshop-c42b","kind":"restaurant","name":"Shedia Home - Cafe, Restaurant & Giftshop","lat":37.977833037817305,"lng":23.72875153673485,"url":"https://maps.app.goo.gl/9Dfe1mtSN788EyGb7?g_st=ipc","address":"Κολοκοτρώνη 56, Αθήνα 105 60","categoryIds":["vegetarian"],"categories":["Vegetarian Friendly Restaurants"]},"distanceKm":0.7532885851595968},{"entity":{"id":"vegetarianRestaurants_e4171a750969","slug":"feyrouz-athens-e417","kind":"restaurant","name":"Feyrouz_Athens","lat":37.97815368375059,"lng":23.72764654408699,"url":"https://maps.app.goo.gl/cceYxANJTPRNHFuB6?g_st=ipc","address":"Καρόρη 23 και, Αγάθωνος 1, Αθήνα 105 51","categoryIds":["vegetarian"],"categories":["Vegetarian Friendly Restaurants"]},"distanceKm":0.7592746277822224},{"entity":{"id":"vegetarianRestaurants_0ae45380f9c5","slug":"veganaki-0ae4","kind":"restaurant","name":"Veganaki","lat":37.96756765452738,"lng":23.732928786701812,"url":"https://maps.app.goo.gl/t4BDCPnwuYDPfBZS9?g_st=ipc","address":"Αθανασίου Διάκου 38 (38, Αθήνα 117 43","categoryIds":["vegetarian"],"categories":["Vegetarian Friendly Restaurants"]},"distanceKm":0.7698900488019368},{"entity":{"id":"vegetarianRestaurants_e12f835ae279","slug":"fairytale-athens-cafe-suites-e12f","kind":"restaurant","name":"Fairytale Athens Café & Suites","lat":37.97804693538564,"lng":23.721754929553363,"url":"https://maps.app.goo.gl/JXiyguWxrWe1Wgrf9?g_st=ipc","address":"Leokoriou 16, Athina 105 54","categoryIds":["vegetarian"],"categories":["Vegetarian Friendly Restaurants"]},"distanceKm":0.805939930580036},{"entity":{"id":"vegetarianRestaurants_6e1c781427b5","slug":"ntao-vietnameziki-koyzina-6e1c","kind":"restaurant","name":"Ντάο Βιετναμέζικη Κουζίνα","lat":37.97853266592714,"lng":23.722814547226115,"url":"https://maps.app.goo.gl/MyM1aFjtySe38NKA9?g_st=ipc","address":"Λεπενιώτου 14, Αθήνα 105 54","categoryIds":["vegetarian"],"categories":["Vegetarian Friendly Restaurants"]},"distanceKm":0.8218796997064785}],"counts":{"totalEntities":4118,"totalInArea":857,"totalInCategory":115,"totalCategoryArea":76},"relatedCategories":[{"categoryId":"coffee-brunch","categorySlug":"brunch","categoryName":"Coffee & Brunch Spots","count":136,"passesThreshold":true},{"categoryId":"cheap-eats","categorySlug":"cheap-eats","categoryName":"Gyros & Cheap Eats","count":112,"passesThreshold":true},{"categoryId":"greek-restaurants","categorySlug":"greek-restaurants","categoryName":"Greek Restaurants","count":100,"passesThreshold":true},{"categoryId":"desserts","categorySlug":"desserts","categoryName":"Dessert Shops","count":82,"passesThreshold":true},{"categoryId":"luxury-dining","categorySlug":"luxury-dining","categoryName":"Luxury Dining","count":72,"passesThreshold":true},{"categoryId":"italian","categorySlug":"italian","categoryName":"Italian Restaurants","count":53,"passesThreshold":true},{"categoryId":"rooftop-lounges","categorySlug":"rooftops","categoryName":"Rooftop Lounges","count":52,"passesThreshold":true},{"categoryId":"attractions","categorySlug":"attractions","categoryName":"Must-See Attractions","count":43,"passesThreshold":true},{"categoryId":"burgers","categorySlug":"burgers","categoryName":"Burger Spots","count":40,"passesThreshold":true},{"categoryId":"asian","categorySlug":"asian-restaurants","categoryName":"Asian Restaurants","count":38,"passesThreshold":true}],"relatedAreas":[{"areaId":"municipalities_5bc013791cf8","areaName":"Πλάκα","areaSlug":"plaka","count":76,"passesThreshold":true,"nearestDistanceKm":0.2534262479958765},{"areaId":"municipalities_b85b54408d92","areaName":"Θησείο","areaSlug":"thiseio","count":75,"passesThreshold":true,"nearestDistanceKm":0.30331985116304394},{"areaId":"municipalities_d7e1aaaed4f9","areaName":"Μοναστηράκι","areaSlug":"monastiraki","count":74,"passesThreshold":true,"nearestDistanceKm":0.05646440186099712},{"areaId":"municipalities_2bcfcb8b899f","areaName":"Ψυρρή","areaSlug":"psyrri","count":74,"passesThreshold":true,"nearestDistanceKm":0.11001579563961543},{"areaId":"municipalities_877c3bc81df5","areaName":"Σύνταγμα","areaSlug":"syntagma","count":74,"passesThreshold":true,"nearestDistanceKm":0.22552379515756346},{"areaId":"municipalities_0cae2c00b932","areaName":"Κολωνάκι","areaSlug":"kolonaki","count":74,"passesThreshold":true,"nearestDistanceKm":0.5276149880410429},{"areaId":"municipalities_2f324ee27306","areaName":"Εξάρχεια","areaSlug":"exarcheia","count":73,"passesThreshold":true,"nearestDistanceKm":0.08690050688547628},{"areaId":"municipalities_0fd1d03201a0","areaName":"Μετς","areaSlug":"mets","count":73,"passesThreshold":true,"nearestDistanceKm":0.18744415924960506},{"areaId":"municipalities_7e1691d5f08d","areaName":"Μεταξουργείο","areaSlug":"metaxoyrgeio","count":73,"passesThreshold":true,"nearestDistanceKm":0.2569714680901711},{"areaId":"municipalities_616efd2a0d9b","areaName":"Κουκάκι","areaSlug":"koykaki","count":72,"passesThreshold":true,"nearestDistanceKm":0.06810829801535112}],"passesThreshold":true},"hasAreaGuidePage":true},"__N_SSG":true}