{"pageProps":{"entity":{"id":"municipalities_0d14e9726ecb","slug":"anavyssos-0d14","kind":"municipality","name":"Ανάβυσσος","lat":37.7339,"lng":23.9355,"region":"Νότια Αττική","name_en":"Anavyssos","region_en":"South Attica"},"sameCategory":[],"nearby":[{"id":"familyFriendly_18bddf615bf3","slug":"anima-club-18bd","kind":"restaurant","name":"Anima Club","lat":37.74050273423326,"lng":23.921750567749367,"url":"https://maps.app.goo.gl/iMm9xyAzQoQ2dUJU9?g_st=ipc","address":"Υακίνθου Str, Ανάβυσσος 190 13","categoryIds":["family-friendly"],"categories":["Kid Friendly Locations"],"distanceKm":1.4145253602476096},{"id":"fishTavernasRestaurants_bee964d3fc5b","slug":"akrogiali-bee9","kind":"restaurant","name":"ΑΚΡΟΓΙΑΛΙ","lat":37.71656419364308,"lng":23.94570181232825,"url":"https://maps.app.goo.gl/zRnJu32Cpbu5tH579?g_st=ipc","address":"Λεωφ. Αθηνών Σουνίου 5, Παλαιά Φώκαια 190 13","categoryIds":["fish-tavernas"],"categories":["Fish Tavernas"],"distanceKm":2.126242444024596},{"id":"coffeeBrunchRestaurants_e72432c365d7","slug":"nisos-cafe-bar-e724","kind":"restaurant","name":"Nisos Café Bar","lat":37.71981320719648,"lng":23.912954314854076,"url":"https://maps.app.goo.gl/c8xgWYxc6QFikVut9?g_st=ipc","address":"Λεωφ. Αθηνών Σουνίου 48 5, Ανάβυσσος 190 13","categoryIds":["coffee-brunch"],"categories":["Coffee & Brunch Spots"],"distanceKm":2.5269044352607386},{"id":"fishTavernasRestaurants_c23b79f3de18","slug":"taverna-antigoni-c23b","kind":"restaurant","name":"Ταβερνα Αντιγόνη","lat":37.69076965870636,"lng":23.94467815593701,"url":"https://maps.app.goo.gl/HmragYkeYQJ2VW7G6?g_st=ipc","address":"Μακροδημητραίων, Θυμάρι 190 13","categoryIds":["fish-tavernas"],"categories":["Fish Tavernas"],"distanceKm":4.8633577584311976},{"id":"fishTavernasRestaurants_01155b02f60d","slug":"kyra-popi-taverna-0115","kind":"restaurant","name":"Κυρά Πόπη Ταβέρνα","lat":37.78165801312647,"lng":23.89057104630703,"url":"https://maps.app.goo.gl/inr16Vqi6f4XARj86?g_st=ipc","address":"40.5, Λεωφ. Αθηνών Σουνίου, Καλύβια Θορικού 190 10","categoryIds":["fish-tavernas"],"categories":["Fish Tavernas"],"distanceKm":6.618272698545571},{"id":"cheapEatsRestaurants_2fe91c5ec4e8","slug":"pita-lagonisi-2fe9","kind":"restaurant","name":"Πίτα Λαγονήσι","lat":37.787769077925994,"lng":23.886240321695578,"url":"https://maps.app.goo.gl/gnVwTeJ7a9GqoCGQ9?g_st=ipc","address":"Λεωφ. Καλυβίων 4, Σαρωνικός 190 10","categoryIds":["cheap-eats"],"categories":["Gyros & Cheap Eats"],"distanceKm":7.39129868916614},{"id":"wineriesVineyards_fb04a0d726bd","slug":"oinopoieio-prifti-fb04","kind":"restaurant","name":"Οινοποιείο Πρίφτη","lat":37.742934639668164,"lng":24.024928046003534,"url":"https://maps.app.goo.gl/s9SpDZV9kTGdK3aE6?g_st=ipc","address":"Μαρκάτι 190 01","categoryIds":["wineries-vineyards"],"categories":["Wineries & Vineyards"],"distanceKm":7.927713701752241},{"id":"fishTavernasRestaurants_531d3190b4cc","slug":"ta-kalamia-531d","kind":"restaurant","name":"Τα Καλάμια","lat":37.79114152759292,"lng":23.879331978178946,"url":"https://maps.app.goo.gl/UabcyR39Vi7C4sYK7?g_st=ipc","address":"Αθηνων, Καλύβια Θορικού 190 10","categoryIds":["fish-tavernas"],"categories":["Fish Tavernas"],"distanceKm":8.055535673739259},{"id":"fishTavernasRestaurants_57dd1c9928eb","slug":"theodoros-eleni-57dd","kind":"restaurant","name":"Θεόδωρος & Ελένη","lat":37.66821016175742,"lng":23.995505349183023,"url":"https://maps.app.goo.gl/5HLB654RHJNN8sJg6?g_st=ipc","address":"Λεωφ. Λεγραινών, Λαυρεωτική 195 00","categoryIds":["fish-tavernas"],"categories":["Fish Tavernas"],"distanceKm":9.012427095938643},{"id":"cheapEatsRestaurants_d994fad95b5a","slug":"aroma-elladas-d994","kind":"restaurant","name":"Άρωμα Ελλάδας","lat":37.80578649121729,"lng":23.9833913286695,"url":"https://maps.app.goo.gl/cDRv243YonNg2qnB6?g_st=ipc","address":"Ευεργέτη Κωνσταντίνου Πρίφτη 57, Κερατέα 190 01","categoryIds":["cheap-eats"],"categories":["Gyros & Cheap Eats"],"distanceKm":9.034080278405279},{"id":"municipalities_96cb11c2edc9","slug":"lagonisi-96cb","kind":"municipality","name":"Λαγονήσι","lat":37.8053,"lng":23.8864,"region":"Νότια Αττική","name_en":"Lagonisi","region_en":"South Attica","distanceKm":9.036512266729268},{"id":"greekRestaurants_69fc9f288c42","slug":"lazo-69fc","kind":"restaurant","name":"Λάζο","lat":37.808550661496035,"lng":23.978467603150243,"url":"https://maps.app.goo.gl/fKnjDEunWNjANCQ27","address":"Αθηνών Σουνίου 53, Κερατέα 190 01","categoryIds":["greek-restaurants"],"categories":["Greek Restaurants"],"distanceKm":9.119539009544154},{"id":"greekRestaurants_fbdca7941b9f","slug":"stafylomeli-fbdc","kind":"restaurant","name":"Σταφυλομέλι","lat":37.80427446071782,"lng":23.98986829628017,"url":"https://maps.app.goo.gl/aDeFKvVmZyVF7ZpSA","address":"Επαρ.Οδ. Κερατέας-Ανάβυσσου 77, Κερατέα 190 01","categoryIds":["greek-restaurants"],"categories":["Greek Restaurants"],"distanceKm":9.169110315257505},{"id":"dessertsRestaurants_630fa546c8bd","slug":"zacharoplasteio-th-e-k-a-630f","kind":"restaurant","name":"Ζαχαροπλαστείο Θ.Ε.Κ.Α.","lat":37.809996734741844,"lng":23.981187744739113,"url":"https://maps.app.goo.gl/k7AZJfKYi8WUV3oM9?g_st=ipc","address":"Επαρ.Οδ. Κερατέας-Κακής Θάλασσας, Κερατέα 190 01","categoryIds":["desserts"],"categories":["Dessert Shops"],"distanceKm":9.36611251396877},{"id":"fishTavernasRestaurants_250ac79e5fa5","slug":"marida-soynio-250a","kind":"restaurant","name":"Μαρίδα Σούνιο","lat":37.663243704417745,"lng":24.000465853725956,"url":"https://maps.app.goo.gl/8emqMV9UqAiZvW9q9?g_st=ipc","address":"64,5 χλμ. παραλιακη Αθηνων-Σουνίου, Λεγραινα, Σούνιο 195 00","categoryIds":["fish-tavernas"],"categories":["Fish Tavernas"],"distanceKm":9.715809755932785},{"id":"fishTavernasRestaurants_3d3979b06e71","slug":"taverna-stamatis-3d39","kind":"restaurant","name":"Ταβέρνα Σταμάτης","lat":37.662782663333054,"lng":24.004791713992123,"url":"https://maps.app.goo.gl/gJf1KcE3sZPjDyz8A?g_st=ipc","address":"Λεωφόρος Αθηνών Σουνίου,Εσπερίδες, Σούνιο 195 00","categoryIds":["fish-tavernas"],"categories":["Fish Tavernas"],"distanceKm":9.985041424176034},{"id":"monasteriesChurches_74cb37d8010a","slug":"ieros-naos-agioy-dimitrioy-saronikoy-11os-ai-74cb","kind":"restaurant","name":"Ιερός Ναός Αγίου Δημητρίου Σαρωνικού (11ος αι.)","lat":37.807214865085356,"lng":23.869268370594398,"url":"https://maps.app.goo.gl/Yg4DX1pMZC5BvTyv9?g_st=ipc","address":"Αγίου Δημητρίου, Αγ. Μαρίνα 194 00","categoryIds":["monasteries-churches"],"categories":["Monasteries & Spiritual Sites"],"distanceKm":10.01743535091008},{"id":"fishTavernasRestaurants_06b05ccb28e3","slug":"o-foros-psarotaverna-06b0","kind":"restaurant","name":"Ο Φόρος Ψαροταβέρνα","lat":37.730230476020374,"lng":24.052869189449837,"url":"https://maps.app.goo.gl/3QEEjs3jdS92q1p9A?g_st=ipc","address":"Θορικό 195 00","categoryIds":["fish-tavernas"],"categories":["Fish Tavernas"],"distanceKm":10.329739450321535},{"id":"cheapEatsRestaurants_598437c8481b","slug":"gyradiko-o-christos-5984","kind":"restaurant","name":"Γυραδικο \"Ο Χρήστος\"","lat":37.7173396733135,"lng":24.054314949086613,"url":"https://maps.app.goo.gl/Kg9SVim1DWH8Lytb6?g_st=ipc","address":"Λεωφ. Σουνίου 6, Λαύριο 195 00","categoryIds":["cheap-eats","greek-restaurants"],"categories":["Gyros & Cheap Eats","Greek Restaurants"],"legacySlugs":["gyradiko-o-christos-d71e"],"distanceKm":10.610734960774113},{"id":"dessertsRestaurants_af542a277d7b","slug":"solo-gelato-layrio-af54","kind":"restaurant","name":"Solo Gelato Λαύριο","lat":37.715574795821375,"lng":24.054591619024354,"url":"https://maps.app.goo.gl/N2FmFnyANGsotRZs7?g_st=ipc","address":"Πλ. Ηρ. Πολυτεχνείου 28, Λαύριο 195 00","categoryIds":["desserts"],"categories":["Dessert Shops"],"distanceKm":10.670553101756772},{"id":"fishTavernasRestaurants_c99168937472","slug":"rerras-c991","kind":"restaurant","name":"Ρέρρας","lat":37.714742366222666,"lng":24.055779972024514,"url":"https://maps.app.goo.gl/vTuWH4xsgnxg1ctN7?g_st=ipc","address":"Κων/νου Πλειώνη, Ανδρέα Αλεξάνδρου και, Λαύριο 195 00","categoryIds":["fish-tavernas"],"categories":["Fish Tavernas"],"distanceKm":10.791113153146444},{"id":"fishTavernasRestaurants_747917a1e974","slug":"agkyra-7479","kind":"restaurant","name":"Άγκυρα","lat":37.714457783213085,"lng":24.05577913623349,"url":"https://maps.app.goo.gl/FXSCcGp2kJVSweSb7?g_st=ipc","address":"Ψαραγορά Λαύριο 3, Ανδρέα Αλεξάνδρου, Λαύριο 195 00","categoryIds":["fish-tavernas"],"categories":["Fish Tavernas"],"distanceKm":10.797352359293493},{"id":"greekRestaurants_b0e401ff0ee4","slug":"koytsi-katsika-layrio-b0e4","kind":"restaurant","name":"Κουτσή Κατσίκα Λαύριο","lat":37.712808004930835,"lng":24.055992621254646,"url":"https://maps.app.goo.gl/GZaKZri1vc4Knfup7?g_st=ipc","address":"Κουντουριώτη, Λιμάνι Λαυρίου 6, Λαύριο 195 00","categoryIds":["greek-restaurants"],"categories":["Greek Restaurants"],"distanceKm":10.85402051401288},{"id":"greekRestaurants_cc0b98bd06d3","slug":"gavrilis-taverna-cc0b","kind":"restaurant","name":"Γαβριλης Ταβερνα","lat":37.82834073423115,"lng":23.969307203160838,"url":"https://maps.app.goo.gl/bdVU3oQaAfncuVsN9","address":"Αγίου Δημητρίου, Κουβαράς 190 03","categoryIds":["greek-restaurants"],"categories":["Greek Restaurants"],"distanceKm":10.91354116338264}],"sameRegion":[{"id":"municipalities_6a5242e17dc2","slug":"soynio-6a52","kind":"municipality","name":"Σούνιο","lat":37.65,"lng":24.0333,"region":"Νότια Αττική","name_en":"Sounio","region_en":"South Attica"},{"id":"municipalities_96cb11c2edc9","slug":"lagonisi-96cb","kind":"municipality","name":"Λαγονήσι","lat":37.8053,"lng":23.8864,"region":"Νότια Αττική","name_en":"Lagonisi","region_en":"South Attica"}],"mentionedGuides":[],"canonicalSlug":"anavyssos-0d14","enrichment":{"summary_en":"Ανάβυσσος is a curated neighborhood area in Νότια Αττική. It is connected to 0 nearby Googlementor picks to help travelers build a stronger local route.","summary_el":"Ανάβυσσος είναι ένα επιλεγμένο σημείο ενδιαφέροντος στην περιοχή Νότια Αττική. Συνδέεται με 0 κοντινές προτάσεις του Googlementor για πιο ολοκληρωμένη εμπειρία.","vibe_tags":["local-neighborhood","base-for-exploring"],"best_for":["first-time visitors","walk-and-explore days","return visitors"],"visit_moments":["late morning walks","sunset exploration"],"practical_note":"0 curated places are within walkable distance from this area center.","nearby_walkable_count":0,"nearby_count_2km":1,"confidence":0.55},"areaContext":null,"intentContexts":[]},"__N_SSG":true}