{"pageProps":{"entity":{"id":"dessertsRestaurants_ee67f4c4f773","slug":"galaktopoleio-stamoy-ee67","kind":"restaurant","name":"Γαλακτοπωλείο ΣΤΑΜΟΥ","lat":38.050308447326216,"lng":23.764543130470138,"url":"https://maps.app.goo.gl/ct5eAdJBTvtvp5Kb6?g_st=ipc","address":"Λεωφ. Ηρακλείου 388, Ηράκλειο 141 22","categoryIds":["desserts"],"categories":["Dessert Shops"]},"sameCategory":[{"id":"dessertsRestaurants_f7f9c93c456d","slug":"zacharoplasteio-ta-gioylia-f7f9","kind":"restaurant","name":"Ζαχαροπλαστείο Τα Γιούλια","lat":38.04173959626081,"lng":23.76335652551234,"url":"https://maps.app.goo.gl/7AogHoPypPVPFN8p7?g_st=ipc","address":"Αλέκου Παναγούλη 74, Νέα Ιωνία 141 21","categoryIds":["desserts"],"categories":["Dessert Shops"]},{"id":"dessertsRestaurants_4ba5b007aaee","slug":"san-zachari-4ba5","kind":"restaurant","name":"Σαν Ζάχαρη","lat":38.0467822413905,"lng":23.750604774962436,"url":"https://maps.app.goo.gl/hEf4BAiafjzg3vVT6?g_st=ipc","address":"Ελ. Βενιζέλου 119, Νέα Ιωνία 142 31","categoryIds":["desserts"],"categories":["Dessert Shops"]},{"id":"dessertsRestaurants_265283fa47ed","slug":"zacharoplasteio-ta-gioylia-2652","kind":"restaurant","name":"Ζαχαροπλαστείο Τα Γιούλια","lat":38.04320708683717,"lng":23.75268041981327,"url":"https://maps.app.goo.gl/yT8dXGYHeqfAeL4K8?g_st=ipc","address":"Μεσολογγίου 24, Νέα Ιωνία 142 31","categoryIds":["desserts"],"categories":["Dessert Shops"]},{"id":"dessertsRestaurants_35fad49944d3","slug":"oikogeneia-stayrati-35fa","kind":"restaurant","name":"Οικογένεια Σταυράτη","lat":38.064333617477246,"lng":23.775971928887216,"url":"https://maps.app.goo.gl/nFJr46bSggFggK8U6?g_st=ipc","address":"Λεωφ. Ηρακλείου 531, Ηράκλειο 141 22","categoryIds":["desserts"],"categories":["Dessert Shops"]},{"id":"dessertsRestaurants_b154c59ad342","slug":"zacharoplasteio-ta-gioylia-b154","kind":"restaurant","name":"Ζαχαροπλαστείο Τα Γιούλια","lat":38.03375679792758,"lng":23.760132906851105,"url":"https://maps.app.goo.gl/c3VhnGmj4UK6Mp8j6?g_st=ipc","address":"Αναγεννήσεως 49-51, Νέα Ιωνία 142 33","categoryIds":["desserts"],"categories":["Dessert Shops"]},{"id":"dessertsRestaurants_91ba7ff0c788","slug":"galaktopoleio-stamoy-91ba","kind":"restaurant","name":"Γαλακτοπωλείο ΣΤΑΜΟΥ","lat":38.06327717225913,"lng":23.780942994591154,"url":"https://maps.app.goo.gl/rMwhBDoVuWArY4T36?g_st=ipc","address":"Λεωφ. Αμαρουσίου 29, Λυκόβρυση 141 23","categoryIds":["desserts"],"categories":["Dessert Shops"]},{"id":"dessertsRestaurants_8a66394cff02","slug":"andrias-8a66","kind":"restaurant","name":"Ανδριάς","lat":38.031915217615015,"lng":23.776449986064225,"url":"https://maps.app.goo.gl/UyXFW37fEx8CzcR76?g_st=ipc","address":"Λεωφ. Καποδιστρίου 92, Νέα Ιωνία 142 35","categoryIds":["desserts"],"categories":["Dessert Shops"]},{"id":"dessertsRestaurants_01f94a155dc7","slug":"cinnabon-01f9","kind":"restaurant","name":"Cinnabon","lat":38.04451091204427,"lng":23.790126921989934,"url":"https://maps.app.goo.gl/vor1PCh85rY2x8xr5?g_st=ipc","address":"Andrea Papandreou 35 Loc. 215, 2nd floor, The Mall Athens, Μαρούσι 151 22","categoryIds":["desserts"],"categories":["Dessert Shops"]},{"id":"dessertsRestaurants_11d8eb3a5116","slug":"solo-gelato-pefki-11d8","kind":"restaurant","name":"Solo Gelato Pefki","lat":38.058776038280556,"lng":23.79284350703131,"url":"https://maps.app.goo.gl/SjAsiViMGast8vsf9?g_st=ipc","address":"Σοφούλη 3, Πεύκη 151 21","categoryIds":["desserts"],"categories":["Dessert Shops"]},{"id":"dessertsRestaurants_f5dcbd5d6956","slug":"tillas-f5dc","kind":"restaurant","name":"ΤΙΛΛΑΣ","lat":38.03389726212368,"lng":23.738299411081684,"url":"https://maps.app.goo.gl/KvFWhV1Ew2To6kLKA?g_st=ipc","address":"Αγίας Τριάδος 2, Νέα Φιλαδέλφεια Αττικής 143 41","categoryIds":["desserts"],"categories":["Dessert Shops"]},{"id":"dessertsRestaurants_72c80ba8b348","slug":"galaktopoleio-stamoy-72c8","kind":"restaurant","name":"Γαλακτοπωλείο ΣΤΑΜΟΥ","lat":38.03443491475164,"lng":23.737764183814345,"url":"https://maps.app.goo.gl/37pG5QPiULEUHnjT8?g_st=ipc","address":"Λεωφ. Δεκελείας 87, Δήμος Νέας Φιλαδέλφειας - Νέας Χαλκηδόνας 143 41","categoryIds":["desserts"],"categories":["Dessert Shops"]},{"id":"coffeeBrunchRestaurants_9257bf81b3ff","slug":"fairytale-to-paramythopoleio-tis-n-filadelfeias-9257","kind":"restaurant","name":"Fairytale – Το Παραμυθοπωλείο της Ν. Φιλαδέλφειας","lat":38.03555224332492,"lng":23.73629276954315,"url":"https://maps.app.goo.gl/GoWf19SFoVJNYBHP9?g_st=ipc","address":"Νικ. Τρυρια 48, Νέα Φιλαδέλφεια Αττικής 143 41","categoryIds":["coffee-brunch","desserts"],"categories":["Coffee & Brunch Spots","Dessert Shops"],"legacySlugs":["fairytale-to-paramythopoleio-tis-n-filadelfeias-db46"]}],"nearby":[{"id":"burgersRestaurants_b7d172dd6af6","slug":"serial-grillers-b7d1","kind":"restaurant","name":"Serial Grillers","lat":38.04771274952107,"lng":23.76539665009085,"url":"https://maps.app.goo.gl/DKedv8F3cHKd27me9?g_st=ipc","address":"Νεότητος 4, Ηράκλειο 141 22","categoryIds":["burgers"],"categories":["Burger Spots"],"distanceKm":0.2981477870819144},{"id":"italianRestaurants_d84ce5fee7c0","slug":"piazza-d-amore-d84c","kind":"restaurant","name":"Piazza D'Amore","lat":38.046873886500826,"lng":23.765946699532154,"url":"https://maps.app.goo.gl/m24wKNSPTHZaNPpA9?g_st=ipc","address":"28ης Οκτωβρίου 8, Ηράκλειο 141 21","categoryIds":["italian"],"categories":["Italian Restaurants"],"distanceKm":0.4011946776326806},{"id":"dessertsRestaurants_f7f9c93c456d","slug":"zacharoplasteio-ta-gioylia-f7f9","kind":"restaurant","name":"Ζαχαροπλαστείο Τα Γιούλια","lat":38.04173959626081,"lng":23.76335652551234,"url":"https://maps.app.goo.gl/7AogHoPypPVPFN8p7?g_st=ipc","address":"Αλέκου Παναγούλη 74, Νέα Ιωνία 141 21","categoryIds":["desserts"],"categories":["Dessert Shops"],"distanceKm":0.9584618478328003},{"id":"luxuryDiningRestaurants_8a047703e0fb","slug":"afropsaro-8a04","kind":"restaurant","name":"Αφρόψαρο","lat":38.04349613246651,"lng":23.771888846159882,"url":"https://maps.app.goo.gl/g7jbxhgYDYFvpnKX6?g_st=ipc","address":"Μαρίνου Αντύπα 62-66, Ηράκλειο 141 21","categoryIds":["luxury-dining"],"categories":["Luxury Dining"],"distanceKm":0.9937587840868963},{"id":"luxuryDiningRestaurants_bbebf7e68168","slug":"moo-casa-steak-lobster-bbeb","kind":"restaurant","name":"MOO CASA steak & lobster","lat":38.04344953562119,"lng":23.772025529553066,"url":"https://maps.app.goo.gl/HwBgLRsMdgFuqNJTA?g_st=ipc","address":"Marinou Antipa 66, Iraklio 141 21","categoryIds":["luxury-dining"],"categories":["Luxury Dining"],"distanceKm":1.0054721981302217},{"id":"cheapEatsRestaurants_5f9d5dd343a6","slug":"ypoyrgeio-geyseon-soyvlaki-psita-5f9d","kind":"restaurant","name":"ΥΠΟΥΡΓΕΙΟ ΓΕΥΣΕΩΝ-Σουβλάκι,Ψητά","lat":38.04303394507047,"lng":23.771779772357615,"url":"https://maps.app.goo.gl/LCrvDRPpRco2nVuF9?g_st=ipc","address":"Φιλοθέης 67, Ηράκλειο 141 21","categoryIds":["cheap-eats","greek-restaurants"],"categories":["Gyros & Cheap Eats","Greek Restaurants"],"legacySlugs":["ypoyrgeio-geyseon-soyvlaki-psita-5023"],"distanceKm":1.0275523034688456},{"id":"familyFriendly_afe86b0c0ea7","slug":"game-project-afe8","kind":"restaurant","name":"GAME Project","lat":38.057383703991036,"lng":23.772780317559956,"url":"https://maps.app.goo.gl/XsjBK4zMnNMj3Syf6?g_st=ipc","address":"204, ELeftheriou Venizelou Str N, Αθήνα 141 22","categoryIds":["family-friendly"],"categories":["Kid Friendly Locations"],"distanceKm":1.0672995527870515},{"id":"greekRestaurants_65b8685c50a4","slug":"gidi-65b8","kind":"restaurant","name":"Γίδι","lat":38.052246918082005,"lng":23.750952362138648,"url":"https://maps.app.goo.gl/hMR86s9rhghZRxgi8","address":"Τατοΐου 17, Μεταμόρφωση 144 51","categoryIds":["greek-restaurants"],"categories":["Greek Restaurants"],"distanceKm":1.209391421814375},{"id":"greekRestaurants_be5c399cb3b9","slug":"to-vietnam-be5c","kind":"restaurant","name":"Το Βιετνάμ","lat":38.0615311115762,"lng":23.764059030004713,"url":"https://maps.app.goo.gl/xC1aTbCCv97NuUkz6?g_st=ipc","address":"Agiou Konstantinou 18, Metamorfosi 144 52","categoryIds":["greek-restaurants"],"categories":["Greek Restaurants"],"distanceKm":1.2486229528019517},{"id":"dessertsRestaurants_4ba5b007aaee","slug":"san-zachari-4ba5","kind":"restaurant","name":"Σαν Ζάχαρη","lat":38.0467822413905,"lng":23.750604774962436,"url":"https://maps.app.goo.gl/hEf4BAiafjzg3vVT6?g_st=ipc","address":"Ελ. Βενιζέλου 119, Νέα Ιωνία 142 31","categoryIds":["desserts"],"categories":["Dessert Shops"],"distanceKm":1.2819442917291435},{"id":"cheapEatsRestaurants_f3077615404b","slug":"kantina-o-alekos-f307","kind":"restaurant","name":"Καντίνα \"ο Αλεκος\"","lat":38.04208740467577,"lng":23.77486464859004,"url":"https://maps.app.goo.gl/4oCtgVQEesHACQsu8?g_st=ipc","address":"Μαρίνου Αντύπα 47, Ηράκλειο 141 21","categoryIds":["cheap-eats"],"categories":["Gyros & Cheap Eats"],"distanceKm":1.2855185201974466},{"id":"greekRestaurants_dbfa615cdf88","slug":"mparmpalias-soyvlaki-kempap-dbfa","kind":"restaurant","name":"Μπαρμπαλιάς Σουβλάκι Κεμπάπ","lat":38.04986386180613,"lng":23.749800777909947,"url":"https://maps.app.goo.gl/1KoD7wRkjTyAQA5aA","address":"Ελ. Βενιζέλου 146, Νέα Ιωνία 142 31","categoryIds":["greek-restaurants"],"categories":["Greek Restaurants"],"distanceKm":1.29182968733933},{"id":"cheapEatsRestaurants_59fb21ba5f98","slug":"hobos-street-grill-59fb","kind":"restaurant","name":"Hobos Street Grill","lat":38.04249747641086,"lng":23.753515339761147,"url":"https://maps.app.goo.gl/YHJtEHPvQRVXwD3F7?g_st=ipc","address":"Λεωφ. Ηρακλείου 254, Νέα Ιωνία 142 31","categoryIds":["cheap-eats"],"categories":["Gyros & Cheap Eats"],"distanceKm":1.2988028570738126},{"id":"dessertsRestaurants_265283fa47ed","slug":"zacharoplasteio-ta-gioylia-2652","kind":"restaurant","name":"Ζαχαροπλαστείο Τα Γιούλια","lat":38.04320708683717,"lng":23.75268041981327,"url":"https://maps.app.goo.gl/yT8dXGYHeqfAeL4K8?g_st=ipc","address":"Μεσολογγίου 24, Νέα Ιωνία 142 31","categoryIds":["desserts"],"categories":["Dessert Shops"],"distanceKm":1.3048330993789459},{"id":"coffeeBrunchRestaurants_a5983b685dbd","slug":"to-peinirli-tis-neas-ionias-a598","kind":"restaurant","name":"To Peinirli tis Neas Ionias","lat":38.039553570278855,"lng":23.75782693390007,"url":"https://maps.app.goo.gl/Dgayt5WtWZw7apFh8?g_st=ic","address":"Ramnountos 76, Nea Ionia 142 34","categoryIds":["coffee-brunch"],"categories":["Coffee & Brunch Spots"],"distanceKm":1.3326837010063013},{"id":"cheapEatsRestaurants_a0695ebe74bb","slug":"to-teleion-a069","kind":"restaurant","name":"Το Τέλειον","lat":38.05891347949006,"lng":23.77665689156842,"url":"https://maps.app.goo.gl/Q3YXwLTyLfeVdVYX6?g_st=ipc","address":"Λεωφ. Πλαπούτα 20, Ηράκλειο 141 22","categoryIds":["cheap-eats"],"categories":["Gyros & Cheap Eats"],"distanceKm":1.4284659395938466},{"id":"burgersRestaurants_5f190c7a3636","slug":"jazz-burger-bar-neo-irakleio-5f19","kind":"restaurant","name":"Jazz Burger Bar Νέο Ηρακλειο","lat":38.04095577978939,"lng":23.776308324847815,"url":"https://maps.app.goo.gl/hv2UknNHtTHVpeFG6?g_st=ipc","address":"Μαρίνου Αντύπα 59, Ηράκλειο 141 21","categoryIds":["burgers"],"categories":["Burger Spots"],"distanceKm":1.463887398300195},{"id":"burgersRestaurants_23f9084c3497","slug":"jazz-burger-bar-neo-irakleio-23f9","kind":"restaurant","name":"Jazz Burger Bar Νέο Ηρακλειο","lat":38.04095396558123,"lng":23.776308567252247,"url":"https://maps.app.goo.gl/K4k635ezwzDGdDJB9?g_st=ic","address":"Marinou Antipa 59, Iraklio 141 21","categoryIds":["burgers"],"categories":["Burger Spots"],"distanceKm":1.4640456646799385},{"id":"fishTavernasRestaurants_2930f14bae6f","slug":"psariston-2930","kind":"restaurant","name":"Ψάριστον","lat":38.05007046502227,"lng":23.781403693268317,"url":"https://maps.app.goo.gl/4KPzMCG1HKq5Gpdw6?g_st=ipc","address":"Καλαβρύτων 16, Ηράκλειο 141 21, 141 21","categoryIds":["fish-tavernas"],"categories":["Fish Tavernas"],"distanceKm":1.4765951695882125},{"id":"municipalities_f5a6fd333493","slug":"metamorfosi-f5a6","kind":"municipality","name":"Μεταμόρφωση","lat":38.0612,"lng":23.7544,"aliases":["Metamorfosi","Metamorphosi","Μεταμορφωση"],"region":"Βόρεια Προάστια","name_en":"Metamorfosi","region_en":"Northern Suburbs","distanceKm":1.5018114527529978},{"id":"coffeeBrunchRestaurants_e705f1112f3d","slug":"dimitra-goynaridi-e705","kind":"restaurant","name":"Δήμητρα Γουναρίδη","lat":38.04165697380787,"lng":23.75123284178688,"url":"https://maps.app.goo.gl/b5dp6jq3caW91FoHA?g_st=ipc","address":"Ευαγγελικής Σχολής 5, Νέα Ιωνία 142 31","categoryIds":["coffee-brunch"],"categories":["Coffee & Brunch Spots"],"distanceKm":1.5112769078625041},{"id":"cheapEatsRestaurants_f41f24c34bd1","slug":"o-christaras-f41f","kind":"restaurant","name":"Ο Χρηστάρας","lat":38.06513658858884,"lng":23.770452923606605,"url":"https://maps.app.goo.gl/73hetj8YZUmHBV4M7?g_st=ipc","address":"κ, Δεξαμενής, Θεοτοκοπούλου και, Μεταμόρφωση 144 52","categoryIds":["cheap-eats"],"categories":["Gyros & Cheap Eats"],"distanceKm":1.7280961335854785},{"id":"municipalities_a312b31dd129","slug":"nea-ionia-a312","kind":"municipality","name":"Νέα Ιωνία","lat":38.0357,"lng":23.7573,"aliases":["Nea Ionia","Νεα Ιωνια"],"region":"Βόρεια Προάστια","name_en":"Nea Ionia","region_en":"Northern Suburbs","distanceKm":1.7438326894640783},{"id":"dessertsRestaurants_35fad49944d3","slug":"oikogeneia-stayrati-35fa","kind":"restaurant","name":"Οικογένεια Σταυράτη","lat":38.064333617477246,"lng":23.775971928887216,"url":"https://maps.app.goo.gl/nFJr46bSggFggK8U6?g_st=ipc","address":"Λεωφ. Ηρακλείου 531, Ηράκλειο 141 22","categoryIds":["desserts"],"categories":["Dessert Shops"],"distanceKm":1.852945587271191}],"sameRegion":[],"mentionedGuides":[],"canonicalSlug":"galaktopoleio-stamoy-ee67","enrichment":{"summary_en":"Γαλακτοπωλείο ΣΤΑΜΟΥ is a curated restaurant in Ηράκλειο 141 22 in the Dessert Shops collection. It is connected to 2 nearby Googlementor picks to help travelers build a stronger local route.","summary_el":"Γαλακτοπωλείο ΣΤΑΜΟΥ είναι ένα επιλεγμένο σημείο φαγητού στην περιοχή Ηράκλειο 141 22 και ανήκει στη συλλογή Dessert Shops. Συνδέεται με 2 κοντινές προτάσεις του Googlementor για πιο ολοκληρωμένη εμπειρία.","vibe_tags":["curated","sweet-stop"],"best_for":["first-time visitors","food lovers"],"visit_moments":["afternoon break","after dinner"],"practical_note":"Address and direct map link are available for easy turn-by-turn access.","nearby_walkable_count":2,"nearby_count_2km":29,"confidence":0.9},"areaContext":{"slug":"metamorfosi","name":"Metamorfosi","nameEl":"Μεταμόρφωση"},"intentContexts":[{"href":"/desserts/metamorfosi","label":"Dessert Shops in Metamorfosi","categorySlug":"desserts","categoryName":"Dessert Shops","areaSlug":"metamorfosi","areaName":"Metamorfosi","areaNameEl":"Μεταμόρφωση"}]},"__N_SSG":true}