{"pageProps":{"entity":{"id":"fishTavernasRestaurants_ec6f8deb686c","slug":"romeo-restaurant-ec6f","kind":"restaurant","name":"Romeo Restaurant","lat":39.877624727759105,"lng":25.0589103454787,"url":"https://maps.app.goo.gl/gcPprUPwwjyMys6K6?g_st=ipc","address":"Navarchou Kountourioti 4, Mirina 814 00","categoryIds":["fish-tavernas"],"categories":["Fish Tavernas"]},"sameCategory":[{"id":"fishTavernasRestaurants_31d05d8989b3","slug":"riza-31d0","kind":"restaurant","name":"Rizá","lat":39.884706865069624,"lng":25.06758130540464,"url":"https://maps.app.goo.gl/mjn9nrVY8o8u2BtBA?g_st=ipc","address":"Ιωάννη ξυραδη, Mirina 814 00","categoryIds":["fish-tavernas"],"categories":["Fish Tavernas"]},{"id":"fishTavernasRestaurants_50ee9738a03b","slug":"giannakaros-50ee","kind":"restaurant","name":"Giannakaros","lat":39.84054300748565,"lng":25.08178620013765,"url":"https://maps.app.goo.gl/pXxiEsVASm4fz94F7?g_st=ipc","address":"Παραλία Θάνους 814 00","categoryIds":["fish-tavernas"],"categories":["Fish Tavernas"]},{"id":"fishTavernasRestaurants_3f01da32250d","slug":"barbounaki-lemnos-3f01","kind":"restaurant","name":"Barbounaki | Lemnos","lat":39.922645057066866,"lng":25.071051886904925,"url":"https://maps.app.goo.gl/Y8MNEpBKf9pJKHNg8?g_st=ipc","address":"Λημνος, Αγιος Ιωαννης, Kaspakas 814 00","categoryIds":["fish-tavernas"],"categories":["Fish Tavernas"]},{"id":"fishTavernasRestaurants_782c004f6a18","slug":"glykanisos-782c","kind":"restaurant","name":"Glykanisos","lat":39.89189656070638,"lng":25.20287613011476,"url":"https://maps.app.goo.gl/tCAL6L44HZbqrniJ6?g_st=ipc","address":"Unnamed Road, Limnos 814 00","categoryIds":["fish-tavernas"],"categories":["Fish Tavernas"]},{"id":"fishTavernasRestaurants_038ab4889bb3","slug":"taverna-flomari-038a","kind":"restaurant","name":"Taverna Flomari","lat":39.98832919487252,"lng":25.155079152226218,"url":"https://maps.app.goo.gl/G6hKXeSWoodnwXMF6?g_st=ipc","address":"Gomati Beach, Limnos 814 01","categoryIds":["fish-tavernas"],"categories":["Fish Tavernas"]},{"id":"fishTavernasRestaurants_872df0d46026","slug":"tavern-restaurant-giannakaros-872d","kind":"restaurant","name":"Tavern Restaurant GIANNAKAROS","lat":39.94049535145995,"lng":25.283557993247516,"url":"https://maps.app.goo.gl/Y8y6JAFkf3x52TAJA?g_st=ipc","address":"ΛΙΜΑΝΑΚΙ, Kotsinas 814 01","categoryIds":["fish-tavernas"],"categories":["Fish Tavernas"]},{"id":"fishTavernasRestaurants_16a4e67c3c63","slug":"agios-charalampos-taverna-16a4","kind":"restaurant","name":"Άγιος Χαράλαμπος Ταβέρνα","lat":40.01540251451066,"lng":25.41273241641246,"url":"https://maps.app.goo.gl/TDkDp1LztBnJyFX67?g_st=ipc","address":"Λημνος, Plaka 814 01","categoryIds":["fish-tavernas"],"categories":["Fish Tavernas"]},{"id":"fishTavernasRestaurants_24fad5bd6b6a","slug":"5-steps-in-the-sand-24fa","kind":"restaurant","name":"5 steps in the sand","lat":40.034668702268604,"lng":23.99606130491612,"url":"https://maps.app.goo.gl/iP8wYvDkitTVjfa76?g_st=ipc","address":"Unnamed Rd, Sithonia 630 72","categoryIds":["fish-tavernas"],"categories":["Fish Tavernas"]},{"id":"fishTavernasRestaurants_65768adf2a19","slug":"ta-vrahakia-6576","kind":"restaurant","name":"Ta Vrahakia","lat":40.097540490283095,"lng":23.98106959598484,"url":"https://maps.app.goo.gl/s3bXAQZmTZm8mRD49?g_st=ipc","address":"Sarti, 630 72","categoryIds":["fish-tavernas"],"categories":["Fish Tavernas"]},{"id":"fishTavernasRestaurants_d5c76ebeca06","slug":"taverna-tzitzikas-d5c7","kind":"restaurant","name":"Taverna Tzitzikas","lat":39.97131621436269,"lng":23.918318099276224,"url":"https://maps.app.goo.gl/xM3w3kkvbVhTTiVCA?g_st=ipc","address":"Porto Koufo 630 72","categoryIds":["fish-tavernas"],"categories":["Fish Tavernas"]},{"id":"fishTavernasRestaurants_96de444b7a10","slug":"porto-marina-porto-marina-96de","kind":"restaurant","name":"Porto Marina / Πόρτο Μαρίνα","lat":39.971313118009334,"lng":23.918182244358935,"url":"https://maps.app.goo.gl/tGn4Eecy7SmLvgcn9?g_st=ipc","address":"Porto Koufo 630 72","categoryIds":["fish-tavernas"],"categories":["Fish Tavernas"]},{"id":"fishTavernasRestaurants_c1e639fcf77c","slug":"panos-fish-tavern-c1e6","kind":"restaurant","name":"Panos Fish Tavern","lat":40.02825871317535,"lng":23.814126287287745,"url":"https://maps.app.goo.gl/77jkhaQtjejhyNVk9?g_st=ipc","address":"63081, Neos Marmaras 630 81","categoryIds":["fish-tavernas"],"categories":["Fish Tavernas"]}],"nearby":[{"id":"coffeeBrunchRestaurants_068b0da95bfe","slug":"to-sokaki-068b","kind":"restaurant","name":"Το Σοκάκι","lat":39.8775422598192,"lng":25.06020004123801,"url":"https://maps.app.goo.gl/XpuXpx6W5o54Ee8g9?g_st=ipc","address":"Π.Κυδά 95, Mirina 814 00","categoryIds":["coffee-brunch"],"categories":["Coffee & Brunch Spots"],"distanceKm":0.11043469178142996},{"id":"coffeeBrunchRestaurants_869f5a48d72d","slug":"isalos-869f","kind":"restaurant","name":"Ίσαλος","lat":39.87908391847142,"lng":25.06099156906446,"url":"https://maps.app.goo.gl/c8yCK9js6cNHpCoA9?g_st=ipc","address":"Navarchou Kountourioti 44, Mirina 814 00","categoryIds":["coffee-brunch"],"categories":["Coffee & Brunch Spots"],"distanceKm":0.24055434299137807},{"id":"dessertsRestaurants_f7fc652adf76","slug":"m-m-cafe-f7fc","kind":"restaurant","name":"M&M cafe","lat":39.874546870141494,"lng":25.06021064657425,"url":"https://maps.app.goo.gl/SJcXoVQYWqcw91ws8?g_st=ipc","address":"Παλαιο λιμανι, Mirina 814 00","categoryIds":["desserts"],"categories":["Dessert Shops"],"distanceKm":0.3597804497039549},{"id":"fishTavernasRestaurants_31d05d8989b3","slug":"riza-31d0","kind":"restaurant","name":"Rizá","lat":39.884706865069624,"lng":25.06758130540464,"url":"https://maps.app.goo.gl/mjn9nrVY8o8u2BtBA?g_st=ipc","address":"Ιωάννη ξυραδη, Mirina 814 00","categoryIds":["fish-tavernas"],"categories":["Fish Tavernas"],"distanceKm":1.0805427915152748},{"id":"coffeeBrunchRestaurants_97411cb6d764","slug":"beach-bar-pantelis-9741","kind":"restaurant","name":"Beach Bar Pantelis","lat":39.842026669826275,"lng":25.07833979185058,"url":"https://maps.app.goo.gl/GU9DYNTRrV3ugcbq6?g_st=ipc","address":"Λημνος, Thanos 814 00","categoryIds":["coffee-brunch"],"categories":["Coffee & Brunch Spots"],"distanceKm":4.2916904899756005},{"id":"fishTavernasRestaurants_50ee9738a03b","slug":"giannakaros-50ee","kind":"restaurant","name":"Giannakaros","lat":39.84054300748565,"lng":25.08178620013765,"url":"https://maps.app.goo.gl/pXxiEsVASm4fz94F7?g_st=ipc","address":"Παραλία Θάνους 814 00","categoryIds":["fish-tavernas"],"categories":["Fish Tavernas"],"distanceKm":4.56225710222871},{"id":"fishTavernasRestaurants_3f01da32250d","slug":"barbounaki-lemnos-3f01","kind":"restaurant","name":"Barbounaki | Lemnos","lat":39.922645057066866,"lng":25.071051886904925,"url":"https://maps.app.goo.gl/Y8MNEpBKf9pJKHNg8?g_st=ipc","address":"Λημνος, Αγιος Ιωαννης, Kaspakas 814 00","categoryIds":["fish-tavernas"],"categories":["Fish Tavernas"],"distanceKm":5.112054015362312},{"id":"coffeeBrunchRestaurants_996e363973c7","slug":"karavi-beach-bar-996e","kind":"restaurant","name":"Karavi Beach Bar","lat":39.85090912842053,"lng":25.123611423243542,"url":"https://maps.app.goo.gl/6JePMXECkf2soAvE9?g_st=ipc","address":"Nea Koutali 814 01","categoryIds":["coffee-brunch"],"categories":["Coffee & Brunch Spots"],"distanceKm":6.270512171808898},{"id":"greekRestaurants_5899d919db96","slug":"taverna-man-tella-5899","kind":"restaurant","name":"Ταβέρνα Μαν-Τέλλα","lat":39.939715902807876,"lng":25.14007617212637,"url":"https://maps.app.goo.gl/h7jXmADnqFj6jdww8?g_st=ipc","address":"Σαρδές 814 00","categoryIds":["greek-restaurants"],"categories":["Greek Restaurants"],"distanceKm":9.777306491656692},{"id":"greekRestaurants_6eb435657203","slug":"o-meraklis-6eb4","kind":"restaurant","name":"Ο Μερακλής","lat":39.867735919635514,"lng":25.173635790362066,"url":"https://maps.app.goo.gl/Aytx8mWcw3gfndXg8?g_st=ipc","address":"Τσιμάνδρια 814 00","categoryIds":["greek-restaurants"],"categories":["Greek Restaurants"],"distanceKm":9.852093678591597},{"id":"fishTavernasRestaurants_782c004f6a18","slug":"glykanisos-782c","kind":"restaurant","name":"Glykanisos","lat":39.89189656070638,"lng":25.20287613011476,"url":"https://maps.app.goo.gl/tCAL6L44HZbqrniJ6?g_st=ipc","address":"Unnamed Road, Limnos 814 00","categoryIds":["fish-tavernas"],"categories":["Fish Tavernas"],"distanceKm":12.385798904289938},{"id":"fishTavernasRestaurants_038ab4889bb3","slug":"taverna-flomari-038a","kind":"restaurant","name":"Taverna Flomari","lat":39.98832919487252,"lng":25.155079152226218,"url":"https://maps.app.goo.gl/G6hKXeSWoodnwXMF6?g_st=ipc","address":"Gomati Beach, Limnos 814 01","categoryIds":["fish-tavernas"],"categories":["Fish Tavernas"],"distanceKm":14.790736142799302},{"id":"greekRestaurants_bcfe0c24d0b9","slug":"taverna-flomari-bcfe","kind":"restaurant","name":"Taverna Flomari","lat":39.9883429210675,"lng":25.15508018878464,"url":"https://maps.app.goo.gl/wJXUERDBm4i5UHSQ9?g_st=ipc","address":"Gomati Beach, Λήμνος 814 01","categoryIds":["greek-restaurants"],"categories":["Greek Restaurants"],"distanceKm":14.792054971699399},{"id":"municipalities_89f092af4fdd","slug":"limnos-89f0","kind":"municipality","name":"Λήμνος","lat":39.911,"lng":25.236,"region":"Βόρειο Αιγαίο","name_en":"Lemnos","region_en":"North Aegean","distanceKm":15.55699786845782},{"id":"greekRestaurants_207ce585e372","slug":"ennoia-po-chs-207c","kind":"restaurant","name":"Έννοια Πο'χς","lat":39.91619952692809,"lng":25.26615920965088,"url":"https://maps.app.goo.gl/Vo6exv2Lo4vvZm3q6?g_st=ipc","address":"Λύχνα 814 01","categoryIds":["greek-restaurants"],"categories":["Greek Restaurants"],"distanceKm":18.193000488054974},{"id":"fishTavernasRestaurants_872df0d46026","slug":"tavern-restaurant-giannakaros-872d","kind":"restaurant","name":"Tavern Restaurant GIANNAKAROS","lat":39.94049535145995,"lng":25.283557993247516,"url":"https://maps.app.goo.gl/Y8y6JAFkf3x52TAJA?g_st=ipc","address":"ΛΙΜΑΝΑΚΙ, Kotsinas 814 01","categoryIds":["fish-tavernas"],"categories":["Fish Tavernas"],"distanceKm":20.396480375024083},{"id":"greekRestaurants_0d79ffe3d8c0","slug":"taverna-andreas-0d79","kind":"restaurant","name":"Ταβέρνα Αndreas","lat":39.86355491006773,"lng":25.323066847103735,"url":"https://maps.app.goo.gl/FVABP5vjSdC5ptdh7?g_st=ipc","address":"Unnamed Road, Καμίνια 814 01","categoryIds":["greek-restaurants"],"categories":["Greek Restaurants"],"distanceKm":22.597718458464634}],"sameRegion":[],"mentionedGuides":[],"canonicalSlug":"romeo-restaurant-ec6f","enrichment":{"summary_en":"Romeo Restaurant is a curated restaurant in Mirina 814 00 in the Fish Tavernas collection. It is connected to 3 nearby Googlementor picks to help travelers build a stronger local route.","summary_el":"Romeo Restaurant είναι ένα επιλεγμένο σημείο φαγητού στην περιοχή Mirina 814 00 και ανήκει στη συλλογή Fish Tavernas. Συνδέεται με 3 κοντινές προτάσεις του Googlementor για πιο ολοκληρωμένη εμπειρία.","vibe_tags":["curated","seafood-local"],"best_for":["first-time visitors","food lovers"],"visit_moments":["lunch stop","dinner stop"],"practical_note":"Address and direct map link are available for easy turn-by-turn access.","nearby_walkable_count":3,"nearby_count_2km":4,"confidence":0.9},"areaContext":null,"intentContexts":[]},"__N_SSG":true}