{"pageProps":{"entity":{"id":"familyFriendly_6d37527d6031","slug":"aravissos-6d37","kind":"restaurant","name":"Aravissos","lat":40.84372836252556,"lng":22.29977887392331,"url":"https://maps.app.goo.gl/hexPdMp2cuZPUgmA8?g_st=ic","address":"Αραβησσος 581 00","categoryIds":["family-friendly"],"categories":["Kid Friendly Locations"]},"sameCategory":[{"id":"familyFriendly_20ce7f662369","slug":"waterfalls-of-edessa-20ce","kind":"restaurant","name":"Waterfalls of Edessa","lat":40.80389706859676,"lng":22.056027729555048,"url":"https://maps.app.goo.gl/jGXWJC6i6KeqGJ128?g_st=ipc","address":"Tsimiski 2, Edessa 582 00","categoryIds":["family-friendly"],"categories":["Kid Friendly Locations"]},{"id":"familyFriendly_0fe2b96ad54c","slug":"paramythochora-powered-by-unboxholics-0fe2","kind":"restaurant","name":"Παραμυθοχώρα powered by Unboxholics","lat":40.96985491269367,"lng":21.914553567562834,"url":"https://maps.app.goo.gl/38dNg4YHr7NMSpqy8?g_st=ipc","address":"Pozar Baths 584 00","categoryIds":["family-friendly"],"categories":["Kid Friendly Locations"]},{"id":"familyFriendly_5f4d4e2afff8","slug":"bowling-city-club-5f4d","kind":"restaurant","name":"Bowling City Club","lat":40.49775337927069,"lng":22.17239983558456,"url":"https://maps.app.goo.gl/KgPCpfULKMp7KhMJ7?g_st=ipc","address":"Bowling City Club, Veria 591 32","categoryIds":["family-friendly"],"categories":["Kid Friendly Locations"]},{"id":"familyFriendly_d1a47ca0dedf","slug":"freedom-interactive-playzone-d1a4","kind":"restaurant","name":"Freedom Interactive Playzone","lat":40.70867369830318,"lng":22.911054983573504,"url":"https://maps.app.goo.gl/GummsjTvyttusdP46?g_st=ipc","address":"Μακεδονικού Αγώνα, Zappa &, Oreokastro 570 13","categoryIds":["family-friendly"],"categories":["Kid Friendly Locations"]},{"id":"familyFriendly_9fb0caab5b5a","slug":"parko-elafion-agioy-panteleimonos-agios-dimitrios-kozanis-9fb0","kind":"restaurant","name":"Πάρκο Ελαφιών Αγίου Παντελεήμονος,Άγιος Δημήτριος Κοζάνης","lat":40.43077407157342,"lng":21.94672871822924,"url":"https://maps.app.goo.gl/RuwhJYNYLe2JU3NZA?g_st=ipc","address":"Agios Dimitrios 501 50","categoryIds":["family-friendly"],"categories":["Kid Friendly Locations"]},{"id":"familyFriendly_87307641acf6","slug":"r-mote-8730","kind":"restaurant","name":"R'MOTE","lat":40.68581196268978,"lng":22.922356233082034,"url":"https://maps.app.goo.gl/y5U3WvSQGqnkW6KY7?g_st=ipc","address":"Palaiokomis 22, Evosmos 562 24","categoryIds":["family-friendly"],"categories":["Kid Friendly Locations"]},{"id":"familyFriendly_318b4f24e07f","slug":"parko-deinosayron-318b","kind":"restaurant","name":"ΠΑΡΚΟ ΔΕΙΝΟΣΑΥΡΩΝ","lat":40.701527729460004,"lng":22.939792993737786,"url":"https://maps.app.goo.gl/jZyLiRLATZktk5dG7?g_st=ipc","address":"Thessaloniki 7ο χλμ, Oreokastro 570 13","categoryIds":["family-friendly"],"categories":["Kid Friendly Locations"]},{"id":"familyFriendly_4e467d7db3ce","slug":"perivallontiko-parko-dervenioy-4e46","kind":"restaurant","name":"Περιβαλλοντικό Πάρκο Δερβενίου","lat":40.7144477049586,"lng":22.966013369993284,"url":"https://maps.app.goo.gl/12YHRaQcoWEy1dcC6?g_st=ipc","address":"Mygdonia 545 00","categoryIds":["family-friendly"],"categories":["Kid Friendly Locations"]}],"nearby":[{"id":"greekRestaurants_ed78d50703bc","slug":"pelorios-ed78","kind":"restaurant","name":"ΠΕΛΩΡΙΟΣ","lat":40.76115060594356,"lng":22.490515886367657,"url":"https://maps.app.goo.gl/mycus3UK8H4JRUHLA?g_st=ipc","address":"ΕΟ Γιαννιτσών Θεσσαλονίκης 13, Νέα Πέλλα 580 05","categoryIds":["greek-restaurants"],"categories":["Greek Restaurants"],"distanceKm":18.494872772577814},{"id":"familyFriendly_20ce7f662369","slug":"waterfalls-of-edessa-20ce","kind":"restaurant","name":"Waterfalls of Edessa","lat":40.80389706859676,"lng":22.056027729555048,"url":"https://maps.app.goo.gl/jGXWJC6i6KeqGJ128?g_st=ipc","address":"Tsimiski 2, Edessa 582 00","categoryIds":["family-friendly"],"categories":["Kid Friendly Locations"],"distanceKm":20.982903897686366},{"id":"municipalities_cfaa6a6444bc","slug":"aridaia-cfaa","kind":"municipality","name":"Αριδαία","lat":40.9333,"lng":22.05,"region":"Κεντρική Μακεδονία","name_en":"Aridaia","region_en":"Central Macedonia","distanceKm":23.239320689410775},{"id":"greekRestaurants_83a8e7a17218","slug":"tsi-tsi-soyvla-mpar-83a8","kind":"restaurant","name":"Tsi Tsi Σουβla Mπαr","lat":40.62759907137701,"lng":22.441073335584885,"url":"https://maps.app.goo.gl/8Ekwg8Pc5gmDyw82A?g_st=ipc","address":"Eth. Antistasis 50, Alexandria 593 00","categoryIds":["greek-restaurants"],"categories":["Greek Restaurants"],"distanceKm":26.819485526614134},{"id":"municipalities_68933443b9ec","slug":"naoysa-6893","kind":"municipality","name":"Νάουσα","lat":40.624,"lng":22.144,"region":"Κεντρική Μακεδονία","name_en":"Naousa","region_en":"Central Macedonia","distanceKm":27.73510692663455},{"id":"wineriesVineyards_a36d8bf4fc67","slug":"kir-yianni-winery-a36d","kind":"restaurant","name":"Kir-Yianni Winery","lat":40.65941086004422,"lng":22.071160405925678,"url":"https://maps.app.goo.gl/J5SjPASnL6fBMV2DA?g_st=ipc","address":"Γιαννακοχώρι 592 00","categoryIds":["wineries-vineyards"],"categories":["Wineries & Vineyards"],"distanceKm":28.12316451325935},{"id":"wineriesVineyards_1a8430108b4e","slug":"boutari-winery-s-a-1a84","kind":"restaurant","name":"Boutari Winery S.A.","lat":40.604954538648315,"lng":22.130368216830174,"url":"https://maps.app.goo.gl/faa8usVkmkz6Gxog6?g_st=ipc","address":"592 00, Epar.Od. Naousas-Kato Vermiou, Stenimachos","categoryIds":["wineries-vineyards"],"categories":["Wineries & Vineyards"],"distanceKm":30.145232912162754}],"sameRegion":[],"mentionedGuides":[]},"__N_SSG":true}