{"pageProps":{"entity":{"id":"mexicanRestaurants_a0149c25ef48","slug":"dos-hermanos-a014","kind":"restaurant","name":"Dos Hermanos","lat":38.070224929633255,"lng":23.812971812919443,"url":"https://maps.app.goo.gl/4EBL1F4dh9gaVYdh7?g_st=ipc","address":"Κυριαζή 24, Κηφισιά 145 62","categoryIds":["mexican"],"categories":["Mexican Restaurants"]},"sameCategory":[{"id":"mexicanRestaurants_9321a8ed4f82","slug":"ancho-mexican-grill-9321","kind":"restaurant","name":"Ancho Mexican Grill","lat":38.072302577774266,"lng":23.812957916990147,"url":"https://maps.app.goo.gl/9YG5PfTVGoHqdG8N9?g_st=ipc","address":"Κασσαβέτη 9, Κηφισιά 145 62","categoryIds":["mexican"],"categories":["Mexican Restaurants"]},{"id":"mexicanRestaurants_1c335621a1fd","slug":"pueblo-chido-kifisia-1c33","kind":"restaurant","name":"Pueblo Chido Κηφισιά","lat":38.07488654501822,"lng":23.81927628386729,"url":"https://maps.app.goo.gl/gFj6AV1Bf67kw6hdA?g_st=ipc","address":"Κολοκοτρώνη 37, Κηφισιά 145 62","categoryIds":["mexican"],"categories":["Mexican Restaurants"]},{"id":"mexicanRestaurants_4dab442d4d6c","slug":"mvp-restaurant-4dab","kind":"restaurant","name":"MVP RESTAURANT","lat":38.08824038111985,"lng":23.816227594005245,"url":"https://maps.app.goo.gl/3hQ5hMSwfLYpvisu6?g_st=ipc","address":"Χαρ. Τρικούπη 127, Νέα Ερυθραία 146 71","categoryIds":["mexican"],"categories":["Mexican Restaurants"]},{"id":"mexicanRestaurants_fa8ffda60946","slug":"balero-fa8f","kind":"restaurant","name":"Balero","lat":38.08846033344393,"lng":23.813655936317737,"url":"https://maps.app.goo.gl/z2SGuye5ZYrGd3Ft7?g_st=ipc","address":"Χαρ. Τρικούπη 162, Νέα Ερυθραία 145 62","categoryIds":["mexican"],"categories":["Mexican Restaurants"]},{"id":"mexicanRestaurants_a122440089bb","slug":"chilangos-melissia-a122","kind":"restaurant","name":"Chilangos Μελίσσια","lat":38.054355571864015,"lng":23.84267375327988,"url":"https://maps.app.goo.gl/1nUje6biZMsuVgA88?g_st=ipc","address":"Π. Τσαλδάρη 31, Μελίσσια 151 27","categoryIds":["mexican"],"categories":["Mexican Restaurants"]},{"id":"mexicanRestaurants_e68c0563bcc0","slug":"ancho-mexican-grill-e68c","kind":"restaurant","name":"Ancho Mexican Grill","lat":38.04461245221765,"lng":23.790240662976885,"url":"https://maps.app.goo.gl/VDFRPLTGKi6Cxw6b9?g_st=ipc","address":"Ανδρέα Παπανδρέου 35, Μαρούσι 151 22","categoryIds":["mexican"],"categories":["Mexican Restaurants"]},{"id":"mexicanRestaurants_3cb054fab422","slug":"juan-s-cantina-vrilissia-3cb0","kind":"restaurant","name":"Juan's Cantina (Βριλήσσια)","lat":38.04160062532965,"lng":23.847620862228275,"url":"https://maps.app.goo.gl/6ANASWUmUfUoDhQ17?g_st=ipc","address":"Αναπαύσεως 40, Βριλήσσια 152 38","categoryIds":["mexican"],"categories":["Mexican Restaurants"]},{"id":"mexicanRestaurants_d9caea076ae0","slug":"ancho-mexican-grill-d9ca","kind":"restaurant","name":"Ancho Mexican Grill","lat":38.02258118157313,"lng":23.79793213578262,"url":"https://maps.app.goo.gl/i66HHdFDVxfAoN1y7?g_st=ipc","address":"Κολοκοτρώνη και, Γρ. Γυφτοπούλου 9, Χαλάνδρι 152 33","categoryIds":["mexican"],"categories":["Mexican Restaurants"]}],"nearby":[{"id":"coffeeBrunchRestaurants_dd445cb17731","slug":"zambri-dd44","kind":"restaurant","name":"ZAMBRI","lat":38.0705711422009,"lng":23.812755176637886,"url":"https://maps.app.goo.gl/mFU9ypU9R2NajcX87?g_st=ipc","address":"Αγίου Δημητρίου 9, Κηφισιά 145 62","categoryIds":["coffee-brunch"],"categories":["Coffee & Brunch Spots"],"distanceKm":0.04291456738508489},{"id":"greekRestaurants_ee1040d986a2","slug":"o-tzitzikas-kai-o-mermigkas-ee10","kind":"restaurant","name":"Ο Τζίτζικας και ο Μέρμηγκας","lat":38.071444564634874,"lng":23.81158159449847,"url":"https://maps.app.goo.gl/Baz66z9eF1nXkQDe8","address":"Γεωρ. Δροσίνη 12, Κηφισιά 145 62","categoryIds":["greek-restaurants"],"categories":["Greek Restaurants"],"distanceKm":0.1822147339478277},{"id":"italianRestaurants_9864a763d5a6","slug":"la-pasteria-9864","kind":"restaurant","name":"La Pasteria","lat":38.071971773331484,"lng":23.81375357994017,"url":"https://maps.app.goo.gl/jpzzbHYa7ZkuqiDh9?g_st=ipc","address":"Κασσαβέτη 12, Κηφισιά 145 62","categoryIds":["italian"],"categories":["Italian Restaurants"],"distanceKm":0.20594288383701284},{"id":"mexicanRestaurants_9321a8ed4f82","slug":"ancho-mexican-grill-9321","kind":"restaurant","name":"Ancho Mexican Grill","lat":38.072302577774266,"lng":23.812957916990147,"url":"https://maps.app.goo.gl/9YG5PfTVGoHqdG8N9?g_st=ipc","address":"Κασσαβέτη 9, Κηφισιά 145 62","categoryIds":["mexican"],"categories":["Mexican Restaurants"],"distanceKm":0.2310271350235766},{"id":"asianRestaurants_313cbf5dd5ee","slug":"wagamama-kifisia-313c","kind":"restaurant","name":"wagamama kifisia","lat":38.072331147675214,"lng":23.812549926712027,"url":"https://maps.app.goo.gl/ukrWwWHZBibG1ZuR9?g_st=ipc","address":"Κασσαβέτη 3, Αθήνα 145 62","categoryIds":["asian"],"categories":["Asian Restaurants"],"distanceKm":0.23709467949243063},{"id":"dessertsRestaurants_133f25aa5736","slug":"lartecono-davinci-gelato-kifisia-133f","kind":"restaurant","name":"Lartecono Davinci Gelato (Kifisia)","lat":38.07209287623985,"lng":23.81427887695815,"url":"https://maps.app.goo.gl/TQ8GkG92N85onsZr9?g_st=ipc","address":"Κασσαβέτη 19, Κηφισιά 145 62","categoryIds":["desserts"],"categories":["Dessert Shops"],"distanceKm":0.23713540185043633},{"id":"dessertsRestaurants_f6573343ee76","slug":"varsos-kifisias-f657","kind":"restaurant","name":"Βάρσος Κηφισιάς","lat":38.072362535009226,"lng":23.812748821182716,"url":"https://maps.app.goo.gl/e8AJnfXdPPGoGzkUA?g_st=ipc","address":"Κασσαβέτη 5, Κηφισιά 145 62","categoryIds":["desserts"],"categories":["Dessert Shops"],"distanceKm":0.23849106342634382},{"id":"coffeeBrunchRestaurants_6ad2753fc055","slug":"different-beast-6ad2","kind":"restaurant","name":"Different Beast","lat":38.072030542719524,"lng":23.814580386585376,"url":"https://maps.app.goo.gl/uz9Wpn9FMrG1tYuh9?g_st=ipc","address":"Κασσαβέτη 19, Αθήνα 145 61","categoryIds":["coffee-brunch"],"categories":["Coffee & Brunch Spots"],"distanceKm":0.2452311550118892}],"sameRegion":[],"mentionedGuides":[]},"__N_SSG":true}