{"pageProps":{"entity":{"id":"municipalities_50a65bde2637","slug":"ermioni-50a6","kind":"municipality","name":"Ερμιόνη","lat":37.3881,"lng":23.2431,"aliases":["Ερμιονη","Hermione"],"region":"Αργολίδα","name_en":"Ermioni","region_en":"Argolis"},"sameCategory":[],"nearby":[{"id":"municipalities_a17e82e8b176","slug":"porto-cheli-a17e","kind":"municipality","name":"Πόρτο Χέλι","lat":37.3247,"lng":23.1463,"region":"Αργολίδα","name_en":"Porto Heli","region_en":"Argolis","distanceKm":11.086053397038006},{"id":"municipalities_a3110e651ee8","slug":"spetses-a311","kind":"municipality","name":"Σπέτσες","lat":37.2634,"lng":23.1564,"aliases":["Σπετσες"],"region":"Νησιά Αργοσαρωνικού","name_en":"Spetses","region_en":"Saronic Islands","distanceKm":15.844145632768582},{"id":"greekRestaurants_542454bebe35","slug":"to-pachni-5424","kind":"restaurant","name":"Το Παχνί","lat":37.258940457050436,"lng":23.158493356055367,"url":"https://maps.app.goo.gl/Tmcgsc72ZpK8WBnD7?g_st=ipc","address":"Σπέτσες 180 50","categoryIds":["greek-restaurants"],"categories":["Greek Restaurants"],"distanceKm":16.19364431350702},{"id":"greekRestaurants_194196a775f8","slug":"taverna-mpatzavalis-1941","kind":"restaurant","name":"Ταβέρνα Μπατζάβαλης","lat":37.538801302509206,"lng":23.20804103233561,"url":"https://maps.app.goo.gl/PctHkeeHVJEeQDux6?g_st=ipc","address":"Καρατζάς 180 20","categoryIds":["greek-restaurants"],"categories":["Greek Restaurants"],"distanceKm":17.04051474173045},{"id":"greekRestaurants_37c38a309ff6","slug":"castello-hydra-37c3","kind":"restaurant","name":"Castello Hydra","lat":37.34652415693392,"lng":23.455436035571626,"url":"https://maps.app.goo.gl/ZWwvNsRtXjXrDC2j9?g_st=ipc","address":"Kamini Hydra Island Hydra Island, 180 40","categoryIds":["greek-restaurants"],"categories":["Greek Restaurants"],"distanceKm":19.325940007999964},{"id":"fishTavernasRestaurants_d190706d0f4c","slug":"techne-restaurant-social-d190","kind":"restaurant","name":"Téchnē Restaurant & Social","lat":37.3499478063,"lng":23.461255663187938,"url":"https://maps.app.goo.gl/LkcL3YyhTtP2AGh39?g_st=ipc","address":"Epar.Od. Mandrakiou-Molou, Idra 180 40","categoryIds":["fish-tavernas"],"categories":["Fish Tavernas"],"distanceKm":19.73996087367695},{"id":"coffeeBrunchRestaurants_24def4a9906d","slug":"ydroneta-24de","kind":"restaurant","name":"Υδρονέτα","lat":37.35156953668086,"lng":23.462454743451826,"url":"https://maps.app.goo.gl/JdZyRYb4EEJyr1MGA?g_st=ipc","address":"Επαρ.Οδ. Μανδρακίου-Μωλόυ, Ύδρα 180 40","categoryIds":["coffee-brunch"],"categories":["Coffee & Brunch Spots"],"distanceKm":19.805488355001145},{"id":"fishTavernasRestaurants_23eb511b3910","slug":"sunset-restaurant-23eb","kind":"restaurant","name":"Sunset Restaurant","lat":37.35168822648852,"lng":23.46274301702218,"url":"https://maps.app.goo.gl/24WnQ3Q4oomRkZm38?g_st=ipc","address":"Eparxiaki odos Hydra, 180 40","categoryIds":["fish-tavernas"],"categories":["Fish Tavernas"],"distanceKm":19.82770814679017}],"sameRegion":[{"id":"municipalities_6a56a10792f1","slug":"nayplio-6a56","kind":"municipality","name":"Ναύπλιο","lat":37.567,"lng":22.801,"aliases":["Nafplio","Nauplia","Ναυπλία","Ναυπλίων","Ναυπλιο","Ναυπλια"],"region":"Αργολίδα","name_en":"Nafplio","region_en":"Argolis"},{"id":"municipalities_7a743f4f2d77","slug":"tolo-7a74","kind":"municipality","name":"Τολό","lat":37.5211,"lng":22.8583,"region":"Αργολίδα","name_en":"Tolo","region_en":"Argolis"},{"id":"municipalities_a17e82e8b176","slug":"porto-cheli-a17e","kind":"municipality","name":"Πόρτο Χέλι","lat":37.3247,"lng":23.1463,"region":"Αργολίδα","name_en":"Porto Heli","region_en":"Argolis"},{"id":"municipalities_c660ac4fbaed","slug":"argos-c660","kind":"municipality","name":"Άργος","lat":37.6333,"lng":22.7333,"aliases":["Argos","Argos city","Άργη","Αργε","Αργος"],"region":"Αργολίδα","name_en":"Argos","region_en":"Argolis"}],"mentionedGuides":[]},"__N_SSG":true}