{"pageProps":{"entity":{"id":"coffeeBrunchRestaurants_a96c83f91f07","slug":"kumquat-speciality-coffee-brunch-cocktails-a96c","kind":"restaurant","name":"Kumquat / speciality coffee / brunch / cocktails","lat":39.62122356019077,"lng":19.919537643557778,"url":"https://maps.app.goo.gl/3cEBJnGDVun8x3Pu5?g_st=ipc","address":"Σπύρου Σαμαρά 3 και, Kerkira 491 00","categoryIds":["coffee-brunch"],"categories":["Coffee & Brunch Spots"]},"sameCategory":[{"id":"coffeeBrunchRestaurants_02639bfe1e4a","slug":"cafe-kanoni-0263","kind":"restaurant","name":"Cafe Kanoni","lat":39.59150641307164,"lng":19.917314978086413,"url":"https://maps.app.goo.gl/RBi9fUSj1gvzz2E86?g_st=ipc","address":"κανόνι, Kerkira 491 00","categoryIds":["coffee-brunch"],"categories":["Coffee & Brunch Spots"]},{"id":"coffeeBrunchRestaurants_8ce44b297b18","slug":"la-grotta-bar-8ce4","kind":"restaurant","name":"La Grotta Bar","lat":39.67381089427264,"lng":19.718606911052376,"url":"https://maps.app.goo.gl/HyZmnveaEpuiN62j8?g_st=ipc","address":"La Grotta Bay, Paleokastritsa 490 83","categoryIds":["coffee-brunch"],"categories":["Coffee & Brunch Spots"]},{"id":"coffeeBrunchRestaurants_207254fa5966","slug":"bakalokafenio-michalas-kostas-2072","kind":"restaurant","name":"Bakalokafenio - Michalas Kostas","lat":39.681013717064104,"lng":19.71063796584377,"url":"https://maps.app.goo.gl/YrUQcKuXeVaBkqFR7?g_st=ipc","address":"Lakones 490 83","categoryIds":["coffee-brunch"],"categories":["Coffee & Brunch Spots"]},{"id":"coffeeBrunchRestaurants_aa7bbba77011","slug":"dolce-cafe-aa7b","kind":"restaurant","name":"Dolce Café","lat":39.68046834433433,"lng":19.703113468558957,"url":"https://maps.app.goo.gl/uW2pukpfg5XpBrAM9?g_st=ipc","address":"Lakones 490 83","categoryIds":["coffee-brunch"],"categories":["Coffee & Brunch Spots"]},{"id":"coffeeBrunchRestaurants_cd5c3a883c61","slug":"to-mantani-anthochori-cd5c","kind":"restaurant","name":"Το Μαντάνι Ανθοχώρι","lat":39.736473800129,"lng":21.128099892927416,"url":"https://maps.app.goo.gl/hhweii9Uj8Q5zzg69?g_st=ipc","address":"Ανθοχώρι 442 00","categoryIds":["coffee-brunch"],"categories":["Coffee & Brunch Spots"]},{"id":"coffeeBrunchRestaurants_819a67237a78","slug":"zimis-819a","kind":"restaurant","name":"Zimis","lat":38.83034594976957,"lng":20.704090375704506,"url":"https://maps.app.goo.gl/qftMEppMQDEhweUP7?g_st=ipc","address":"Efstathiou Zakka 12, Lefkada 311 00","categoryIds":["coffee-brunch"],"categories":["Coffee & Brunch Spots"]},{"id":"coffeeBrunchRestaurants_7849cd86ff9a","slug":"myrtillo-7849","kind":"restaurant","name":"myrtillo","lat":38.33016504186232,"lng":20.54543331787743,"url":"https://maps.app.goo.gl/jceQN1dFVGYrVSaFA?g_st=ipc","address":"Divarata 280 81","categoryIds":["coffee-brunch"],"categories":["Coffee & Brunch Spots"]},{"id":"coffeeBrunchRestaurants_9057c09060eb","slug":"espresso-house-9057","kind":"restaurant","name":"Espresso house","lat":38.17163745193254,"lng":20.492476064422643,"url":"https://maps.app.goo.gl/yzerSoB1WzcjYnKq5?g_st=ipc","address":"Devosetou 15, Argostoli 281 00","categoryIds":["coffee-brunch"],"categories":["Coffee & Brunch Spots"]}],"nearby":[{"id":"italianRestaurants_ca939fad1a78","slug":"la-tavola-calda-ca93","kind":"restaurant","name":"La Tavola Calda","lat":39.623370627858776,"lng":19.923005947570733,"url":"https://maps.app.goo.gl/ENRUpZHsLbcTwuH2A?g_st=ipc","address":"Giotopoulou 10-12, Kerkira 491 00","categoryIds":["italian"],"categories":["Italian Restaurants"],"distanceKm":0.38110647225714284},{"id":"municipalities_c2a6f966632a","slug":"kerkyra-c2a6","kind":"municipality","name":"Κέρκυρα","lat":39.6243,"lng":19.9217,"aliases":["Kerkira","Corcyra","Κερκύρα","Κερκύρη","Κερκυρα","Kerkyra","Corfou"],"region":"Ιόνιο","name_en":"Corfu","region_en":"Ionian Islands","distanceKm":0.38900154480387694},{"id":"luxuryDiningRestaurants_456832c19fa5","slug":"spianada-meats-greens-4568","kind":"restaurant","name":"Spianada Meats & Greens","lat":39.62310170311375,"lng":19.923385713237856,"url":"https://maps.app.goo.gl/PRwrcwQFNPVZjFsk6?g_st=ipc","address":"Kapodistriou 32, Kerkira 491 00","categoryIds":["luxury-dining"],"categories":["Luxury Dining"],"distanceKm":0.39018095049915064},{"id":"cheapEatsRestaurants_bc792aeec77f","slug":"pitta-pappou-bc79","kind":"restaurant","name":"Pitta pappou","lat":39.62391916981706,"lng":19.9227027256586,"url":"https://maps.app.goo.gl/3x2uABEYb4yf4U9ZA?g_st=ipc","address":"ΑΓΙΩΝ ΠΑΝΤΩΝ 12, agion panton 12, Kerkira 491 00","categoryIds":["cheap-eats"],"categories":["Gyros & Cheap Eats"],"distanceKm":0.4041423299802295},{"id":"greekRestaurants_9f5022be5281","slug":"to-tavernaki-tis-marinas-9f50","kind":"restaurant","name":"Το Ταβερνάκι της Μαρίνας","lat":39.62492333562477,"lng":19.9188396620582,"url":"https://maps.app.goo.gl/zBELB5QbZJL4Jsk99?g_st=ipc","address":"Βελισσαρίου 35, Κέρκυρα 491 00","categoryIds":["greek-restaurants"],"categories":["Greek Restaurants"],"distanceKm":0.41571705123131875},{"id":"cheapEatsRestaurants_22e46faae4a1","slug":"di-santo-premium-sandwiches-22e4","kind":"restaurant","name":"Di Santo Premium Sandwiches","lat":39.6237687550092,"lng":19.923112693259046,"url":"https://maps.app.goo.gl/bBz55JsBTZudAbHR9?g_st=ipc","address":"Evgeniou Voulgareos 3, Kerkira 491 00","categoryIds":["cheap-eats"],"categories":["Gyros & Cheap Eats"],"distanceKm":0.4169592630131794},{"id":"dessertsRestaurants_672e57be6b02","slug":"solo-gelato-672e","kind":"restaurant","name":"Solo Gelato","lat":39.62449131411604,"lng":19.92192848556591,"url":"https://maps.app.goo.gl/75zMv1NcKb3QY9T4A?g_st=ipc","address":"Michail Theotoki 3, Kerkira 491 00","categoryIds":["desserts"],"categories":["Dessert Shops"],"distanceKm":0.41708601668925904},{"id":"dessertsRestaurants_c84a0048c110","slug":"papagiorgis-patiserie-gelateria-c84a","kind":"restaurant","name":"Papagiorgis Patiserie-Gelateria","lat":39.624442580854314,"lng":19.922449483485316,"url":"https://maps.app.goo.gl/tsC3kM3FwzybS2zd6?g_st=ipc","address":"Nikiforou Theotoki 32, Kerkira 491 00","categoryIds":["desserts"],"categories":["Dessert Shops"],"distanceKm":0.43625506829212163}],"sameRegion":[],"mentionedGuides":[]},"__N_SSG":true}