{"pageProps":{"entity":{"id":"burgersRestaurants_7bcb47e330c5","slug":"tryfonas-kempaptzidikon-hamburgerie-7bcb","kind":"restaurant","name":"Τρύφωνας Κεμπαπτζίδικoν - Hamburgerie","lat":38.0125506362582,"lng":23.70608974489792,"url":"https://maps.app.goo.gl/cE9CbEn5LYoZ6WKj7?g_st=ipc","address":"Παρασκευοπούλου 51, Περιστέρι 121 34","categoryIds":["burgers"],"categories":["Burger Spots"]},"sameCategory":[{"id":"burgersRestaurants_d4b7de9746f1","slug":"butcher-s-burger-peristeri-steak-house-d4b7","kind":"restaurant","name":"Butcher's Burger Peristeri & Steak House","lat":38.01156289236995,"lng":23.69228404120557,"url":"https://maps.app.goo.gl/HZTQZzXmyYMQ3mzX9?g_st=ipc","address":"Αιμιλίου Βεάκη 41, Περιστέρι 121 34","categoryIds":["burgers"],"categories":["Burger Spots"]},{"id":"burgersRestaurants_61f30a1a8896","slug":"arch-beer-house-61f3","kind":"restaurant","name":"Arch Beer House","lat":38.013998175642,"lng":23.688328178434592,"url":"https://maps.app.goo.gl/ESAdNAhkQW7WvLqWA?g_st=ipc","address":"Εθ. Αντιστάσεως 91, Περιστέρι 121 34","categoryIds":["burgers"],"categories":["Burger Spots"]},{"id":"burgersRestaurants_96fe4c6a69f2","slug":"stivs-a-e-kerameikos-champoyrgker-pitses-96fe","kind":"restaurant","name":"ΣΤΗΒΣ Α.Ε. Κεραμεικός - ΧΑΜΠΟΥΡΓΚΕΡ & ΠΙΤΣΕΣ","lat":37.981862507718745,"lng":23.71676727771988,"url":"https://maps.app.goo.gl/dfoGjBoXnHtHAokj9?g_st=ipc","address":"Σαλαμίνος 42, Αθήνα 104 35","categoryIds":["burgers"],"categories":["Burger Spots"]},{"id":"burgersRestaurants_73788d5c5e26","slug":"street-habit-burgers-sandwiches-7378","kind":"restaurant","name":"Street Habit Burgers & Sandwiches","lat":37.982308190228395,"lng":23.718935233979323,"url":"https://maps.app.goo.gl/ypf3MAMpnquGQSrr6?g_st=ipc","address":"Λεωνίδου 41, Μαραθώνος 20, Αθήνα 104 36","categoryIds":["burgers"],"categories":["Burger Spots"]},{"id":"burgersRestaurants_cd431d540de7","slug":"guerilla-chef-burgers-cd43","kind":"restaurant","name":"Guerilla Chef Burgers","lat":37.98670260429295,"lng":23.731789751446545,"url":"https://maps.app.goo.gl/dpwZgAJWWe2cfPeG9?g_st=ipc","address":"Σολωμού 33, Αθήνα 106 82","categoryIds":["burgers"],"categories":["Burger Spots"]},{"id":"burgersRestaurants_cc99e8bcfb01","slug":"ortsag-nextgen-street-resto-cc99","kind":"restaurant","name":"ORTSAG - NextGen Street Resto","lat":37.980720186478266,"lng":23.716880146435926,"url":"https://maps.app.goo.gl/Ty754KFyBeh5iYD99?g_st=ipc","address":"Κεραμεικού 93-95, Αθήνα 104 35","categoryIds":["burgers"],"categories":["Burger Spots"]},{"id":"burgersRestaurants_6bb98587ed95","slug":"four-hands-6bb9","kind":"restaurant","name":"Four Hands","lat":37.98010264048048,"lng":23.71572330295299,"url":"https://maps.app.goo.gl/ppbxAjV7hVEDbZiV7?g_st=ipc","address":"Κεραμεικού 111, Αθήνα 104 35","categoryIds":["burgers"],"categories":["Burger Spots"]},{"id":"burgersRestaurants_293449c2193c","slug":"exberg-2934","kind":"restaurant","name":"Exberg","lat":37.985722017039464,"lng":23.73377568835493,"url":"https://maps.app.goo.gl/671QPGYqt87fhozt8?g_st=ipc","address":"Θεμιστοκλέους 56, Αθήνα 106 81","categoryIds":["burgers"],"categories":["Burger Spots"]}],"nearby":[{"id":"cheapEatsRestaurants_390d6f81b689","slug":"tryfonas-kempaptzidikon-hamburgerie-390d","kind":"restaurant","name":"Τρύφωνας Κεμπαπτζίδικoν - Hamburgerie","lat":38.01255321629899,"lng":23.70608688945728,"url":"https://maps.app.goo.gl/Z2KVCzShcPWHHgiq5?g_st=ipc","address":"Παρασκευοπούλου 51, Περιστέρι 121 34","categoryIds":["cheap-eats"],"categories":["Gyros & Cheap Eats"],"distanceKm":0.0003806361339090471},{"id":"cheapEatsRestaurants_27095ef62808","slug":"jackaroo-2709","kind":"restaurant","name":"Jackaroo","lat":38.0124039916799,"lng":23.705649430022987,"url":"https://maps.app.goo.gl/ZVfeByxQrS6SFYyH6?g_st=ipc","address":"Παρασκευοπούλου 45, Περιστέρι 121 35","categoryIds":["cheap-eats"],"categories":["Gyros & Cheap Eats"],"distanceKm":0.04187988694366845},{"id":"greekRestaurants_8f61506d1171","slug":"basegrill-athens-8f61","kind":"restaurant","name":"Basegrill Athens","lat":38.01200938597209,"lng":23.7082215195935,"url":"https://maps.app.goo.gl/4HcYYs1yQVdq1giy8","address":"Λεωφ. Κωνσταντινουπόλεως 64, Περιστέρι 121 33","categoryIds":["greek-restaurants"],"categories":["Greek Restaurants"],"distanceKm":0.19621859616555198},{"id":"luxuryDiningRestaurants_1a544d3597a8","slug":"basegrill-athens-1a54","kind":"restaurant","name":"Basegrill Athens","lat":38.011892662985154,"lng":23.708178655362712,"url":"https://maps.app.goo.gl/Lw19R1SYRg5uJsbn9?g_st=ipc","address":"Λεωφ. Κωνσταντινουπόλεως 64, Περιστέρι 121 33","categoryIds":["luxury-dining"],"categories":["Luxury Dining"],"distanceKm":0.19708866740096473},{"id":"greekRestaurants_9c5c07b28afc","slug":"schinos-mpistro-9c5c","kind":"restaurant","name":"Σχίνος Μπιστρό","lat":38.01228323858559,"lng":23.703471319893453,"url":"https://maps.app.goo.gl/VEoaxecqRaF6Y2in8","address":"Μεγ. Αλεξάνδρου 88, Περιστέρι 121 32","categoryIds":["greek-restaurants"],"categories":["Greek Restaurants"],"distanceKm":0.23131380110855712},{"id":"municipalities_6d3b56c27da3","slug":"peristeri-6d3b","kind":"municipality","name":"Περιστέρι","lat":38.015,"lng":23.7035,"aliases":["Peristeria"],"region":"Δυτικά Προάστια","name_en":"Peristeri","region_en":"Western Suburbs","distanceKm":0.3544741083445281},{"id":"greekRestaurants_c4daeb8f4d66","slug":"malanos-c4da","kind":"restaurant","name":"Μαλανος","lat":38.0129537569984,"lng":23.7103246194612,"url":"https://maps.app.goo.gl/RHBwmAA2mvG3Eie58","address":"Ιωλκού 2, Περιστέρι 121 33","categoryIds":["greek-restaurants"],"categories":["Greek Restaurants"],"distanceKm":0.37370508498798566},{"id":"cheapEatsRestaurants_093f463c1994","slug":"krepes-gorillas-093f","kind":"restaurant","name":"Κρέπες Gorillas","lat":38.011039639297316,"lng":23.701212318200714,"url":"https://maps.app.goo.gl/Us2VxvnWiFa4zh7E6?g_st=ipc","address":"Παρασκευοπούλου 14, Περιστέρι 121 32","categoryIds":["cheap-eats"],"categories":["Gyros & Cheap Eats"],"distanceKm":0.45914996673622555}],"sameRegion":[],"mentionedGuides":[]},"__N_SSG":true}