{"pageProps":{"payload":{"area":{"id":"municipalities_d2bf66140ab6","name":"Αστυπάλαια","nameEn":"Astypalaia","region":"Δωδεκάνησα","regionEn":"Dodecanese","lat":36.55,"lng":26.35,"urlSlug":"astypalaia","aliases":["Αστυπάλαια","Astypalaia","Αστυπάλαια Dodecanese","Astypalaia Dodecanese","astypalaia-d2bf","astypalaia"]},"category":null,"entities":[{"entity":{"id":"coffeeBrunchRestaurants_81babb19d554","slug":"anax-brunch-all-day-bar-81ba","kind":"restaurant","name":"Anax - Brunch & All day bar","lat":36.54881053562097,"lng":26.352767048461835,"url":"https://maps.app.goo.gl/Fog59qRdXL1VwbPKA?g_st=ipc","address":"Island, Astipalea 859 00","categoryIds":["coffee-brunch"],"categories":["Coffee & Brunch Spots"]},"distanceKm":0.2803362623704479},{"entity":{"id":"greekRestaurants_204f253dd532","slug":"antikastro-204f","kind":"restaurant","name":"antikastro","lat":36.54911350601486,"lng":26.354501637797917,"url":"https://maps.app.goo.gl/WHQ2qixYWioNZMKp6?g_st=ipc","address":"Πέρα Γιαλός, Αστυπάλαια 859 00","categoryIds":["greek-restaurants"],"categories":["Greek Restaurants"]},"distanceKm":0.41402599788992667},{"entity":{"id":"dessertsRestaurants_30901429574f","slug":"kolokytha-3090","kind":"restaurant","name":"Kolokytha","lat":36.54727053954883,"lng":26.353646884859614,"url":"https://maps.app.goo.gl/2T2VnbDknHbHu6nF7?g_st=ipc","address":"Unnamed Rd, Astipalea 859 00","categoryIds":["desserts"],"categories":["Dessert Shops"]},"distanceKm":0.4452420105369867},{"entity":{"id":"coffeeBrunchRestaurants_a3547d8efbea","slug":"kolokytha-a354","kind":"restaurant","name":"Kolokytha","lat":36.54726990012019,"lng":26.353646413648903,"url":"https://maps.app.goo.gl/6FaxgMCjdWj9EPA48?g_st=ipc","address":"Unnamed Rd, Astipalea 859 00","categoryIds":["coffee-brunch"],"categories":["Coffee & Brunch Spots"]},"distanceKm":0.445259687462753},{"entity":{"id":"italianRestaurants_964eabf93843","slug":"pablo-pasta-corner-964e","kind":"restaurant","name":"Pablo Pasta Corner","lat":36.545609138218644,"lng":26.3527289228981,"url":"https://maps.app.goo.gl/oiQQ7oLzNp1QAEmS9?g_st=ipc","address":"G9W3+63, Astipalea 859 00","categoryIds":["italian"],"categories":["Italian Restaurants"]},"distanceKm":0.5457154600491652},{"entity":{"id":"coffeeBrunchRestaurants_64018e74309c","slug":"meltemi-6401","kind":"restaurant","name":"Meltemi","lat":36.545359250189506,"lng":26.352356416685993,"url":"https://maps.app.goo.gl/nFrvN47758pZXWzT8?g_st=ipc","address":"Astypalaia 859 00","categoryIds":["coffee-brunch"],"categories":["Coffee & Brunch Spots"]},"distanceKm":0.5573097569857196},{"entity":{"id":"dessertsRestaurants_57c847d6a034","slug":"meltemi-57c8","kind":"restaurant","name":"Meltemi","lat":36.545357632908505,"lng":26.352356694518964,"url":"https://maps.app.goo.gl/cu1BEud71YMnJy2E9?g_st=ipc","address":"Astypalaia 859 00","categoryIds":["desserts"],"categories":["Dessert Shops"]},"distanceKm":0.5574856463035514},{"entity":{"id":"greekRestaurants_1eb270eb5f4f","slug":"ageri-restaurant-1eb2","kind":"restaurant","name":"Ageri restaurant","lat":36.545373863016174,"lng":26.35247532810791,"url":"https://maps.app.goo.gl/rQHUiQxR5nqHhzwq6?g_st=ipc","address":"Αστυπάλαια 859 00","categoryIds":["greek-restaurants"],"categories":["Greek Restaurants"]},"distanceKm":0.5599148413708717},{"entity":{"id":"greekRestaurants_826ee6f6b42a","slug":"ducato-di-astypalea-826e","kind":"restaurant","name":"Ducato Di Astypalea","lat":36.54536940615809,"lng":26.35248428420808,"url":"https://maps.app.goo.gl/ZfS2feMAKcarSRzQ7?g_st=ipc","address":"Χώρα, Δωδεκάνησα 859 00","categoryIds":["greek-restaurants"],"categories":["Greek Restaurants"]},"distanceKm":0.5606863532137207},{"entity":{"id":"greekRestaurants_9c87341404e8","slug":"to-stenaki-toy-koykla-to-stenaki-toy-koukla-9c87","kind":"restaurant","name":"Το στενάκι του Κούκλα.(to stenaki toy Koukla)","lat":36.545265395977154,"lng":26.35261447161412,"url":"https://maps.app.goo.gl/SnNzgQyWmVDaVzEZ8?g_st=ipc","address":"Astypalaia Chora myloi, Αστυπάλαια 859 00","categoryIds":["greek-restaurants"],"categories":["Greek Restaurants"]},"distanceKm":0.5759426883502423},{"entity":{"id":"greekRestaurants_25653bac7b54","slug":"paradosiako-kafeneio-to-kafeneio-toy-moyggoy-2565","kind":"restaurant","name":"Παραδοσιακό Καφενείο (To Καφενείο του Μουγγού)","lat":36.5453974756151,"lng":26.35310123253182,"url":"https://maps.app.goo.gl/gijNGaC27DHdZSCLA?g_st=ipc","address":"Αστυπάλαιας, Αστυπάλαια 859 00","categoryIds":["greek-restaurants"],"categories":["Greek Restaurants"]},"distanceKm":0.5819475153785886},{"entity":{"id":"greekRestaurants_869806f17064","slug":"apanemia-8698","kind":"restaurant","name":"Απανεμιά","lat":36.54479553075043,"lng":26.354427413382332,"url":"https://maps.app.goo.gl/rmFvvL97zEvLD4fw7?g_st=ipc","address":"Αστυπάλαια 859 00","categoryIds":["greek-restaurants"],"categories":["Greek Restaurants"]},"distanceKm":0.7009472516748267},{"entity":{"id":"greekRestaurants_0b3881d28de7","slug":"kafeneio-karai-0b38","kind":"restaurant","name":"Καφενείο Καράι","lat":36.54472153605894,"lng":26.355418637517822,"url":"https://maps.app.goo.gl/y4D61qmZahwjDV357?g_st=ipc","address":"Αστυπάλαια 859 00","categoryIds":["greek-restaurants"],"categories":["Greek Restaurants"]},"distanceKm":0.7607881583716135},{"entity":{"id":"greekRestaurants_9d808a2d74ce","slug":"krokodeilos-9d80","kind":"restaurant","name":"Κροκόδειλος","lat":36.54308732348962,"lng":26.343405441539794,"url":"https://maps.app.goo.gl/dNbrA36bRneAQ4R88?g_st=ipc","address":"Επαρ.Οδ. Λειβάδιων-Βαθύς, Λιβάδια 859 00","categoryIds":["greek-restaurants"],"categories":["Greek Restaurants"]},"distanceKm":0.9684354544002027},{"entity":{"id":"greekRestaurants_836c2ffc58fd","slug":"to-gerani-836c","kind":"restaurant","name":"Το Γεράνι","lat":36.54308410706101,"lng":26.342679449404006,"url":"https://maps.app.goo.gl/uDHS2p6qbdnAvE7M7?g_st=ipc","address":"Επαρ.Οδ. Λειβάδιων-Βαθύς, Λιβάδια 859 00","categoryIds":["greek-restaurants"],"categories":["Greek Restaurants"]},"distanceKm":1.009471935355847},{"entity":{"id":"greekRestaurants_0efe597f6052","slug":"kantina-steno-0efe","kind":"restaurant","name":"Kantina Steno","lat":36.578365860361565,"lng":26.36528478817132,"url":"https://maps.app.goo.gl/ftUWF8trr9faMU188?g_st=ipc","address":"Αστυπάλαια 859 00","categoryIds":["greek-restaurants"],"categories":["Greek Restaurants"]},"distanceKm":3.4368707354073122}],"counts":{"totalEntities":4118,"totalInArea":16,"totalInCategory":0,"totalCategoryArea":16},"relatedCategories":[{"categoryId":"greek-restaurants","categorySlug":"greek-restaurants","categoryName":"Greek Restaurants","count":10,"passesThreshold":true},{"categoryId":"coffee-brunch","categorySlug":"brunch","categoryName":"Coffee & Brunch Spots","count":3,"passesThreshold":false},{"categoryId":"desserts","categorySlug":"desserts","categoryName":"Dessert Shops","count":2,"passesThreshold":false},{"categoryId":"italian","categorySlug":"italian","categoryName":"Italian Restaurants","count":1,"passesThreshold":false}],"relatedAreas":[{"areaId":"municipalities_5bc013791cf8","areaName":"Πλάκα","areaSlug":"plaka","count":873,"nearestDistanceKm":0.012491754607387504},{"areaId":"municipalities_877c3bc81df5","areaName":"Σύνταγμα","areaSlug":"syntagma","count":868,"nearestDistanceKm":0.009392084429921843},{"areaId":"municipalities_0cae2c00b932","areaName":"Κολωνάκι","areaSlug":"kolonaki","count":859,"nearestDistanceKm":0.019551496670837543},{"areaId":"municipalities_d7e1aaaed4f9","areaName":"Μοναστηράκι","areaSlug":"monastiraki","count":858,"nearestDistanceKm":0.0015439249117317326},{"areaId":"municipalities_4149fa79e27b","areaName":"Ακρόπολη","areaSlug":"akropoli","count":857,"nearestDistanceKm":0.005729795337023071},{"areaId":"municipalities_0fd1d03201a0","areaName":"Μετς","areaSlug":"mets","count":857,"nearestDistanceKm":0.0655206557127576},{"areaId":"municipalities_2bcfcb8b899f","areaName":"Ψυρρή","areaSlug":"psyrri","count":856,"nearestDistanceKm":0.047074153549061026},{"areaId":"municipalities_616efd2a0d9b","areaName":"Κουκάκι","areaSlug":"koykaki","count":855,"nearestDistanceKm":0.03240357443173243},{"areaId":"municipalities_b85b54408d92","areaName":"Θησείο","areaSlug":"thiseio","count":849,"nearestDistanceKm":0.08292401975417248},{"areaId":"municipalities_2f324ee27306","areaName":"Εξάρχεια","areaSlug":"exarcheia","count":848,"nearestDistanceKm":0.08690050688547628}],"passesThreshold":true}},"__N_SSG":true}