{"pageProps":{"payload":{"area":{"id":"municipalities_f73663b8f738","name":"Αττική","nameEn":"Attiki","region":"Κέντρο Αθήνας","regionEn":"Athens Center","lat":37.9958,"lng":23.7292,"urlSlug":"attiki","aliases":["Αττική","Attiki","Αττική Athens Center","Attiki Athens Center","Αττικη","Victoria","attiki-f736","attiki"]},"category":null,"entities":[{"entity":{"id":"vegetarianRestaurants_6e333d15393d","slug":"enjoy-just-falafel-6e33","kind":"restaurant","name":"Enjoy Just Falafel","lat":37.99432372166888,"lng":23.729461045155038,"url":"https://maps.app.goo.gl/BjUbMf9auTnRzi956?g_st=ipc","address":"Greece, Αριστοτέλους 98, Αθήνα 104 34","categoryIds":["vegetarian"],"categories":["Vegetarian Friendly Restaurants"]},"distanceKm":0.16574082302547036},{"entity":{"id":"cheapEatsRestaurants_b1a42490e7cb","slug":"gyros-soyvlaki-viktoria-tylixe-to-b1a4","kind":"restaurant","name":"Γύρος σουβλάκι Βικτώρια ΤΥΛΙΞΕ ΤΟ","lat":37.99350120718295,"lng":23.729835255916253,"url":"https://maps.app.goo.gl/eKw6YctPXBvBSifU7?g_st=ipc","address":"Πλ. Βικτώριας 6, Αθήνα 104 34","categoryIds":["cheap-eats"],"categories":["Gyros & Cheap Eats"]},"distanceKm":0.26160538596131144},{"entity":{"id":"dessertsRestaurants_6380c13ce6fb","slug":"petek-zacharoplasteio-6380","kind":"restaurant","name":"Πετέκ - Ζαχαροπλαστείο","lat":37.992161285064114,"lng":23.729868228783843,"url":"https://maps.app.goo.gl/bya8rkC9eSnHKYnU9?g_st=ipc","address":"3ης Σεπτεμβρίου 81, Αθήνα 104 34","categoryIds":["desserts"],"categories":["Dessert Shops"]},"distanceKm":0.4088220172465194},{"entity":{"id":"coffeeBrunchRestaurants_f2fc2f9837eb","slug":"green-park-f2fc","kind":"restaurant","name":"Green Park","lat":37.99268098251898,"lng":23.733030655681027,"url":"https://maps.app.goo.gl/YVmf7NaJKpFKqFvw6?g_st=ipc","address":"Μαυρομματαίων 22, Αθήνα 104 34","categoryIds":["coffee-brunch"],"categories":["Coffee & Brunch Spots"]},"distanceKm":0.4826632782947976},{"entity":{"id":"dessertsRestaurants_b17cae58055b","slug":"solo-gelato-kypseli-b17c","kind":"restaurant","name":"SOLO GELATO ΚΥΨΕΛΗ","lat":37.997495076308105,"lng":23.735075284705523,"url":"https://maps.app.goo.gl/xy8KGbP1LQZJCmxX7?g_st=ipc","address":"Ιθάκης 9, Αθήνα 112 57","categoryIds":["desserts"],"categories":["Dessert Shops"]},"distanceKm":0.5482504842263934},{"entity":{"id":"vegetarianRestaurants_83307181ea44","slug":"gknoy-8330","kind":"restaurant","name":"ΓΚΝΟΥ","lat":37.99747301743944,"lng":23.73513103670901,"url":"https://maps.app.goo.gl/9hv6BgvR3DARK8469?g_st=ipc","address":"Επτανήσου 13, Αθήνα 112 57","categoryIds":["vegetarian"],"categories":["Vegetarian Friendly Restaurants"]},"distanceKm":0.552009249914673},{"entity":{"id":"cheapEatsRestaurants_a3dfa66f0ec8","slug":"green-kebab-a3df","kind":"restaurant","name":"Green Kebab","lat":37.99197488379709,"lng":23.725139444636163,"url":"https://maps.app.goo.gl/tAkTZ6x1vZQez7uq5?g_st=ipc","address":"Ιουλιανού 81, Αθήνα 104 39","categoryIds":["cheap-eats"],"categories":["Gyros & Cheap Eats"]},"distanceKm":0.5545460892779321},{"entity":{"id":"cheapEatsRestaurants_ec6036039639","slug":"dionysos-ec60","kind":"restaurant","name":"Διόνυσος","lat":37.99776607364749,"lng":23.735031186199688,"url":"https://maps.app.goo.gl/f7GyH9GtFQKGQmmS9?g_st=ipc","address":"Ιθάκης 12 12, Αθήνα 112 57","categoryIds":["cheap-eats"],"categories":["Gyros & Cheap Eats"]},"distanceKm":0.5557707418999118},{"entity":{"id":"greekRestaurants_bfb413275b7f","slug":"kyveli-bfb4","kind":"restaurant","name":"Κυβέλη","lat":37.99805749284101,"lng":23.73519064835316,"url":"https://maps.app.goo.gl/GZkR3yG4uYF9Asep6","address":"Επτανήσου 15, Αθήνα 112 57","categoryIds":["greek-restaurants"],"categories":["Greek Restaurants"]},"distanceKm":0.5818704695299529},{"entity":{"id":"luxuryDiningRestaurants_4ac28de916c7","slug":"10-urban-roof-4ac2","kind":"restaurant","name":"10 Urban Roof","lat":37.99116171206528,"lng":23.733113789092354,"url":"https://maps.app.goo.gl/EwoNbTNDX9bmfSgf9?g_st=ipc","address":"Λεωφ. Αλεξάνδρας 10, Αθήνα 106 82","categoryIds":["luxury-dining"],"categories":["Luxury Dining"]},"distanceKm":0.6193779748285788},{"entity":{"id":"cheapEatsRestaurants_d1e6c2dac993","slug":"o-thomas-d1e6","kind":"restaurant","name":"\"Ο Θωμάς\"","lat":37.990509282943826,"lng":23.72671200338313,"url":"https://maps.app.goo.gl/sNkqRi8WyMgYec9D6?g_st=ipc","address":"Αχαρνών 33, Αθήνα 104 39","categoryIds":["cheap-eats"],"categories":["Gyros & Cheap Eats"]},"distanceKm":0.627401859440052},{"entity":{"id":"vegetarianRestaurants_f70f4a4d0192","slug":"association-of-greeks-from-egypt-f70f","kind":"restaurant","name":"Association of Greeks from Egypt","lat":37.98962955327748,"lng":23.72952334118187,"url":"https://maps.app.goo.gl/gBkB6qncPWJhE1pC8?g_st=ipc","address":"3ης Σεπτεμβρίου 56, Αθήνα 104 33","categoryIds":["vegetarian"],"categories":["Vegetarian Friendly Restaurants"]},"distanceKm":0.686707195671325},{"entity":{"id":"vegetarianRestaurants_35af3a72d872","slug":"leik-kafe-35af","kind":"restaurant","name":"λέικ καφέ","lat":37.99570532128052,"lng":23.737094528681606,"url":"https://maps.app.goo.gl/c3DSV5tXT2pKELDL8?g_st=ipc","address":"Αιγίνης 1, Αθήνα 113 62","categoryIds":["vegetarian"],"categories":["Vegetarian Friendly Restaurants"]},"distanceKm":0.6918608562062339},{"entity":{"id":"greekRestaurants_013c7ee68bf7","slug":"to-rini-013c","kind":"restaurant","name":"Το Ρίνι","lat":37.99027878775376,"lng":23.732870988899485,"url":"https://maps.app.goo.gl/RRByVB3HqZfDcnkK7","address":"Ρεθύμνου 8, Αθήνα 106 82","categoryIds":["greek-restaurants"],"categories":["Greek Restaurants"]},"distanceKm":0.6931069926017476},{"entity":{"id":"familyFriendly_8133c93f98d4","slug":"pedion-areos-8133","kind":"restaurant","name":"Πεδίον Άρεως","lat":37.99296743190719,"lng":23.73662502583579,"url":"https://maps.app.goo.gl/qo4PWWenK9kDd9qC7?g_st=ipc","address":"Λεωφ. Αλεξάνδρας, Αθήνα 114 74","categoryIds":["family-friendly"],"categories":["Kid Friendly Locations"]},"distanceKm":0.7228772584742766},{"entity":{"id":"coffeeBrunchRestaurants_76650a6337b0","slug":"o-foyrnos-toy-remoyndoy-7665","kind":"restaurant","name":"Ο Φούρνος του Ρεμούνδου","lat":37.99778393444846,"lng":23.737266306236258,"url":"https://maps.app.goo.gl/6mpkX4B7SCACHFyy6?g_st=ipc","address":"Κυψέλης 37, Αθήνα 113 61","categoryIds":["coffee-brunch"],"categories":["Coffee & Brunch Spots"]},"distanceKm":0.740449168173028},{"entity":{"id":"cheapEatsRestaurants_fcf206bb8bf8","slug":"jackaroo-fcf2","kind":"restaurant","name":"Jackaroo","lat":38.00066185886443,"lng":23.735523749834027,"url":"https://maps.app.goo.gl/bKD82egRLvDN81sG9?g_st=ipc","address":"Φωκίωνος Νέγρη 18, Αθήνα 112 57","categoryIds":["cheap-eats"],"categories":["Gyros & Cheap Eats"]},"distanceKm":0.7741513546357789},{"entity":{"id":"cheapEatsRestaurants_51111124208f","slug":"soyvlakopoleion-rigani-5111","kind":"restaurant","name":"Σουβλακοπωλείον Ρίγανη","lat":38.00099448703569,"lng":23.73511231778499,"url":"https://maps.app.goo.gl/fCW1TYPSHgUdCft78?g_st=ipc","address":"Φωκίωνος Νέγρη 15, Αθήνα 112 57","categoryIds":["cheap-eats"],"categories":["Gyros & Cheap Eats"]},"distanceKm":0.7758955834157436},{"entity":{"id":"italianRestaurants_a2a46beb60d1","slug":"mamas-pizza-a2a4","kind":"restaurant","name":"mamas pizza","lat":38.00286067766126,"lng":23.729687108811326,"url":"https://maps.app.goo.gl/GBCYCeq3F77e7FqH8?g_st=ipc","address":"Φυλής 197, Αθήνα 112 52","categoryIds":["italian"],"categories":["Italian Restaurants"]},"distanceKm":0.7862708784116673},{"entity":{"id":"coffeeBrunchRestaurants_5e77841cb06d","slug":"flake-5e77","kind":"restaurant","name":"Flake","lat":37.99900849338742,"lng":23.737419912416144,"url":"https://maps.app.goo.gl/Xk1A8oDNqWipGzYL6?g_st=ipc","address":"Σποράδων 24, Αθήνα 113 61","categoryIds":["coffee-brunch"],"categories":["Coffee & Brunch Spots"]},"distanceKm":0.8037927649266748},{"entity":{"id":"vegetarianRestaurants_ac24d91fc2b5","slug":"geyseis-tis-damaskoy-ac24","kind":"restaurant","name":"Γεύσεις της Δαμασκού","lat":38.00104187111536,"lng":23.735527497819955,"url":"https://maps.app.goo.gl/CBgjw3FjXKsmZLqP9?g_st=ipc","address":"Φωκίωνος Νέγρη 19, Αθήνα 112 57","categoryIds":["vegetarian"],"categories":["Vegetarian Friendly Restaurants"]},"distanceKm":0.804453903072713},{"entity":{"id":"coffeeBrunchRestaurants_ce89cd6aa5d7","slug":"kick-ce89","kind":"restaurant","name":"KICK","lat":37.99916132656893,"lng":23.737461252467714,"url":"https://maps.app.goo.gl/72fZq7DBsWg8jnSR8?g_st=ipc","address":"Σποράδων 26, Αθήνα 113 61","categoryIds":["coffee-brunch"],"categories":["Coffee & Brunch Spots"]},"distanceKm":0.8146950515836723},{"entity":{"id":"mustSeeAttractions_5d23953463e8","slug":"ethniko-archaiologiko-moyseio-5d23","kind":"restaurant","name":"Εθνικό Αρχαιολογικό Μουσείο","lat":37.989024298697544,"lng":23.73276057362421,"url":"https://maps.app.goo.gl/yMXMdhRrheqLTtjc9?g_st=ipc","address":"28ης Οκτωβρίου 44, Αθήνα 106 82","categoryIds":["attractions"],"categories":["Must-See Attractions"]},"distanceKm":0.8154774237506088},{"entity":{"id":"cheapEatsRestaurants_b098fa4e8c79","slug":"kaproys-b098","kind":"restaurant","name":"Κάπρους","lat":37.997892215729216,"lng":23.738708713405035,"url":"https://maps.app.goo.gl/zmZ9p1KuXBfmeQTP9?g_st=ipc","address":"Σπετσών 49, Αθήνα 113 62","categoryIds":["cheap-eats"],"categories":["Gyros & Cheap Eats"]},"distanceKm":0.865084890713913},{"entity":{"id":"greekRestaurants_fc8301cd2394","slug":"geystiki-gonia-fc83","kind":"restaurant","name":"Γευστική Γωνιά","lat":37.9895544491858,"lng":23.722717045952898,"url":"https://maps.app.goo.gl/AkzhbzV5JgMPNbyh8","address":"Ψαρών 45, Αθήνα 104 38","categoryIds":["greek-restaurants"],"categories":["Greek Restaurants"]},"distanceKm":0.8972424248070605},{"entity":{"id":"italianRestaurants_fee68a36e757","slug":"lisa-athens-fee6","kind":"restaurant","name":"Lisa Athens","lat":38.00121668798056,"lng":23.737030313370706,"url":"https://maps.app.goo.gl/eiXsobGt1KWweP7UA?g_st=ipc","address":"Φωκίωνος Νέγρη 25, Αθήνα 113 61","categoryIds":["italian"],"categories":["Italian Restaurants"]},"distanceKm":0.9129877977655061},{"entity":{"id":"cheapEatsRestaurants_3735299a67ee","slug":"kantina-christos-3735","kind":"restaurant","name":"Καντίνα Χρήστος","lat":37.99124414586088,"lng":23.720512677134217,"url":"https://maps.app.goo.gl/viHqpygtkwkePK7KA?g_st=ipc","address":"Θεοδ. Δηλιγιάννη, Αθήνα 104 39","categoryIds":["cheap-eats"],"categories":["Gyros & Cheap Eats"]},"distanceKm":0.9144236121987886},{"entity":{"id":"dessertsRestaurants_500065b70e96","slug":"mpozas-5000","kind":"restaurant","name":"Μπόζας","lat":37.99742038031428,"lng":23.73986164387991,"url":"https://maps.app.goo.gl/zSMSytPeL1fEn7U3A?g_st=ipc","address":"Κερκύρας 39 &, Παξών, Αθήνα 113 62","categoryIds":["desserts"],"categories":["Dessert Shops"]},"distanceKm":0.9514621314387026},{"entity":{"id":"italianRestaurants_ed5df50f2107","slug":"dilien-ed5d","kind":"restaurant","name":"Dilien","lat":37.98733679240523,"lng":23.730994400110465,"url":"https://maps.app.goo.gl/yeGNTXa4VUk4Paqs5","address":"Stournari 43, Athina 106 82","categoryIds":["italian"],"categories":["Italian Restaurants"]},"distanceKm":0.954113101940216},{"entity":{"id":"vegetarianRestaurants_46b7504ac039","slug":"falafel-al-sharq-46b7","kind":"restaurant","name":"Falafel Al Sharq","lat":37.987531098291974,"lng":23.72618033004029,"url":"https://maps.app.goo.gl/9fSGdfeYAovT2Zsi9?g_st=ipc","address":"Λιοσίων 1, Αθήνα 104 38","categoryIds":["vegetarian"],"categories":["Vegetarian Friendly Restaurants"]},"distanceKm":0.9567817640878002}],"counts":{"totalEntities":4118,"totalInArea":799,"totalInCategory":0,"totalCategoryArea":799},"relatedCategories":[{"categoryId":"coffee-brunch","categorySlug":"brunch","categoryName":"Coffee & Brunch Spots","count":117,"passesThreshold":true},{"categoryId":"cheap-eats","categorySlug":"cheap-eats","categoryName":"Gyros & Cheap Eats","count":105,"passesThreshold":true},{"categoryId":"greek-restaurants","categorySlug":"greek-restaurants","categoryName":"Greek Restaurants","count":97,"passesThreshold":true},{"categoryId":"desserts","categorySlug":"desserts","categoryName":"Dessert Shops","count":84,"passesThreshold":true},{"categoryId":"luxury-dining","categorySlug":"luxury-dining","categoryName":"Luxury Dining","count":68,"passesThreshold":true},{"categoryId":"vegetarian","categorySlug":"vegetarian","categoryName":"Vegetarian Friendly Restaurants","count":67,"passesThreshold":true},{"categoryId":"rooftop-lounges","categorySlug":"rooftops","categoryName":"Rooftop Lounges","count":53,"passesThreshold":true},{"categoryId":"italian","categorySlug":"italian","categoryName":"Italian Restaurants","count":43,"passesThreshold":true},{"categoryId":"attractions","categorySlug":"attractions","categoryName":"Must-See Attractions","count":43,"passesThreshold":true},{"categoryId":"burgers","categorySlug":"burgers","categoryName":"Burger Spots","count":37,"passesThreshold":true}],"relatedAreas":[{"areaId":"municipalities_5bc013791cf8","areaName":"Πλάκα","areaSlug":"plaka","count":873,"nearestDistanceKm":0.012491754607387504},{"areaId":"municipalities_877c3bc81df5","areaName":"Σύνταγμα","areaSlug":"syntagma","count":868,"nearestDistanceKm":0.009392084429921843},{"areaId":"municipalities_0cae2c00b932","areaName":"Κολωνάκι","areaSlug":"kolonaki","count":859,"nearestDistanceKm":0.019551496670837543},{"areaId":"municipalities_d7e1aaaed4f9","areaName":"Μοναστηράκι","areaSlug":"monastiraki","count":858,"nearestDistanceKm":0.0015439249117317326},{"areaId":"municipalities_4149fa79e27b","areaName":"Ακρόπολη","areaSlug":"akropoli","count":857,"nearestDistanceKm":0.005729795337023071},{"areaId":"municipalities_0fd1d03201a0","areaName":"Μετς","areaSlug":"mets","count":857,"nearestDistanceKm":0.0655206557127576},{"areaId":"municipalities_2bcfcb8b899f","areaName":"Ψυρρή","areaSlug":"psyrri","count":856,"nearestDistanceKm":0.047074153549061026},{"areaId":"municipalities_616efd2a0d9b","areaName":"Κουκάκι","areaSlug":"koykaki","count":855,"nearestDistanceKm":0.03240357443173243},{"areaId":"municipalities_b85b54408d92","areaName":"Θησείο","areaSlug":"thiseio","count":849,"nearestDistanceKm":0.08292401975417248},{"areaId":"municipalities_2f324ee27306","areaName":"Εξάρχεια","areaSlug":"exarcheia","count":848,"nearestDistanceKm":0.08690050688547628}],"passesThreshold":true}},"__N_SSG":true}