{"pageProps":{"payload":{"area":{"id":"municipalities_3059ca977111","name":"Καραμπουρνάκι","nameEn":"Karabournaki","region":"Θεσσαλονίκη","regionEn":"Thessaloniki","lat":40.5857,"lng":22.9535,"urlSlug":"karampoyrnaki","aliases":["Καραμπουρνάκι","Karabournaki","Καραμπουρνάκι Thessaloniki","Karabournaki Thessaloniki","karampoyrnaki-3059","karampoyrnaki"]},"category":null,"entities":[{"entity":{"id":"italianRestaurants_f98055a56a7f","slug":"tonino-pizzeria-napoletana-f980","kind":"restaurant","name":"Tonino Pizzeria Napoletana","lat":40.58464427596488,"lng":22.951802816992593,"url":"https://maps.app.goo.gl/zebuXsdGAEsViD2MA?g_st=ipc","address":"Iereos Papanikola 13-15, Kalamaria 551 31","categoryIds":["italian"],"categories":["Italian Restaurants"]},"distanceKm":0.1852601404965895},{"entity":{"id":"dessertsRestaurants_4fb635c33210","slug":"trigona-elenidi-4fb6","kind":"restaurant","name":"Trigona Elenidi","lat":40.58725693671977,"lng":22.9548680363337,"url":"https://maps.app.goo.gl/EpRLs9ycdMXcJNP16?g_st=ipc","address":"Adrianoupoleos 19, Kalamaria 551 33","categoryIds":["desserts"],"categories":["Dessert Shops"]},"distanceKm":0.20812792573483943},{"entity":{"id":"burgersRestaurants_7bf76fbc7d0a","slug":"burgler-7bf7","kind":"restaurant","name":"Burgler","lat":40.584120623109904,"lng":22.951979743044145,"url":"https://maps.app.goo.gl/yMSfiMNTRFpJoskdA?g_st=ipc","address":"Metamorfoseos 5, Kalamaria 551 31","categoryIds":["burgers"],"categories":["Burger Spots"]},"distanceKm":0.2175392393368125},{"entity":{"id":"cheapEatsRestaurants_70bee89e8126","slug":"serafino-70be","kind":"restaurant","name":"Serafino","lat":40.58386899036688,"lng":22.951506267568906,"url":"https://maps.app.goo.gl/M1gK3j7aiDegVjjs6?g_st=ipc","address":"Metamorfoseos 11, Kalamaria 551 32","categoryIds":["cheap-eats"],"categories":["Gyros & Cheap Eats"]},"distanceKm":0.2641945800419798},{"entity":{"id":"coffeeBrunchRestaurants_37a99c7a5e9b","slug":"cafe-plateia-37a9","kind":"restaurant","name":"Café Plateia","lat":40.58219813646138,"lng":22.94932374129252,"url":"https://maps.app.goo.gl/9R5MQ6z3jfLnmMwu7?g_st=ipc","address":"Mitropolitou Chrisanthou 0, Kalamaria 551 32","categoryIds":["coffee-brunch"],"categories":["Coffee & Brunch Spots"]},"distanceKm":0.525360060471062},{"entity":{"id":"dessertsRestaurants_971d24d9e3ed","slug":"pagota-themis-971d","kind":"restaurant","name":"Παγωτά 'Θέμης'","lat":40.58103606730307,"lng":22.951200963653005,"url":"https://maps.app.goo.gl/hLPTQRcHhxotqq366?g_st=ipc","address":"I. Passalidi 69, Kalamaria 551 32","categoryIds":["desserts"],"categories":["Dessert Shops"]},"distanceKm":0.5537560595960918},{"entity":{"id":"burgersRestaurants_af84766a95a5","slug":"brothers-in-law-af84","kind":"restaurant","name":"Brothers In Law","lat":40.59054130309985,"lng":22.959087966385763,"url":"https://maps.app.goo.gl/71PatbkFTVXX7R3w9?g_st=ipc","address":"Leof. Vasilissis Olgas 275, Thessaloniki 551 33","categoryIds":["burgers"],"categories":["Burger Spots"]},"distanceKm":0.7158554329463903},{"entity":{"id":"greekRestaurants_11bcbb15df27","slug":"chalaro-11bc","kind":"restaurant","name":"Χάλαρο","lat":40.59065020365281,"lng":22.947310711779775,"url":"https://maps.app.goo.gl/FknwoH4DjWTtgiZc8?g_st=ipc","address":"Θεμιστοκλή Σοφούλη 75, Θεσσαλονίκη 551 31","categoryIds":["greek-restaurants"],"categories":["Greek Restaurants"]},"distanceKm":0.7590323170324681},{"entity":{"id":"dessertsRestaurants_715ce072dcab","slug":"chatzi-715c","kind":"restaurant","name":"Chatzi","lat":40.590808607832805,"lng":22.947461000377523,"url":"https://maps.app.goo.gl/aPDKbL8fF37cA1M1A?g_st=ipc","address":"ΘΕΜΙΣΤΟΚΛΗ ΣΟΦΟΥΛΗ 73, Argonafton 2, Kalamaria 551 31","categoryIds":["desserts"],"categories":["Dessert Shops"]},"distanceKm":0.7633649544191535},{"entity":{"id":"greekRestaurants_d5512fead26c","slug":"kronos-para-thin-alos-d551","kind":"restaurant","name":"Κρόνος παρά θίν αλός","lat":40.59022357622001,"lng":22.9465897334504,"url":"https://maps.app.goo.gl/yBbugZp5EmUQT27x7?g_st=ipc","address":"Θεμιστοκλή Σοφούλη 77, Θεσσαλονίκη 551 31","categoryIds":["greek-restaurants"],"categories":["Greek Restaurants"]},"distanceKm":0.7703908519618367},{"entity":{"id":"coffeeBrunchRestaurants_346744718646","slug":"thegia-more-than-a-bakery-3467","kind":"restaurant","name":"ΘΕΓΙΑ more than a bakery","lat":40.59152214019956,"lng":22.948474846251315,"url":"https://maps.app.goo.gl/Rk9qKb5jkoYV7x6HA?g_st=ipc","address":"Themistokli Sofouli 65, Kalamaria 551 31","categoryIds":["coffee-brunch"],"categories":["Coffee & Brunch Spots"]},"distanceKm":0.7740634495499709},{"entity":{"id":"greekRestaurants_effaa488563e","slug":"nea-klimataria-effa","kind":"restaurant","name":"Νέα Κληματαριά","lat":40.58891669010003,"lng":22.944876147959,"url":"https://maps.app.goo.gl/RWo1fZbyn2z8MGaa9?g_st=ipc","address":"Θεμιστοκλή Σοφούλη 97, Θεσσαλονίκη 551 31","categoryIds":["greek-restaurants"],"categories":["Greek Restaurants"]},"distanceKm":0.8113239963939467},{"entity":{"id":"luxuryDiningRestaurants_6c2f9d989a6a","slug":"shark-bar-restaurant-thessaloniki-6c2f","kind":"restaurant","name":"SHARK Bar | Restaurant - Thessaloniki","lat":40.59118558847925,"lng":22.946520720029824,"url":"https://maps.app.goo.gl/gugoZEiFmeixR8B67?g_st=ipc","address":"Argonafton 2, Kalamaria 551 31","categoryIds":["luxury-dining"],"categories":["Luxury Dining"]},"distanceKm":0.8481670394867311},{"entity":{"id":"luxuryDiningRestaurants_36dbdd983cca","slug":"akti-ntovil-sea-taste-36db","kind":"restaurant","name":"Akti Ntovil sea taste","lat":40.59022322149795,"lng":22.945258035177847,"url":"https://maps.app.goo.gl/2G43HnJbauPH1htJ6?g_st=ipc","address":"Themistokli Sofouli 86, Kalamaria 551 31","categoryIds":["luxury-dining"],"categories":["Luxury Dining"]},"distanceKm":0.858686877193299},{"entity":{"id":"fishTavernasRestaurants_e4a529eccfe5","slug":"akti-ntovil-sea-taste-e4a5","kind":"restaurant","name":"Akti Ntovil sea taste","lat":40.590227199252006,"lng":22.94525345267167,"url":"https://maps.app.goo.gl/qLvCE8t6ieDmXdt57?g_st=ipc","address":"Themistokli Sofouli 86, Kalamaria 551 31","categoryIds":["fish-tavernas"],"categories":["Fish Tavernas"]},"distanceKm":0.8592595740038634},{"entity":{"id":"greekRestaurants_d690428e2039","slug":"nea-diagonios-d690","kind":"restaurant","name":"Nea Diagonios","lat":40.59234555425419,"lng":22.94797192954155,"url":"https://maps.app.goo.gl/TtmMpqEMxkewPb8G9?g_st=ipc","address":"Themistokli Sofouli 64Α, Thessaloniki 546 55","categoryIds":["greek-restaurants"],"categories":["Greek Restaurants"]},"distanceKm":0.8740412734341167},{"entity":{"id":"luxuryDiningRestaurants_f789c3144485","slug":"marrone-restaurant-f789","kind":"restaurant","name":"Marrone Restaurant","lat":40.587514625354714,"lng":22.942944126653384,"url":"https://maps.app.goo.gl/rYECyH9YH5sKjowm8?g_st=ipc","address":"Themistokli Sofouli 111, Kalamaria 551 31","categoryIds":["luxury-dining"],"categories":["Luxury Dining"]},"distanceKm":0.9139328050538787},{"entity":{"id":"dessertsRestaurants_f84ed009af83","slug":"terkenlis-f84e","kind":"restaurant","name":"Terkenlis","lat":40.59488849299692,"lng":22.956363253741753,"url":"https://maps.app.goo.gl/xBak2d9JxbKxQpz57?g_st=ipc","address":"Leof. Vasilissis Olgas 235, Thessaloniki 546 55","categoryIds":["desserts"],"categories":["Dessert Shops"]},"distanceKm":1.049929752930752},{"entity":{"id":"greekRestaurants_a5b4656768b4","slug":"emporikon-a5b4","kind":"restaurant","name":"Εμπορικόν","lat":40.59154248489415,"lng":22.963270056520066,"url":"https://maps.app.goo.gl/1BGYAM6C7rUnMDot8?g_st=ipc","address":"Αιγαίου 2, Θεσσαλονίκη 542 48","categoryIds":["greek-restaurants"],"categories":["Greek Restaurants"]},"distanceKm":1.0500824065074998},{"entity":{"id":"luxuryDiningRestaurants_aa49ab401c78","slug":"opsopoion-maganeiai-aa49","kind":"restaurant","name":"Opsopoion Maganeiai","lat":40.59504961870734,"lng":22.950911901497957,"url":"https://maps.app.goo.gl/bY2dGZAgk6wxVc1e9?g_st=ipc","address":"Komotinis 6, Thessaloniki 546 55","categoryIds":["luxury-dining"],"categories":["Luxury Dining"]},"distanceKm":1.0623508696691988},{"entity":{"id":"cheapEatsRestaurants_d02e33f8bb10","slug":"food-plaza-d02e","kind":"restaurant","name":"Food Plaza","lat":40.57666918251193,"lng":22.94927301198073,"url":"https://maps.app.goo.gl/zwY1QQTAGPf4oH7s8?g_st=ipc","address":"Skra 16, Kalamaria 551 32","categoryIds":["cheap-eats"],"categories":["Gyros & Cheap Eats"]},"distanceKm":1.0657435274423157},{"entity":{"id":"fishTavernasRestaurants_696f7178604d","slug":"petros-ouzo-tavern-696f","kind":"restaurant","name":"\"Petros\" Ouzo Tavern","lat":40.5758568701644,"lng":22.94955610306511,"url":"https://maps.app.goo.gl/zWRjvQW7U7jg2RVz9?g_st=ipc","address":"Evelpidou 12, Kalamaria 551 32","categoryIds":["fish-tavernas"],"categories":["Fish Tavernas"]},"distanceKm":1.1440618910695832},{"entity":{"id":"luxuryDiningRestaurants_e02771b2a295","slug":"mavri-thalassa-e027","kind":"restaurant","name":"Mavri Thalassa","lat":40.57843617435474,"lng":22.943234064415787,"url":"https://maps.app.goo.gl/CFRMztsRLco8Wy1G9?g_st=ipc","address":"Nik. Plastira 3, Kalamaria 551 32","categoryIds":["luxury-dining"],"categories":["Luxury Dining"]},"distanceKm":1.1849019175463351},{"entity":{"id":"fishTavernasRestaurants_f8b7ef1f9834","slug":"mavri-thalassa-f8b7","kind":"restaurant","name":"Mavri Thalassa","lat":40.57843253808032,"lng":22.94322807682347,"url":"https://maps.app.goo.gl/BS4tZgxTYFAhXywDA?g_st=ipc","address":"Nik. Plastira 3, Kalamaria 551 32","categoryIds":["fish-tavernas"],"categories":["Fish Tavernas"]},"distanceKm":1.1855475239731956},{"entity":{"id":"coffeeBrunchRestaurants_f9825eace7fc","slug":"les-zazous-f982","kind":"restaurant","name":"Les Zazous","lat":40.58600004577793,"lng":22.93944264109209,"url":"https://maps.app.goo.gl/timwhn386UbaBApm7?g_st=ipc","address":"Themistokli Sofouli 108, Kalamaria 551 31","categoryIds":["coffee-brunch"],"categories":["Coffee & Brunch Spots"]},"distanceKm":1.1875422323007065},{"entity":{"id":"luxuryDiningRestaurants_fd5e8e87aa52","slug":"les-zazous-fd5e","kind":"restaurant","name":"Les Zazous","lat":40.58599940349592,"lng":22.939440752876596,"url":"https://maps.app.goo.gl/FvCAxwABwuAsxZP59?g_st=ipc","address":"Themistokli Sofouli 108, Kalamaria 551 31","categoryIds":["luxury-dining"],"categories":["Luxury Dining"]},"distanceKm":1.187699621335239},{"entity":{"id":"fishTavernasRestaurants_36204a46aece","slug":"to-karnagio-3620","kind":"restaurant","name":"Το Καρνάγιο","lat":40.574881874460935,"lng":22.94956377176227,"url":"https://maps.app.goo.gl/pPBVRQW1crZFz6ho8?g_st=ipc","address":"Agiou Nikolaou 4, Thessaloniki 551 32","categoryIds":["fish-tavernas"],"categories":["Fish Tavernas"]},"distanceKm":1.2480075236547181},{"entity":{"id":"greekRestaurants_e11b69a9f4fc","slug":"koronis-e11b","kind":"restaurant","name":"Κορωνίς","lat":40.59688587335896,"lng":22.955410845086725,"url":"https://maps.app.goo.gl/Kyh1q1o7596jHSuu9?g_st=ipc","address":"Θεμιστοκλή Σοφούλη 4, Θεσσαλονίκη 546 46","categoryIds":["greek-restaurants"],"categories":["Greek Restaurants"]},"distanceKm":1.2542338028422872},{"entity":{"id":"greekRestaurants_caf46d3ae170","slug":"mpachtses-caf4","kind":"restaurant","name":"Μπαχτσές","lat":40.59735406643829,"lng":22.956242795320843,"url":"https://maps.app.goo.gl/24benajDUQutZUA78?g_st=ipc","address":"Λεωφ. Βασιλίσσης Όλγας 211, Θεσσαλονίκη 546 46","categoryIds":["greek-restaurants"],"categories":["Greek Restaurants"]},"distanceKm":1.316405537633181},{"entity":{"id":"greekRestaurants_5420cd09afd9","slug":"taverna-kronos-5420","kind":"restaurant","name":"Ταβέρνα Κρόνος","lat":40.59744980216976,"lng":22.955600566420387,"url":"https://maps.app.goo.gl/GJFXXJsfLXcf12tg7?g_st=ipc","address":"Β.Όλγας 178, & Γ. Βαφοπούλου 30, Θεσσαλονίκη 546 46","categoryIds":["greek-restaurants"],"categories":["Greek Restaurants"]},"distanceKm":1.3185027107279987}],"counts":{"totalEntities":4118,"totalInArea":125,"totalInCategory":0,"totalCategoryArea":125},"relatedCategories":[{"categoryId":"cheap-eats","categorySlug":"cheap-eats","categoryName":"Gyros & Cheap Eats","count":28,"passesThreshold":true},{"categoryId":"greek-restaurants","categorySlug":"greek-restaurants","categoryName":"Greek Restaurants","count":25,"passesThreshold":true},{"categoryId":"burgers","categorySlug":"burgers","categoryName":"Burger Spots","count":13,"passesThreshold":true},{"categoryId":"fish-tavernas","categorySlug":"fish-tavernas","categoryName":"Fish Tavernas","count":13,"passesThreshold":true},{"categoryId":"desserts","categorySlug":"desserts","categoryName":"Dessert Shops","count":11,"passesThreshold":true},{"categoryId":"coffee-brunch","categorySlug":"brunch","categoryName":"Coffee & Brunch Spots","count":10,"passesThreshold":true},{"categoryId":"luxury-dining","categorySlug":"luxury-dining","categoryName":"Luxury Dining","count":7,"passesThreshold":true},{"categoryId":"family-friendly","categorySlug":"family-friendly","categoryName":"Kid Friendly Locations","count":6,"passesThreshold":true},{"categoryId":"italian","categorySlug":"italian","categoryName":"Italian Restaurants","count":4,"passesThreshold":false},{"categoryId":"vegetarian","categorySlug":"vegetarian","categoryName":"Vegetarian Friendly Restaurants","count":4,"passesThreshold":true}],"relatedAreas":[{"areaId":"municipalities_5bc013791cf8","areaName":"Πλάκα","areaSlug":"plaka","count":873,"nearestDistanceKm":0.012491754607387504},{"areaId":"municipalities_877c3bc81df5","areaName":"Σύνταγμα","areaSlug":"syntagma","count":868,"nearestDistanceKm":0.009392084429921843},{"areaId":"municipalities_0cae2c00b932","areaName":"Κολωνάκι","areaSlug":"kolonaki","count":859,"nearestDistanceKm":0.019551496670837543},{"areaId":"municipalities_d7e1aaaed4f9","areaName":"Μοναστηράκι","areaSlug":"monastiraki","count":858,"nearestDistanceKm":0.0015439249117317326},{"areaId":"municipalities_4149fa79e27b","areaName":"Ακρόπολη","areaSlug":"akropoli","count":857,"nearestDistanceKm":0.005729795337023071},{"areaId":"municipalities_0fd1d03201a0","areaName":"Μετς","areaSlug":"mets","count":857,"nearestDistanceKm":0.0655206557127576},{"areaId":"municipalities_2bcfcb8b899f","areaName":"Ψυρρή","areaSlug":"psyrri","count":856,"nearestDistanceKm":0.047074153549061026},{"areaId":"municipalities_616efd2a0d9b","areaName":"Κουκάκι","areaSlug":"koykaki","count":855,"nearestDistanceKm":0.03240357443173243},{"areaId":"municipalities_b85b54408d92","areaName":"Θησείο","areaSlug":"thiseio","count":849,"nearestDistanceKm":0.08292401975417248},{"areaId":"municipalities_2f324ee27306","areaName":"Εξάρχεια","areaSlug":"exarcheia","count":848,"nearestDistanceKm":0.08690050688547628}],"passesThreshold":true}},"__N_SSG":true}