{"pageProps":{"payload":{"area":{"id":"municipalities_a7bd7f1e6156","name":"Θεσσαλονίκη","nameEn":"Thessaloniki","region":"Κέντρο Θεσσαλονίκης","regionEn":"Thessaloniki Center","lat":40.6401,"lng":22.9444,"urlSlug":"thessaloniki","aliases":["Θεσσαλονίκη","Thessaloniki","Θεσσαλονίκη Thessaloniki Center","Thessaloniki Thessaloniki Center","Salonika","Salonica","Θεσσαλονίκα","Θεσσαλια","Θεσσαλονικη","Σαλονίκα","Σαλονικα","thessaloniki-a7bd","thessaloniki"]},"category":null,"entities":[{"entity":{"id":"cheapEatsRestaurants_e80e8a708de9","slug":"salento-wood-fired-street-food-e80e","kind":"restaurant","name":"Salento Wood Fired Street Food","lat":40.639269734572295,"lng":22.943990430297482,"url":"https://maps.app.goo.gl/6mWAWHUbEwXuAb589?g_st=ipc","address":"El. Venizelou 76, Thessaloniki 546 31","categoryIds":["cheap-eats"],"categories":["Gyros & Cheap Eats"]},"distanceKm":0.09857736000182188},{"entity":{"id":"italianRestaurants_39b739bc42fb","slug":"salento-wood-fired-street-food-39b7","kind":"restaurant","name":"Salento Wood Fired Street Food","lat":40.639269195238484,"lng":22.94398924661335,"url":"https://maps.app.goo.gl/KJDU4WMhcL2vXfup6?g_st=ipc","address":"El. Venizelou 76, Thessaloniki 546 31","categoryIds":["italian"],"categories":["Italian Restaurants"]},"distanceKm":0.09866856531139054},{"entity":{"id":"cheapEatsRestaurants_5cdb8c7a5460","slug":"favela-bit-bazar-5cdb","kind":"restaurant","name":"FAVELA Bit Bazar","lat":40.63897345242983,"lng":22.94448760793796,"url":"https://maps.app.goo.gl/Pr2NGoHPa59C1JPVA?g_st=ipc","address":"Olympou 72, Thessaloniki 546 31","categoryIds":["cheap-eats"],"categories":["Gyros & Cheap Eats"]},"distanceKm":0.12548429320816729},{"entity":{"id":"cheapEatsRestaurants_9e348b58c806","slug":"plateia-bit-pazar-9e34","kind":"restaurant","name":"Plateia Bit pazar","lat":40.63891956491642,"lng":22.94393646377273,"url":"https://maps.app.goo.gl/HfoTaA81WJgTcqWp6?g_st=ipc","address":"Προσφυγική Αγορά 16 Β, Thessaloniki 546 31","categoryIds":["cheap-eats"],"categories":["Gyros & Cheap Eats"]},"distanceKm":0.13696169311202025},{"entity":{"id":"greekRestaurants_20a08b488f9b","slug":"verges-lagies-20a0","kind":"restaurant","name":"Βέργες Λάγιες","lat":40.639047485030176,"lng":22.943515702588808,"url":"https://maps.app.goo.gl/ArjVMDpRBXxzMQ7h9?g_st=ipc","address":"Ελ. Βενιζέλου 63, Θεσσαλονίκη 546 31","categoryIds":["greek-restaurants"],"categories":["Greek Restaurants"]},"distanceKm":0.1387960796333532},{"entity":{"id":"greekRestaurants_468e8ef769c7","slug":"i-kanoyla-468e","kind":"restaurant","name":"Η Κάνουλα","lat":40.63902723791725,"lng":22.945280279447754,"url":"https://maps.app.goo.gl/1wLZCLzQxy3PPNvc7?g_st=ipc","address":"Τάσκου Παπαγεωργίου 4, Θεσσαλονίκη 546 31","categoryIds":["greek-restaurants"],"categories":["Greek Restaurants"]},"distanceKm":0.14052018149772044},{"entity":{"id":"cheapEatsRestaurants_6807fa813ea0","slug":"porkitto-gyradiko-soyvlaki-stefanoy-parthena-thessaloniki-6807","kind":"restaurant","name":"PORKITTO - ΓΥΡΑΔΙΚΟ - ΣΟΥΒΛΑΚΙ - ΣΤΕΦΑΝΟΥ ΠΑΡΘΕΝΑ - ΘΕΣΣΑΛΟΝΙΚΗ","lat":40.64044750261407,"lng":22.942776573082938,"url":"https://maps.app.goo.gl/GvH8vhGT4BrR9x9WA?g_st=ipc","address":"Καραολή και Δημητρίου 52, Thessaloniki 546 30","categoryIds":["cheap-eats"],"categories":["Gyros & Cheap Eats"]},"distanceKm":0.14232441771520965},{"entity":{"id":"dessertsRestaurants_f577f5bbd8fd","slug":"nick-alexoudas-f577","kind":"restaurant","name":"NICK ALEXOUDAS","lat":40.640152390023324,"lng":22.946508561358726,"url":"https://maps.app.goo.gl/mqxpWWxFf4unYCA89?g_st=ipc","address":"Kassandrou 48, Thessaloniki 546 33","categoryIds":["desserts"],"categories":["Dessert Shops"]},"distanceKm":0.1780082040043066},{"entity":{"id":"greekRestaurants_08b616cef0f8","slug":"kontrampanto-contrabando-08b6","kind":"restaurant","name":"Κοντραμπάντο - Contrabando","lat":40.63847586677097,"lng":22.944230425632455,"url":"https://maps.app.goo.gl/PyWZCYYPtYAB62wz7?g_st=ipc","address":"Γκαρμπολά 2, Θεσσαλονίκη 546 31","categoryIds":["greek-restaurants"],"categories":["Greek Restaurants"]},"distanceKm":0.18116129773830325},{"entity":{"id":"luxuryDiningRestaurants_615ed60929b5","slug":"l-albero-615e","kind":"restaurant","name":"L'Albero","lat":40.6387415311347,"lng":22.94294998162837,"url":"https://maps.app.goo.gl/X4RLEkPp4XfoJhpx9?g_st=ipc","address":"Filippou 17, Thessaloniki 546 31","categoryIds":["luxury-dining"],"categories":["Luxury Dining"]},"distanceKm":0.19438816467429282},{"entity":{"id":"greekRestaurants_5762dafe8770","slug":"giannoyla-5762","kind":"restaurant","name":"Γιαννούλα","lat":40.640039548951144,"lng":22.946778249418276,"url":"https://maps.app.goo.gl/bG2X8oAd5FzPwzKJ9?g_st=ipc","address":"Κασσάνδρου 50, Θεσσαλονίκη 546 33","categoryIds":["greek-restaurants"],"categories":["Greek Restaurants"]},"distanceKm":0.2007808881630274},{"entity":{"id":"greekRestaurants_03068c7e0a94","slug":"o-loytros-0306","kind":"restaurant","name":"Ο Λουτρός","lat":40.638466462915126,"lng":22.94314610009663,"url":"https://maps.app.goo.gl/4ZWFM4EN2V31EBwc7?g_st=ipc","address":"El. Venizelou 55, Thessaloniki 546 31","categoryIds":["greek-restaurants"],"categories":["Greek Restaurants"]},"distanceKm":0.21020775565459618},{"entity":{"id":"cheapEatsRestaurants_97b044a97fc0","slug":"mangia-mi-97b0","kind":"restaurant","name":"MANGIA MI","lat":40.63806065407829,"lng":22.943092100104018,"url":"https://maps.app.goo.gl/swPLtX8A41RYYYN68?g_st=ipc","address":"El. Venizelou 60, Thessaloniki 546 31","categoryIds":["cheap-eats"],"categories":["Gyros & Cheap Eats"]},"distanceKm":0.2521926590305295},{"entity":{"id":"mustSeeAttractions_c746cf030037","slug":"roman-forum-of-thessaloniki-c746","kind":"restaurant","name":"Roman Forum of Thessaloniki","lat":40.637858913960656,"lng":22.945675325840927,"url":"https://maps.app.goo.gl/YxX1f2JEnRyib5KP8?g_st=ipc","address":"Olympou 75, Thessaloniki 546 31","categoryIds":["attractions"],"categories":["Must-See Attractions"]},"distanceKm":0.2714389419186685},{"entity":{"id":"mustSeeAttractions_7edc1e3f8f0e","slug":"holy-church-of-saint-demetrius-7edc","kind":"restaurant","name":"Holy Church of Saint Demetrius","lat":40.638898161361496,"lng":22.947614216085658,"url":"https://maps.app.goo.gl/f1z5P772ZL438rrB9?g_st=ipc","address":"Ag. Dimitriou 81-83, Thessaloniki 546 33","categoryIds":["attractions"],"categories":["Must-See Attractions"]},"distanceKm":0.30234454708021735},{"entity":{"id":"cheapEatsRestaurants_e0434e3ff629","slug":"kyr-giorgis-e043","kind":"restaurant","name":"Kyr Giorgis","lat":40.63768120747627,"lng":22.942676100417227,"url":"https://maps.app.goo.gl/BFLYuybZSdJEwfK87?g_st=ipc","address":"Βενιζέλου 54, Thessaloniki 546 31","categoryIds":["cheap-eats"],"categories":["Gyros & Cheap Eats"]},"distanceKm":0.3057719451892938},{"entity":{"id":"dessertsRestaurants_e8be0b820869","slug":"sarantis-bakery-patisserie-e8be","kind":"restaurant","name":"Σαράντης Bakery Patisserie","lat":40.63827380747778,"lng":22.947664759270584,"url":"https://maps.app.goo.gl/RefSjsyuU49WN5f89?g_st=ipc","address":"Ag. Dimitriou 98, Thessaloniki 546 31","categoryIds":["desserts"],"categories":["Dessert Shops"]},"distanceKm":0.3422277875814474},{"entity":{"id":"coffeeBrunchRestaurants_cb81e6db9390","slug":"the-caravan-cafe-brunch-cb81","kind":"restaurant","name":"The Caravan Cafe | Brunch","lat":40.637809490842486,"lng":22.9414945910073,"url":"https://maps.app.goo.gl/zZG88R3tqQ4iE2m6A?g_st=ipc","address":"Βαμβακά 3, Thessaloniki 546 31","categoryIds":["coffee-brunch"],"categories":["Coffee & Brunch Spots"]},"distanceKm":0.3535083828242383},{"entity":{"id":"greekRestaurants_7ff4b23f5102","slug":"extravaganza-7ff4","kind":"restaurant","name":"Extravaganza","lat":40.639336618089786,"lng":22.940241453783848,"url":"https://maps.app.goo.gl/j6N8yd7wQi8DJTxU8?g_st=ipc","address":"Επισκοπου Αμβροσιου 8, Θεσσαλονίκη 546 30","categoryIds":["greek-restaurants"],"categories":["Greek Restaurants"]},"distanceKm":0.36100675393982795},{"entity":{"id":"cheapEatsRestaurants_f0f66d3f1d3f","slug":"hot-dog-land-f0f6","kind":"restaurant","name":"HOT DOG Land","lat":40.63820917018459,"lng":22.947895316027907,"url":"https://maps.app.goo.gl/Y7VQCwH5JjChrXDb9?g_st=ipc","address":"Ag. Dimitriou 100, Thessaloniki 546 31","categoryIds":["cheap-eats"],"categories":["Gyros & Cheap Eats"]},"distanceKm":0.36219747901375127},{"entity":{"id":"luxuryDiningRestaurants_4bd79f37c4c9","slug":"maestranza-skg-4bd7","kind":"restaurant","name":"Maestranza.skg","lat":40.63893402490513,"lng":22.939949733334775,"url":"https://maps.app.goo.gl/sEppZY8VozoSaAt86?g_st=ipc","address":"Ptolemeon 29Β, Thessaloniki 546 30","categoryIds":["luxury-dining"],"categories":["Luxury Dining"]},"distanceKm":0.3972533812799963},{"entity":{"id":"greekRestaurants_776ec954209f","slug":"maestranza-skg-776e","kind":"restaurant","name":"Maestranza.skg","lat":40.6389335540748,"lng":22.939948700094217,"url":"https://maps.app.goo.gl/9dU4LoJrsfE8osv2A?g_st=ipc","address":"Ptolemeon 29Β, Thessaloniki 546 30","categoryIds":["greek-restaurants"],"categories":["Greek Restaurants"]},"distanceKm":0.39735287781912054},{"entity":{"id":"cheapEatsRestaurants_59e2b6d2677d","slug":"to-prytaneio-59e2","kind":"restaurant","name":"Το Πρυτανείο","lat":40.64303995879506,"lng":22.947630622213342,"url":"https://maps.app.goo.gl/p1mkurFCqsY7XC3w5?g_st=ipc","address":"Alexandras Papadopoulou 72, Thessaloniki 546 33","categoryIds":["cheap-eats"],"categories":["Gyros & Cheap Eats"]},"distanceKm":0.4256411087057834},{"entity":{"id":"cheapEatsRestaurants_6f8bdca7e315","slug":"aigli-24h-crepe-toast-coffee-bougatsa-6f8b","kind":"restaurant","name":"\"AIGLI\" 24h CREPE-toast-coffee-BOUGATSA","lat":40.638115571761915,"lng":22.948717629555613,"url":"https://maps.app.goo.gl/LWSzARXmcX6GhcQdA?g_st=ipc","address":"Ag. Dimitriou 89, Thessaloniki 546 33","categoryIds":["cheap-eats"],"categories":["Gyros & Cheap Eats"]},"distanceKm":0.4259261740821296},{"entity":{"id":"dessertsRestaurants_eb88db21bc35","slug":"dorkada-eb88","kind":"restaurant","name":"Dorkada","lat":40.63877718781837,"lng":22.949276397393735,"url":"https://maps.app.goo.gl/56EQSujX5a55tWkk6?g_st=ipc","address":"Kassandrou 66, Thessaloniki 546 33","categoryIds":["desserts"],"categories":["Dessert Shops"]},"distanceKm":0.43695821820167735},{"entity":{"id":"dessertsRestaurants_0eed40d3488f","slug":"helios-pastry-shop-0eed","kind":"restaurant","name":"Helios Pastry Shop","lat":40.639377492095335,"lng":22.93909008861793,"url":"https://maps.app.goo.gl/wxVoFxomNfq7egVX7?g_st=ipc","address":"Adigonidon 7, Thessaloniki 546 30","categoryIds":["desserts"],"categories":["Dessert Shops"]},"distanceKm":0.4551799308743226},{"entity":{"id":"greekRestaurants_34eb138bccb6","slug":"paradosiako-kafeneio-stoy-mitsoy-34eb","kind":"restaurant","name":"Παραδοσιακό Καφενείο \"Στου Μήτσου\"","lat":40.636086191912526,"lng":22.942334253020217,"url":"https://maps.app.goo.gl/ZPKuMKk4XbPFHKGh9?g_st=ipc","address":"Βλάλη 11, Θεσσαλονίκη 546 24","categoryIds":["greek-restaurants"],"categories":["Greek Restaurants"]},"distanceKm":0.4791446764182468},{"entity":{"id":"coffeeBrunchRestaurants_fb908cdb56f2","slug":"beetroot-fb90","kind":"restaurant","name":"Beetroot","lat":40.637551412889685,"lng":22.939748987657307,"url":"https://maps.app.goo.gl/v2Xnqi1U2R9tS4bz7?g_st=ipc","address":"Siggrou 8, Thessaloniki 546 25","categoryIds":["coffee-brunch"],"categories":["Coffee & Brunch Spots"]},"distanceKm":0.484067863882795},{"entity":{"id":"coffeeBrunchRestaurants_ad2114e7ac37","slug":"bannie-ad21","kind":"restaurant","name":"Bannie","lat":40.63708508226566,"lng":22.94022952790158,"url":"https://maps.app.goo.gl/Gn3B2PxeEE5tHcph8?g_st=ipc","address":"Ionos Dragoumi 35, Thessaloniki 546 25","categoryIds":["coffee-brunch"],"categories":["Coffee & Brunch Spots"]},"distanceKm":0.4860248463176923},{"entity":{"id":"coffeeBrunchRestaurants_e22044bf3986","slug":"hue-roastery-e220","kind":"restaurant","name":"Hue Roastery","lat":40.63626725764962,"lng":22.94719442659408,"url":"https://maps.app.goo.gl/PGp8KLsttADm6bE79?g_st=ipc","address":"Filippou 38, Thessaloniki 546 31","categoryIds":["coffee-brunch"],"categories":["Coffee & Brunch Spots"]},"distanceKm":0.48706043480324634}],"counts":{"totalEntities":4118,"totalInArea":329,"totalInCategory":0,"totalCategoryArea":329},"relatedCategories":[{"categoryId":"cheap-eats","categorySlug":"cheap-eats","categoryName":"Gyros & Cheap Eats","count":67,"passesThreshold":true},{"categoryId":"coffee-brunch","categorySlug":"brunch","categoryName":"Coffee & Brunch Spots","count":63,"passesThreshold":true},{"categoryId":"greek-restaurants","categorySlug":"greek-restaurants","categoryName":"Greek Restaurants","count":48,"passesThreshold":true},{"categoryId":"desserts","categorySlug":"desserts","categoryName":"Dessert Shops","count":37,"passesThreshold":true},{"categoryId":"burgers","categorySlug":"burgers","categoryName":"Burger Spots","count":21,"passesThreshold":true},{"categoryId":"fish-tavernas","categorySlug":"fish-tavernas","categoryName":"Fish Tavernas","count":18,"passesThreshold":true},{"categoryId":"italian","categorySlug":"italian","categoryName":"Italian Restaurants","count":17,"passesThreshold":true},{"categoryId":"vegetarian","categorySlug":"vegetarian","categoryName":"Vegetarian Friendly Restaurants","count":14,"passesThreshold":true},{"categoryId":"asian","categorySlug":"asian-restaurants","categoryName":"Asian Restaurants","count":12,"passesThreshold":true},{"categoryId":"luxury-dining","categorySlug":"luxury-dining","categoryName":"Luxury Dining","count":10,"passesThreshold":true}],"relatedAreas":[{"areaId":"municipalities_5bc013791cf8","areaName":"Πλάκα","areaSlug":"plaka","count":873,"nearestDistanceKm":0.012491754607387504},{"areaId":"municipalities_877c3bc81df5","areaName":"Σύνταγμα","areaSlug":"syntagma","count":868,"nearestDistanceKm":0.009392084429921843},{"areaId":"municipalities_0cae2c00b932","areaName":"Κολωνάκι","areaSlug":"kolonaki","count":859,"nearestDistanceKm":0.019551496670837543},{"areaId":"municipalities_d7e1aaaed4f9","areaName":"Μοναστηράκι","areaSlug":"monastiraki","count":858,"nearestDistanceKm":0.0015439249117317326},{"areaId":"municipalities_4149fa79e27b","areaName":"Ακρόπολη","areaSlug":"akropoli","count":857,"nearestDistanceKm":0.005729795337023071},{"areaId":"municipalities_0fd1d03201a0","areaName":"Μετς","areaSlug":"mets","count":857,"nearestDistanceKm":0.0655206557127576},{"areaId":"municipalities_2bcfcb8b899f","areaName":"Ψυρρή","areaSlug":"psyrri","count":856,"nearestDistanceKm":0.047074153549061026},{"areaId":"municipalities_616efd2a0d9b","areaName":"Κουκάκι","areaSlug":"koykaki","count":855,"nearestDistanceKm":0.03240357443173243},{"areaId":"municipalities_b85b54408d92","areaName":"Θησείο","areaSlug":"thiseio","count":849,"nearestDistanceKm":0.08292401975417248},{"areaId":"municipalities_2f324ee27306","areaName":"Εξάρχεια","areaSlug":"exarcheia","count":848,"nearestDistanceKm":0.08690050688547628}],"passesThreshold":true}},"__N_SSG":true}