{"pageProps":{"entity":{"id":"cheapEatsRestaurants_d0809c48801b","slug":"22-soyvlakia-d080","kind":"restaurant","name":"22 Σουβλάκια","lat":40.632325575157445,"lng":22.941533229878075,"url":"https://maps.app.goo.gl/dAaaqBN4npr7HBBU7?g_st=ipc","address":"Aristotelous Sq 8, Thessaloniki 546 23","categoryIds":["cheap-eats"],"categories":["Gyros & Cheap Eats"]},"sameCategory":[{"id":"cheapEatsRestaurants_284a6ef1dfeb","slug":"the-last-slice-284a","kind":"restaurant","name":"The Last Slice","lat":40.63188753569458,"lng":22.94190837965703,"url":"https://maps.app.goo.gl/iyZQfPWo4E2pskqX8?g_st=ipc","address":"Proxenou Koromila 1, Thessaloniki 546 23","categoryIds":["cheap-eats","italian"],"categories":["Gyros & Cheap Eats","Italian Restaurants"],"legacySlugs":["the-last-slice-2302"]},{"id":"cheapEatsRestaurants_c606c6424912","slug":"cong-vietasian-street-food-c606","kind":"restaurant","name":"Cong | Vietasian Street Food","lat":40.63147206727124,"lng":22.942501320363125,"url":"https://maps.app.goo.gl/gyhw2UWMtxWKgMui6?g_st=ipc","address":"Proxenou Koromila 9, Thessaloniki 546 23","categoryIds":["cheap-eats"],"categories":["Gyros & Cheap Eats"]},{"id":"cheapEatsRestaurants_e9c2d48343e0","slug":"bombidia-bombs-e9c2","kind":"restaurant","name":"Bombídia - Bombs","lat":40.63441434318281,"lng":22.94206825187552,"url":"https://maps.app.goo.gl/a5enHSGzpNb2rYAJ7?g_st=ipc","address":"Vasileos Irakleiou 35, 37, Thessaloniki 546 24","categoryIds":["cheap-eats"],"categories":["Gyros & Cheap Eats"]},{"id":"cheapEatsRestaurants_3e2ba0cbb305","slug":"jackaroo-3e2b","kind":"restaurant","name":"Jackaroo","lat":40.631343527256554,"lng":22.944174715835555,"url":"https://maps.app.goo.gl/cRpaEqK3F7inKXVy5?g_st=ipc","address":"Mitropoleos 67, Thessaloniki 546 22","categoryIds":["cheap-eats"],"categories":["Gyros & Cheap Eats"]},{"id":"cheapEatsRestaurants_5ddb8d5c463a","slug":"kyrios-mpampatsikos-5ddb","kind":"restaurant","name":"Κύριος Μπαμπάτσικος","lat":40.63461122232153,"lng":22.941727966275263,"url":"https://maps.app.goo.gl/dBrKhYFMn7bdAAyAA?g_st=ipc","address":"Vasileos Irakleiou 33, Thessaloniki 546 24","categoryIds":["cheap-eats"],"categories":["Gyros & Cheap Eats"]},{"id":"cheapEatsRestaurants_d643220ae6b0","slug":"thess-bao-d643","kind":"restaurant","name":"Thess Bao","lat":40.633724315611715,"lng":22.93899137586201,"url":"https://maps.app.goo.gl/eQJvB2FMkUEghr9y7?g_st=ipc","address":"Kalapothaki 3, Thessaloniki 546 45","categoryIds":["cheap-eats"],"categories":["Gyros & Cheap Eats"]},{"id":"cheapEatsRestaurants_3ea6371d1865","slug":"ochsenkopf-german-delicatessen-3ea6","kind":"restaurant","name":"Ochsenkopf German Delicatessen","lat":40.634945471087235,"lng":22.941783687986916,"url":"https://maps.app.goo.gl/B68oxS5kPucvmKVy7?g_st=ipc","address":"Αγορά Μοδιανο, Thessaloniki 546 24","categoryIds":["cheap-eats"],"categories":["Gyros & Cheap Eats"]},{"id":"cheapEatsRestaurants_2a4da9b1c110","slug":"grn-2a4d","kind":"restaurant","name":"ΓΡΝ","lat":40.634922554090494,"lng":22.9424405001041,"url":"https://maps.app.goo.gl/QeUW3QZjeTvschnB8?g_st=ipc","address":"Ermou 24, Thessaloniki 546 24","categoryIds":["cheap-eats"],"categories":["Gyros & Cheap Eats"]},{"id":"cheapEatsRestaurants_12c533aae8f8","slug":"derlicatesen-all-souvlaki-12c5","kind":"restaurant","name":"Derlicatesen all Souvlaki","lat":40.630948535574674,"lng":22.944881639476645,"url":"https://maps.app.goo.gl/nooaQmgbY9VX2WGv7?g_st=ipc","address":"John Kouskoura 3, Thessaloniki 546 22","categoryIds":["cheap-eats"],"categories":["Gyros & Cheap Eats"]},{"id":"cheapEatsRestaurants_0768eebe37ba","slug":"o-gyros-tis-aristoteloys-0768","kind":"restaurant","name":"Ο Γύρος της Αριστοτέλους","lat":40.63507047582695,"lng":22.94368729541851,"url":"https://maps.app.goo.gl/j8pVp1d58tFR3FKR6?g_st=ipc","address":"Aristotélous 24, Thessaloniki 546 23","categoryIds":["cheap-eats"],"categories":["Gyros & Cheap Eats"]},{"id":"cheapEatsRestaurants_7d5766fbf936","slug":"sesoula-street-food-7d57","kind":"restaurant","name":"SESOULA Street Food","lat":40.63477422793839,"lng":22.937577409662797,"url":"https://maps.app.goo.gl/831RBk3hM78pZN1a8?g_st=ipc","address":"Mitropoleos 6, Thessaloniki 546 25","categoryIds":["cheap-eats"],"categories":["Gyros & Cheap Eats"]},{"id":"cheapEatsRestaurants_6c50423bab44","slug":"hot-pot-pasteria-city-center-6c50","kind":"restaurant","name":"Hot Pot Pasteria City Center","lat":40.63116120039778,"lng":22.946781922089382,"url":"https://maps.app.goo.gl/VGaiUJdvDDnid5Kk9?g_st=ipc","address":"Paleon Patron Germanou 12, Thessaloniki 546 22","categoryIds":["cheap-eats"],"categories":["Gyros & Cheap Eats"]}],"nearby":[{"id":"coffeeBrunchRestaurants_3daa295f084c","slug":"olympion-cafe-bar-1951-3daa","kind":"restaurant","name":"Olympion Cafe Bar 1951","lat":40.632694674088896,"lng":22.941732044946015,"url":"https://maps.app.goo.gl/jjCCeEkXCKm7ow7v6?g_st=ipc","address":"Aristotelous Sq 10, Thessaloniki 546 23","categoryIds":["coffee-brunch"],"categories":["Coffee & Brunch Spots"],"distanceKm":0.044338639125308145},{"id":"cheapEatsRestaurants_284a6ef1dfeb","slug":"the-last-slice-284a","kind":"restaurant","name":"The Last Slice","lat":40.63188753569458,"lng":22.94190837965703,"url":"https://maps.app.goo.gl/iyZQfPWo4E2pskqX8?g_st=ipc","address":"Proxenou Koromila 1, Thessaloniki 546 23","categoryIds":["cheap-eats","italian"],"categories":["Gyros & Cheap Eats","Italian Restaurants"],"legacySlugs":["the-last-slice-2302"],"distanceKm":0.0580917371690243},{"id":"dessertsRestaurants_9a44dfef37c2","slug":"softie-9a44","kind":"restaurant","name":"Softie","lat":40.63175293928538,"lng":22.94216885639287,"url":"https://maps.app.goo.gl/wypmiNMsE5au37Mr7?g_st=ic","address":"Proxenou Koromila 5, Thessaloniki 546 23","categoryIds":["desserts"],"categories":["Dessert Shops"],"distanceKm":0.08325551414824192},{"id":"dessertsRestaurants_fa6b1cda2935","slug":"terkenlis-fa6b","kind":"restaurant","name":"Terkenlis","lat":40.63318101509439,"lng":22.941941930979123,"url":"https://maps.app.goo.gl/x8RmTioRat9tbKBd8?g_st=ipc","address":"Tsimiski 30, Thessaloniki 546 36","categoryIds":["desserts"],"categories":["Dessert Shops"],"distanceKm":0.10117996136534846},{"id":"rooftopLoungesRestaurants_c00e2007b8c8","slug":"orizontes-roof-garden-c00e","kind":"restaurant","name":"Orizontes Roof Garden","lat":40.63324843271599,"lng":22.94121400261453,"url":"https://maps.app.goo.gl/k4RMBTJaYnWPwHrU7?g_st=ipc","address":"Aristotelous Sq 9, Thessaloniki 546 24","categoryIds":["rooftop-lounges"],"categories":["Rooftop Lounges"],"distanceKm":0.10609397813885818},{"id":"coffeeBrunchRestaurants_5c966e24d1c8","slug":"pantheon-bar-5c96","kind":"restaurant","name":"Pantheon Bar","lat":40.631470349652666,"lng":22.942304739075517,"url":"https://maps.app.goo.gl/9EzJNfobuDEBDMXt9?g_st=ipc","address":"Proxenou Koromila 8, Thessaloniki 546 23","categoryIds":["coffee-brunch"],"categories":["Coffee & Brunch Spots"],"distanceKm":0.11524789511102111},{"id":"italianRestaurants_7c05bdca6535","slug":"apallou-7c05","kind":"restaurant","name":"Apallou","lat":40.6319800622151,"lng":22.942842887749638,"url":"https://maps.app.goo.gl/gJ5jrWEXwAbU6ynW8?g_st=ipc","address":"Μητροπόλεως &, Karolou Ntil 10, Thessaloniki 546 23","categoryIds":["italian"],"categories":["Italian Restaurants"],"distanceKm":0.11700489660226576},{"id":"cheapEatsRestaurants_c606c6424912","slug":"cong-vietasian-street-food-c606","kind":"restaurant","name":"Cong | Vietasian Street Food","lat":40.63147206727124,"lng":22.942501320363125,"url":"https://maps.app.goo.gl/gyhw2UWMtxWKgMui6?g_st=ipc","address":"Proxenou Koromila 9, Thessaloniki 546 23","categoryIds":["cheap-eats"],"categories":["Gyros & Cheap Eats"],"distanceKm":0.1252238899036372},{"id":"coffeeBrunchRestaurants_7d9521648c08","slug":"gellissimo-biscoto-brunch-coffee-thessaloniki-7d95","kind":"restaurant","name":"Gellissimo Biscoto | Brunch • Coffee | Thessaloniki","lat":40.63140115464137,"lng":22.942410197737622,"url":"https://maps.app.goo.gl/wcnUMwvELMBCafND6?g_st=ipc","address":"Proxenou Koromila 8, Thessaloniki 546 23","categoryIds":["coffee-brunch","desserts"],"categories":["Coffee & Brunch Spots","Dessert Shops"],"legacySlugs":["gellissimo-biscoto-brunch-coffee-thessaloniki-d34c"],"distanceKm":0.12665953965779683},{"id":"italianRestaurants_cb35e3b45188","slug":"margherita-cb35","kind":"restaurant","name":"MARGHERITA","lat":40.631390383048206,"lng":22.94264327325537,"url":"https://maps.app.goo.gl/TiNtp5tDGN6Eji5d9?g_st=ipc","address":"Proxenou Koromila 11, Thessaloniki 546 23","categoryIds":["italian"],"categories":["Italian Restaurants"],"distanceKm":0.13995813466610524},{"id":"coffeeBrunchRestaurants_3b150a298ebf","slug":"tribeca-3b15","kind":"restaurant","name":"Tribeca","lat":40.631124138525365,"lng":22.9420760162127,"url":"https://maps.app.goo.gl/mW7fQGRSkeQqkwf8A?g_st=ipc","address":"Leof. Nikis 21, Thessaloniki 546 23","categoryIds":["coffee-brunch"],"categories":["Coffee & Brunch Spots"],"distanceKm":0.1412277730065221},{"id":"coffeeBrunchRestaurants_987872bb6308","slug":"country-breadery-9878","kind":"restaurant","name":"COUNTRY BREADERY","lat":40.63135416254277,"lng":22.942765966640508,"url":"https://maps.app.goo.gl/xymcn1s9hE8P57deA?g_st=ipc","address":"Proxenou Koromila 13, Thessaloniki 546 23","categoryIds":["coffee-brunch"],"categories":["Coffee & Brunch Spots"],"distanceKm":0.14996356095174831},{"id":"coffeeBrunchRestaurants_c75ff3cb9f5e","slug":"rafiki-outdoors-c75f","kind":"restaurant","name":"Rafiki Outdoors","lat":40.63384593288072,"lng":22.94144670060357,"url":"https://maps.app.goo.gl/EDFEAtyxnASt6ymy5?g_st=ipc","address":"Tsimiski 33, Thessaloniki 546 34","categoryIds":["coffee-brunch"],"categories":["Coffee & Brunch Spots"],"distanceKm":0.16921368022009917},{"id":"luxuryDiningRestaurants_1c1d2a89028b","slug":"clochard-1c1d","kind":"restaurant","name":"Clochard","lat":40.63347961221164,"lng":22.940223853089645,"url":"https://maps.app.goo.gl/kbkr5X52jL9fcqFi7?g_st=ipc","address":"Κομνηνών 10, Mitropoleos 23, Thessaloniki 546 24","categoryIds":["luxury-dining"],"categories":["Luxury Dining"],"distanceKm":0.16933811427689544},{"id":"italianRestaurants_60ef8fd1f6df","slug":"high-school-pizza-bar-60ef","kind":"restaurant","name":"High School Pizza Bar","lat":40.63257762535487,"lng":22.939550561883348,"url":"https://maps.app.goo.gl/CkxsQoyZaG8gTuWG9?g_st=ipc","address":"Leof. Nikis 9Α, Thessaloniki 546 24","categoryIds":["italian"],"categories":["Italian Restaurants"],"distanceKm":0.1696408475146316},{"id":"coffeeBrunchRestaurants_eb01fc18d144","slug":"mangiare-gastro-pizza-pasta-bar-eb01","kind":"restaurant","name":"Mangiare Gastro Pizza Pasta Bar","lat":40.63353783457787,"lng":22.939678053388604,"url":"https://maps.app.goo.gl/aWDb6qE5HF6MmFreA?g_st=ipc","address":"Mitropoleos 20, Thessaloniki 546 24","categoryIds":["coffee-brunch"],"categories":["Coffee & Brunch Spots"],"distanceKm":0.20658694381466303},{"id":"fishTavernasRestaurants_922d6e12caee","slug":"grada-nuevo-922d","kind":"restaurant","name":"Grada nuevo","lat":40.63326503370027,"lng":22.939389299837984,"url":"https://maps.app.goo.gl/rQ6F7EFgSPvzE7iK6?g_st=ipc","address":"Kalapothaki 14, Thessaloniki 546 24","categoryIds":["fish-tavernas","luxury-dining"],"categories":["Fish Tavernas","Luxury Dining"],"legacySlugs":["grada-nuevo-c78b"],"distanceKm":0.20891023261855904},{"id":"asianRestaurants_788113ad98ac","slug":"sushaki-greek-sushi-experience-7881","kind":"restaurant","name":"Sushaki | Greek Sushi Experience","lat":40.63309136297845,"lng":22.939152229553493,"url":"https://maps.app.goo.gl/ggCr6zagpbao1wwt9","address":"Komninon 3, Thessaloniki 546 24","categoryIds":["asian"],"categories":["Asian Restaurants"],"distanceKm":0.21822169385027612},{"id":"rooftopLoungesRestaurants_37ff1d604564","slug":"ennea-rooftop-bar-37ff","kind":"restaurant","name":"Ennea Rooftop Bar","lat":40.63386856558694,"lng":22.943170697637683,"url":"https://maps.app.goo.gl/BC4vj2HMkPaRWUJY6?g_st=ipc","address":"MonAsty Thessaloniki Autograph Collection, Vasileos Irakleiou 45, Thessaloniki 546 23","categoryIds":["rooftop-lounges"],"categories":["Rooftop Lounges"],"distanceKm":0.2202961924451587},{"id":"asianRestaurants_169207d89dbd","slug":"sushi-city-1692","kind":"restaurant","name":"Sushi City","lat":40.633479553417104,"lng":22.939350429758118,"url":"https://maps.app.goo.gl/zBAUew3tfQKdJ3yX9","address":"Kalapothaki 7, Thessaloniki 546 45","categoryIds":["asian"],"categories":["Asian Restaurants"],"distanceKm":0.2244851600252224},{"id":"fishTavernasRestaurants_d0a79fe35429","slug":"7-thalasses-d0a7","kind":"restaurant","name":"7 Thalasses","lat":40.63335235155445,"lng":22.93920259335502,"url":"https://maps.app.goo.gl/Y7xSN6vCv7jLy7oPA?g_st=ipc","address":"Kalapothaki 10, Thessaloniki 546 24","categoryIds":["fish-tavernas","luxury-dining"],"categories":["Fish Tavernas","Luxury Dining"],"legacySlugs":["7-thalasses-f9b8"],"distanceKm":0.22740995047805856},{"id":"coffeeBrunchRestaurants_b487090aef38","slug":"moonkiz-cafe-b487","kind":"restaurant","name":"Moonkiz Café","lat":40.63268245780202,"lng":22.944199601012993,"url":"https://maps.app.goo.gl/34HUt3Zqr1wPaAQUA?g_st=ipc","address":"Geor. Stavrou 8, Thessaloniki 546 23","categoryIds":["coffee-brunch"],"categories":["Coffee & Brunch Spots"],"distanceKm":0.2284771837430012},{"id":"fishTavernasRestaurants_34f5266090d9","slug":"frutti-di-mare-34f5","kind":"restaurant","name":"Frutti Di Mare","lat":40.63438694848729,"lng":22.940888460152426,"url":"https://maps.app.goo.gl/QXynDpqsYRkbv9EK8?g_st=ipc","address":"Komninon 20, Thessaloniki 546 24","categoryIds":["fish-tavernas"],"categories":["Fish Tavernas"],"distanceKm":0.2355833210701211},{"id":"cheapEatsRestaurants_e9c2d48343e0","slug":"bombidia-bombs-e9c2","kind":"restaurant","name":"Bombídia - Bombs","lat":40.63441434318281,"lng":22.94206825187552,"url":"https://maps.app.goo.gl/a5enHSGzpNb2rYAJ7?g_st=ipc","address":"Vasileos Irakleiou 35, 37, Thessaloniki 546 24","categoryIds":["cheap-eats"],"categories":["Gyros & Cheap Eats"],"distanceKm":0.2366077375169216}],"sameRegion":[],"mentionedGuides":[],"canonicalSlug":"22-soyvlakia-d080","isCanonicalEntity":true,"enrichment":{"summary_en":"22 Σουβλάκια is a curated restaurant in Thessaloniki 546 23 in the Gyros & Cheap Eats collection. It is connected to 184 nearby Googlementor picks to help travelers build a stronger local route.","summary_el":"22 Σουβλάκια είναι ένα επιλεγμένο σημείο φαγητού στην περιοχή Thessaloniki 546 23 και ανήκει στη συλλογή Gyros & Cheap Eats. Συνδέεται με 184 κοντινές προτάσεις του Googlementor για πιο ολοκληρωμένη εμπειρία.","vibe_tags":["curated","budget-friendly"],"best_for":["first-time visitors","food lovers","budget travelers"],"visit_moments":["lunch stop","dinner stop"],"practical_note":"Address and direct map link are available for easy turn-by-turn access.","nearby_walkable_count":184,"nearby_count_2km":259,"confidence":0.98},"areaContext":{"slug":"ladadika","name":"Ladadika"},"intentContexts":[{"href":"/cheap-eats/ladadika","label":"Gyros & Cheap Eats in Ladadika","categorySlug":"cheap-eats","categoryName":"Gyros & Cheap Eats","areaSlug":"ladadika","areaName":"Ladadika"}]},"__N_SSG":true}