{"pageProps":{"entity":{"id":"dessertsRestaurants_b80c1e7de6b5","slug":"antica-gelateria-di-roma-b80c","kind":"restaurant","name":"Antica Gelateria di Roma","lat":37.566618037126396,"lng":22.79578874005151,"url":"https://maps.app.goo.gl/VdKWZXmCT7JTwu2Z8?g_st=ipc","address":"3 Pharmakopoulou and Komninou, Ναύπλιο 211 00","categoryIds":["desserts"],"categories":["Dessert Shops"]},"sameCategory":[{"id":"dessertsRestaurants_90e20287b05d","slug":"mourtzis-pistachio-and-traditional-sweets-90e2","kind":"restaurant","name":"Mourtzis Pistachio and Traditional Sweets","lat":37.74642667880152,"lng":23.427540300709033,"url":"https://maps.app.goo.gl/9jp6Sh2msw2SifXAA?g_st=ipc","address":"Leof. Dimokratias 6, Egina 180 10","categoryIds":["desserts"],"categories":["Dessert Shops"]},{"id":"dessertsRestaurants_6414020a96d4","slug":"zacharoplasteio-pagoydis-6414","kind":"restaurant","name":"Ζαχαροπλαστείο Παγούδης","lat":37.74679830434482,"lng":23.428985997650265,"url":"https://maps.app.goo.gl/guSY4WfPHNdaof7B6?g_st=ipc","address":"Σπύρου Ρόδη 47, Αίγινα 180 10","categoryIds":["desserts"],"categories":["Dessert Shops"]},{"id":"dessertsRestaurants_0a8378cb10e5","slug":"chrysanthe-0a83","kind":"restaurant","name":"Chrysánthē","lat":37.04381316216458,"lng":22.112403710830222,"url":"https://maps.app.goo.gl/CqfQrVAqTCRArs3DA?g_st=ipc","address":"Ithomis 8, Kalamata 241 00","categoryIds":["desserts"],"categories":["Dessert Shops"]},{"id":"dessertsRestaurants_56efe2dc9d58","slug":"mama-s-sweethouse-56ef","kind":"restaurant","name":"Mama's Sweethouse","lat":37.04347618258237,"lng":22.112767283500112,"url":"https://maps.app.goo.gl/S4yCk6avJpgbawKA7?g_st=ipc","address":"Amfias 20, Kalamata 241 00","categoryIds":["desserts"],"categories":["Dessert Shops"]},{"id":"dessertsRestaurants_485012761632","slug":"galaktopoleio-stamoy-peiraia-4850","kind":"restaurant","name":"Γαλακτοπωλείο ΣΤΑΜΟΥ, Πειραιά","lat":37.93559337890928,"lng":23.64309227138255,"url":"https://maps.app.goo.gl/msTiobs8vpLYrcz57?g_st=ipc","address":"Λεωφ. Αφεντούλη 16 &, Πραξιτέλους 243, Πειραιάς 185 36","categoryIds":["desserts"],"categories":["Dessert Shops"]},{"id":"dessertsRestaurants_bd4141abfc88","slug":"paylakis-zacharoplasteio-bd41","kind":"restaurant","name":"Παυλάκης Ζαχαροπλαστείο","lat":37.95571450585217,"lng":23.63113250439145,"url":"https://maps.app.goo.gl/uG9ew76UW6orfg278?g_st=ipc","address":"Σπάρτης 129, Πειραιάς 185 46","categoryIds":["desserts"],"categories":["Dessert Shops"]},{"id":"dessertsRestaurants_2ce344200b32","slug":"artozacharoplasteia-gavriilidis-2ce3","kind":"restaurant","name":"Αρτοζαχαροπλαστεία Γαβριηλίδης","lat":37.964134303993816,"lng":23.626317751280503,"url":"https://maps.app.goo.gl/JyTzpkU2ifwrGv839?g_st=ipc","address":"Λεωφ. Σαλαμίνος 71, Κερατσίνι 187 56","categoryIds":["desserts"],"categories":["Dessert Shops"]},{"id":"dessertsRestaurants_7b04a6c0e5e9","slug":"loukoumother-s-peiraias-7b04","kind":"restaurant","name":"Loukoumother's Πειραιάς","lat":37.93905157733481,"lng":23.647294517023667,"url":"https://maps.app.goo.gl/n5Dp63fF47u9TZuz6?g_st=ipc","address":"Ακτή Μουτσοπούλου 12, Πειραιάς 185 35","categoryIds":["desserts"],"categories":["Dessert Shops"]},{"id":"dessertsRestaurants_bfa57b4eb085","slug":"little-bear-piraeus-vegan-patisserie-bistro-bfa5","kind":"restaurant","name":"Little Bear Piraeus - Vegan Patisserie & Bistro","lat":37.946303720961154,"lng":23.647731238367324,"url":"https://maps.app.goo.gl/u2qFa1uh9dMczD9G6?g_st=ipc","address":"Ελ. Βενιζέλου 14, Πειραιάς 185 31","categoryIds":["desserts"],"categories":["Dessert Shops"]},{"id":"dessertsRestaurants_1148b5deca52","slug":"galaktopoleio-stamoy-1148","kind":"restaurant","name":"Γαλακτοπωλείο ΣΤΑΜΟΥ","lat":37.9652037202668,"lng":23.635596413779496,"url":"https://maps.app.goo.gl/rrTmftHWRasbJb7aA?g_st=ipc","address":"Πέτρου Ράλλη 438, Νίκαια 184 51","categoryIds":["desserts"],"categories":["Dessert Shops"]},{"id":"dessertsRestaurants_fc8742eefd51","slug":"loukoumothers-korydallos-fc87","kind":"restaurant","name":"Loukoumothers Korydallos","lat":37.97603620585146,"lng":23.64943855450405,"url":"https://maps.app.goo.gl/vMqPzYGSApLyRm1NA?g_st=ipc","address":"Ταξιαρχών &, Καψάλη 12, Κορυδαλλός 181 20","categoryIds":["desserts"],"categories":["Dessert Shops"]},{"id":"dessertsRestaurants_3dbefba5d853","slug":"galaktopoleio-stamoy-3dbe","kind":"restaurant","name":"Γαλακτοπωλείο ΣΤΑΜΟΥ","lat":37.98009558422181,"lng":23.657555522495652,"url":"https://maps.app.goo.gl/39ZNM4A7nfLV7BTBA?g_st=ipc","address":"Γρ. Λαμπράκη 120, Κορυδαλλός 181 21","categoryIds":["desserts"],"categories":["Dessert Shops"]}],"nearby":[{"id":"italianRestaurants_62cf2e5c270d","slug":"la-gratella-62cf","kind":"restaurant","name":"La Gratella","lat":37.56708420040735,"lng":22.796775177187325,"url":"https://maps.app.goo.gl/wA9xzqnbmvvq1Bqo8?g_st=ipc","address":"Vasilissis Olgas, Nafplio 211 00","categoryIds":["italian"],"categories":["Italian Restaurants"],"distanceKm":0.10122179421689056},{"id":"greekRestaurants_742eabdb9109","slug":"to-teloneio-742e","kind":"restaurant","name":"Το Τελωνείο","lat":37.56743155679151,"lng":22.79708632929498,"url":"https://maps.app.goo.gl/nh7yb45ifREfXwro7?g_st=ipc","address":"Ακτής Μιαούλη 83, Ναύπλιο 211 00","categoryIds":["greek-restaurants"],"categories":["Greek Restaurants"],"distanceKm":0.1458168633143782},{"id":"italianRestaurants_0d133bb8af27","slug":"itria-cucina-italiana-restaurant-0d13","kind":"restaurant","name":"ITRIA Cucina Italiana Restaurant","lat":37.567386909343334,"lng":22.797290266729004,"url":"https://maps.app.goo.gl/HHmGQxRgnuihmTyY7?g_st=ipc","address":"Boumpoulinas 81, Nafplio 211 00","categoryIds":["italian"],"categories":["Italian Restaurants"],"distanceKm":0.15755472004119625},{"id":"luxuryDiningRestaurants_e6807e074ed0","slug":"wild-duck-e680","kind":"restaurant","name":"Wild Duck","lat":37.56734308437463,"lng":22.797850601824372,"url":"https://maps.app.goo.gl/3WVLVVZ3Za8oDxQz6?g_st=ipc","address":"Boumpoulinas 67, Nafplio 211 00","categoryIds":["luxury-dining"],"categories":["Luxury Dining"],"distanceKm":0.19880843795223016},{"id":"luxuryDiningRestaurants_23db0e41115a","slug":"valaora-resto-nafplio-23db","kind":"restaurant","name":"Valaora Resto Nafplio","lat":37.56519719151896,"lng":22.793079460983854,"url":"https://maps.app.goo.gl/9jUDwjniZiSHynrk9?g_st=ipc","address":"Mpanieres, Boumpoulinas, Nafplio 211 00","categoryIds":["luxury-dining"],"categories":["Luxury Dining"],"distanceKm":0.28632707407870717},{"id":"mustSeeAttractions_c7dd65dae274","slug":"kastro-akronayplias-c7dd","kind":"restaurant","name":"Κάστρο Ακροναυπλίας","lat":37.56407670573787,"lng":22.793195253729316,"url":"https://maps.app.goo.gl/DkbZi8R48n8E7Qu76?g_st=ipc","address":"Άγγελου Τερζάκη 25, Ναύπλιο 211 00","categoryIds":["attractions"],"categories":["Must-See Attractions"],"distanceKm":0.3634640399050072},{"id":"italianRestaurants_74b63c612882","slug":"il-porto-74b6","kind":"restaurant","name":"Il Porto","lat":37.56732416244355,"lng":22.800888651268885,"url":"https://maps.app.goo.gl/vWaWFumGBn6ey64P6?g_st=ipc","address":"Μπουμπουλίνας 43, Ναύπλιο 211 00","categoryIds":["italian"],"categories":["Italian Restaurants"],"distanceKm":0.45630054794224467},{"id":"municipalities_6a56a10792f1","slug":"nayplio-6a56","kind":"municipality","name":"Ναύπλιο","lat":37.567,"lng":22.801,"aliases":["Nafplio","Nauplia","Ναυπλία","Ναυπλίων","Ναυπλιο","Ναυπλια"],"region":"Αργολίδα","name_en":"Nafplio","region_en":"Argolis","distanceKm":0.46126891168231965},{"id":"cheapEatsRestaurants_2ea89cfd165d","slug":"stavropoulos-meat-grill-nafplio-2ea8","kind":"restaurant","name":"Stavropoulos Meat & Grill Nafplio","lat":37.56729472413989,"lng":22.801012947686594,"url":"https://maps.app.goo.gl/iaJ7WLVkfAWX8uMY7?g_st=ipc","address":"Μπουμπουλίνας 43, Ναύπλιο 211 00","categoryIds":["cheap-eats"],"categories":["Gyros & Cheap Eats"],"distanceKm":0.4665571433999496},{"id":"cheapEatsRestaurants_af2ed2b481d6","slug":"trendy-grill-limani-nayplioy-af2e","kind":"restaurant","name":"Trendy Grill Λιμάνι Ναυπλίου","lat":37.56727361524451,"lng":22.801083825814366,"url":"https://maps.app.goo.gl/9EusCQot9r26ZXTs5?g_st=ipc","address":"Μπουμπουλίνας 41, Ναύπλιο 211 00","categoryIds":["cheap-eats"],"categories":["Gyros & Cheap Eats"],"distanceKm":0.4723556166143928},{"id":"greekRestaurants_7230005d3481","slug":"skarpeta-skarpeta-7230","kind":"restaurant","name":"Σκαρπέτα | Skarpeta","lat":37.56454091062987,"lng":22.80102416836778,"url":"https://maps.app.goo.gl/y1tbJ7Ka9yN8RJXn7?g_st=ipc","address":"Πάρκο, Σταϊκοπούλου, Ναύπλιο 211 00","categoryIds":["greek-restaurants"],"categories":["Greek Restaurants"],"distanceKm":0.5160220257129653},{"id":"coffeeBrunchRestaurants_4eafd9c8fe54","slug":"ar-ko-4eaf","kind":"restaurant","name":"Ar&Ko","lat":37.565832099209665,"lng":22.80288803557191,"url":"https://maps.app.goo.gl/VsqimzGRSLvrL3FN7?g_st=ipc","address":"Πάρκο Κολοκοτρώνη, Vasileos Pavlou, Nafplio 211 00","categoryIds":["coffee-brunch"],"categories":["Coffee & Brunch Spots"],"distanceKm":0.6317951439205103},{"id":"mustSeeAttractions_17b8ded02742","slug":"froyrio-palamidioy-17b8","kind":"restaurant","name":"Φρούριο Παλαμηδίου","lat":37.562018953170636,"lng":22.803816386211206,"url":"https://maps.app.goo.gl/JVvCKFqv1vyzhKAP7?g_st=ipc","address":"Παλαμηδίου, Ναύπλιο 211 00","categoryIds":["attractions"],"categories":["Must-See Attractions"],"distanceKm":0.8730237803007433},{"id":"rooftopLoungesRestaurants_3af9241259c9","slug":"liberty-view-of-nafplio-3af9","kind":"restaurant","name":"Liberty View Of Nafplio","lat":37.56620313105519,"lng":22.806200235013893,"url":"https://maps.app.goo.gl/rQCJ25nGMgqPtznc9?g_st=ipc","address":"Σιδηράς Μεραρχίας 39, Ναύπλιο 211 00","categoryIds":["rooftop-lounges"],"categories":["Rooftop Lounges"],"distanceKm":0.9188109711208295},{"id":"coffeeBrunchRestaurants_1d9f7f941901","slug":"liberty-view-of-nafplio-1d9f","kind":"restaurant","name":"Liberty View Of Nafplio","lat":37.56620305969031,"lng":22.806201213990434,"url":"https://maps.app.goo.gl/ZB4UYRxyx55zXBkS9?g_st=ipc","address":"Sidiras Merarchias 39, Nafplio 211 00","categoryIds":["coffee-brunch"],"categories":["Coffee & Brunch Spots"],"distanceKm":0.9188975465527875},{"id":"greekRestaurants_0e937f9c9d72","slug":"pidalio-restaurant-0e93","kind":"restaurant","name":"Πηδάλιο -Restaurant","lat":37.56488349870354,"lng":22.8061371647206,"url":"https://maps.app.goo.gl/gpipbAd1f2YeqATv9?g_st=ipc","address":"25ης Μαρτίου 5, Ναύπλιο 211 00","categoryIds":["greek-restaurants"],"categories":["Greek Restaurants"],"distanceKm":0.9322703616819618},{"id":"greekRestaurants_22138bcb321f","slug":"taverna-kokoromytis-2213","kind":"restaurant","name":"Ταβέρνα Κοκορομύτης","lat":37.57233337813603,"lng":22.83006926532932,"url":"https://maps.app.goo.gl/BSHNHo6Xw2QuP8Kw5?g_st=ipc","address":"Μουσών, Άρια 211 00","categoryIds":["greek-restaurants"],"categories":["Greek Restaurants"],"distanceKm":3.0874200624226584},{"id":"mustSeeAttractions_280c2fbdfcc2","slug":"tiryntha-280c","kind":"restaurant","name":"Τίρυνθα","lat":37.596581091934894,"lng":22.800009234306064,"url":"https://maps.app.goo.gl/qq546eKqcWFHVGyWA?g_st=ipc","address":"Tirintha 211 00","categoryIds":["attractions"],"categories":["Must-See Attractions"],"distanceKm":3.352433068616348},{"id":"municipalities_7a743f4f2d77","slug":"tolo-7a74","kind":"municipality","name":"Τολό","lat":37.5211,"lng":22.8583,"region":"Αργολίδα","name_en":"Tolo","region_en":"Argolis","distanceKm":7.482780986538544},{"id":"greekRestaurants_730d57299d9e","slug":"t-alonia-paradosiaki-elliniki-taverna-730d","kind":"restaurant","name":"«Τ' ΑΛΩΝΙΑ» Παραδοσιακή Ελληνική Ταβέρνα","lat":37.5821792332292,"lng":22.878688681857938,"url":"https://maps.app.goo.gl/NA8tRJoQnezLcqzT6?g_st=ipc","address":"Γεωρ. Γεννηματά 8, Πυργιώτικα 211 00","categoryIds":["greek-restaurants"],"categories":["Greek Restaurants"],"distanceKm":7.507989773328486},{"id":"greekRestaurants_3deccfb243c6","slug":"maria-s-restaurant-3dec","kind":"restaurant","name":"Maria's Restaurant","lat":37.52164513322119,"lng":22.86050581823376,"url":"https://maps.app.goo.gl/QbgkBU617RxRPjsA9?g_st=ipc","address":"Μπουμπουλίνας 48, Τολό 210 56","categoryIds":["greek-restaurants"],"categories":["Greek Restaurants"],"distanceKm":7.587048239271963},{"id":"greekRestaurants_456e04c6f039","slug":"taverna-akrogiali-456e","kind":"restaurant","name":"Ταβέρνα Ακρογιάλι","lat":37.52046536124531,"lng":22.859758080550037,"url":"https://maps.app.goo.gl/ozgqdAjUGP2zDfVP7?g_st=ipc","address":"Ακτης 10, Τολό 210 56","categoryIds":["greek-restaurants"],"categories":["Greek Restaurants"],"distanceKm":7.625294173538089},{"id":"greekRestaurants_2ba865e52e42","slug":"romvi-restaurant-2ba8","kind":"restaurant","name":"Romvi Restaurant","lat":37.51773326708392,"lng":22.85851725425822,"url":"https://maps.app.goo.gl/e71iANV4U9yZU48u9?g_st=ipc","address":"Τολό 210 56","categoryIds":["greek-restaurants"],"categories":["Greek Restaurants"],"distanceKm":7.754651871089827},{"id":"fishTavernasRestaurants_772314841aeb","slug":"tripia-sayionara-tavern-7723","kind":"restaurant","name":"Tripia Sayionara Tavern","lat":37.51747745166334,"lng":22.85839744503769,"url":"https://maps.app.goo.gl/EEU9XawrL4yhTEhm7?g_st=ipc","address":"εισοδος απο παραλια, Elevtheriou Veniavelou 4, Tolo 210 56","categoryIds":["fish-tavernas"],"categories":["Fish Tavernas"],"distanceKm":7.767113526924259}],"sameRegion":[],"mentionedGuides":[],"canonicalSlug":"antica-gelateria-di-roma-b80c","isCanonicalEntity":true,"enrichment":{"summary_en":"Antica Gelateria di Roma is a curated restaurant in Ναύπλιο 211 00 in the Dessert Shops collection. It is connected to 12 nearby Googlementor picks to help travelers build a stronger local route.","summary_el":"Antica Gelateria di Roma είναι ένα επιλεγμένο σημείο φαγητού στην περιοχή Ναύπλιο 211 00 και ανήκει στη συλλογή Dessert Shops. Συνδέεται με 12 κοντινές προτάσεις του Googlementor για πιο ολοκληρωμένη εμπειρία.","vibe_tags":["curated","sweet-stop"],"best_for":["first-time visitors","food lovers"],"visit_moments":["afternoon break","after dinner"],"practical_note":"Address and direct map link are available for easy turn-by-turn access.","nearby_walkable_count":12,"nearby_count_2km":16,"confidence":0.98},"areaContext":{"slug":"nayplio","name":"Nafplio"},"intentContexts":[]},"__N_SSG":true}