{"pageProps":{"entity":{"id":"municipalities_509e8926d849","slug":"areopoli-509e","kind":"municipality","name":"Αρεόπολη","lat":36.6667,"lng":22.3833,"region":"Μάνη","name_en":"Areopoli","region_en":"Mani"},"sameCategory":[],"nearby":[{"id":"luxuryDiningRestaurants_572c742b427a","slug":"teloneio-572c","kind":"restaurant","name":"Teloneio","lat":36.679751486113695,"lng":22.377303718290054,"url":"https://maps.app.goo.gl/yvA5KkBJg5eZfsvV9?g_st=ipc","address":"Limeni 230 62","categoryIds":["luxury-dining"],"categories":["Luxury Dining"],"distanceKm":1.5466535002685986},{"id":"fishTavernasRestaurants_665f7217dc6b","slug":"black-pirate-665f","kind":"restaurant","name":"Black Pirate","lat":36.690856383249425,"lng":22.389756995558262,"url":"https://maps.app.goo.gl/heQpgB74pYJ6gzkA7?g_st=ipc","address":"Νέο Οίτυλο 230 62","categoryIds":["fish-tavernas"],"categories":["Fish Tavernas"],"distanceKm":2.7470944985573085},{"id":"mustSeeAttractions_a11f312d6e9f","slug":"caves-of-diros-a11f","kind":"restaurant","name":"Caves of Diros","lat":36.63819892596898,"lng":22.38069545600633,"url":"https://maps.app.goo.gl/Quro2ZP1jQNXZ1M5A?g_st=ipc","address":"Pyrgos Dirou 230 63","categoryIds":["attractions"],"categories":["Must-See Attractions"],"distanceKm":3.1776806772924258},{"id":"greekRestaurants_35c3e15ee9bd","slug":"drosopigi-chasapotaverna-mani-35c3","kind":"restaurant","name":"Δροσοπηγή Χασαποταβέρνα Μάνη.","lat":36.67483709727042,"lng":22.460812585960976,"url":"https://maps.app.goo.gl/Wggw4Prn73TfQ9b49?g_st=ipc","address":"MFF6+W8, Δροσοπηγή 232 00","categoryIds":["greek-restaurants"],"categories":["Greek Restaurants"],"distanceKm":6.972095938919778},{"id":"municipalities_44f0c923cf66","slug":"skoytari-44f0","kind":"municipality","name":"Σκουτάρι","lat":36.716,"lng":22.55,"region":"Λακωνία","name_en":"Skoutari","region_en":"Laconia","distanceKm":15.842225390368935},{"id":"municipalities_69975f7e3686","slug":"mayrovoyni-6997","kind":"municipality","name":"Μαυροβούνι","lat":36.7275,"lng":22.5564,"region":"Λακωνία","name_en":"Mavrovouni","region_en":"Laconia","distanceKm":16.848881010620456},{"id":"municipalities_3a3d61a31c8f","slug":"gytheio-3a3d","kind":"municipality","name":"Γύθειο","lat":36.7572,"lng":22.5644,"aliases":["Gytheio","Ytheio"],"region":"Λακωνία","name_en":"Gytheio","region_en":"Laconia","distanceKm":19.022839891028916},{"id":"fishTavernasRestaurants_2a678cfe2dc0","slug":"saga-fish-restaurant-2a67","kind":"restaurant","name":"SAGA FISH RESTAURANT","lat":36.75609227671703,"lng":22.56974766830783,"url":"https://maps.app.goo.gl/pjwBsRKTeWC7U2RX6?g_st=ipc","address":"ΤΖΑΝΝΗ ΤΖΑΝΕΤΑΚΗ, Githio 232 00","categoryIds":["fish-tavernas"],"categories":["Fish Tavernas"],"distanceKm":19.36559624467761},{"id":"italianRestaurants_7cdf3cff14bf","slug":"matapan-7cdf","kind":"restaurant","name":"Matapan","lat":36.46823478580051,"lng":22.433052583594144,"url":"https://maps.app.goo.gl/TuYwccr3Zm9yxfa36?g_st=ipc","address":"ΕΠΑΡΧΙΑΚΗ ΟΔΟΣ ΓΕΡΟΛΙΜΕΝΑ ΒΑΘΕΙΑΣ, Alika 230 71","categoryIds":["italian"],"categories":["Italian Restaurants"],"distanceKm":22.511182920431224},{"id":"coffeeBrunchRestaurants_b9249c7456d4","slug":"patriko-pub-cafe-b924","kind":"restaurant","name":"Patriko Pub-Cafe","lat":36.844945849235245,"lng":22.259663624938703,"url":"https://maps.app.goo.gl/cmXtN3A11tRUN13MA?g_st=ipc","address":"Παραλία Στούπας, Stoupa 240 24","categoryIds":["coffee-brunch"],"categories":["Coffee & Brunch Spots"],"distanceKm":22.674979462587952},{"id":"municipalities_c096fa7dc3e8","slug":"stoypa-c096","kind":"municipality","name":"Στούπα","lat":36.8437,"lng":22.2511,"region":"Μάνη","name_en":"Stoupa","region_en":"Mani","distanceKm":22.936286940838798},{"id":"greekRestaurants_6d7b8e02049c","slug":"aspalathos-6d7b","kind":"restaurant","name":"Ασπάλαθος","lat":36.453072766043654,"lng":22.4675679786435,"url":"https://maps.app.goo.gl/yR5M4bLGpXTTrKg87?g_st=ipc","address":"Βαθεια Μανη Μανη, 230 61","categoryIds":["greek-restaurants"],"categories":["Greek Restaurants"],"distanceKm":24.918112197760063},{"id":"municipalities_916c7fc5dbd0","slug":"kardamyli-916c","kind":"municipality","name":"Καρδαμύλη","lat":36.887,"lng":22.231,"region":"Μάνη","name_en":"Kardamyli","region_en":"Mani","distanceKm":28.001074616845102},{"id":"greekRestaurants_bea663c90687","slug":"old-kardamili-traditional-restaurant-bea6","kind":"restaurant","name":"Old Kardamili Traditional Restaurant","lat":36.89060323769192,"lng":22.234603142422902,"url":"https://maps.app.goo.gl/6q92ZmmxYbRjcPAK7?g_st=ipc","address":"Καρδαμύλη 240 22","categoryIds":["greek-restaurants"],"categories":["Greek Restaurants"],"distanceKm":28.19998052489367},{"id":"fishTavernasRestaurants_46da75bbca86","slug":"kitro-beach-bar-46da","kind":"restaurant","name":"KITRO beach bar","lat":36.929308748219135,"lng":22.141911839670122,"url":"https://maps.app.goo.gl/UZ9gptAC7Z6jkYbL6?g_st=ipc","address":"Kitries 240 16","categoryIds":["fish-tavernas"],"categories":["Fish Tavernas"],"distanceKm":36.25790161452326}],"sameRegion":[{"id":"municipalities_916c7fc5dbd0","slug":"kardamyli-916c","kind":"municipality","name":"Καρδαμύλη","lat":36.887,"lng":22.231,"region":"Μάνη","name_en":"Kardamyli","region_en":"Mani"},{"id":"municipalities_c096fa7dc3e8","slug":"stoypa-c096","kind":"municipality","name":"Στούπα","lat":36.8437,"lng":22.2511,"region":"Μάνη","name_en":"Stoupa","region_en":"Mani"}],"mentionedGuides":[],"canonicalSlug":"areopoli-509e","isCanonicalEntity":true,"enrichment":{"summary_en":"Αρεόπολη is a curated neighborhood area in Μάνη. It is connected to 0 nearby Googlementor picks to help travelers build a stronger local route.","summary_el":"Αρεόπολη είναι ένα επιλεγμένο σημείο ενδιαφέροντος στην περιοχή Μάνη. Συνδέεται με 0 κοντινές προτάσεις του Googlementor για πιο ολοκληρωμένη εμπειρία.","vibe_tags":["local-neighborhood","base-for-exploring"],"best_for":["first-time visitors","walk-and-explore days","return visitors"],"visit_moments":["late morning walks","sunset exploration"],"practical_note":"0 curated places are within walkable distance from this area center.","nearby_walkable_count":0,"nearby_count_2km":1,"confidence":0.55},"areaContext":null,"intentContexts":[]},"__N_SSG":true}