{"pageProps":{"entity":{"id":"dessertsRestaurants_509c5344d793","slug":"armenonville-509c","kind":"restaurant","name":"Armenonville","lat":40.62813210913547,"lng":22.94876500137915,"url":"https://maps.app.goo.gl/3MMykvcTvkcMNqrA6?g_st=ipc","address":"Mitropoleos 102, Thessaloniki 546 21","categoryIds":["desserts"],"categories":["Dessert Shops"]},"sameCategory":[{"id":"dessertsRestaurants_d6293efcb0d5","slug":"sugarela-d629","kind":"restaurant","name":"Sugarela","lat":40.628286349246984,"lng":22.94919276720608,"url":"https://maps.app.goo.gl/BWRmuMRqDoq6N7MH8?g_st=ipc","address":"Nikiforou Foka 12, Thessaloniki 546 21","categoryIds":["desserts"],"categories":["Dessert Shops"]},{"id":"dessertsRestaurants_28a0c1dca6b8","slug":"trigona-elenidi-28a0","kind":"restaurant","name":"Trigona Elenidi","lat":40.62886737433407,"lng":22.948457330769024,"url":"https://maps.app.goo.gl/CrarZvo5GUHnGW4C7?g_st=ipc","address":"Dim. Gounari 13, Thessaloniki 546 22","categoryIds":["desserts"],"categories":["Dessert Shops"]},{"id":"cheapEatsRestaurants_09ba201c7611","slug":"yum-tree-09ba","kind":"restaurant","name":"Yum Tree","lat":40.62786595411914,"lng":22.947554429551257,"url":"https://maps.app.goo.gl/8t8Wb8QaYGPzQ1F76?g_st=ipc","address":"Dim. Gounari 5, Thessaloniki 546 22","categoryIds":["cheap-eats","desserts"],"categories":["Gyros & Cheap Eats","Dessert Shops"],"legacySlugs":["yum-tree-9cb3"]},{"id":"dessertsRestaurants_ff4e4669779d","slug":"bombolo-ff4e","kind":"restaurant","name":"BOMBOLO","lat":40.628931168792896,"lng":22.947385328416402,"url":"https://maps.app.goo.gl/KrVfLWu1YhMe94yS8?g_st=ipc","address":"Mitropoleos 88, Thessaloniki 546 22","categoryIds":["desserts"],"categories":["Dessert Shops"]},{"id":"dessertsRestaurants_90fef645e082","slug":"fatto-a-mano-90fe","kind":"restaurant","name":"Fatto a Mano","lat":40.63009258953706,"lng":22.9479003155248,"url":"https://maps.app.goo.gl/nU8Tq4Vjr5TS7bBeA?g_st=ipc","address":"P. Mela 20, Thessaloniki 546 22","categoryIds":["desserts"],"categories":["Dessert Shops"]},{"id":"dessertsRestaurants_11a9a0429f5e","slug":"sugar-confectionery-11a9","kind":"restaurant","name":"Sugar Confectionery","lat":40.63028200470032,"lng":22.948376451004588,"url":"https://maps.app.goo.gl/ZJHSRbMxNSqCmdKCA?g_st=ipc","address":"Lordou Vironos 7, Thessaloniki 546 22","categoryIds":["desserts"],"categories":["Dessert Shops"]},{"id":"dessertsRestaurants_9bbc0c355797","slug":"agapame-to-katsikisio-gala-9bbc","kind":"restaurant","name":"Αγαπάμε το κατσικίσιο γάλα","lat":40.63062994509152,"lng":22.947679865531065,"url":"https://maps.app.goo.gl/U3wBWwpBXDhPzkpc6?g_st=ipc","address":"P. Mela 28, Thessaloniki 546 22","categoryIds":["desserts"],"categories":["Dessert Shops"]},{"id":"dessertsRestaurants_8263a8db76c8","slug":"valentino-crepes-8263","kind":"restaurant","name":"Valentino Crepes","lat":40.63057112442913,"lng":22.950154633509246,"url":"https://maps.app.goo.gl/nwvSZePQvBQzGocJ6?g_st=ipc","address":"Dim. Gounari 25, Thessaloniki 546 22","categoryIds":["desserts"],"categories":["Dessert Shops"]},{"id":"dessertsRestaurants_9d142e026cde","slug":"gelati-e-amore-9d14","kind":"restaurant","name":"Gelati e Amore","lat":40.63013548543496,"lng":22.951618020186764,"url":"https://maps.app.goo.gl/vMrAJXJCUj5tn2mDA?g_st=ipc","address":"Al. Svolou 44, Thessaloniki 546 21","categoryIds":["desserts"],"categories":["Dessert Shops"]},{"id":"asianRestaurants_aa56878cf133","slug":"nagomi-jpn-aa56","kind":"restaurant","name":"Nagomi Jpn","lat":40.63061239454344,"lng":22.951225233616498,"url":"https://maps.app.goo.gl/8UyTpuy2ncGK15GJ6?g_st=ic","address":"Al. Svolou 41, Thessaloniki 546 22","categoryIds":["asian","desserts"],"categories":["Asian Restaurants","Dessert Shops"],"legacySlugs":["nagomi-jpn-eccd"]},{"id":"dessertsRestaurants_af6c4ad80b58","slug":"senol-af6c","kind":"restaurant","name":"Senol","lat":40.631655999978115,"lng":22.9479848979778,"url":"https://maps.app.goo.gl/TQFwjdg19bCqCfpz8?g_st=ipc","address":"Paleon Patron Germanou 23, Thessaloniki 546 22","categoryIds":["desserts"],"categories":["Dessert Shops"]},{"id":"dessertsRestaurants_ba34dec40f28","slug":"magoa-patisserie-chocolaterie-ba34","kind":"restaurant","name":"Magoa Patisserie-Chocolaterie","lat":40.63172247185242,"lng":22.9482457723652,"url":"https://maps.app.goo.gl/M7r6TuYWcBQ1KPRT8?g_st=ipc","address":"Paleon Patron Germanou 29, Thessaloniki 546 22","categoryIds":["desserts"],"categories":["Dessert Shops"]}],"nearby":[{"id":"cheapEatsRestaurants_f03e4dc68c8d","slug":"feyrouz-skg-f03e","kind":"restaurant","name":"Feyrouz SKG","lat":40.62813032194449,"lng":22.94911089919006,"url":"https://maps.app.goo.gl/pedu5yTx6WHSFd5MA?g_st=ipc","address":"Mitropoleos 125, Nikiforou Foka 8, Thessaloniki 546 21","categoryIds":["cheap-eats"],"categories":["Gyros & Cheap Eats"],"distanceKm":0.029191538632594508},{"id":"dessertsRestaurants_d6293efcb0d5","slug":"sugarela-d629","kind":"restaurant","name":"Sugarela","lat":40.628286349246984,"lng":22.94919276720608,"url":"https://maps.app.goo.gl/BWRmuMRqDoq6N7MH8?g_st=ipc","address":"Nikiforou Foka 12, Thessaloniki 546 21","categoryIds":["desserts"],"categories":["Dessert Shops"],"distanceKm":0.03996676171169856},{"id":"cheapEatsRestaurants_4326011ed54c","slug":"to-etsi-4326","kind":"restaurant","name":"Το Έτση","lat":40.627697688934035,"lng":22.94868143840882,"url":"https://maps.app.goo.gl/82yxHEuuzhZ7bD1T9?g_st=ipc","address":"Nikiforou Foka 2, Thessaloniki 546 21","categoryIds":["cheap-eats"],"categories":["Gyros & Cheap Eats"],"distanceKm":0.048817367359204236},{"id":"vegetarianRestaurants_40634af2ec79","slug":"falafel-taste-middle-east-4063","kind":"restaurant","name":"Falafel Taste Middle East","lat":40.62785484140031,"lng":22.949330420414434,"url":"https://maps.app.goo.gl/bHy6BTfdp9RBhdBt6?g_st=ipc","address":"Mitropoleos 106 &, Romanou, Thessaloniki 546 21","categoryIds":["vegetarian"],"categories":["Vegetarian Friendly Restaurants"],"distanceKm":0.056810385179028776},{"id":"dessertsRestaurants_28a0c1dca6b8","slug":"trigona-elenidi-28a0","kind":"restaurant","name":"Trigona Elenidi","lat":40.62886737433407,"lng":22.948457330769024,"url":"https://maps.app.goo.gl/CrarZvo5GUHnGW4C7?g_st=ipc","address":"Dim. Gounari 13, Thessaloniki 546 22","categoryIds":["desserts"],"categories":["Dessert Shops"],"distanceKm":0.0857816712644711},{"id":"greekRestaurants_9ca9bccdb731","slug":"diagonios-1977-9ca9","kind":"restaurant","name":"Διαγώνιος 1977","lat":40.628424051093205,"lng":22.94777702854618,"url":"https://maps.app.goo.gl/NGT8FMWUaiPpBxYGA?g_st=ipc","address":"Πλ. Φαναριωτῶν 2, Θεσσαλονίκη 546 22","categoryIds":["greek-restaurants"],"categories":["Greek Restaurants"],"distanceKm":0.08947310343337889},{"id":"coffeeBrunchRestaurants_9305c93ce682","slug":"canteen-all-day-bar-restaurant-9305","kind":"restaurant","name":"Canteen All day Bar Restaurant","lat":40.62803673619556,"lng":22.94769963358214,"url":"https://maps.app.goo.gl/M7potW66EBLTEfRx7?g_st=ipc","address":"Dim. Gounari 7, Thessaloniki 546 22","categoryIds":["coffee-brunch"],"categories":["Coffee & Brunch Spots"],"distanceKm":0.09053142053079546},{"id":"greekRestaurants_bc2682007b45","slug":"canteen-all-day-bar-restaurant-bc26","kind":"restaurant","name":"Canteen All day Bar Restaurant","lat":40.628045759253304,"lng":22.94769823250704,"url":"https://maps.app.goo.gl/4PvAxWQTpkBWbzxZ6?g_st=ipc","address":"Δημ. Γούναρη 7, Θεσσαλονίκη 546 22","categoryIds":["greek-restaurants"],"categories":["Greek Restaurants"],"distanceKm":0.09053694594815213},{"id":"fishTavernasRestaurants_d45de4d8396f","slug":"marea-sea-spirit-d45d","kind":"restaurant","name":"MAREA sea spirit","lat":40.628341964657956,"lng":22.947576121389986,"url":"https://maps.app.goo.gl/Ck1Kd1PfuHwFhziJ6?g_st=ipc","address":"Margariti Lori 13, Thessaloniki 546 22","categoryIds":["fish-tavernas"],"categories":["Fish Tavernas"],"distanceKm":0.10300915411601762},{"id":"coffeeBrunchRestaurants_47c3c430cfa2","slug":"in-house-project-47c3","kind":"restaurant","name":"In House Project","lat":40.62870471135404,"lng":22.947776924849798,"url":"https://maps.app.goo.gl/9KxXxviA2D5JhcSW7?g_st=ipc","address":"Mitropoleos 96, Thessaloniki 546 22","categoryIds":["coffee-brunch"],"categories":["Coffee & Brunch Spots"],"distanceKm":0.10491416704147466},{"id":"cheapEatsRestaurants_09ba201c7611","slug":"yum-tree-09ba","kind":"restaurant","name":"Yum Tree","lat":40.62786595411914,"lng":22.947554429551257,"url":"https://maps.app.goo.gl/8t8Wb8QaYGPzQ1F76?g_st=ipc","address":"Dim. Gounari 5, Thessaloniki 546 22","categoryIds":["cheap-eats","desserts"],"categories":["Gyros & Cheap Eats","Dessert Shops"],"legacySlugs":["yum-tree-9cb3"],"distanceKm":0.10636258033642175},{"id":"vegetarianRestaurants_b82222e81ca2","slug":"merry-berry-health-bar-b822","kind":"restaurant","name":"Merry Berry Health Bar","lat":40.62787788837935,"lng":22.947534537868144,"url":"https://maps.app.goo.gl/9NhW77pMY2C6xJxq8?g_st=ipc","address":"Dim. Gounari 5, Thessaloniki 546 22","categoryIds":["vegetarian"],"categories":["Vegetarian Friendly Restaurants"],"distanceKm":0.10761982552605236},{"id":"greekRestaurants_5db983812e0a","slug":"to-elliniko-5db9","kind":"restaurant","name":"Το Ελληνικό","lat":40.62835209292357,"lng":22.947350658434885,"url":"https://maps.app.goo.gl/xnCJBuGfhotgXpup6?g_st=ipc","address":"Στρ. Καλλάρη 9, Θεσσαλονίκη 546 22","categoryIds":["greek-restaurants"],"categories":["Greek Restaurants"],"distanceKm":0.12183915844028857},{"id":"dessertsRestaurants_ff4e4669779d","slug":"bombolo-ff4e","kind":"restaurant","name":"BOMBOLO","lat":40.628931168792896,"lng":22.947385328416402,"url":"https://maps.app.goo.gl/KrVfLWu1YhMe94yS8?g_st=ipc","address":"Mitropoleos 88, Thessaloniki 546 22","categoryIds":["desserts"],"categories":["Dessert Shops"],"distanceKm":0.14646158932373693},{"id":"coffeeBrunchRestaurants_459993a6b6f4","slug":"join-juice-bars-4599","kind":"restaurant","name":"JOIN juice bars","lat":40.62769069211422,"lng":22.947117280367095,"url":"https://maps.app.goo.gl/7fKny43wd3q96T1s5?g_st=ipc","address":"Leof. Nikis 73, Thessaloniki 546 22","categoryIds":["coffee-brunch","vegetarian"],"categories":["Coffee & Brunch Spots","Vegetarian Friendly Restaurants"],"legacySlugs":["join-juice-bars-c6f3"],"distanceKm":0.1474627198265772},{"id":"greekRestaurants_e2d4737d2e6a","slug":"deka-trapezia-e2d4","kind":"restaurant","name":"Δέκα Τραπέζια","lat":40.62814201457264,"lng":22.946897711090458,"url":"https://maps.app.goo.gl/rmRGahPcj5NACQVp9?g_st=ipc","address":"Στρ. Καλλάρη 4, Θεσσαλονίκη 546 22","categoryIds":["greek-restaurants"],"categories":["Greek Restaurants"],"distanceKm":0.1575874100052446},{"id":"coffeeBrunchRestaurants_553ce2fa7675","slug":"plateia-theatroy-kafe-mpar-estiatorio-553c","kind":"restaurant","name":"Πλατεία Θεάτρου, Καφέ / Μπαρ/Εστιατόριο","lat":40.62692292313497,"lng":22.94981349501023,"url":"https://maps.app.goo.gl/bFpP1KB6naw1VbYr7?g_st=ipc","address":"Eth. Aminis 4, Thessaloniki 546 21","categoryIds":["coffee-brunch"],"categories":["Coffee & Brunch Spots"],"distanceKm":0.1609590205907141},{"id":"greekRestaurants_8e1d134cbe5a","slug":"diavasi-8e1d","kind":"restaurant","name":"Διάβαση","lat":40.629392533313,"lng":22.947707172796427,"url":"https://maps.app.goo.gl/MvYkV7ZoB8ykDseV7?g_st=ipc","address":"Π. Μελά 13, Θεσσαλονίκη 546 22","categoryIds":["greek-restaurants"],"categories":["Greek Restaurants"],"distanceKm":0.16616891382144605},{"id":"greekRestaurants_028889ec4c7c","slug":"kafeneion-giasemi-0288","kind":"restaurant","name":"Καφενείον Γιασεμί","lat":40.62700271205112,"lng":22.950250188903894,"url":"https://maps.app.goo.gl/igCkYjicpsFhyKi79?g_st=ipc","address":"Τσόπελα 4, Θεσσαλονίκη 546 21","categoryIds":["greek-restaurants"],"categories":["Greek Restaurants"],"distanceKm":0.17742845176158353},{"id":"burgersRestaurants_f1633ab51896","slug":"pommes-f163","kind":"restaurant","name":"Pommes","lat":40.629725176106746,"lng":22.948477539796873,"url":"https://maps.app.goo.gl/yAwLNa5CdKfv7HBD9?g_st=ipc","address":"Isavron 5, Thessaloniki 546 22","categoryIds":["burgers"],"categories":["Burger Spots"],"distanceKm":0.17879435909368144},{"id":"greekRestaurants_96300d908e41","slug":"massalia-9630","kind":"restaurant","name":"Μασσαλία","lat":40.62879227637267,"lng":22.950820456091158,"url":"https://maps.app.goo.gl/Woet67mPUQvmRPAY6?g_st=ipc","address":"Μανουσογιαννάκη 6, Θεσσαλονίκη 546 21","categoryIds":["greek-restaurants"],"categories":["Greek Restaurants"],"distanceKm":0.188355412547164},{"id":"mustSeeAttractions_43897b8cc3d5","slug":"white-tower-of-thessaloniki-4389","kind":"restaurant","name":"White Tower of Thessaloniki","lat":40.62644387532891,"lng":22.948379384273697,"url":"https://maps.app.goo.gl/Rpx9LHfqRzCfvkCh8?g_st=ipc","address":"Thessaloniki 546 21","categoryIds":["attractions"],"categories":["Must-See Attractions"],"distanceKm":0.1905229658787226},{"id":"cheapEatsRestaurants_88cea0f97a36","slug":"mantri-ae-88ce","kind":"restaurant","name":"ΜΑΝΤΡΙ ΑΕ","lat":40.62840905411716,"lng":22.95104812955137,"url":"https://maps.app.goo.gl/fo4Tf9Q9F4pnn1rn9?g_st=ipc","address":"Eth. Aminis 18, Thessaloniki 546 21","categoryIds":["cheap-eats"],"categories":["Gyros & Cheap Eats"],"distanceKm":0.19512179494229231},{"id":"dessertsRestaurants_90fef645e082","slug":"fatto-a-mano-90fe","kind":"restaurant","name":"Fatto a Mano","lat":40.63009258953706,"lng":22.9479003155248,"url":"https://maps.app.goo.gl/nU8Tq4Vjr5TS7bBeA?g_st=ipc","address":"P. Mela 20, Thessaloniki 546 22","categoryIds":["desserts"],"categories":["Dessert Shops"],"distanceKm":0.22988434693201676}],"sameRegion":[],"mentionedGuides":[],"canonicalSlug":"armenonville-509c","isCanonicalEntity":true,"enrichment":{"summary_en":"Armenonville is a curated restaurant in Thessaloniki 546 21 in the Dessert Shops collection. It is connected to 120 nearby Googlementor picks to help travelers build a stronger local route.","summary_el":"Armenonville είναι ένα επιλεγμένο σημείο φαγητού στην περιοχή Thessaloniki 546 21 και ανήκει στη συλλογή Dessert Shops. Συνδέεται με 120 κοντινές προτάσεις του Googlementor για πιο ολοκληρωμένη εμπειρία.","vibe_tags":["curated","sweet-stop"],"best_for":["first-time visitors","food lovers"],"visit_moments":["afternoon break","after dinner"],"practical_note":"Address and direct map link are available for easy turn-by-turn access.","nearby_walkable_count":120,"nearby_count_2km":268,"confidence":0.98},"areaContext":{"slug":"triandria","name":"Triandria"},"intentContexts":[{"href":"/desserts/triandria","label":"Dessert Shops in Triandria","categorySlug":"desserts","categoryName":"Dessert Shops","areaSlug":"triandria","areaName":"Triandria"}]},"__N_SSG":true}