{"pageProps":{"entity":{"id":"rooftopLoungesRestaurants_f8cacb8baac7","slug":"athens-gate-rooftop-bar-restaurant-f8ca","kind":"restaurant","name":"Athens Gate Rooftop Bar & Restaurant","lat":37.968775997362016,"lng":23.73145032913701,"url":"https://maps.app.goo.gl/q9X7pZzbyKPo8wEb6?g_st=ipc","address":"Leof. Andrea Siggrou 10, Athina 117 41","categoryIds":["rooftop-lounges"],"categories":["Rooftop Lounges"]},"sameCategory":[{"id":"luxuryDiningRestaurants_6d0eec69a8bb","slug":"sense-modern-greek-cuisine-6d0e","kind":"restaurant","name":"SENSE Modern Greek Cuisine","lat":37.96950501164825,"lng":23.730857786980206,"url":"https://maps.app.goo.gl/BrJr73pSejAaUrbq6?g_st=ipc","address":"Διονυσίου Αρεοπαγίτου 5, Αθήνα 117 42","categoryIds":["luxury-dining","rooftop-lounges"],"categories":["Luxury Dining","Rooftop Lounges"],"legacySlugs":["sense-modern-greek-cuisine-ffb0"]},{"id":"rooftopLoungesRestaurants_208f904925e8","slug":"stork-rooftop-bar-restaurant-208f","kind":"restaurant","name":"stork rooftop bar restaurant","lat":37.967099364958976,"lng":23.7303307646006,"url":"https://maps.app.goo.gl/AF5AEBzt63j5tves7?g_st=ipc","address":"Λεωφόρος Συγγρού 21, Βούρβαχη 2, Αθήνα 117 43","categoryIds":["rooftop-lounges"],"categories":["Rooftop Lounges"]},{"id":"rooftopLoungesRestaurants_7028a5f2c855","slug":"bg-s-roof-garden-terrace-7028","kind":"restaurant","name":"BG's Roof Garden Terrace","lat":37.96555476887021,"lng":23.73099014305094,"url":"https://maps.app.goo.gl/DYB3podcUfK36W3e8?g_st=ipc","address":"Menaimahou 1 & Theofilopoulou, Καλλιρρόης Avenue, 18, 117 43","categoryIds":["rooftop-lounges"],"categories":["Rooftop Lounges"]},{"id":"luxuryDiningRestaurants_8f9976dae124","slug":"point-a-acropolis-point-8f99","kind":"restaurant","name":"POINT A (Acropolis Point)","lat":37.968415622994755,"lng":23.72706617377212,"url":"https://maps.app.goo.gl/NiwbpnxKE4g22Tzw6?g_st=ipc","address":"Ροβέρτου Γκάλι 4a, Αθήνα 117 42","categoryIds":["luxury-dining","rooftop-lounges"],"categories":["Luxury Dining","Rooftop Lounges"],"legacySlugs":["point-a-acropolis-point-fcea"]},{"id":"rooftopLoungesRestaurants_0166d74152d9","slug":"180-west-rooftop-lounge-restaurant-0166","kind":"restaurant","name":"180º West Rooftop Lounge Restaurant","lat":37.965774750504295,"lng":23.727676619784248,"url":"https://maps.app.goo.gl/B2UsgvhxQkuJx2dU7?g_st=ipc","address":"Φαλήρου 37-39, Αθήνα 117 42","categoryIds":["rooftop-lounges"],"categories":["Rooftop Lounges"]},{"id":"luxuryDiningRestaurants_ea67b94ccce5","slug":"art-lounge-rooftop-ea67","kind":"restaurant","name":"Art Lounge Rooftop","lat":37.97343240978713,"lng":23.73349750420062,"url":"https://maps.app.goo.gl/ou4XFAAMpTQ3uTaeA?g_st=ipc","address":"Ναυάρχου Νικοδήμου 1, Αθήνα 105 57","categoryIds":["luxury-dining","rooftop-lounges"],"categories":["Luxury Dining","Rooftop Lounges"],"legacySlugs":["art-lounge-rooftop-f22b"]},{"id":"luxuryDiningRestaurants_d7864d62c4d5","slug":"electra-roof-garden-d786","kind":"restaurant","name":"Electra Roof Garden","lat":37.97379853875271,"lng":23.731619747681133,"url":"https://maps.app.goo.gl/DRSR8qGkR5GU1Bts9?g_st=ipc","address":"Ναυάρχου Νικοδήμου 18-20, Αθήνα 105 57","categoryIds":["luxury-dining","rooftop-lounges"],"categories":["Luxury Dining","Rooftop Lounges"],"legacySlugs":["electra-roof-garden-e530"]},{"id":"fishTavernasRestaurants_2ec8563b4367","slug":"anefani-2ec8","kind":"restaurant","name":"Ανεφάνη","lat":37.973535712152035,"lng":23.727823659961384,"url":"https://maps.app.goo.gl/ZNPzCDATcCosWfhTA?g_st=ipc","address":"Μνησικλέους 24, Αθήνα 105 56","categoryIds":["fish-tavernas","rooftop-lounges"],"categories":["Fish Tavernas","Rooftop Lounges"],"legacySlugs":["anefani-d906"]},{"id":"rooftopLoungesRestaurants_6bc9125d2c6e","slug":"odos-lysioy-6bc9","kind":"restaurant","name":"Οδος Λυσιου","lat":37.97368556896764,"lng":23.727989877138466,"url":"https://maps.app.goo.gl/QFStwG4KRSZkG2Em7?g_st=ipc","address":"Mnisikleous 22 and, Lisiou corner, Athina 105 56","categoryIds":["rooftop-lounges"],"categories":["Rooftop Lounges"]},{"id":"rooftopLoungesRestaurants_ffccd88e3b0f","slug":"thea-terrace-bar-ffcc","kind":"restaurant","name":"Thea Terrace Bar","lat":37.97456272302777,"lng":23.731138501787182,"url":"https://maps.app.goo.gl/KVbnoHN86FaFe6Ch8?g_st=ipc","address":"Απόλλωνος 21, Αθήνα 105 57","categoryIds":["rooftop-lounges"],"categories":["Rooftop Lounges"]},{"id":"luxuryDiningRestaurants_45e8a4dd5c78","slug":"metropolis-roof-garden-45e8","kind":"restaurant","name":"Metropolis Roof Garden","lat":37.97522262578899,"lng":23.732019777211896,"url":"https://maps.app.goo.gl/zUugGUWG4UDszZX58?g_st=ipc","address":"Μητροπόλεως 15, Αθήνα 105 57","categoryIds":["luxury-dining","rooftop-lounges"],"categories":["Luxury Dining","Rooftop Lounges"],"legacySlugs":["metropolis-roof-garden-f3d7"]},{"id":"rooftopLoungesRestaurants_a01decd3b001","slug":"ergon-house-athens-a01d","kind":"restaurant","name":"ERGON House Athens","lat":37.975246808550054,"lng":23.73151614516128,"url":"https://maps.app.goo.gl/B5dVNDQK9SeSRhFZ9?g_st=ipc","address":"23, Μητροπόλεως Street, Αθήνα 105 57","categoryIds":["rooftop-lounges"],"categories":["Rooftop Lounges"]}],"nearby":[{"id":"vegetarianRestaurants_981aa1875a12","slug":"indian-haveli-981a","kind":"restaurant","name":"Indian Haveli","lat":37.96857000104929,"lng":23.731444541000045,"url":"https://maps.app.goo.gl/2tEYTJw1y4aL2Rgo7?g_st=ipc","address":"Λεωφ. Ανδρέα Συγγρού 12, Αθήνα 117 42","categoryIds":["vegetarian"],"categories":["Vegetarian Friendly Restaurants"],"distanceKm":0.022911363830619324},{"id":"luxuryDiningRestaurants_6d0eec69a8bb","slug":"sense-modern-greek-cuisine-6d0e","kind":"restaurant","name":"SENSE Modern Greek Cuisine","lat":37.96950501164825,"lng":23.730857786980206,"url":"https://maps.app.goo.gl/BrJr73pSejAaUrbq6?g_st=ipc","address":"Διονυσίου Αρεοπαγίτου 5, Αθήνα 117 42","categoryIds":["luxury-dining","rooftop-lounges"],"categories":["Luxury Dining","Rooftop Lounges"],"legacySlugs":["sense-modern-greek-cuisine-ffb0"],"distanceKm":0.09627634947930515},{"id":"cheapEatsRestaurants_7d6699a91456","slug":"o-gyros-poy-gyreyeis-7d66","kind":"restaurant","name":"ο γύρος που γυρεύεις","lat":37.968706021561665,"lng":23.729791439377735,"url":"https://maps.app.goo.gl/bMFjRtNN6Ztw4H43A?g_st=ipc","address":"Αθανασίου Διάκου 1 Ακρόπολη, Αθήνα 117 42","categoryIds":["cheap-eats"],"categories":["Gyros & Cheap Eats"],"distanceKm":0.14562651867097895},{"id":"dessertsRestaurants_7f61f06e1814","slug":"ice-queen-gelato-7f61","kind":"restaurant","name":"Ice Queen Gelato","lat":37.96875198593791,"lng":23.729719578537868,"url":"https://maps.app.goo.gl/HyCCcJSVYZCw8dMV7?g_st=ipc","address":"Μακρυγιάννη 9, Αθήνα 117 42","categoryIds":["desserts","vegetarian"],"categories":["Dessert Shops","Vegetarian Friendly Restaurants"],"legacySlugs":["ice-queen-gelato-e688"],"distanceKm":0.1517412730428834},{"id":"italianRestaurants_354541199b79","slug":"aglio-olio-peperoncino-3545","kind":"restaurant","name":"AGLIO, OLIO & PEPERONCINO","lat":37.96798831953671,"lng":23.7299912754838,"url":"https://maps.app.goo.gl/EgPatpb6TGQzX94s6?g_st=ipc","address":"Πορίνου 13, Αθήνα 117 42","categoryIds":["italian"],"categories":["Italian Restaurants"],"distanceKm":0.15501629897677846},{"id":"mustSeeAttractions_a7a2908a9221","slug":"naos-toy-olympioy-dios-a7a2","kind":"restaurant","name":"Ναός του Ολυμπίου Διός","lat":37.96929966455042,"lng":23.733099967898216,"url":"https://maps.app.goo.gl/MRiS2rx9HUUxeppD6?g_st=ipc","address":"Αθήνα 105 57","categoryIds":["attractions"],"categories":["Must-See Attractions"],"distanceKm":0.15589037146746682},{"id":"mustSeeAttractions_a3aa8075d8fc","slug":"arch-of-hadrian-a3aa","kind":"restaurant","name":"Arch of Hadrian","lat":37.970210610652515,"lng":23.73198089152641,"url":"https://maps.app.goo.gl/XDM6bEzic8EMa3FX7?g_st=ipc","address":"Leof. Vasilisis Amalias 50, Athina 105 58","categoryIds":["attractions"],"categories":["Must-See Attractions"],"distanceKm":0.16616328595242927},{"id":"greekRestaurants_c15edd7fcde2","slug":"estiatorio-smile-c15e","kind":"restaurant","name":"Εστιατόριο Smile","lat":37.967615812266935,"lng":23.729979287152204,"url":"https://maps.app.goo.gl/dzqWtwgMFs9Vcqew6","address":"Πλ. Τσώκρη 1, Αθήνα 117 42","categoryIds":["greek-restaurants"],"categories":["Greek Restaurants"],"distanceKm":0.18240483889345407},{"id":"vegetarianRestaurants_0ae45380f9c5","slug":"veganaki-0ae4","kind":"restaurant","name":"Veganaki","lat":37.96756765452738,"lng":23.732928786701812,"url":"https://maps.app.goo.gl/t4BDCPnwuYDPfBZS9?g_st=ipc","address":"Αθανασίου Διάκου 38 (38, Αθήνα 117 43","categoryIds":["vegetarian"],"categories":["Vegetarian Friendly Restaurants"],"distanceKm":0.18668133692823963},{"id":"vegetarianRestaurants_aff422e1c3ba","slug":"mama-tierra-acropolis-vegan-street-food-aff4","kind":"restaurant","name":"Mama Tierra Acropolis - Vegan street food","lat":37.967546083723775,"lng":23.729864462543613,"url":"https://maps.app.goo.gl/3M9tmest5ooaQwtE8?g_st=ipc","address":"Χατζηχρήστου 29, Αθήνα 117 42","categoryIds":["vegetarian"],"categories":["Vegetarian Friendly Restaurants"],"distanceKm":0.19501140834278355},{"id":"dessertsRestaurants_22239c987b1a","slug":"patisserie-artemis-gelateria-ice-cream-2223","kind":"restaurant","name":"Patisserie Artemis - Gelateria Ice Cream","lat":37.96786547488155,"lng":23.729346783174314,"url":"https://maps.app.goo.gl/dE6muCbG7gwaWz9H8?g_st=ipc","address":"Μακρυγιάννη 33, Αθήνα 117 42","categoryIds":["desserts"],"categories":["Dessert Shops"],"distanceKm":0.2103647659429602},{"id":"rooftopLoungesRestaurants_208f904925e8","slug":"stork-rooftop-bar-restaurant-208f","kind":"restaurant","name":"stork rooftop bar restaurant","lat":37.967099364958976,"lng":23.7303307646006,"url":"https://maps.app.goo.gl/AF5AEBzt63j5tves7?g_st=ipc","address":"Λεωφόρος Συγγρού 21, Βούρβαχη 2, Αθήνα 117 43","categoryIds":["rooftop-lounges"],"categories":["Rooftop Lounges"],"distanceKm":0.2106873780965403},{"id":"coffeeBrunchRestaurants_ce537fc177ce","slug":"fika-coffee-croissant-ce53","kind":"restaurant","name":"Fika coffee & croissant","lat":37.96693585116076,"lng":23.730676001624726,"url":"https://maps.app.goo.gl/aGhcjD61LQ7BLCn98?g_st=ipc","address":"Βούρβαχη 6, Αθήνα 117 43","categoryIds":["coffee-brunch"],"categories":["Coffee & Brunch Spots"],"distanceKm":0.21558003889685134},{"id":"coffeeBrunchRestaurants_b61f62d1d8af","slug":"coffee-joint-b61f","kind":"restaurant","name":"Coffee Joint","lat":37.9668407337925,"lng":23.731062695575126,"url":"https://maps.app.goo.gl/LK48eZA7q9nxiZiR6?g_st=ipc","address":"Βούρβαχη 5-9, Αθήνα 117 43","categoryIds":["coffee-brunch"],"categories":["Coffee & Brunch Spots"],"distanceKm":0.21785786205513621},{"id":"mustSeeAttractions_397dfba9f16b","slug":"notia-klitys-akropolis-athinon-397d","kind":"restaurant","name":"Νότια Κλιτύς Ακρόπολης Αθηνών","lat":37.96962866994438,"lng":23.729046031418846,"url":"https://maps.app.goo.gl/5RAt8qpszUA945pG8?g_st=ipc","address":"Διονυσίου Αρεοπαγίτου, Αθήνα 105 58","categoryIds":["attractions"],"categories":["Must-See Attractions"],"distanceKm":0.23110418770969307},{"id":"mustSeeAttractions_8c69e6a7063e","slug":"moyseio-akropolis-8c69","kind":"restaurant","name":"Μουσείο Ακρόπολης","lat":37.96845037815513,"lng":23.728523216398074,"url":"https://maps.app.goo.gl/ZqiBPBtN3PxoeXmY8?g_st=ipc","address":"Διονυσίου Αρεοπαγίτου 15, Αθήνα 117 42","categoryIds":["attractions"],"categories":["Must-See Attractions"],"distanceKm":0.2591335191371935},{"id":"greekRestaurants_104d52bd2241","slug":"mpalkoni-estiatorio-kai-mpar-104d","kind":"restaurant","name":"Μπαλκόνι Εστιατόριο και Μπαρ","lat":37.96744106512062,"lng":23.72879886025239,"url":"https://maps.app.goo.gl/7XXsfB27aRZAsikR7","address":"Βεΐκου 1, Αθήνα 117 42","categoryIds":["greek-restaurants"],"categories":["Greek Restaurants"],"distanceKm":0.275785259203791},{"id":"monasteriesChurches_70c088ccf077","slug":"ieros-naos-agias-foteinis-ilisoy-70c0","kind":"restaurant","name":"Ιερός Ναός Αγίας Φωτεινής Ιλισού","lat":37.96759253152895,"lng":23.734352593011444,"url":"https://maps.app.goo.gl/jdAdCNX9K2HoSujs9?g_st=ipc","address":"Αρδηττού 3, Αθήνα 105 57","categoryIds":["monasteries-churches"],"categories":["Monasteries & Spiritual Sites"],"distanceKm":0.2864336278169083},{"id":"mustSeeAttractions_8085cf28024a","slug":"choragic-monument-of-lysicrates-8085","kind":"restaurant","name":"Choragic Monument of Lysicrates","lat":37.97108971386169,"lng":23.72994596958006,"url":"https://maps.app.goo.gl/7Xgk65sqPNFM93Sy9?g_st=ipc","address":"Epimenidou 3, Athina 105 58","categoryIds":["attractions"],"categories":["Must-See Attractions"],"distanceKm":0.2891010676640617},{"id":"dessertsRestaurants_44e6918dfa7f","slug":"alchimistis-cafe-patisserie-44e6","kind":"restaurant","name":"Αλχημιστής Cafe Patisserie","lat":37.96784501160447,"lng":23.7283241033881,"url":"https://maps.app.goo.gl/n2exdkXc6qfVR4fM9?g_st=ipc","address":"Χατζηχρήστου 8, Αθήνα 117 42","categoryIds":["desserts"],"categories":["Dessert Shops"],"distanceKm":0.29294763978399413},{"id":"italianRestaurants_d5b2689c4a11","slug":"romatella-pinsa-romana-d5b2","kind":"restaurant","name":"Romatella - Pinsa Romana","lat":37.96690380968513,"lng":23.72869589039828,"url":"https://maps.app.goo.gl/qy2UDY83bx3RhcUU9?g_st=ipc","address":"Φαλήρου 4, Αθήνα 117 42","categoryIds":["italian"],"categories":["Italian Restaurants"],"distanceKm":0.3188097803759356},{"id":"luxuryDiningRestaurants_915576fc1c0f","slug":"samano-radio-restaurant-9155","kind":"restaurant","name":"Samano Radio Restaurant","lat":37.97164530530575,"lng":23.731079390163124,"url":"https://maps.app.goo.gl/HCtBkZVH9f9shwEp9?g_st=ipc","address":"Πλ. Φιλόμουσου Εταιρίας 3, Αθήνα 105 58","categoryIds":["luxury-dining"],"categories":["Luxury Dining"],"distanceKm":0.32070511904422994},{"id":"coffeeBrunchRestaurants_6b3f7db90a24","slug":"nonnas-athens-6b3f","kind":"restaurant","name":"Nonnas Athens","lat":37.971651792837406,"lng":23.731123841030353,"url":"https://maps.app.goo.gl/5RFfLvtqnpk2BDQp8?g_st=ipc","address":"Pl. Filomousou Eterias 3, Athina 105 58","categoryIds":["coffee-brunch"],"categories":["Coffee & Brunch Spots"],"distanceKm":0.3210520160341538},{"id":"coffeeBrunchRestaurants_ca5c6fd3b033","slug":"plakaki-cafe-ca5c","kind":"restaurant","name":"Plakaki Cafe","lat":37.97168034602651,"lng":23.731177071228885,"url":"https://maps.app.goo.gl/fCZvCfcqYbM4mrRz8?g_st=ic","address":"Pl. Filomousou Eterias 2, Athina 105 58","categoryIds":["coffee-brunch"],"categories":["Coffee & Brunch Spots"],"distanceKm":0.32383593624352225}],"sameRegion":[],"mentionedGuides":[{"slug":"tap-water-safe-greece-el","title":"Είναι Ασφαλές να Πίνετε Νερό Βρύσης στην Ελλάδα;"},{"slug":"tap-water-safe-greece","title":"Is Tap Water Safe to Drink in Greece?"},{"slug":"traveling-to-greece-on-a-budget-el","title":"Ταξιδι στην Ελλαδα με μικρο budget"},{"slug":"traveling-to-greece-on-a-budget","title":"Traveling to Greece on a Budget"}],"canonicalSlug":"athens-gate-rooftop-bar-restaurant-f8ca","isCanonicalEntity":true,"enrichment":{"summary_en":"Athens Gate Rooftop Bar & Restaurant is a curated restaurant in Athina 117 41 in the Rooftop Lounges collection. It is connected to 159 nearby Googlementor picks to help travelers build a stronger local route.","summary_el":"Athens Gate Rooftop Bar & Restaurant είναι ένα επιλεγμένο σημείο φαγητού στην περιοχή Athina 117 41 και ανήκει στη συλλογή Rooftop Lounges. Συνδέεται με 159 κοντινές προτάσεις του Googlementor για πιο ολοκληρωμένη εμπειρία.","vibe_tags":["curated","city-views"],"best_for":["first-time visitors","food lovers"],"visit_moments":["golden hour","night out"],"practical_note":"Address and direct map link are available for easy turn-by-turn access.","nearby_walkable_count":159,"nearby_count_2km":639,"confidence":0.98},"areaContext":{"slug":"plaka","name":"Plaka"},"intentContexts":[{"href":"/rooftops/plaka","label":"Rooftop Lounges in Plaka","categorySlug":"rooftops","categoryName":"Rooftop Lounges","areaSlug":"plaka","areaName":"Plaka"}]},"__N_SSG":true}