{"pageProps":{"entity":{"id":"burgersRestaurants_9c281ee4457d","slug":"butcher-s-burger-halandri-steak-house-9c28","kind":"restaurant","name":"Butcher's Burger Halandri & Steak House","lat":38.02102226567013,"lng":23.79979731523688,"url":"https://maps.app.goo.gl/NnWhxpUGcKRnuxNb6?g_st=ipc","address":"Αγίας Παρασκευής 17, Χαλάνδρι 152 34","categoryIds":["burgers"],"categories":["Burger Spots"]},"sameCategory":[{"id":"burgersRestaurants_e22a52b46127","slug":"raw-street-burger-chalandri-e22a","kind":"restaurant","name":"Raw Street Burger - Chalandri","lat":38.0212493909348,"lng":23.79901287705001,"url":"https://maps.app.goo.gl/hgvkfPtXihqrFqAA8?g_st=ic","address":"Agias Paraskevis 2, Chalandri 152 32","categoryIds":["burgers"],"categories":["Burger Spots"]},{"id":"burgersRestaurants_020aef5345e3","slug":"raw-street-burger-chalandri-020a","kind":"restaurant","name":"Raw Street Burger - Chalandri","lat":38.02124916375188,"lng":23.799011494235714,"url":"https://maps.app.goo.gl/BoNocomx2EgJt83f6?g_st=ipc","address":"Αγίας Παρασκευής 2, Χαλάνδρι 152 32","categoryIds":["burgers"],"categories":["Burger Spots"]},{"id":"burgersRestaurants_a6200663c2fc","slug":"enkelt-eatery-drinkery-a620","kind":"restaurant","name":"Enkelt Eatery Drinkery","lat":38.02213524779596,"lng":23.799867459817303,"url":"https://maps.app.goo.gl/vHwx7oKoUfgScAFL9?g_st=ipc","address":"Ανδρέα Παπανδρέου 9, Χαλάνδρι 152 34","categoryIds":["burgers"],"categories":["Burger Spots"]},{"id":"burgersRestaurants_ec4983f25d99","slug":"nob-burger-ec49","kind":"restaurant","name":"NOB Burger","lat":38.02272062579597,"lng":23.79844865880115,"url":"https://maps.app.goo.gl/wpfmqU8MnEBtDwTH8?g_st=ic","address":"Κολοκοτρώνη 15 &, Gyftopoulou 10, Chalandri 152 33","categoryIds":["burgers"],"categories":["Burger Spots"]},{"id":"burgersRestaurants_34e5b1f181ce","slug":"pax-burgers-chalandri-34e5","kind":"restaurant","name":"PAX Burgers Chalandri","lat":38.02267566012985,"lng":23.79766474992644,"url":"https://maps.app.goo.gl/AiwVzM3dHvcwWDhh9?g_st=ic","address":"Kolokotroni 18, Chalandri 152 33","categoryIds":["burgers"],"categories":["Burger Spots"]},{"id":"burgersRestaurants_7c38d294a0a4","slug":"pax-burgers-chalandri-7c38","kind":"restaurant","name":"PAX Burgers Chalandri","lat":38.0226758104374,"lng":23.797664927683787,"url":"https://maps.app.goo.gl/vTHoe9jC12FnQ9ZE9?g_st=ipc","address":"Κολοκοτρώνη 18, Χαλάνδρι 152 33","categoryIds":["burgers"],"categories":["Burger Spots"]},{"id":"burgersRestaurants_c336eb92f70f","slug":"benjamin-burger-house-c336","kind":"restaurant","name":"Benjamin Burger House","lat":38.02349485615921,"lng":23.79940305236398,"url":"https://maps.app.goo.gl/1oUJJNhHwJDfzkoK6?g_st=ipc","address":"Ανδρέα Γκίνη 8-12, Χαλάνδρι 152 33","categoryIds":["burgers"],"categories":["Burger Spots"]},{"id":"burgersRestaurants_969f5f3e5d25","slug":"epos-burgers-chalandri-969f","kind":"restaurant","name":"Epos Burgers Chalandri","lat":38.01470688255288,"lng":23.784829615365847,"url":"https://maps.app.goo.gl/ZLd7Ph3tX8QHQZiq8?g_st=ic","address":"Likourgou 2, Chalandri 152 31","categoryIds":["burgers"],"categories":["Burger Spots"]},{"id":"burgersRestaurants_11e6ae00efca","slug":"melt-burgers-11e6","kind":"restaurant","name":"Melt Burgers","lat":38.037895872437886,"lng":23.799602975307902,"url":"https://maps.app.goo.gl/17z1ma6NXSDvgsM2A?g_st=ipc","address":"Λεωφ. Κηφισίας 59, Μαρούσι 151 24","categoryIds":["burgers"],"categories":["Burger Spots"]},{"id":"burgersRestaurants_97ab28e57798","slug":"f-smashing-cholargos-97ab","kind":"restaurant","name":"F* Smashing Cholargos","lat":38.00204211707431,"lng":23.791067777673266,"url":"https://maps.app.goo.gl/VHtz6unCWyzdNiiZ8?g_st=ipc","address":"Λεωφ. Μεσογείων 206, Χολαργός 155 61","categoryIds":["burgers"],"categories":["Burger Spots"]},{"id":"burgersRestaurants_2779a1763d04","slug":"juicy-grill-athens-2779","kind":"restaurant","name":"Juicy Grill Athens","lat":37.999820550809126,"lng":23.797970198704302,"url":"https://maps.app.goo.gl/KoWkVLRYW6WDrfte9?g_st=ipc","address":"Λεωφ. Περικλέους 37, Χολαργός 155 61","categoryIds":["burgers"],"categories":["Burger Spots"]},{"id":"burgersRestaurants_709666ea6902","slug":"akoko-athens-7096","kind":"restaurant","name":"Akoko Athens","lat":38.00485425312051,"lng":23.776133914107284,"url":"https://maps.app.goo.gl/bo55c6wZEvkSgiHn7?g_st=ipc","address":"Σολωμού 1, Νέο Ψυχικό 154 51","categoryIds":["burgers"],"categories":["Burger Spots"]}],"nearby":[{"id":"greekRestaurants_69231f24503b","slug":"mpakalotaverna-6923","kind":"restaurant","name":"Μπακαλοταβέρνα","lat":38.02091962634735,"lng":23.79935272546419,"url":"https://maps.app.goo.gl/D6gW3fsdkz7sh9bg8?g_st=ipc","address":"Θουκυδίδου 6, Χαλάνδρι 152 32","categoryIds":["greek-restaurants"],"categories":["Greek Restaurants"],"distanceKm":0.04058292026245374},{"id":"coffeeBrunchRestaurants_9494334a3889","slug":"theory-bar-9494","kind":"restaurant","name":"Theory Bar","lat":38.02145412084465,"lng":23.799757422872677,"url":"https://maps.app.goo.gl/zwkhVzdkQughii3i7?g_st=ipc","address":"Πλάτωνος 14, Χαλάνδρι 152 34","categoryIds":["coffee-brunch"],"categories":["Coffee & Brunch Spots"],"distanceKm":0.048147084421671024},{"id":"greekRestaurants_6657f75f25c7","slug":"trypia-dekara-6657","kind":"restaurant","name":"Τρύπια Δεκάρα","lat":38.020535111511364,"lng":23.799981150995844,"url":"https://maps.app.goo.gl/aTApNBNRqHkEo3CH8?g_st=ipc","address":"Θεμιστοκλέους 6, Χαλάνδρι 152 32","categoryIds":["greek-restaurants"],"categories":["Greek Restaurants"],"distanceKm":0.05651208205506063},{"id":"cheapEatsRestaurants_70af29f6373f","slug":"holy-pasta-chalandri-70af","kind":"restaurant","name":"Holy Pasta Chalandri","lat":38.02090646389776,"lng":23.799055964157045,"url":"https://maps.app.goo.gl/dD7x8SrXxBd8mmDX7?g_st=ipc","address":"Ηρακλείου 3, Χαλάνδρι 152 32","categoryIds":["cheap-eats"],"categories":["Gyros & Cheap Eats"],"distanceKm":0.0662049709008694},{"id":"burgersRestaurants_e22a52b46127","slug":"raw-street-burger-chalandri-e22a","kind":"restaurant","name":"Raw Street Burger - Chalandri","lat":38.0212493909348,"lng":23.79901287705001,"url":"https://maps.app.goo.gl/hgvkfPtXihqrFqAA8?g_st=ic","address":"Agias Paraskevis 2, Chalandri 152 32","categoryIds":["burgers"],"categories":["Burger Spots"],"distanceKm":0.0732089827542227},{"id":"burgersRestaurants_020aef5345e3","slug":"raw-street-burger-chalandri-020a","kind":"restaurant","name":"Raw Street Burger - Chalandri","lat":38.02124916375188,"lng":23.799011494235714,"url":"https://maps.app.goo.gl/BoNocomx2EgJt83f6?g_st=ipc","address":"Αγίας Παρασκευής 2, Χαλάνδρι 152 32","categoryIds":["burgers"],"categories":["Burger Spots"],"distanceKm":0.07331399269853843},{"id":"dessertsRestaurants_c2edf21ae9fe","slug":"choureal-choux-profiterole-c2ed","kind":"restaurant","name":"CHOUREAL - Choux & Profiterole","lat":38.02110578860944,"lng":23.7987271310142,"url":"https://maps.app.goo.gl/y6r478JecsCWC6aR6?g_st=ipc","address":"Ιφικράτους 2, Χαλάνδρι 152 32","categoryIds":["desserts"],"categories":["Dessert Shops"],"distanceKm":0.09420451737351081},{"id":"coffeeBrunchRestaurants_6c7c61c89617","slug":"the-blind-spot-chalandri-6c7c","kind":"restaurant","name":"The Blind Spot Chalandri","lat":38.02081193268296,"lng":23.800852260132338,"url":"https://maps.app.goo.gl/meU9KZcd4KyskmW5A?g_st=ipc","address":"Αγίας Παρασκευής 29, Χαλάνδρι 152 34","categoryIds":["coffee-brunch"],"categories":["Coffee & Brunch Spots"],"distanceKm":0.09532451023086516},{"id":"coffeeBrunchRestaurants_99f4eb4b50a8","slug":"paul-99f4","kind":"restaurant","name":"Paul","lat":38.02202464306638,"lng":23.799672884172303,"url":"https://maps.app.goo.gl/aQCR8vB88aVXiVXh6?g_st=ic","address":"Andrea Papandreou 13, Chalandri 152 34","categoryIds":["coffee-brunch"],"categories":["Coffee & Brunch Spots"],"distanceKm":0.11199096799451207},{"id":"coffeeBrunchRestaurants_c494cdae0eac","slug":"penny-lane-comfort-food-c494","kind":"restaurant","name":"Penny Lane Comfort Food","lat":38.02034857308637,"lng":23.798833782982413,"url":"https://maps.app.goo.gl/pHD9NuQvxt5E3ECz5?g_st=ipc","address":"Θουκυδίδου 12, Χαλάνδρι 152 32","categoryIds":["coffee-brunch"],"categories":["Coffee & Brunch Spots"],"distanceKm":0.11285233951800219},{"id":"dessertsRestaurants_bee382c48461","slug":"overoll-croissanterie-chalandri-bee3","kind":"restaurant","name":"Overoll Croissanterie Chalandri","lat":38.02200872999179,"lng":23.799243791824114,"url":"https://maps.app.goo.gl/ys5eKDmUSJhoHcwJ8?g_st=ipc","address":"Κατσουλιέρη 10, Χαλάνδρι 152 33","categoryIds":["desserts"],"categories":["Dessert Shops"],"distanceKm":0.11992852502294925},{"id":"burgersRestaurants_a6200663c2fc","slug":"enkelt-eatery-drinkery-a620","kind":"restaurant","name":"Enkelt Eatery Drinkery","lat":38.02213524779596,"lng":23.799867459817303,"url":"https://maps.app.goo.gl/vHwx7oKoUfgScAFL9?g_st=ipc","address":"Ανδρέα Παπανδρέου 9, Χαλάνδρι 152 34","categoryIds":["burgers"],"categories":["Burger Spots"],"distanceKm":0.12391040489363712},{"id":"vegetarianRestaurants_a667646c43d0","slug":"pink-elephant-a667","kind":"restaurant","name":"Pink Elephant","lat":38.02048886312005,"lng":23.79851470032454,"url":"https://maps.app.goo.gl/JBEM9qi3Gh27zDWa9?g_st=ipc","address":"Sokratous 4Α, Chalandri 152 32","categoryIds":["vegetarian"],"categories":["Vegetarian Friendly Restaurants"],"distanceKm":0.12704882755435828},{"id":"coffeeBrunchRestaurants_9458a245dc3c","slug":"mr-peacock-9458","kind":"restaurant","name":"Mr Peacock","lat":38.02229439663125,"lng":23.799067122766484,"url":"https://maps.app.goo.gl/VZMRfmKCQeAiaXpR6?g_st=ipc","address":"Κατσουλιέρη 7, Χαλάνδρι 152 33","categoryIds":["coffee-brunch"],"categories":["Coffee & Brunch Spots"],"distanceKm":0.15524365740777687},{"id":"greekRestaurants_f52198928cda","slug":"mystikos-kipos-f521","kind":"restaurant","name":"Μυστικός Κήπος","lat":38.02018220795105,"lng":23.798366893276665,"url":"https://maps.app.goo.gl/RvfsJX8RaCUstXSa6?g_st=ipc","address":"Καραολη Δημήτριου 21, Χαλάνδρι 152 32","categoryIds":["greek-restaurants"],"categories":["Greek Restaurants"],"distanceKm":0.15628863514915764},{"id":"dessertsRestaurants_babd3d2ca062","slug":"evita-loves-cakes-babd","kind":"restaurant","name":"Evita Loves Cakes","lat":38.0200138607173,"lng":23.79854862190682,"url":"https://maps.app.goo.gl/uPYrT5Fyo6EZTYdv7?g_st=ipc","address":"Καραολη Δημήτριου 23A, Χαλάνδρι 152 32","categoryIds":["desserts"],"categories":["Dessert Shops"],"distanceKm":0.15664530881684324},{"id":"italianRestaurants_0499cd7a1aa6","slug":"totonno-pizzeria-0499","kind":"restaurant","name":"Totonno Pizzeria","lat":38.0207813740758,"lng":23.7979881651798,"url":"https://maps.app.goo.gl/nUn81XsFVAHwxcV18?g_st=ipc","address":"Καλογρέζης 1, Χαλάνδρι 152 32","categoryIds":["italian"],"categories":["Italian Restaurants"],"distanceKm":0.1607253390775125},{"id":"mexicanRestaurants_6c5519ffe304","slug":"picasso-athens-6c55","kind":"restaurant","name":"Picasso Athens","lat":38.019815508215686,"lng":23.798687453855152,"url":"https://maps.app.goo.gl/J7mbR7We3G9gTLqS6?g_st=ipc","address":"Καραολη Δημήτριου 22, Χαλάνδρι 152 32","categoryIds":["mexican"],"categories":["Mexican Restaurants"],"distanceKm":0.16570403918108376},{"id":"coffeeBrunchRestaurants_37f29da6a3ac","slug":"petite-fleur-chalandri-37f2","kind":"restaurant","name":"Petite Fleur Chalandri","lat":38.02118310968284,"lng":23.79790895879059,"url":"https://maps.app.goo.gl/3oREsLJ4wCJ3pzXJA?g_st=ipc","address":"Πλατεία Ελευθερωτών 16, Platia Eleftheroton 16, Χαλάνδρι 152 32","categoryIds":["coffee-brunch"],"categories":["Coffee & Brunch Spots"],"distanceKm":0.16637952409748463},{"id":"italianRestaurants_449a551f4dc8","slug":"come-a-casa-449a","kind":"restaurant","name":"Come A Casa","lat":38.020170312119056,"lng":23.798225694950606,"url":"https://maps.app.goo.gl/Go53VnWKyGjFvBK38?g_st=ipc","address":"Καραολη Δημήτριου 17, Χαλάνδρι 152 32","categoryIds":["italian"],"categories":["Italian Restaurants"],"distanceKm":0.16711568309278757},{"id":"greekRestaurants_42b778a801b1","slug":"psomi-alati-42b7","kind":"restaurant","name":"ΨΩΜΙ & ΑΛΑΤΙ","lat":38.02138760980619,"lng":23.797709722137604,"url":"https://maps.app.goo.gl/3yMZtJ6XHLXuktHM7?g_st=ipc","address":"Πλ. Ελευθερωτών 8, Χαλάνδρι 152 32","categoryIds":["greek-restaurants"],"categories":["Greek Restaurants"],"distanceKm":0.18732589640775296},{"id":"dessertsRestaurants_02779f6a74e0","slug":"luku-matters-stuffed-lukumades-more-0277","kind":"restaurant","name":"Luku-matters (stuffed lukumades & more)","lat":38.02275668044992,"lng":23.799619221423885,"url":"https://maps.app.goo.gl/6smwhS1Kk8EP7LvC8?g_st=ipc","address":"Κολοκοτρώνη 5, Χαλάνδρι 152 33","categoryIds":["desserts"],"categories":["Dessert Shops"],"distanceKm":0.19348805945595748},{"id":"asianRestaurants_2fedddceed72","slug":"noodle-bar-2fed","kind":"restaurant","name":"Noodle Bar","lat":38.022609797953606,"lng":23.8008077638359,"url":"https://maps.app.goo.gl/RDSLJTa1W2roeGbr9?g_st=ic","address":"Leof. Pentelis 1, Chalandri 152 34","categoryIds":["asian"],"categories":["Asian Restaurants"],"distanceKm":0.19747312947454984},{"id":"dessertsRestaurants_a1cf45fe2274","slug":"the-bakers-chalandri-a1cf","kind":"restaurant","name":"The Bakers Chalandri","lat":38.0226181576528,"lng":23.800807066742404,"url":"https://maps.app.goo.gl/gQq4yFd1tL46Twha8?g_st=ipc","address":"Λεωφ. Πεντέλης 1, Χαλάνδρι 152 34","categoryIds":["desserts"],"categories":["Dessert Shops"],"distanceKm":0.19827726781468255}],"sameRegion":[],"mentionedGuides":[],"canonicalSlug":"butcher-s-burger-halandri-steak-house-9c28","isCanonicalEntity":true,"enrichment":{"summary_en":"Butcher's Burger Halandri & Steak House is a curated restaurant in Χαλάνδρι 152 34 in the Burger Spots collection. It is connected to 65 nearby Googlementor picks to help travelers build a stronger local route.","summary_el":"Butcher's Burger Halandri & Steak House είναι ένα επιλεγμένο σημείο φαγητού στην περιοχή Χαλάνδρι 152 34 και ανήκει στη συλλογή Burger Spots. Συνδέεται με 65 κοντινές προτάσεις του Googlementor για πιο ολοκληρωμένη εμπειρία.","vibe_tags":["curated"],"best_for":["first-time visitors","food lovers"],"visit_moments":["lunch stop","dinner stop"],"practical_note":"Address and direct map link are available for easy turn-by-turn access.","nearby_walkable_count":65,"nearby_count_2km":117,"confidence":0.98},"areaContext":{"slug":"chalandri","name":"Chalandri"},"intentContexts":[{"href":"/burgers/chalandri","label":"Burger Spots in Chalandri","categorySlug":"burgers","categoryName":"Burger Spots","areaSlug":"chalandri","areaName":"Chalandri"}]},"__N_SSG":true}