{"pageProps":{"entity":{"id":"cheapEatsRestaurants_9b9687edb09a","slug":"cantina-alexandras-9b96","kind":"restaurant","name":"Cantina Alexandras","lat":37.990601219280784,"lng":23.740100216268857,"url":"https://maps.app.goo.gl/sC6f9QqoMvhYZn9L6?g_st=ipc","address":"Λεωφ. Αλεξάνδρας 31, Αθήνα 114 73","categoryIds":["cheap-eats"],"categories":["Gyros & Cheap Eats"]},"sameCategory":[{"id":"cheapEatsRestaurants_cda079c65f38","slug":"lorda-cda0","kind":"restaurant","name":"Λόρδα","lat":37.986574816164286,"lng":23.734456878858524,"url":"https://maps.app.goo.gl/nBaQ33jw6JEZQp7X9?g_st=ipc","address":"Σπύρου Τρικούπη 3, Αθήνα 106 83","categoryIds":["cheap-eats"],"categories":["Gyros & Cheap Eats"]},{"id":"cheapEatsRestaurants_c56025371d6e","slug":"hayat-c560","kind":"restaurant","name":"Hayat","lat":37.98451943968109,"lng":23.73920441819002,"url":"https://maps.app.goo.gl/mqY78SsShBqeen4Q9?g_st=ipc","address":"Ιπποκράτους 78, Αθήνα 106 80","categoryIds":["cheap-eats"],"categories":["Gyros & Cheap Eats"]},{"id":"cheapEatsRestaurants_724c8ca91031","slug":"mangal-724c","kind":"restaurant","name":"Mangal","lat":37.98648075392058,"lng":23.733903117356245,"url":"https://maps.app.goo.gl/fZ3o2N67Ya2WA1aQA?g_st=ipc","address":"Σολωμού 12, Αθήνα 106 83","categoryIds":["cheap-eats"],"categories":["Gyros & Cheap Eats"]},{"id":"cheapEatsRestaurants_b098fa4e8c79","slug":"kaproys-b098","kind":"restaurant","name":"Κάπρους","lat":37.997892215729216,"lng":23.738708713405035,"url":"https://maps.app.goo.gl/zmZ9p1KuXBfmeQTP9?g_st=ipc","address":"Σπετσών 49, Αθήνα 113 62","categoryIds":["cheap-eats"],"categories":["Gyros & Cheap Eats"]},{"id":"cheapEatsRestaurants_cab7e72e3b11","slug":"psitopoleion-giorgos-manos-cab7","kind":"restaurant","name":"Ψητοπωλείον Γιώργος - Μάνος","lat":37.9855993281782,"lng":23.733208439532696,"url":"https://maps.app.goo.gl/jYKrRJuSFDD632N47?g_st=ipc","address":"Θεμιστοκλέους 39, Αθήνα 106 77","categoryIds":["cheap-eats"],"categories":["Gyros & Cheap Eats"]},{"id":"cheapEatsRestaurants_0f0ae09c0d4e","slug":"guerilla-chef-burgers-0f0a","kind":"restaurant","name":"Guerilla Chef Burgers","lat":37.98671993993366,"lng":23.731787435580728,"url":"https://maps.app.goo.gl/K2QVLnm9vHS1E3cF9?g_st=ipc","address":"37.98671993993366, 23.731787435580728","categoryIds":["cheap-eats"],"categories":["Gyros & Cheap Eats"]},{"id":"cheapEatsRestaurants_6b9bfc66a8e4","slug":"lacantina-streetfood-6b9b","kind":"restaurant","name":"Lacantina streetfood","lat":37.98418112510836,"lng":23.734735469259256,"url":"https://maps.app.goo.gl/in5jozRVDDW97jJc8?g_st=ipc","address":"Ζωοδόχου Πηγής 24, Αθήνα 106 81","categoryIds":["cheap-eats"],"categories":["Gyros & Cheap Eats"]},{"id":"cheapEatsRestaurants_ec6036039639","slug":"dionysos-ec60","kind":"restaurant","name":"Διόνυσος","lat":37.99776607364749,"lng":23.735031186199688,"url":"https://maps.app.goo.gl/f7GyH9GtFQKGQmmS9?g_st=ipc","address":"Ιθάκης 12 12, Αθήνα 112 57","categoryIds":["cheap-eats"],"categories":["Gyros & Cheap Eats"]},{"id":"burgersRestaurants_c839a7ca9229","slug":"prigkipas-c839","kind":"restaurant","name":"Πρiγκιπας","lat":37.983677017107105,"lng":23.73451147367233,"url":"https://maps.app.goo.gl/fEvt3vsxx19nFxqw8?g_st=ipc","address":"Χαρ. Τρικούπη 23, Αθήνα 106 81","categoryIds":["burgers","cheap-eats"],"categories":["Burger Spots","Gyros & Cheap Eats"],"legacySlugs":["prigkipas-f678"]},{"id":"cheapEatsRestaurants_318abcd239ee","slug":"kalopsimeno-318a","kind":"restaurant","name":"Καλοψημένο","lat":37.98304777386895,"lng":23.735997970914198,"url":"https://maps.app.goo.gl/TiMP26dpbHXJx6pS9?g_st=ipc","address":"Ιπποκράτους 37, Αθήνα 106 80","categoryIds":["cheap-eats"],"categories":["Gyros & Cheap Eats"]},{"id":"cheapEatsRestaurants_b1a42490e7cb","slug":"gyros-soyvlaki-viktoria-tylixe-to-b1a4","kind":"restaurant","name":"Γύρος σουβλάκι Βικτώρια ΤΥΛΙΞΕ ΤΟ","lat":37.99350120718295,"lng":23.729835255916253,"url":"https://maps.app.goo.gl/eKw6YctPXBvBSifU7?g_st=ipc","address":"Πλ. Βικτώριας 6, Αθήνα 104 34","categoryIds":["cheap-eats"],"categories":["Gyros & Cheap Eats"]},{"id":"cheapEatsRestaurants_5338053c1323","slug":"cocoretsi-5338","kind":"restaurant","name":"Cocoretsi","lat":37.984933091622935,"lng":23.73142125517845,"url":"https://maps.app.goo.gl/sz7bawT1imNu9L696?g_st=ipc","address":"Ακαδημίας 95, Αθήνα 106 77","categoryIds":["cheap-eats"],"categories":["Gyros & Cheap Eats"]}],"nearby":[{"id":"greekRestaurants_e2f8a1a4ded7","slug":"katsarola-e2f8","kind":"restaurant","name":"Κατσαρόλα","lat":37.98993156504118,"lng":23.741864128657266,"url":"https://maps.app.goo.gl/R5o9th6YAJUun6xp6","address":"Λεωφ. Αλεξάνδρας 74, Αθήνα 114 73","categoryIds":["greek-restaurants"],"categories":["Greek Restaurants"],"distanceKm":0.1715791916065138},{"id":"dessertsRestaurants_98b6e615d276","slug":"chunky-cookie-bar-98b6","kind":"restaurant","name":"Chunky Cookie Bar","lat":37.990432042632165,"lng":23.743378760155576,"url":"https://maps.app.goo.gl/RyoKAVU7gY9FtBng6?g_st=ipc","address":"Πέτρου Καλλιγά 6, Αθήνα 114 74","categoryIds":["desserts"],"categories":["Dessert Shops"],"distanceKm":0.2879275131012965},{"id":"vegetarianRestaurants_3ea2a766339f","slug":"mimi-s-cafe-vegan-3ea2","kind":"restaurant","name":"Mimi's Cafe Vegan","lat":37.98928428831877,"lng":23.74327396218684,"url":"https://maps.app.goo.gl/iJpPrYiwEWZ6Zhk59?g_st=ipc","address":"Πλ. Αργεντινής Δημοκρατίας 4, Αθήνα 114 72","categoryIds":["vegetarian"],"categories":["Vegetarian Friendly Restaurants"],"distanceKm":0.31432493074221945},{"id":"coffeeBrunchRestaurants_a3230d252f22","slug":"bayard-cafe-bar-a323","kind":"restaurant","name":"Bayard Cafe Bar","lat":37.98818653598511,"lng":23.742397891424794,"url":"https://maps.app.goo.gl/uimsu3ktFK4Xu2bBA?g_st=ipc","address":"Ζωοδόχου Πηγής 134, Αθήνα 114 72","categoryIds":["coffee-brunch"],"categories":["Coffee & Brunch Spots"],"distanceKm":0.3356151296163334},{"id":"greekRestaurants_0cec67514103","slug":"ama-lachei-0cec","kind":"restaurant","name":"Άμα Λάχει","lat":37.9881200037971,"lng":23.737007621122938,"url":"https://maps.app.goo.gl/94C3hp4xbRp1fKYt7","address":"Καλλιδρομίου 69, Αθήνα 106 83","categoryIds":["greek-restaurants"],"categories":["Greek Restaurants"],"distanceKm":0.3867460225174974},{"id":"familyFriendly_8133c93f98d4","slug":"pedion-areos-8133","kind":"restaurant","name":"Πεδίον Άρεως","lat":37.99296743190719,"lng":23.73662502583579,"url":"https://maps.app.goo.gl/qo4PWWenK9kDd9qC7?g_st=ipc","address":"Λεωφ. Αλεξάνδρας, Αθήνα 114 74","categoryIds":["family-friendly"],"categories":["Kid Friendly Locations"],"distanceKm":0.4024573731971112},{"id":"municipalities_75ddb64a42fd","slug":"gyzi-75dd","kind":"municipality","name":"Γύζη","lat":37.9933,"lng":23.7439,"aliases":["Γυζη","Gizi"],"region":"Κέντρο Αθήνας","name_en":"Gyzi","region_en":"Athens Center","distanceKm":0.4482554359154914},{"id":"greekRestaurants_3eb28aec894c","slug":"ayli-geysi-poleion-3eb2","kind":"restaurant","name":"Αυλη Γευση-πωλείον","lat":37.98655857103421,"lng":23.737630934967044,"url":"https://maps.app.goo.gl/BGHehjaYVZctQ5Mv6","address":"Μεθώνης 43, Αθήνα 106 81","categoryIds":["greek-restaurants"],"categories":["Greek Restaurants"],"distanceKm":0.4988973285878208},{"id":"coffeeBrunchRestaurants_6ecc469a1225","slug":"the-black-salami-microbakery-6ecc","kind":"restaurant","name":"The Black Salami Microbakery","lat":37.98610295066266,"lng":23.73813379013077,"url":"https://maps.app.goo.gl/HJ9cCZfV3LeKP7U3A?g_st=ipc","address":"Ζωοδόχου Πηγής 71, Αθήνα 106 81","categoryIds":["coffee-brunch"],"categories":["Coffee & Brunch Spots"],"distanceKm":0.5290394118569195},{"id":"mexicanRestaurants_5d5b665dab34","slug":"poncho-tacos-5d5b","kind":"restaurant","name":"Poncho TACOS","lat":37.986865601219684,"lng":23.73564152842256,"url":"https://maps.app.goo.gl/UDV48UEWHbvnBPVPA?g_st=ipc","address":"Θεμιστοκλέους 63, Αθήνα 106 83","categoryIds":["mexican"],"categories":["Mexican Restaurants"],"distanceKm":0.570282290955785},{"id":"dessertsRestaurants_50c92ff86d1d","slug":"portatif-factory-50c9","kind":"restaurant","name":"Πορτατίφ - Factory","lat":37.98547841789868,"lng":23.739345621810312,"url":"https://maps.app.goo.gl/Q5VYitKyncAmC1Wn8?g_st=ipc","address":"Μαυρομιχάλη 81, Αθήνα 114 72","categoryIds":["desserts"],"categories":["Dessert Shops"],"distanceKm":0.5734553445483664},{"id":"dessertsRestaurants_be636dabd487","slug":"afoi-asimakopoyloi-be63","kind":"restaurant","name":"Αφοι Ασημακόπουλοι","lat":37.98543510745225,"lng":23.738217370820664,"url":"https://maps.app.goo.gl/zhMqHSFRswEjySMi9?g_st=ipc","address":"Χαρ. Τρικούπη 82, Αθήνα 106 80","categoryIds":["desserts"],"categories":["Dessert Shops"],"distanceKm":0.5976745792844423},{"id":"greekRestaurants_82fedd8f5eb8","slug":"aylak-politiki-kouzina-82fe","kind":"restaurant","name":"Aylak Politiki Kouzina","lat":37.986296240543886,"lng":23.73577500465613,"url":"https://maps.app.goo.gl/8H5UM5CTNGhY6tCz8","address":"Εμμανουήλ Μπενάκη 73, Αθήνα 106 81","categoryIds":["greek-restaurants"],"categories":["Greek Restaurants"],"distanceKm":0.6105917902461949},{"id":"luxuryDiningRestaurants_4ac28de916c7","slug":"10-urban-roof-4ac2","kind":"restaurant","name":"10 Urban Roof","lat":37.99116171206528,"lng":23.733113789092354,"url":"https://maps.app.goo.gl/EwoNbTNDX9bmfSgf9?g_st=ipc","address":"Λεωφ. Αλεξάνδρας 10, Αθήνα 106 82","categoryIds":["luxury-dining"],"categories":["Luxury Dining"],"distanceKm":0.6154103813081067},{"id":"coffeeBrunchRestaurants_24a3c9b03a04","slug":"behold-theman-24a3","kind":"restaurant","name":"behold theman","lat":37.986871883204095,"lng":23.73489020906335,"url":"https://maps.app.goo.gl/avUBs2LwMous6Xs97?g_st=ipc","address":"Ιδεοχώρος, Στουρνάρη 6, Αθήνα 106 83","categoryIds":["coffee-brunch"],"categories":["Coffee & Brunch Spots"],"distanceKm":0.6167921299752676},{"id":"greekRestaurants_6dfb86c3c849","slug":"lontza-tis-geitonias-6dfb","kind":"restaurant","name":"Λόντζα της Γειτονιάς","lat":37.98528728518512,"lng":23.737900936097155,"url":"https://maps.app.goo.gl/KuXHrJwbKRvdajxz5","address":"Χαρ. Τρικούπη 76, Αθήνα 106 80","categoryIds":["greek-restaurants"],"categories":["Greek Restaurants"],"distanceKm":0.6215226234533632},{"id":"vegetarianRestaurants_35af3a72d872","slug":"leik-kafe-35af","kind":"restaurant","name":"λέικ καφέ","lat":37.99570532128052,"lng":23.737094528681606,"url":"https://maps.app.goo.gl/c3DSV5tXT2pKELDL8?g_st=ipc","address":"Αιγίνης 1, Αθήνα 113 62","categoryIds":["vegetarian"],"categories":["Vegetarian Friendly Restaurants"],"distanceKm":0.6256902449764865},{"id":"greekRestaurants_013c7ee68bf7","slug":"to-rini-013c","kind":"restaurant","name":"Το Ρίνι","lat":37.99027878775376,"lng":23.732870988899485,"url":"https://maps.app.goo.gl/RRByVB3HqZfDcnkK7","address":"Ρεθύμνου 8, Αθήνα 106 82","categoryIds":["greek-restaurants"],"categories":["Greek Restaurants"],"distanceKm":0.6345413788035054},{"id":"greekRestaurants_399d4f103d60","slug":"pakoymel-399d","kind":"restaurant","name":"Pακουμελ","lat":37.98611213872367,"lng":23.7356153825947,"url":"https://maps.app.goo.gl/ES9bhy4RguonMm8G8","address":"Εμμανουήλ Μπενάκη 71, Αθήνα 106 81","categoryIds":["greek-restaurants"],"categories":["Greek Restaurants"],"distanceKm":0.6353274957794584},{"id":"coffeeBrunchRestaurants_a95b26c47b64","slug":"hygge-athens-a95b","kind":"restaurant","name":"Hygge Athens","lat":37.988231189980574,"lng":23.746766075427747,"url":"https://maps.app.goo.gl/gFbRCwSSyvTd57Ti8?g_st=ipc","address":"Ιπποκράτους 192, Αθήνα 114 71","categoryIds":["coffee-brunch"],"categories":["Coffee & Brunch Spots"],"distanceKm":0.6408589303177908},{"id":"asianRestaurants_4360c7ba70e3","slug":"microulee-4360","kind":"restaurant","name":"Microulee","lat":37.98699838431432,"lng":23.73426742337473,"url":"https://maps.app.goo.gl/KAcLL73vy6J6TTKv5?g_st=ipc","address":"Στουρνάρη 14, Αθήνα 106 83","categoryIds":["asian"],"categories":["Asian Restaurants"],"distanceKm":0.6494476602452322},{"id":"coffeeBrunchRestaurants_f2fc2f9837eb","slug":"green-park-f2fc","kind":"restaurant","name":"Green Park","lat":37.99268098251898,"lng":23.733030655681027,"url":"https://maps.app.goo.gl/YVmf7NaJKpFKqFvw6?g_st=ipc","address":"Μαυρομματαίων 22, Αθήνα 104 34","categoryIds":["coffee-brunch"],"categories":["Coffee & Brunch Spots"],"distanceKm":0.6612808419686053},{"id":"vegetarianRestaurants_7f7c33a1a56c","slug":"rozalia-7f7c","kind":"restaurant","name":"Ροζαλία","lat":37.98607917346581,"lng":23.735180101843408,"url":"https://maps.app.goo.gl/UngDLMKcNPzNvksZ6?g_st=ipc","address":"Βαλτετσίου 59, Αθήνα 106 81","categoryIds":["vegetarian"],"categories":["Vegetarian Friendly Restaurants"],"distanceKm":0.6623859128265916},{"id":"greekRestaurants_be06a546e935","slug":"giantes-be06","kind":"restaurant","name":"Γιάντες","lat":37.98561482975353,"lng":23.735926375159003,"url":"https://maps.app.goo.gl/LuGL5j7KgtCFWxmA8","address":"Βαλτετσίου 44, Αθήνα 106 81","categoryIds":["greek-restaurants","luxury-dining"],"categories":["Greek Restaurants","Luxury Dining"],"legacySlugs":["giantes-2f3a"],"distanceKm":0.6642472403313415}],"sameRegion":[],"mentionedGuides":[],"canonicalSlug":"cantina-alexandras-9b96","isCanonicalEntity":true,"enrichment":{"summary_en":"Cantina Alexandras is a curated restaurant in Αθήνα 114 73 in the Gyros & Cheap Eats collection. It is connected to 45 nearby Googlementor picks to help travelers build a stronger local route.","summary_el":"Cantina Alexandras είναι ένα επιλεγμένο σημείο φαγητού στην περιοχή Αθήνα 114 73 και ανήκει στη συλλογή Gyros & Cheap Eats. Συνδέεται με 45 κοντινές προτάσεις του Googlementor για πιο ολοκληρωμένη εμπειρία.","vibe_tags":["curated","budget-friendly"],"best_for":["first-time visitors","food lovers","budget travelers"],"visit_moments":["lunch stop","dinner stop"],"practical_note":"Address and direct map link are available for easy turn-by-turn access.","nearby_walkable_count":45,"nearby_count_2km":422,"confidence":0.98},"areaContext":{"slug":"gyzi","name":"Gyzi"},"intentContexts":[{"href":"/cheap-eats/gyzi","label":"Gyros & Cheap Eats in Gyzi","categorySlug":"cheap-eats","categoryName":"Gyros & Cheap Eats","areaSlug":"gyzi","areaName":"Gyzi"}]},"__N_SSG":true}