{"pageProps":{"entity":{"id":"wineriesVineyards_99bb64a2c9e6","slug":"domaine-porto-carras-new-era-99bb","kind":"restaurant","name":"Domaine Porto Carras new era","lat":40.072188356104746,"lng":23.80576582498951,"url":"https://maps.app.goo.gl/huHWpFUEXo8827o1A?g_st=ipc","address":"Σιθωνία 630 81","categoryIds":["wineries-vineyards"],"categories":["Wineries & Vineyards"]},"sameCategory":[{"id":"wineriesVineyards_65599ab05a5f","slug":"tsantali-6559","kind":"restaurant","name":"Tsantali","lat":40.36907180251345,"lng":23.047266199347828,"url":"https://maps.app.goo.gl/yKNrVSuK1iy4L2Ls9?g_st=ipc","address":"Agios Pavlos 630 80","categoryIds":["wineries-vineyards"],"categories":["Wineries & Vineyards"]},{"id":"wineriesVineyards_1453a2659012","slug":"gerovasileiou-estate-1453","kind":"restaurant","name":"Gerovasileiou Estate","lat":40.44938832129469,"lng":22.924743352052637,"url":"https://maps.app.goo.gl/C8APtFGMgaBwFMYcA?g_st=ipc","address":"ktima Gerovassiliou, Epanomi 575 00","categoryIds":["wineries-vineyards"],"categories":["Wineries & Vineyards"]},{"id":"wineriesVineyards_2ab2ad540f09","slug":"kechris-winery-2ab2","kind":"restaurant","name":"KECHRIS Winery","lat":40.64762484465721,"lng":22.85152020450362,"url":"https://maps.app.goo.gl/sv2SwXYfdv3Hc5ob9?g_st=ipc","address":"Olimpou, Delta 570 09","categoryIds":["wineries-vineyards"],"categories":["Wineries & Vineyards"]},{"id":"wineriesVineyards_1ba3565ec57e","slug":"parissis-winery-1ba3","kind":"restaurant","name":"Parissis Winery","lat":39.18153615640374,"lng":23.469914268213092,"url":"https://maps.app.goo.gl/xFt7L59eLpWAg6GJ8?g_st=ipc","address":"Unnamed Road, Σκιάθος 370 02","categoryIds":["wineries-vineyards"],"categories":["Wineries & Vineyards"]},{"id":"wineriesVineyards_21e4fc1e860b","slug":"wine-art-estate-21e4","kind":"restaurant","name":"\"Wine Art\" Estate","lat":41.10253195746925,"lng":24.17303276432893,"url":"https://maps.app.goo.gl/kuEE1xd8ov4WsHDd9?g_st=ipc","address":"p. mela 2, Mikrochori 661 00","categoryIds":["wineries-vineyards"],"categories":["Wineries & Vineyards"]},{"id":"wineriesVineyards_554af4e222d0","slug":"oenogenesis-s-a-554a","kind":"restaurant","name":"OENOGENESIS S.A.","lat":41.11655968127127,"lng":24.244269125370955,"url":"https://maps.app.goo.gl/bnEeezvifVHw7rFq7?g_st=ipc","address":"Επί επαρχιακής οδού Δοξάτο-Αδριανή, Adriani 661 00","categoryIds":["wineries-vineyards"],"categories":["Wineries & Vineyards"]},{"id":"wineriesVineyards_a9a7cc1f9625","slug":"estates-costa-lazaridi-drama-a9a7","kind":"restaurant","name":"Estates Costa Lazaridi Drama","lat":41.13086312258315,"lng":24.259959410750362,"url":"https://maps.app.goo.gl/Kw5f3uTchrYrtq7G7?g_st=ipc","address":"Epar.Od. Platamona - Adrianis 47, Adriani 661 00","categoryIds":["wineries-vineyards"],"categories":["Wineries & Vineyards"]},{"id":"wineriesVineyards_0cdfcd6ce302","slug":"nico-lazaridi-chateau-nico-lazaridi-oinopoieio-nikoy-lazaridi-0cdf","kind":"restaurant","name":"NICO LAZARIDI Château Nico Lazaridi - Οινοποιείο Νίκου Λαζαρίδη","lat":41.129507803067504,"lng":24.279792635578804,"url":"https://maps.app.goo.gl/WKD1nyVBu5sjxUqV8?g_st=ipc","address":"Κοινότητα Αγοράς, Δράμα, Agora 660 32","categoryIds":["wineries-vineyards"],"categories":["Wineries & Vineyards"]},{"id":"wineriesVineyards_eb4eefea1ef8","slug":"oenops-wines-eb4e","kind":"restaurant","name":"OENOPS WINES","lat":41.18716398837062,"lng":23.94513089525479,"url":"https://maps.app.goo.gl/FMCPZ5ZmPNoWEBFVA?g_st=ipc","address":"3ο χλμ επαρχιακής οδού Προσοτσάνης, Kokkinogia 662 00","categoryIds":["wineries-vineyards"],"categories":["Wineries & Vineyards"]},{"id":"wineriesVineyards_3da11558d51a","slug":"ktima-pavlidis-3da1","kind":"restaurant","name":"Ktima Pavlidis","lat":41.20099538103468,"lng":23.95247116441372,"url":"https://maps.app.goo.gl/7JsSGRBJR1mceRNE9?g_st=ipc","address":"Kokinogeia 662 00","categoryIds":["wineries-vineyards"],"categories":["Wineries & Vineyards"]},{"id":"wineriesVineyards_1a8430108b4e","slug":"boutari-winery-s-a-1a84","kind":"restaurant","name":"Boutari Winery S.A.","lat":40.604954538648315,"lng":22.130368216830174,"url":"https://maps.app.goo.gl/faa8usVkmkz6Gxog6?g_st=ipc","address":"592 00, Epar.Od. Naousas-Kato Vermiou, Stenimachos","categoryIds":["wineries-vineyards"],"categories":["Wineries & Vineyards"]},{"id":"wineriesVineyards_a36d8bf4fc67","slug":"kir-yianni-winery-a36d","kind":"restaurant","name":"Kir-Yianni Winery","lat":40.65941086004422,"lng":22.071160405925678,"url":"https://maps.app.goo.gl/J5SjPASnL6fBMV2DA?g_st=ipc","address":"Γιαννακοχώρι 592 00","categoryIds":["wineries-vineyards"],"categories":["Wineries & Vineyards"]}],"nearby":[{"id":"coffeeBrunchRestaurants_e74c2a6900af","slug":"kohi-beach-e74c","kind":"restaurant","name":"Kohi beach","lat":40.074443417965654,"lng":23.790085630034497,"url":"https://maps.app.goo.gl/JVA5L8YnHzkTjoQq5?g_st=ipc","address":"PORTO KARRAS, Neos Marmaras 630 81","categoryIds":["coffee-brunch"],"categories":["Coffee & Brunch Spots"],"distanceKm":1.3575664959927618},{"id":"coffeeBrunchRestaurants_05e087fe1230","slug":"molos-05e0","kind":"restaurant","name":"Molos","lat":40.09415334263866,"lng":23.78475325827316,"url":"https://maps.app.goo.gl/b3KTgBobUtSzbYRQ8?g_st=ipc","address":"25is Martiou 20, Neos Marmaras 630 81","categoryIds":["coffee-brunch"],"categories":["Coffee & Brunch Spots"],"distanceKm":3.0267261428787178},{"id":"italianRestaurants_fae68809d6c4","slug":"deluxe-pizza-fae6","kind":"restaurant","name":"Deluxe Pizza","lat":40.09497571247146,"lng":23.785047733849556,"url":"https://maps.app.goo.gl/GPBVkCTKG7m2uSNw7?g_st=ipc","address":"Ιωάννη Καρρά, Neos Marmaras 630 81","categoryIds":["italian"],"categories":["Italian Restaurants"],"distanceKm":3.0866052255902323},{"id":"fishTavernasRestaurants_6e9e7a8ffef9","slug":"ta-kymata-fresh-fish-seafood-restaurant-6e9e","kind":"restaurant","name":"Ta Kymata - Fresh Fish & Seafood Restaurant","lat":40.09465479356917,"lng":23.781009690936443,"url":"https://maps.app.goo.gl/2y3hfnQFk6jPWzpm7?g_st=ipc","address":"Ιωάννη, Karra, Neos Marmaras 630 81","categoryIds":["fish-tavernas"],"categories":["Fish Tavernas"],"distanceKm":3.2675163023690885},{"id":"fishTavernasRestaurants_c1e639fcf77c","slug":"panos-fish-tavern-c1e6","kind":"restaurant","name":"Panos Fish Tavern","lat":40.02825871317535,"lng":23.814126287287745,"url":"https://maps.app.goo.gl/77jkhaQtjejhyNVk9?g_st=ipc","address":"63081, Neos Marmaras 630 81","categoryIds":["fish-tavernas"],"categories":["Fish Tavernas"],"distanceKm":4.936316657081689},{"id":"coffeeBrunchRestaurants_7e71dcad1f15","slug":"sinaloa-beach-club-7e71","kind":"restaurant","name":"Sinaloa Beach Club","lat":40.02439528883169,"lng":23.83477732325125,"url":"https://maps.app.goo.gl/5y3h9wHEBbAE7ydNA?g_st=ipc","address":"Neos Marmaras 630 81","categoryIds":["coffee-brunch"],"categories":["Coffee & Brunch Spots"],"distanceKm":5.860077021769865},{"id":"coffeeBrunchRestaurants_4f22b9f8e395","slug":"ethnik-beach-bar-4f22","kind":"restaurant","name":"Ethnik Beach Bar","lat":39.99629866369205,"lng":23.87260948520653,"url":"https://maps.app.goo.gl/SSzGcihWSHuskGnj9?g_st=ipc","address":"Τριστινικα 630 72","categoryIds":["coffee-brunch"],"categories":["Coffee & Brunch Spots"],"distanceKm":10.178186159388476},{"id":"coffeeBrunchRestaurants_497e3d529e6b","slug":"rodia-beach-bar-497e","kind":"restaurant","name":"Rodia Beach Bar","lat":40.16728294783182,"lng":23.87753516622083,"url":"https://maps.app.goo.gl/JWDuoC5xfuaZE3qx7?g_st=ipc","address":"Vourvourou 630 78","categoryIds":["coffee-brunch"],"categories":["Coffee & Brunch Spots"],"distanceKm":12.208681692501928},{"id":"coffeeBrunchRestaurants_ff1094e6f54f","slug":"manassu-beach-bar-and-restaurant-ff10","kind":"restaurant","name":"Manassu Beach Bar and Restaurant","lat":40.15983560901836,"lng":23.895238695639563,"url":"https://maps.app.goo.gl/vTT1YVpou5DWsbZ16?g_st=ipc","address":"12ο χλμ. Βουρβουρού, Sarti 630 78","categoryIds":["coffee-brunch"],"categories":["Coffee & Brunch Spots"],"distanceKm":12.364069563595466},{"id":"coffeeBrunchRestaurants_23f5d47a96c3","slug":"daluz-beach-bar-restaurant-23f5","kind":"restaurant","name":"Daluz Beach Bar Restaurant","lat":39.98516645216742,"lng":23.903296724219445,"url":"https://maps.app.goo.gl/6Hendm5FAtJv4EAK9?g_st=ipc","address":"Toroni 630 72","categoryIds":["coffee-brunch"],"categories":["Coffee & Brunch Spots"],"distanceKm":12.751179306167009},{"id":"greekRestaurants_43468164bfe6","slug":"gorgona-i-poylman-4346","kind":"restaurant","name":"Γοργόνα ή Πούλμαν","lat":40.18844887866331,"lng":23.799070114643,"url":"https://maps.app.goo.gl/eCPfEYcm6XmwdGov6?g_st=ipc","address":"Βουρβουρού 630 78","categoryIds":["greek-restaurants"],"categories":["Greek Restaurants"],"distanceKm":12.940107406952444},{"id":"fishTavernasRestaurants_89407965d754","slug":"bubo-8940","kind":"restaurant","name":"Bubo","lat":40.19122023224205,"lng":23.803994678989536,"url":"https://maps.app.goo.gl/oD1rDfLpCw74E1w19?g_st=ipc","address":"5RR3+FH, Sithonia 630 78","categoryIds":["fish-tavernas"],"categories":["Fish Tavernas"],"distanceKm":13.236597210178784},{"id":"luxuryDiningRestaurants_f6d3a7539ed9","slug":"bubo-f6d3","kind":"restaurant","name":"Bubo","lat":40.19127812556052,"lng":23.80445470083623,"url":"https://maps.app.goo.gl/n2fTsV6Gr8NWKq3k7?g_st=ipc","address":"5RR3+FH, Sithonia 630 78 (within Ekies All Senses Resort)","categoryIds":["luxury-dining"],"categories":["Luxury Dining"],"distanceKm":13.242647303425983},{"id":"greekRestaurants_b3c17d231447","slug":"mellia-restaurant-b3c1","kind":"restaurant","name":"Melliá Restaurant","lat":40.19208860749863,"lng":23.80767095185341,"url":"https://maps.app.goo.gl/1uxCAvJPume7NxnN7?g_st=ipc","address":"Βουρβουρού 630 78","categoryIds":["greek-restaurants"],"categories":["Greek Restaurants"],"distanceKm":13.333283418693968},{"id":"municipalities_21964f0d30dc","slug":"voyrvoyroy-2196","kind":"municipality","name":"Βουρβουρού","lat":40.1985,"lng":23.7725,"region":"Χαλκιδική","name_en":"Vourvourou","region_en":"Halkidiki","distanceKm":14.32708704073599},{"id":"fishTavernasRestaurants_96de444b7a10","slug":"porto-marina-porto-marina-96de","kind":"restaurant","name":"Porto Marina / Πόρτο Μαρίνα","lat":39.971313118009334,"lng":23.918182244358935,"url":"https://maps.app.goo.gl/tGn4Eecy7SmLvgcn9?g_st=ipc","address":"Porto Koufo 630 72","categoryIds":["fish-tavernas"],"categories":["Fish Tavernas"],"distanceKm":14.746242843269865},{"id":"fishTavernasRestaurants_d5c76ebeca06","slug":"taverna-tzitzikas-d5c7","kind":"restaurant","name":"Taverna Tzitzikas","lat":39.97131621436269,"lng":23.918318099276224,"url":"https://maps.app.goo.gl/xM3w3kkvbVhTTiVCA?g_st=ipc","address":"Porto Koufo 630 72","categoryIds":["fish-tavernas"],"categories":["Fish Tavernas"],"distanceKm":14.75349329908362},{"id":"municipalities_9881ef0d546d","slug":"sarti-9881","kind":"municipality","name":"Σάρτη","lat":40.092,"lng":23.9774,"region":"Χαλκιδική","name_en":"Sarti","region_en":"Halkidiki","distanceKm":14.767486751614799},{"id":"fishTavernasRestaurants_65768adf2a19","slug":"ta-vrahakia-6576","kind":"restaurant","name":"Ta Vrahakia","lat":40.097540490283095,"lng":23.98106959598484,"url":"https://maps.app.goo.gl/s3bXAQZmTZm8mRD49?g_st=ipc","address":"Sarti, 630 72","categoryIds":["fish-tavernas"],"categories":["Fish Tavernas"],"distanceKm":15.177931742569106},{"id":"coffeeBrunchRestaurants_ec562584f606","slug":"lago-seaside-experience-ec56","kind":"restaurant","name":"Lago Seaside Experience","lat":39.97322433297595,"lng":23.675843364420007,"url":"https://maps.app.goo.gl/5BvhEbLtGovxPUe36?g_st=ipc","address":"Unnamed Road, Kassandra 630 85","categoryIds":["coffee-brunch"],"categories":["Coffee & Brunch Spots"],"distanceKm":15.604091557222716},{"id":"coffeeBrunchRestaurants_2db4944d88a6","slug":"leuki-ammos-beach-bar-2db4","kind":"restaurant","name":"Leuki Ammos Beach bar","lat":39.96367051219052,"lng":23.675446495469675,"url":"https://maps.app.goo.gl/xySqYYNGHWHqAXNeA?g_st=ipc","address":"Akti xenia, Paliouri 630 85","categoryIds":["coffee-brunch"],"categories":["Coffee & Brunch Spots"],"distanceKm":16.393988765791065},{"id":"coffeeBrunchRestaurants_fc07764e5b52","slug":"season-beach-house-koursaros-fc07","kind":"restaurant","name":"Season beach house (KOURSAROS)","lat":39.95767524817121,"lng":23.67935820697653,"url":"https://maps.app.goo.gl/kxSvMZBHgQaQt2dS8?g_st=ipc","address":"Koursaros, Paliouri 630 85","categoryIds":["coffee-brunch"],"categories":["Coffee & Brunch Spots"],"distanceKm":16.67402483956637},{"id":"greekRestaurants_3438688d0deb","slug":"5-steps-in-the-sand-3438","kind":"restaurant","name":"5 steps in the sand","lat":40.034692799637156,"lng":23.996066587885828,"url":"https://maps.app.goo.gl/CNXaqqzThUxV4Jjr5?g_st=ipc","address":"Unnamed Rd, Σιθωνία 630 72","categoryIds":["greek-restaurants"],"categories":["Greek Restaurants"],"distanceKm":16.725176010944494},{"id":"fishTavernasRestaurants_24fad5bd6b6a","slug":"5-steps-in-the-sand-24fa","kind":"restaurant","name":"5 steps in the sand","lat":40.034668702268604,"lng":23.99606130491612,"url":"https://maps.app.goo.gl/iP8wYvDkitTVjfa76?g_st=ipc","address":"Unnamed Rd, Sithonia 630 72","categoryIds":["fish-tavernas"],"categories":["Fish Tavernas"],"distanceKm":16.725411502280625}],"sameRegion":[],"mentionedGuides":[],"canonicalSlug":"domaine-porto-carras-new-era-99bb","isCanonicalEntity":true,"enrichment":{"summary_en":"Domaine Porto Carras new era is a curated restaurant in Greece in the Wineries & Vineyards collection. It is connected to 0 nearby Googlementor picks to help travelers build a stronger local route.","summary_el":"Domaine Porto Carras new era είναι ένα επιλεγμένο σημείο φαγητού στην περιοχή Greece και ανήκει στη συλλογή Wineries & Vineyards. Συνδέεται με 0 κοντινές προτάσεις του Googlementor για πιο ολοκληρωμένη εμπειρία.","vibe_tags":["curated","wine-moment"],"best_for":["first-time visitors","food lovers"],"visit_moments":["lunch stop","dinner stop"],"practical_note":"Address and direct map link are available for easy turn-by-turn access.","nearby_walkable_count":0,"nearby_count_2km":1,"confidence":0.9},"areaContext":null,"intentContexts":[]},"__N_SSG":true}