{"pageProps":{"entity":{"id":"mexicanRestaurants_a0149c25ef48","slug":"dos-hermanos-a014","kind":"restaurant","name":"Dos Hermanos","lat":38.070224929633255,"lng":23.812971812919443,"url":"https://maps.app.goo.gl/4EBL1F4dh9gaVYdh7?g_st=ipc","address":"Κυριαζή 24, Κηφισιά 145 62","categoryIds":["mexican"],"categories":["Mexican Restaurants"]},"sameCategory":[{"id":"mexicanRestaurants_9321a8ed4f82","slug":"ancho-mexican-grill-9321","kind":"restaurant","name":"Ancho Mexican Grill","lat":38.072302577774266,"lng":23.812957916990147,"url":"https://maps.app.goo.gl/9YG5PfTVGoHqdG8N9?g_st=ipc","address":"Κασσαβέτη 9, Κηφισιά 145 62","categoryIds":["mexican"],"categories":["Mexican Restaurants"]},{"id":"mexicanRestaurants_1c335621a1fd","slug":"pueblo-chido-kifisia-1c33","kind":"restaurant","name":"Pueblo Chido Κηφισιά","lat":38.07488654501822,"lng":23.81927628386729,"url":"https://maps.app.goo.gl/gFj6AV1Bf67kw6hdA?g_st=ipc","address":"Κολοκοτρώνη 37, Κηφισιά 145 62","categoryIds":["mexican"],"categories":["Mexican Restaurants"]},{"id":"burgersRestaurants_a0d6a061aa9e","slug":"mvp-restaurant-a0d6","kind":"restaurant","name":"MVP RESTAURANT","lat":38.08823770971798,"lng":23.816227663317804,"url":"https://maps.app.goo.gl/JjXo3mQwSBz49WBp9?g_st=ipc","address":"Χαρ. Τρικούπη 127, Νέα Ερυθραία 146 71","categoryIds":["burgers","mexican"],"categories":["Burger Spots","Mexican Restaurants"],"legacySlugs":["mvp-restaurant-4dab"]},{"id":"mexicanRestaurants_fa8ffda60946","slug":"balero-fa8f","kind":"restaurant","name":"Balero","lat":38.08846033344393,"lng":23.813655936317737,"url":"https://maps.app.goo.gl/z2SGuye5ZYrGd3Ft7?g_st=ipc","address":"Χαρ. Τρικούπη 162, Νέα Ερυθραία 145 62","categoryIds":["mexican"],"categories":["Mexican Restaurants"]},{"id":"mexicanRestaurants_a122440089bb","slug":"chilangos-melissia-a122","kind":"restaurant","name":"Chilangos Μελίσσια","lat":38.054355571864015,"lng":23.84267375327988,"url":"https://maps.app.goo.gl/1nUje6biZMsuVgA88?g_st=ipc","address":"Π. Τσαλδάρη 31, Μελίσσια 151 27","categoryIds":["mexican"],"categories":["Mexican Restaurants"]},{"id":"mexicanRestaurants_e68c0563bcc0","slug":"ancho-mexican-grill-e68c","kind":"restaurant","name":"Ancho Mexican Grill","lat":38.04461245221765,"lng":23.790240662976885,"url":"https://maps.app.goo.gl/VDFRPLTGKi6Cxw6b9?g_st=ipc","address":"Ανδρέα Παπανδρέου 35, Μαρούσι 151 22","categoryIds":["mexican"],"categories":["Mexican Restaurants"]},{"id":"mexicanRestaurants_3cb054fab422","slug":"juan-s-cantina-vrilissia-3cb0","kind":"restaurant","name":"Juan's Cantina (Βριλήσσια)","lat":38.04160062532965,"lng":23.847620862228275,"url":"https://maps.app.goo.gl/6ANASWUmUfUoDhQ17?g_st=ipc","address":"Αναπαύσεως 40, Βριλήσσια 152 38","categoryIds":["mexican"],"categories":["Mexican Restaurants"]},{"id":"mexicanRestaurants_d9caea076ae0","slug":"ancho-mexican-grill-d9ca","kind":"restaurant","name":"Ancho Mexican Grill","lat":38.02258118157313,"lng":23.79793213578262,"url":"https://maps.app.goo.gl/i66HHdFDVxfAoN1y7?g_st=ipc","address":"Κολοκοτρώνη και, Γρ. Γυφτοπούλου 9, Χαλάνδρι 152 33","categoryIds":["mexican"],"categories":["Mexican Restaurants"]},{"id":"mexicanRestaurants_6c5519ffe304","slug":"picasso-athens-6c55","kind":"restaurant","name":"Picasso Athens","lat":38.019815508215686,"lng":23.798687453855152,"url":"https://maps.app.goo.gl/J7mbR7We3G9gTLqS6?g_st=ipc","address":"Καραολη Δημήτριου 22, Χαλάνδρι 152 32","categoryIds":["mexican"],"categories":["Mexican Restaurants"]},{"id":"mexicanRestaurants_2fa8f90ada8c","slug":"el-taco-bueno-2fa8","kind":"restaurant","name":"El Taco Bueno","lat":38.01767477225013,"lng":23.8094742149459,"url":"https://maps.app.goo.gl/nxvZPKw9Xm14kD6q7?g_st=ipc","address":"Αγίας Παρασκευής 110, Χαλάνδρι 152 32","categoryIds":["mexican"],"categories":["Mexican Restaurants"]},{"id":"mexicanRestaurants_8063d3de98b0","slug":"juan-s-cantina-8063","kind":"restaurant","name":"Juan's Cantina","lat":38.01206107178295,"lng":23.81957316690922,"url":"https://maps.app.goo.gl/BrMEKeu7hk8gqjtQ6?g_st=ipc","address":"Ευεργέτου Γιαβάση 13Α, Αγ. Παρασκευή 153 42","categoryIds":["mexican"],"categories":["Mexican Restaurants"]},{"id":"mexicanRestaurants_5d84c532c46f","slug":"chilangos-5d84","kind":"restaurant","name":"Chilangos","lat":38.00604580624182,"lng":23.797688301604907,"url":"https://maps.app.goo.gl/fUBeVjsmrzYg9wt59?g_st=ipc","address":"Λεωφ. Μεσογείων 258, Χολαργός 155 61","categoryIds":["mexican"],"categories":["Mexican Restaurants"]}],"nearby":[{"id":"coffeeBrunchRestaurants_dd445cb17731","slug":"zambri-dd44","kind":"restaurant","name":"ZAMBRI","lat":38.0705711422009,"lng":23.812755176637886,"url":"https://maps.app.goo.gl/mFU9ypU9R2NajcX87?g_st=ipc","address":"Αγίου Δημητρίου 9, Κηφισιά 145 62","categoryIds":["coffee-brunch"],"categories":["Coffee & Brunch Spots"],"distanceKm":0.04291456738508489},{"id":"greekRestaurants_ee1040d986a2","slug":"o-tzitzikas-kai-o-mermigkas-ee10","kind":"restaurant","name":"Ο Τζίτζικας και ο Μέρμηγκας","lat":38.071444564634874,"lng":23.81158159449847,"url":"https://maps.app.goo.gl/Baz66z9eF1nXkQDe8","address":"Γεωρ. Δροσίνη 12, Κηφισιά 145 62","categoryIds":["greek-restaurants"],"categories":["Greek Restaurants"],"distanceKm":0.1822147339478277},{"id":"italianRestaurants_9864a763d5a6","slug":"la-pasteria-9864","kind":"restaurant","name":"La Pasteria","lat":38.071971773331484,"lng":23.81375357994017,"url":"https://maps.app.goo.gl/jpzzbHYa7ZkuqiDh9?g_st=ipc","address":"Κασσαβέτη 12, Κηφισιά 145 62","categoryIds":["italian"],"categories":["Italian Restaurants"],"distanceKm":0.20594288383701284},{"id":"mexicanRestaurants_9321a8ed4f82","slug":"ancho-mexican-grill-9321","kind":"restaurant","name":"Ancho Mexican Grill","lat":38.072302577774266,"lng":23.812957916990147,"url":"https://maps.app.goo.gl/9YG5PfTVGoHqdG8N9?g_st=ipc","address":"Κασσαβέτη 9, Κηφισιά 145 62","categoryIds":["mexican"],"categories":["Mexican Restaurants"],"distanceKm":0.2310271350235766},{"id":"asianRestaurants_313cbf5dd5ee","slug":"wagamama-kifisia-313c","kind":"restaurant","name":"wagamama kifisia","lat":38.072331147675214,"lng":23.812549926712027,"url":"https://maps.app.goo.gl/ukrWwWHZBibG1ZuR9?g_st=ipc","address":"Κασσαβέτη 3, Αθήνα 145 62","categoryIds":["asian"],"categories":["Asian Restaurants"],"distanceKm":0.23709467949243063},{"id":"dessertsRestaurants_133f25aa5736","slug":"lartecono-davinci-gelato-kifisia-133f","kind":"restaurant","name":"Lartecono Davinci Gelato (Kifisia)","lat":38.07209287623985,"lng":23.81427887695815,"url":"https://maps.app.goo.gl/TQ8GkG92N85onsZr9?g_st=ipc","address":"Κασσαβέτη 19, Κηφισιά 145 62","categoryIds":["desserts"],"categories":["Dessert Shops"],"distanceKm":0.23713540185043633},{"id":"dessertsRestaurants_f6573343ee76","slug":"varsos-kifisias-f657","kind":"restaurant","name":"Βάρσος Κηφισιάς","lat":38.072362535009226,"lng":23.812748821182716,"url":"https://maps.app.goo.gl/e8AJnfXdPPGoGzkUA?g_st=ipc","address":"Κασσαβέτη 5, Κηφισιά 145 62","categoryIds":["desserts"],"categories":["Dessert Shops"],"distanceKm":0.23849106342634382},{"id":"coffeeBrunchRestaurants_6ad2753fc055","slug":"different-beast-6ad2","kind":"restaurant","name":"Different Beast","lat":38.072030542719524,"lng":23.814580386585376,"url":"https://maps.app.goo.gl/uz9Wpn9FMrG1tYuh9?g_st=ipc","address":"Κασσαβέτη 19, Αθήνα 145 61","categoryIds":["coffee-brunch"],"categories":["Coffee & Brunch Spots"],"distanceKm":0.2452311550118892},{"id":"coffeeBrunchRestaurants_be3a53f7f3e4","slug":"paul-kifisia-be3a","kind":"restaurant","name":"PAUL Κηφισιά","lat":38.072447961478396,"lng":23.81379476032691,"url":"https://maps.app.goo.gl/6xevQtpeMeVnnkfT6?g_st=ipc","address":"Λεβίδου 4, Κηφισιά 145 62","categoryIds":["coffee-brunch"],"categories":["Coffee & Brunch Spots"],"distanceKm":0.2574731258965274},{"id":"greekRestaurants_81215dd76f6b","slug":"artisanal-8121","kind":"restaurant","name":"Artisanal","lat":38.067981010642875,"lng":23.811453792339574,"url":"https://maps.app.goo.gl/WsfMSGTo3b3Mq3hS6","address":"Ζηρίνη 2, Κηφισιά 145 62","categoryIds":["greek-restaurants"],"categories":["Greek Restaurants"],"distanceKm":0.2826934784936512},{"id":"luxuryDiningRestaurants_f175cd277867","slug":"il-salumaio-d-atene-f175","kind":"restaurant","name":"Il Salumaio d' Atene","lat":38.07341261438747,"lng":23.81279655771526,"url":"https://maps.app.goo.gl/hdE6Uo7UUV1Sx4i76?g_st=ipc","address":"Παναγίτσας 3, Κηφισιά 145 62","categoryIds":["luxury-dining"],"categories":["Luxury Dining"],"distanceKm":0.3547862139679083},{"id":"dessertsRestaurants_cd2327378af7","slug":"cake-kifisia-cd23","kind":"restaurant","name":"CAKE Kifisia","lat":38.073487839104395,"lng":23.814902720065806,"url":"https://maps.app.goo.gl/VMCR6TNy1UKT5ohW9?g_st=ipc","address":"Αργυροπούλου 3, Κηφισιά 145 62","categoryIds":["desserts"],"categories":["Dessert Shops"],"distanceKm":0.40025898668173626},{"id":"italianRestaurants_eaba816c4340","slug":"portofino-pizza-kifisia-eaba","kind":"restaurant","name":"Portofino Pizza Kifisia","lat":38.0734702785448,"lng":23.814976694722787,"url":"https://maps.app.goo.gl/b5YoW6FvnhXk97jJ8?g_st=ipc","address":"Levidou 16, Αργυροπούλου 1-3, Κηφισιά 145 62","categoryIds":["italian"],"categories":["Italian Restaurants"],"distanceKm":0.4012793903078424},{"id":"dessertsRestaurants_269f1a4d58a3","slug":"aristokratikon-kifisia-269f","kind":"restaurant","name":"Αριστοκρατικόν - Κηφισιά","lat":38.073016781498126,"lng":23.816206852783917,"url":"https://maps.app.goo.gl/PVrMudYCzW22zcGeA?g_st=ipc","address":"Αργυροπούλου 8, Κηφισιά 145 62","categoryIds":["desserts"],"categories":["Dessert Shops"],"distanceKm":0.42019907517013444},{"id":"italianRestaurants_f02c78444b4c","slug":"casa-giacomo-kifissia-f02c","kind":"restaurant","name":"Casa Giacomo Kifissia","lat":38.07385898526318,"lng":23.814586935437283,"url":"https://maps.app.goo.gl/1xtm5c4dSnQZtLaY9?g_st=ipc","address":"Λεβίδου 11, Κηφισιά 145 62","categoryIds":["italian"],"categories":["Italian Restaurants"],"distanceKm":0.42810809761625973},{"id":"coffeeBrunchRestaurants_2322e1e847ee","slug":"natu-2322","kind":"restaurant","name":"NATU","lat":38.07417552050554,"lng":23.814760489983165,"url":"https://maps.app.goo.gl/wzJKDW9SrK9LDD9x8?g_st=ipc","address":"Λεβίδου 13, Κηφισιά 145 62","categoryIds":["coffee-brunch","luxury-dining"],"categories":["Coffee & Brunch Spots","Luxury Dining"],"legacySlugs":["natu-8d64"],"distanceKm":0.46635550279312155},{"id":"dessertsRestaurants_b4b7dac03ffe","slug":"zacharoplasteia-konstantinidis-kifisias-b4b7","kind":"restaurant","name":"ΖΑΧΑΡΟΠΛΑΣΤΕΙΑ ΚΩΝΣΤΑΝΤΙΝΙΔΗΣ Κηφισιάς","lat":38.07444985049744,"lng":23.81224566979125,"url":"https://maps.app.goo.gl/tHoKhW3BVHGJJqNx7?g_st=ipc","address":"Λεωφ. Κηφισίας 283, Κηφισιά 145 62","categoryIds":["desserts"],"categories":["Dessert Shops"],"distanceKm":0.4740704491900264},{"id":"municipalities_f52d5a821d95","slug":"kifisia-f52d","kind":"municipality","name":"Κηφισιά","lat":38.0744,"lng":23.8111,"aliases":["Kifissia","Cephisia","Kephisia","Κηφησία","Κηφηση","Κηφισια","Κηφησια","Κηφησιά","Kefizia"],"region":"Βόρεια Προάστια","name_en":"Kifisia","region_en":"Northern Suburbs","distanceKm":0.4923132151946521},{"id":"familyFriendly_84e8f16ae20b","slug":"ethniko-moyseio-fysikis-istorias-goylandri-84e8","kind":"restaurant","name":"Εθνικό Μουσείο Φυσικής Ιστορίας Γουλανδρή","lat":38.07463041368346,"lng":23.814406620087777,"url":"https://maps.app.goo.gl/3kET1gVajc9wtcHj9?g_st=ipc","address":"Όθωνος 100, Κηφισιά 145 62","categoryIds":["family-friendly"],"categories":["Kid Friendly Locations"],"distanceKm":0.5057122590531883},{"id":"dessertsRestaurants_67eb41f4d85c","slug":"tart-sweet-days-67eb","kind":"restaurant","name":"Tart sweet days","lat":38.07504554962464,"lng":23.81197664881859,"url":"https://maps.app.goo.gl/n5GCkRnzxw6tu9wv5?g_st=ipc","address":"Λεωφόρος Κηφισίας 289 και, Όθωνος, Κηφισιά 145 61","categoryIds":["desserts"],"categories":["Dessert Shops"],"distanceKm":0.5430609061378512},{"id":"luxuryDiningRestaurants_92ffc8a7721e","slug":"rick-s-92ff","kind":"restaurant","name":"Rick's","lat":38.073591059792,"lng":23.818979548150455,"url":"https://maps.app.goo.gl/AAxiioC4fKMwJFS26?g_st=ipc","address":"Πεντέλης 1, Κηφισιά 145 62","categoryIds":["luxury-dining"],"categories":["Luxury Dining"],"distanceKm":0.6454971987349675},{"id":"luxuryDiningRestaurants_781d169664c9","slug":"papaioannou-restaurant-kifissia-781d","kind":"restaurant","name":"Papaioannou Restaurant Kifissia","lat":38.0737767420817,"lng":23.819108183940664,"url":"https://maps.app.goo.gl/7oxZNbR2DavBC6xc9?g_st=ipc","address":"Κολοκοτρώνη 32, Κηφισιά 145 62","categoryIds":["luxury-dining"],"categories":["Luxury Dining"],"distanceKm":0.6667223945095},{"id":"mexicanRestaurants_1c335621a1fd","slug":"pueblo-chido-kifisia-1c33","kind":"restaurant","name":"Pueblo Chido Κηφισιά","lat":38.07488654501822,"lng":23.81927628386729,"url":"https://maps.app.goo.gl/gFj6AV1Bf67kw6hdA?g_st=ipc","address":"Κολοκοτρώνη 37, Κηφισιά 145 62","categoryIds":["mexican"],"categories":["Mexican Restaurants"],"distanceKm":0.7571283622912426},{"id":"monasteriesChurches_8565772cb25f","slug":"ieros-naos-metamorfosis-toy-sotiros-8565","kind":"restaurant","name":"Ιερός Ναός Μεταμόρφωσης του Σωτήρος","lat":38.074902566685026,"lng":23.819660581938585,"url":"https://maps.app.goo.gl/aHzFfMJMwLVAE89e9?g_st=ipc","address":"Κολοκοτρώνη, Κηφισιά 145 62","categoryIds":["monasteries-churches"],"categories":["Monasteries & Spiritual Sites"],"distanceKm":0.7831696061029378}],"sameRegion":[],"mentionedGuides":[],"canonicalSlug":"dos-hermanos-a014","isCanonicalEntity":true,"enrichment":{"summary_en":"Dos Hermanos is a curated restaurant in Κηφισιά 145 62 in the Mexican Restaurants collection. It is connected to 25 nearby Googlementor picks to help travelers build a stronger local route.","summary_el":"Dos Hermanos είναι ένα επιλεγμένο σημείο φαγητού στην περιοχή Κηφισιά 145 62 και ανήκει στη συλλογή Mexican Restaurants. Συνδέεται με 25 κοντινές προτάσεις του Googlementor για πιο ολοκληρωμένη εμπειρία.","vibe_tags":["curated"],"best_for":["first-time visitors","food lovers"],"visit_moments":["lunch stop","dinner stop"],"practical_note":"Address and direct map link are available for easy turn-by-turn access.","nearby_walkable_count":25,"nearby_count_2km":52,"confidence":0.98},"areaContext":{"slug":"kifisia","name":"Kifisia"},"intentContexts":[{"href":"/mexican/kifisia","label":"Mexican Restaurants in Kifisia","categorySlug":"mexican","categoryName":"Mexican Restaurants","areaSlug":"kifisia","areaName":"Kifisia"}]},"__N_SSG":true}