{"pageProps":{"entity":{"id":"coffeeBrunchRestaurants_3849ba172973","slug":"ergon-agora-east-3849","kind":"restaurant","name":"ERGON Agora (East)","lat":40.55876847950934,"lng":22.976949760424034,"url":"https://maps.app.goo.gl/um7bZpan68i3iqsx7?g_st=ipc","address":"Leof. Georgikis Scholis 50, Pilea Chortiatis 555 35","categoryIds":["coffee-brunch","family-friendly"],"categories":["Coffee & Brunch Spots","Kid Friendly Locations"],"legacySlugs":["ergon-agora-east-02cb"]},"sameCategory":[{"id":"coffeeBrunchRestaurants_0e2616bd7fc7","slug":"saloon-park-0e26","kind":"restaurant","name":"Saloon Park","lat":38.90092398449493,"lng":21.77279442117925,"url":"https://maps.app.goo.gl/ou4ZLrrH5JymyBSH7?g_st=ipc","address":"3ο χιλ Καρπενησίου Προυσσου, Karpenisi 361 00","categoryIds":["coffee-brunch","family-friendly"],"categories":["Coffee & Brunch Spots","Kid Friendly Locations"],"legacySlugs":["saloon-park-ea50"]},{"id":"coffeeBrunchRestaurants_f3a3be0d750a","slug":"alsos-cholargou-alsos-cholargoy-f3a3","kind":"restaurant","name":"Alsos Cholargou / Άλσος Χολαργού","lat":37.99731205193856,"lng":23.801346586633024,"url":"https://maps.app.goo.gl/9NgrgwXAtnAhzyQM7?g_st=ipc","address":"Ευριπίδου 1, Χολαργός 155 62","categoryIds":["coffee-brunch","family-friendly"],"categories":["Coffee & Brunch Spots","Kid Friendly Locations"],"legacySlugs":["alsos-cholargou-alsos-cholargoy-af91"]},{"id":"coffeeBrunchRestaurants_273a7e7d2a9d","slug":"piu-verde-273a","kind":"restaurant","name":"Piu Verde","lat":37.993592134048,"lng":23.792630644928746,"url":"https://maps.app.goo.gl/uttCEc9rHvmfUF3c7?g_st=ipc","address":"Στρατ, Αλ. Παπάγου, Παπάγου 156 69","categoryIds":["coffee-brunch","family-friendly"],"categories":["Coffee & Brunch Spots","Kid Friendly Locations"],"legacySlugs":["piu-verde-840f"]},{"id":"familyFriendly_15181c21c13f","slug":"magic-park-1518","kind":"restaurant","name":"Magic Park","lat":40.554442078448254,"lng":22.989769059470625,"url":"https://maps.app.goo.gl/b73PDCUhFyJQjo748?g_st=ipc","address":"Agias Anastasias 15, Thessaloniki 555 35","categoryIds":["family-friendly"],"categories":["Kid Friendly Locations"]},{"id":"coffeeBrunchRestaurants_5b87d322c2b5","slug":"pink-dot-cafe-5b87","kind":"restaurant","name":"Pink Dot Cafe","lat":40.548406580479465,"lng":22.98186227348721,"url":"https://maps.app.goo.gl/CG2fgJcxKmWaKuAV6?g_st=ipc","address":"Leof. Georgikis Scholis 84, Pilea 570 01","categoryIds":["coffee-brunch","desserts"],"categories":["Coffee & Brunch Spots","Dessert Shops"],"legacySlugs":["pink-dot-cafe-f1a3"]},{"id":"coffeeBrunchRestaurants_cae5ad9a4492","slug":"join-juice-bars-cae5","kind":"restaurant","name":"JOIN juice bars","lat":40.555069982077164,"lng":22.99254169325442,"url":"https://maps.app.goo.gl/VvKcZzDAukezDVie8?g_st=ipc","address":"11ο χλμ εθνικής οδού, A/D Thessalonikis Neon Moudanion, Thessaloniki 570 01","categoryIds":["coffee-brunch","vegetarian"],"categories":["Coffee & Brunch Spots","Vegetarian Friendly Restaurants"],"legacySlugs":["join-juice-bars-7a1d"]},{"id":"familyFriendly_27bf58d1aae3","slug":"mediterranean-cosmos-27bf","kind":"restaurant","name":"Mediterranean Cosmos","lat":40.555729354394046,"lng":22.993377329551482,"url":"https://maps.app.goo.gl/hyNCGfBFcBtGJn7q9?g_st=ipc","address":"11ο χλμ εθνικής οδού, A/D Thessalonikis Neon Moudanion, Thessaloniki 570 01","categoryIds":["family-friendly"],"categories":["Kid Friendly Locations"]},{"id":"familyFriendly_b51fd1ec3681","slug":"noesis-science-center-technology-museum-b51f","kind":"restaurant","name":"NOESIS Science Center & Technology Museum","lat":40.562055011158115,"lng":22.995596178260882,"url":"https://maps.app.goo.gl/r83VD4fLTaPtYU7R6?g_st=ipc","address":"Θεσσαλονίκης 6 χλμ, Thermi 570 01","categoryIds":["family-friendly"],"categories":["Kid Friendly Locations"]},{"id":"familyFriendly_5fc832b90305","slug":"partyland-pylaia-playground-restaurant-events-5fc8","kind":"restaurant","name":"PARTYLAND ΠΥΛΑΙΑ | PLAYGROUND | RESTAURANT | EVENTS","lat":40.57242727995374,"lng":22.992912588988382,"url":"https://maps.app.goo.gl/hq2iSCHB7jfquAbeA?g_st=ic","address":"St.Kazantzidi 49, Pilea 555 36","categoryIds":["family-friendly"],"categories":["Kid Friendly Locations"]},{"id":"familyFriendly_be918ccf9323","slug":"adventure-paintball-be91","kind":"restaurant","name":"Adventure Paintball","lat":40.54700993224624,"lng":22.99671406411148,"url":"https://maps.app.goo.gl/7H5QaUvgacWdSVGR6?g_st=ic","address":"A/D Thessalonikis Neon Moudanion, Thermi 570 01","categoryIds":["family-friendly"],"categories":["Kid Friendly Locations"]},{"id":"familyFriendly_49ab59220094","slug":"love-sports-club-49ab","kind":"restaurant","name":"Love Sports Club","lat":40.576783631024576,"lng":22.994808120184832,"url":"https://maps.app.goo.gl/BJcVtK4p1mr7qG5B7?g_st=ipc","address":"Unnamed Road, Pilea Chortiatis 555 35","categoryIds":["family-friendly"],"categories":["Kid Friendly Locations"]},{"id":"familyFriendly_5db5a10042ec","slug":"les-raquettes-tennis-club-5db5","kind":"restaurant","name":"Les Raquettes Tennis Club","lat":40.55611851243244,"lng":23.00759531084474,"url":"https://maps.app.goo.gl/Uz7ZprsZow6RFsYs7?g_st=ipc","address":"Σοφοκλέους, Thermi 570 01","categoryIds":["family-friendly"],"categories":["Kid Friendly Locations"]}],"nearby":[{"id":"luxuryDiningRestaurants_bbb8974858e3","slug":"duck-bbb8","kind":"restaurant","name":"Duck","lat":40.56052899575869,"lng":22.986792720078764,"url":"https://maps.app.goo.gl/5gpSyYcYprQvjjq88?g_st=ipc","address":"Chalkis 3, Pilea Chortiatis 570 01","categoryIds":["luxury-dining"],"categories":["Luxury Dining"],"distanceKm":0.8542469792296806},{"id":"familyFriendly_15181c21c13f","slug":"magic-park-1518","kind":"restaurant","name":"Magic Park","lat":40.554442078448254,"lng":22.989769059470625,"url":"https://maps.app.goo.gl/b73PDCUhFyJQjo748?g_st=ipc","address":"Agias Anastasias 15, Thessaloniki 555 35","categoryIds":["family-friendly"],"categories":["Kid Friendly Locations"],"distanceKm":1.1850393644630928},{"id":"coffeeBrunchRestaurants_5b87d322c2b5","slug":"pink-dot-cafe-5b87","kind":"restaurant","name":"Pink Dot Cafe","lat":40.548406580479465,"lng":22.98186227348721,"url":"https://maps.app.goo.gl/CG2fgJcxKmWaKuAV6?g_st=ipc","address":"Leof. Georgikis Scholis 84, Pilea 570 01","categoryIds":["coffee-brunch","desserts"],"categories":["Coffee & Brunch Spots","Dessert Shops"],"legacySlugs":["pink-dot-cafe-f1a3"],"distanceKm":1.224662815024107},{"id":"greekRestaurants_e2775941e27f","slug":"lemargko-lemargo-e277","kind":"restaurant","name":"ΛΕΜΑΡΓΚΟ - LEMARGO","lat":40.55568833913434,"lng":22.99200579097481,"url":"https://maps.app.goo.gl/WVMwFqWKDdGPyWjd6?g_st=ipc","address":"11οχλμ. οδού, Thessaloniki, ΘΕΣΣΑΛΟΝΙΚΗΣ-ΜΟΥΔΑΝΙΩΝ, Θέρμη 570 01","categoryIds":["greek-restaurants"],"categories":["Greek Restaurants"],"distanceKm":1.317255043813033},{"id":"coffeeBrunchRestaurants_cae5ad9a4492","slug":"join-juice-bars-cae5","kind":"restaurant","name":"JOIN juice bars","lat":40.555069982077164,"lng":22.99254169325442,"url":"https://maps.app.goo.gl/VvKcZzDAukezDVie8?g_st=ipc","address":"11ο χλμ εθνικής οδού, A/D Thessalonikis Neon Moudanion, Thessaloniki 570 01","categoryIds":["coffee-brunch","vegetarian"],"categories":["Coffee & Brunch Spots","Vegetarian Friendly Restaurants"],"legacySlugs":["join-juice-bars-7a1d"],"distanceKm":1.379936461508576},{"id":"cheapEatsRestaurants_5fc75ada9dd1","slug":"hot-pot-pasteria-5fc7","kind":"restaurant","name":"Hot Pot Pasteria","lat":40.555245602641975,"lng":22.992913714606928,"url":"https://maps.app.goo.gl/ZucBkKNWduhhUbyv9?g_st=ipc","address":"Mediterranean Cosmos, Thessaloniki","categoryIds":["cheap-eats"],"categories":["Gyros & Cheap Eats"],"distanceKm":1.4043949548130754},{"id":"dessertsRestaurants_8fbacc0c06a7","slug":"terkenlis-8fba","kind":"restaurant","name":"Terkenlis","lat":40.55633315795377,"lng":22.993299667914595,"url":"https://maps.app.goo.gl/jz8nuACpM2Fnauw9A?g_st=ipc","address":"11ο χλμ, ΘΕΣΣΑΛΟΝΙΚΗΣ-ΜΟΥΔΑΝΙΩΝ, 555 35","categoryIds":["desserts"],"categories":["Dessert Shops"],"distanceKm":1.4075462640383214},{"id":"burgersRestaurants_bb792caf2487","slug":"pax-burgers-bb79","kind":"restaurant","name":"Pax Burgers","lat":40.55495597120905,"lng":22.992844598481618,"url":"https://maps.app.goo.gl/TuduB4i2geBy2cb58?g_st=ipc","address":"ΘΕΣΣΑΛΟΝΙΚΗΣ-ΜΟΥΔΑΝΙΩΝ, Thermi 570 01","categoryIds":["burgers"],"categories":["Burger Spots"],"distanceKm":1.4081498832786656},{"id":"dessertsRestaurants_f4e918b1bdf0","slug":"cinnabon-f4e9","kind":"restaurant","name":"Cinnabon","lat":40.55623010232396,"lng":22.993413011236047,"url":"https://maps.app.goo.gl/NCWBKtbPRQENGDWW7?g_st=ipc","address":"11ο Χμ, A/D Thessalonikis Neon Moudanion, 570 01","categoryIds":["desserts"],"categories":["Dessert Shops"],"distanceKm":1.4191795380297774},{"id":"familyFriendly_27bf58d1aae3","slug":"mediterranean-cosmos-27bf","kind":"restaurant","name":"Mediterranean Cosmos","lat":40.555729354394046,"lng":22.993377329551482,"url":"https://maps.app.goo.gl/hyNCGfBFcBtGJn7q9?g_st=ipc","address":"11ο χλμ εθνικής οδού, A/D Thessalonikis Neon Moudanion, Thessaloniki 570 01","categoryIds":["family-friendly"],"categories":["Kid Friendly Locations"],"distanceKm":1.428370242920748},{"id":"familyFriendly_b51fd1ec3681","slug":"noesis-science-center-technology-museum-b51f","kind":"restaurant","name":"NOESIS Science Center & Technology Museum","lat":40.562055011158115,"lng":22.995596178260882,"url":"https://maps.app.goo.gl/r83VD4fLTaPtYU7R6?g_st=ipc","address":"Θεσσαλονίκης 6 χλμ, Thermi 570 01","categoryIds":["family-friendly"],"categories":["Kid Friendly Locations"],"distanceKm":1.617031389388214},{"id":"burgersRestaurants_8f11f76e2e42","slug":"maverick-handmade-street-food-8f11","kind":"restaurant","name":"MAVERICK Handmade Street Food","lat":40.5733294711661,"lng":22.971759802516267,"url":"https://maps.app.goo.gl/Bc8D8iLK2oBQoFcm8?g_st=ipc","address":"Eth. Antistaseos 179, Kalamaria 551 34","categoryIds":["burgers","cheap-eats"],"categories":["Burger Spots","Gyros & Cheap Eats"],"legacySlugs":["maverick-handmade-street-food-77c2"],"distanceKm":1.6774095355052467},{"id":"fishTavernasRestaurants_12f95d4f93d0","slug":"maiami-seafood-restaurant-12f9","kind":"restaurant","name":"Maiami Seafood Restaurant","lat":40.5660781564898,"lng":22.958426191574933,"url":"https://maps.app.goo.gl/iH1kytUDBvfY1Xmu5?g_st=ipc","address":"Thetidos 18, Kalamaria 551 32","categoryIds":["fish-tavernas","luxury-dining"],"categories":["Fish Tavernas","Luxury Dining"],"legacySlugs":["maiami-seafood-restaurant-20a0"],"distanceKm":1.7632776904545568},{"id":"fishTavernasRestaurants_8519dfc7e5a0","slug":"prigkipas-8519","kind":"restaurant","name":"Prigkipas","lat":40.56870307397198,"lng":22.96042239278236,"url":"https://maps.app.goo.gl/CftYQWb7WS78EL267?g_st=ipc","address":"Chanion 8, Kalamaria 551 32","categoryIds":["fish-tavernas"],"categories":["Fish Tavernas"],"distanceKm":1.780293903549553},{"id":"fishTavernasRestaurants_0b1c52c256c7","slug":"thermaikos-psarotaverna-kalamaria-thessaloniki-0b1c","kind":"restaurant","name":"Θερμαϊκός Ψαροταβέρνα | Καλαμαρία, Θεσσαλονίκη","lat":40.56643535238568,"lng":22.958306698225478,"url":"https://maps.app.goo.gl/fGHKAJK8MvBqvND6A?g_st=ipc","address":"Thetidos, Kalamaria 551 32","categoryIds":["fish-tavernas"],"categories":["Fish Tavernas"],"distanceKm":1.7908016550487602},{"id":"cheapEatsRestaurants_62516fc5ff91","slug":"theologos-fast-food-6251","kind":"restaurant","name":"Theologos Fast Food","lat":40.56936513403147,"lng":22.960477178944696,"url":"https://maps.app.goo.gl/ivkmYsPpBSwDCJHG7?g_st=ipc","address":"18, Aidiniou 14, Kalamaria 551 32","categoryIds":["cheap-eats"],"categories":["Gyros & Cheap Eats"],"distanceKm":1.823346774242969},{"id":"fishTavernasRestaurants_d3195d3c5fff","slug":"arodo-d319","kind":"restaurant","name":"Aródo","lat":40.566822399097624,"lng":22.957889078590952,"url":"https://maps.app.goo.gl/1PTePSM62TKyXYyd9?g_st=ipc","address":"Thetidos 25, Θεσσαλονίκη 551 32","categoryIds":["fish-tavernas"],"categories":["Fish Tavernas"],"distanceKm":1.8424302679080622},{"id":"familyFriendly_5fc832b90305","slug":"partyland-pylaia-playground-restaurant-events-5fc8","kind":"restaurant","name":"PARTYLAND ΠΥΛΑΙΑ | PLAYGROUND | RESTAURANT | EVENTS","lat":40.57242727995374,"lng":22.992912588988382,"url":"https://maps.app.goo.gl/hq2iSCHB7jfquAbeA?g_st=ic","address":"St.Kazantzidi 49, Pilea 555 36","categoryIds":["family-friendly"],"categories":["Kid Friendly Locations"],"distanceKm":2.0309784916835993},{"id":"familyFriendly_be918ccf9323","slug":"adventure-paintball-be91","kind":"restaurant","name":"Adventure Paintball","lat":40.54700993224624,"lng":22.99671406411148,"url":"https://maps.app.goo.gl/7H5QaUvgacWdSVGR6?g_st=ic","address":"A/D Thessalonikis Neon Moudanion, Thermi 570 01","categoryIds":["family-friendly"],"categories":["Kid Friendly Locations"],"distanceKm":2.120807927576396},{"id":"burgersRestaurants_54aa085a6ef8","slug":"sinners-smash-burgers-54aa","kind":"restaurant","name":"Sinners Smash Burgers","lat":40.57608642412674,"lng":22.98935981589618,"url":"https://maps.app.goo.gl/Y2NDJtMWMoJrutpZ6?g_st=ipc","address":"Στέλιου Καζαντζίδη 31, Pilea 555 35","categoryIds":["burgers","cheap-eats"],"categories":["Burger Spots","Gyros & Cheap Eats"],"legacySlugs":["sinners-smash-burgers-e79f"],"distanceKm":2.1924952309279058},{"id":"greekRestaurants_0e26d4a47188","slug":"to-steki-0e26","kind":"restaurant","name":"Το Στέκι","lat":40.572585888519654,"lng":22.955645778588657,"url":"https://maps.app.goo.gl/1rTE4MnvZB8TLm2j8?g_st=ipc","address":"Κουντουριώτου 16, Καλαμαριά 551 32","categoryIds":["greek-restaurants"],"categories":["Greek Restaurants"],"distanceKm":2.366222587087139},{"id":"italianRestaurants_2c8b66244f29","slug":"tonino-esperienza-italiana-2c8b","kind":"restaurant","name":"Tonino Esperienza Italiana","lat":40.56132998598623,"lng":23.004796368106923,"url":"https://maps.app.goo.gl/bZQiMSEwbhVFBxUd8?g_st=ipc","address":"Χαρ. Θέρμης, Thermi 570 01","categoryIds":["italian"],"categories":["Italian Restaurants"],"distanceKm":2.3695937145802275},{"id":"cheapEatsRestaurants_3a3bde48c733","slug":"thess-gyro-3a3b","kind":"restaurant","name":"Thess...Gyro","lat":40.57305742887387,"lng":22.955729191150056,"url":"https://maps.app.goo.gl/UxFcV7SWYu9feyef9?g_st=ipc","address":"Smirnis 14, Kalamaria 551 32","categoryIds":["cheap-eats"],"categories":["Gyros & Cheap Eats"],"distanceKm":2.3953173200125124},{"id":"greekRestaurants_d6840627570a","slug":"lykos-chasapotaverna-d684","kind":"restaurant","name":"Lykos - Χασαποταβέρνα","lat":40.56114058445929,"lng":23.005199497641122,"url":"https://maps.app.goo.gl/H2wjVi3P1kdSmFTX8?g_st=ipc","address":"Χαρ. Θέρμης, Thessaloniki 570 01","categoryIds":["greek-restaurants"],"categories":["Greek Restaurants"],"distanceKm":2.40100424020491}],"sameRegion":[],"mentionedGuides":[],"canonicalSlug":"ergon-agora-east-3849","isCanonicalEntity":false,"enrichment":{"summary_en":"ERGON Agora (East) is a curated restaurant in Pilea Chortiatis 555 35 in the Coffee & Brunch Spots collection. It is connected to 0 nearby Googlementor picks to help travelers build a stronger local route.","summary_el":"ERGON Agora (East) είναι ένα επιλεγμένο σημείο φαγητού στην περιοχή Pilea Chortiatis 555 35 και ανήκει στη συλλογή Coffee & Brunch Spots. Συνδέεται με 0 κοντινές προτάσεις του Googlementor για πιο ολοκληρωμένη εμπειρία.","vibe_tags":["curated","daytime-favorite","family-ready"],"best_for":["first-time visitors","food lovers","families"],"visit_moments":["early morning","late brunch"],"practical_note":"Address and direct map link are available for easy turn-by-turn access.","nearby_walkable_count":0,"nearby_count_2km":17,"confidence":0.9},"areaContext":{"slug":"aggelochori","name":"Angelochori"},"intentContexts":[{"href":"/brunch/aggelochori","label":"Coffee & Brunch Spots in Angelochori","categorySlug":"brunch","categoryName":"Coffee & Brunch Spots","areaSlug":"aggelochori","areaName":"Angelochori"},{"href":"/family-friendly/aggelochori","label":"Kid Friendly Locations in Angelochori","categorySlug":"family-friendly","categoryName":"Kid Friendly Locations","areaSlug":"aggelochori","areaName":"Angelochori"}]},"__N_SSG":true}