{"pageProps":{"entity":{"id":"vegetarianRestaurants_1e9851e5feae","slug":"handwich-1e98","kind":"restaurant","name":"HANDWICH","lat":40.63375897578191,"lng":22.947935333630785,"url":"https://maps.app.goo.gl/JccdCGeGNfXKNSwQ7?g_st=ipc","address":"Egnatia 112, Thessaloniki 546 22","categoryIds":["vegetarian"],"categories":["Vegetarian Friendly Restaurants"]},"sameCategory":[{"id":"vegetarianRestaurants_ae93f5705c93","slug":"mushroom-skg-ae93","kind":"restaurant","name":"mushroom skg","lat":40.63168703304935,"lng":22.946978697189547,"url":"https://maps.app.goo.gl/F7WJFJ3rEhib4fX86?g_st=ipc","address":"Zefxidos 10, Thessaloniki 546 22","categoryIds":["vegetarian"],"categories":["Vegetarian Friendly Restaurants"]},{"id":"coffeeBrunchRestaurants_1b425a72f2b5","slug":"join-juice-bars-1b42","kind":"restaurant","name":"JOIN Juice bars","lat":40.63111893989398,"lng":22.94663938125253,"url":"https://maps.app.goo.gl/N6nKzENHvyunx5Mi6?g_st=ipc","address":"Paleon Patron Germanou 10, Thessaloniki 546 22","categoryIds":["coffee-brunch","vegetarian"],"categories":["Coffee & Brunch Spots","Vegetarian Friendly Restaurants"],"legacySlugs":["join-juice-bars-6dea"]},{"id":"vegetarianRestaurants_06643fab1947","slug":"the-heavy-melon-to-vari-peponi-0664","kind":"restaurant","name":"The Heavy Melon - To vari peponi","lat":40.6309548038653,"lng":22.94951618640559,"url":"https://maps.app.goo.gl/6ZPuKUN8mPNN6b4C9?g_st=ipc","address":"Apellou 4, Thessaloniki 546 22","categoryIds":["vegetarian"],"categories":["Vegetarian Friendly Restaurants"]},{"id":"vegetarianRestaurants_2475d58129d5","slug":"roots-2475","kind":"restaurant","name":"rOOTS","lat":40.63467670599439,"lng":22.944084463130924,"url":"https://maps.app.goo.gl/rcikrHzBuB8MLxMXA?g_st=ipc","address":"Mpalanou 4, Thessaloniki 546 23","categoryIds":["vegetarian"],"categories":["Vegetarian Friendly Restaurants"]},{"id":"vegetarianRestaurants_8b165a3d11ad","slug":"tarantoula-8b16","kind":"restaurant","name":"Tarantoúla","lat":40.635244984518486,"lng":22.952246319112277,"url":"https://maps.app.goo.gl/8ipQFrqJVpwS17GS7?g_st=ipc","address":"Olympou 127, Thessaloniki 546 35","categoryIds":["vegetarian"],"categories":["Vegetarian Friendly Restaurants"]},{"id":"dessertsRestaurants_a6a41ba19f78","slug":"exereton-a6a4","kind":"restaurant","name":"Exereton","lat":40.63128878529408,"lng":22.94431478557479,"url":"https://maps.app.goo.gl/gScJKVggjQfTPnLP8?g_st=ipc","address":"Mitropoleos 69, Thessaloniki 546 23","categoryIds":["desserts","vegetarian"],"categories":["Dessert Shops","Vegetarian Friendly Restaurants"],"legacySlugs":["exereton-e657"]},{"id":"vegetarianRestaurants_43af59721fc8","slug":"omg-in-skg-43af","kind":"restaurant","name":"OMG in SKG","lat":40.63186182844344,"lng":22.953097770969947,"url":"https://maps.app.goo.gl/b6twRtPbJbTuXUe26?g_st=ipc","address":"Episkopou Kitrous Nikolaou 1, Thessaloniki 546 35","categoryIds":["vegetarian"],"categories":["Vegetarian Friendly Restaurants"]},{"id":"vegetarianRestaurants_32a8aea960ab","slug":"falafel-taste-middle-east-32a8","kind":"restaurant","name":"Falafel Taste Middle East","lat":40.63474906740278,"lng":22.94144363936892,"url":"https://maps.app.goo.gl/WjaRXr3X47WgLXLC6?g_st=ipc","address":"Agora Modiano, Vasileos Irakleiou 33, Thessaloniki 546 24","categoryIds":["vegetarian"],"categories":["Vegetarian Friendly Restaurants"]},{"id":"vegetarianRestaurants_b82222e81ca2","slug":"merry-berry-health-bar-b822","kind":"restaurant","name":"Merry Berry Health Bar","lat":40.62787788837935,"lng":22.947534537868144,"url":"https://maps.app.goo.gl/9NhW77pMY2C6xJxq8?g_st=ipc","address":"Dim. Gounari 5, Thessaloniki 546 22","categoryIds":["vegetarian"],"categories":["Vegetarian Friendly Restaurants"]},{"id":"vegetarianRestaurants_40634af2ec79","slug":"falafel-taste-middle-east-4063","kind":"restaurant","name":"Falafel Taste Middle East","lat":40.62785484140031,"lng":22.949330420414434,"url":"https://maps.app.goo.gl/bHy6BTfdp9RBhdBt6?g_st=ipc","address":"Mitropoleos 106 &, Romanou, Thessaloniki 546 21","categoryIds":["vegetarian"],"categories":["Vegetarian Friendly Restaurants"]},{"id":"coffeeBrunchRestaurants_459993a6b6f4","slug":"join-juice-bars-4599","kind":"restaurant","name":"JOIN juice bars","lat":40.62769069211422,"lng":22.947117280367095,"url":"https://maps.app.goo.gl/7fKny43wd3q96T1s5?g_st=ipc","address":"Leof. Nikis 73, Thessaloniki 546 22","categoryIds":["coffee-brunch","vegetarian"],"categories":["Coffee & Brunch Spots","Vegetarian Friendly Restaurants"],"legacySlugs":["join-juice-bars-c6f3"]},{"id":"coffeeBrunchRestaurants_3f47d83b09c0","slug":"butterflies-and-hurricanes-3f47","kind":"restaurant","name":"Butterflies And Hurricanes","lat":40.61464844201882,"lng":22.960841697890658,"url":"https://maps.app.goo.gl/Gesp19RwCPBWQ9s58?g_st=ipc","address":"Pindarou 1, Thessaloniki 546 39","categoryIds":["coffee-brunch","vegetarian"],"categories":["Coffee & Brunch Spots","Vegetarian Friendly Restaurants"],"legacySlugs":["butterflies-and-hurricanes-37b6"]}],"nearby":[{"id":"cheapEatsRestaurants_8af2c5ab8db1","slug":"paperbag-street-food-8af2","kind":"restaurant","name":"PAPERBAG || street food","lat":40.634629758562504,"lng":22.948314502108076,"url":"https://maps.app.goo.gl/EppjR6X5bpodm5MR7?g_st=ipc","address":"Achiropiitou 2, Thessaloniki 546 35","categoryIds":["cheap-eats"],"categories":["Gyros & Cheap Eats"],"distanceKm":0.10197608509293735},{"id":"coffeeBrunchRestaurants_b5c74e889058","slug":"bunny-tail-b5c7","kind":"restaurant","name":"Bunny Tail","lat":40.63263326905148,"lng":22.947686149858708,"url":"https://maps.app.goo.gl/5s2tkstCJrJZyR4TA?g_st=ipc","address":"Αλεξάνδρου Σβώλου 1, Patriarchou Ioakim 2, Thessaloniki 546 22","categoryIds":["coffee-brunch"],"categories":["Coffee & Brunch Spots"],"distanceKm":0.1269267563338901},{"id":"burgersRestaurants_1d96aca1c01c","slug":"bulldogs-the-beast-1d96","kind":"restaurant","name":"Bulldogs & the Beast","lat":40.632462059908974,"lng":22.947729021811423,"url":"https://maps.app.goo.gl/wEhesXG82XpaGLNY6?g_st=ipc","address":"Al. Svolou 1, Thessaloniki 546 23","categoryIds":["burgers"],"categories":["Burger Spots"],"distanceKm":0.1452575483022342},{"id":"coffeeBrunchRestaurants_8c2176607636","slug":"donkey-garden-8c21","kind":"restaurant","name":"Donkey Garden","lat":40.63233978923016,"lng":22.94821185116991,"url":"https://maps.app.goo.gl/Kev7Tos1LbMdirKcA?g_st=ipc","address":"Skra 3, Thessaloniki 546 22","categoryIds":["coffee-brunch"],"categories":["Coffee & Brunch Spots"],"distanceKm":0.15952215978008655},{"id":"coffeeBrunchRestaurants_3e6cfb10198f","slug":"shed-3e6c","kind":"restaurant","name":"shed","lat":40.63516182787635,"lng":22.9483681936243,"url":"https://maps.app.goo.gl/bczd7kAPu1ihwt9fA?g_st=ipc","address":"Patriarchoi Dionisii E 11, Thessaloniki 546 35","categoryIds":["coffee-brunch"],"categories":["Coffee & Brunch Spots"],"distanceKm":0.1602094256508081},{"id":"cheapEatsRestaurants_89af7e3d3903","slug":"dakee-spot-89af","kind":"restaurant","name":"Dakee spot","lat":40.6322179094533,"lng":22.947351485022043,"url":"https://maps.app.goo.gl/rccueDiq6UHSWjB86?g_st=ipc","address":"P. Mela 48, Thessaloniki 546 22","categoryIds":["cheap-eats"],"categories":["Gyros & Cheap Eats"],"distanceKm":0.17830084478005317},{"id":"dessertsRestaurants_3b2fc988e719","slug":"cookie-man-3b2f","kind":"restaurant","name":"Cookie Man","lat":40.632757475000446,"lng":22.946181479303316,"url":"https://maps.app.goo.gl/WDjY5yJNSF5kSpkeA?g_st=ipc","address":"Makenzi King 8, Thessaloniki 546 22","categoryIds":["desserts"],"categories":["Dessert Shops"],"distanceKm":0.1852166473284404},{"id":"coffeeBrunchRestaurants_1ba6faa5ef16","slug":"naked-1ba6","kind":"restaurant","name":"NAKED","lat":40.6351156138034,"lng":22.949358819047884,"url":"https://maps.app.goo.gl/tVt4qfxaTjfyP7oG8?g_st=ipc","address":"Filippou 62, Thessaloniki 546 35","categoryIds":["coffee-brunch"],"categories":["Coffee & Brunch Spots"],"distanceKm":0.19283318995333312},{"id":"dessertsRestaurants_9d2a4d7ae9ae","slug":"hatzifotiou-9d2a","kind":"restaurant","name":"Hatzifotiou","lat":40.632118329149435,"lng":22.94703754885986,"url":"https://maps.app.goo.gl/65SPRQQN5mowAwhw8?g_st=ipc","address":"P. Mela 37, Thessaloniki 546 22","categoryIds":["desserts"],"categories":["Dessert Shops"],"distanceKm":0.19753699052469534},{"id":"coffeeBrunchRestaurants_34a8b22d1957","slug":"cin-cin-34a8","kind":"restaurant","name":"Cin Cin","lat":40.632298193619214,"lng":22.946596687138204,"url":"https://maps.app.goo.gl/n6rxkXLoJv7xWQhy9?g_st=ipc","address":"Iktinou 22, Thessaloniki 546 22","categoryIds":["coffee-brunch"],"categories":["Coffee & Brunch Spots"],"distanceKm":0.19784962287285637},{"id":"dessertsRestaurants_07f7d8449744","slug":"tzeneral-zacharoplasteio-07f7","kind":"restaurant","name":"Tzeneral Ζαχαροπλαστείο","lat":40.631986554661324,"lng":22.94743879678818,"url":"https://maps.app.goo.gl/tBpAuNdF8KmF9aXe6?g_st=ipc","address":"P. Mela 44, Thessaloniki 546 22","categoryIds":["desserts"],"categories":["Dessert Shops"],"distanceKm":0.20148908797112675},{"id":"burgersRestaurants_c3d0c3efec16","slug":"ohmami-street-food-thessaloniki-c3d0","kind":"restaurant","name":"Ohmami - Street Food / Thessaloniki","lat":40.63556199320903,"lng":22.947562092920837,"url":"https://maps.app.goo.gl/NzN9wf8WYr2rjWbd7","address":"Patriarchoi Dionisii E 1, Thessaloniki 546 31","categoryIds":["burgers","cheap-eats"],"categories":["Burger Spots","Gyros & Cheap Eats"],"legacySlugs":["ohmami-street-food-thessaloniki-b6d7"],"distanceKm":0.2029451804364004},{"id":"asianRestaurants_5ace71fa56ea","slug":"ramen-tales-5ace","kind":"restaurant","name":"Ramen Tales","lat":40.63194421660545,"lng":22.948458874656616,"url":"https://maps.app.goo.gl/3FZQEKYHJjXKCNKcA?g_st=ipc","address":"Al. Svolou 16, Thessaloniki 546 22","categoryIds":["asian"],"categories":["Asian Restaurants"],"distanceKm":0.20657160972199015},{"id":"burgersRestaurants_0c007445e9cc","slug":"balboa-thessaloniki-0c00","kind":"restaurant","name":"Balboa Thessaloniki","lat":40.631911246314864,"lng":22.947511059222414,"url":"https://maps.app.goo.gl/Lys3ApFbCS6C7HCt8","address":"P. Mela 42, Thessaloniki 546 22","categoryIds":["burgers","cheap-eats"],"categories":["Burger Spots","Gyros & Cheap Eats"],"legacySlugs":["balboa-thessaloniki-bd4c"],"distanceKm":0.20855425948007192},{"id":"dessertsRestaurants_0815f2566c3c","slug":"galyfianakis-0815","kind":"restaurant","name":"Galyfianakis","lat":40.63202978741134,"lng":22.948953049298385,"url":"https://maps.app.goo.gl/YatTYWeuGDBfasFT7?g_st=ipc","address":"Kon/nou Paleologou 3, Thessaloniki 546 22","categoryIds":["desserts"],"categories":["Dessert Shops"],"distanceKm":0.21058465265429405},{"id":"italianRestaurants_d3fb4b2d1274","slug":"osteria-dai-fioi-d3fb","kind":"restaurant","name":"Osteria dai Fioi","lat":40.633770916934814,"lng":22.950440152016508,"url":"https://maps.app.goo.gl/ptx8MrTs166UDsu79?g_st=ipc","address":"Leonida Iasonidou 9, Thessaloniki 546 35","categoryIds":["italian"],"categories":["Italian Restaurants"],"distanceKm":0.21137191383977694},{"id":"coffeeBrunchRestaurants_ad573219eedf","slug":"ergon-agora-ad57","kind":"restaurant","name":"ERGON Agora","lat":40.63187081672803,"lng":22.94735121723834,"url":"https://maps.app.goo.gl/ozYptsUfXEMA3PdNA?g_st=ipc","address":"P. Mela 42, Thessaloniki 546 22","categoryIds":["coffee-brunch"],"categories":["Coffee & Brunch Spots"],"distanceKm":0.21566215845542644},{"id":"dessertsRestaurants_ba34dec40f28","slug":"magoa-patisserie-chocolaterie-ba34","kind":"restaurant","name":"Magoa Patisserie-Chocolaterie","lat":40.63172247185242,"lng":22.9482457723652,"url":"https://maps.app.goo.gl/M7r6TuYWcBQ1KPRT8?g_st=ipc","address":"Paleon Patron Germanou 29, Thessaloniki 546 22","categoryIds":["desserts"],"categories":["Dessert Shops"],"distanceKm":0.22795913840830834},{"id":"greekRestaurants_13c994d14935","slug":"taverna-oyzeri-kosmas-13c9","kind":"restaurant","name":"Ταβέρνα - Ουζερί Κοσμάς","lat":40.635727203567235,"lng":22.94715477968318,"url":"https://maps.app.goo.gl/9edjcaLLqs3ZFkL47?g_st=ipc","address":"Πλάτωνος 15, Θεσσαλονίκη 546 31","categoryIds":["greek-restaurants"],"categories":["Greek Restaurants"],"distanceKm":0.22855337853964877},{"id":"fishTavernasRestaurants_ec7fddf4df43","slug":"mourga-ec7f","kind":"restaurant","name":"Mourga","lat":40.635412338789585,"lng":22.94963013274726,"url":"https://maps.app.goo.gl/u7q8zzuEjPhJ53mR7?g_st=ipc","address":"Christopoulou 12, Thessaloniki 546 35","categoryIds":["fish-tavernas"],"categories":["Fish Tavernas"],"distanceKm":0.23292037254802955},{"id":"dessertsRestaurants_af6c4ad80b58","slug":"senol-af6c","kind":"restaurant","name":"Senol","lat":40.631655999978115,"lng":22.9479848979778,"url":"https://maps.app.goo.gl/TQFwjdg19bCqCfpz8?g_st=ipc","address":"Paleon Patron Germanou 23, Thessaloniki 546 22","categoryIds":["desserts"],"categories":["Dessert Shops"],"distanceKm":0.23387764212361167},{"id":"coffeeBrunchRestaurants_e317c423742b","slug":"spoon-e317","kind":"restaurant","name":"Spoon","lat":40.631612141451626,"lng":22.94743751548318,"url":"https://maps.app.goo.gl/22Pm73g59e2LeoJQ7?g_st=ipc","address":"P. Mela 38, Thessaloniki 546 22","categoryIds":["coffee-brunch"],"categories":["Coffee & Brunch Spots"],"distanceKm":0.24238520139947478},{"id":"vegetarianRestaurants_ae93f5705c93","slug":"mushroom-skg-ae93","kind":"restaurant","name":"mushroom skg","lat":40.63168703304935,"lng":22.946978697189547,"url":"https://maps.app.goo.gl/F7WJFJ3rEhib4fX86?g_st=ipc","address":"Zefxidos 10, Thessaloniki 546 22","categoryIds":["vegetarian"],"categories":["Vegetarian Friendly Restaurants"],"distanceKm":0.24412312481980714},{"id":"burgersRestaurants_9cd59af7183c","slug":"mpiftekadiko-kyr-giorgis-9cd5","kind":"restaurant","name":"Μπιφτεκάδικο Κυρ Γιώργης","lat":40.63182341170209,"lng":22.946558572416308,"url":"https://maps.app.goo.gl/us6tkdjDeYvzDx2u6?g_st=ipc","address":"Zefxidos 4, Thessaloniki 546 22","categoryIds":["burgers"],"categories":["Burger Spots"],"distanceKm":0.24457985839314184}],"sameRegion":[],"mentionedGuides":[],"canonicalSlug":"handwich-1e98","isCanonicalEntity":true,"enrichment":{"summary_en":"HANDWICH is a curated restaurant in Thessaloniki 546 22 in the Vegetarian Friendly Restaurants collection. It is connected to 194 nearby Googlementor picks to help travelers build a stronger local route.","summary_el":"HANDWICH είναι ένα επιλεγμένο σημείο φαγητού στην περιοχή Thessaloniki 546 22 και ανήκει στη συλλογή Vegetarian Friendly Restaurants. Συνδέεται με 194 κοντινές προτάσεις του Googlementor για πιο ολοκληρωμένη εμπειρία.","vibe_tags":["curated"],"best_for":["first-time visitors","food lovers"],"visit_moments":["lunch stop","dinner stop"],"practical_note":"Address and direct map link are available for easy turn-by-turn access.","nearby_walkable_count":194,"nearby_count_2km":265,"confidence":0.98},"areaContext":{"slug":"thessaloniki","name":"Thessaloniki"},"intentContexts":[{"href":"/vegetarian/thessaloniki","label":"Vegetarian Friendly Restaurants in Thessaloniki","categorySlug":"vegetarian","categoryName":"Vegetarian Friendly Restaurants","areaSlug":"thessaloniki","areaName":"Thessaloniki"}]},"__N_SSG":true}