{"pageProps":{"entity":{"id":"cheapEatsRestaurants_fcf206bb8bf8","slug":"jackaroo-fcf2","kind":"restaurant","name":"Jackaroo","lat":38.00066185886443,"lng":23.735523749834027,"url":"https://maps.app.goo.gl/bKD82egRLvDN81sG9?g_st=ipc","address":"Φωκίωνος Νέγρη 18, Αθήνα 112 57","categoryIds":["cheap-eats"],"categories":["Gyros & Cheap Eats"]},"sameCategory":[{"id":"cheapEatsRestaurants_51111124208f","slug":"soyvlakopoleion-rigani-5111","kind":"restaurant","name":"Σουβλακοπωλείον Ρίγανη","lat":38.00099448703569,"lng":23.73511231778499,"url":"https://maps.app.goo.gl/fCW1TYPSHgUdCft78?g_st=ipc","address":"Φωκίωνος Νέγρη 15, Αθήνα 112 57","categoryIds":["cheap-eats"],"categories":["Gyros & Cheap Eats"]},{"id":"cheapEatsRestaurants_ec6036039639","slug":"dionysos-ec60","kind":"restaurant","name":"Διόνυσος","lat":37.99776607364749,"lng":23.735031186199688,"url":"https://maps.app.goo.gl/f7GyH9GtFQKGQmmS9?g_st=ipc","address":"Ιθάκης 12 12, Αθήνα 112 57","categoryIds":["cheap-eats"],"categories":["Gyros & Cheap Eats"]},{"id":"cheapEatsRestaurants_b098fa4e8c79","slug":"kaproys-b098","kind":"restaurant","name":"Κάπρους","lat":37.997892215729216,"lng":23.738708713405035,"url":"https://maps.app.goo.gl/zmZ9p1KuXBfmeQTP9?g_st=ipc","address":"Σπετσών 49, Αθήνα 113 62","categoryIds":["cheap-eats"],"categories":["Gyros & Cheap Eats"]},{"id":"cheapEatsRestaurants_3855239555fb","slug":"oi-meraklides-3855","kind":"restaurant","name":"Οι Μερακλήδες","lat":38.005421507151304,"lng":23.738069532004765,"url":"https://maps.app.goo.gl/cQBiuhmvhu6SiSrp9?g_st=ipc","address":"Αγίας Ζώνης 60, Αθήνα 112 56","categoryIds":["cheap-eats"],"categories":["Gyros & Cheap Eats"]},{"id":"cheapEatsRestaurants_4b2392e8f1da","slug":"peirasmos-4b23","kind":"restaurant","name":"ΠΕΙΡΑΣΜΟΣ","lat":38.00274661999109,"lng":23.744683791776005,"url":"https://maps.app.goo.gl/wXj4gGBY4uF6K2yW8?g_st=ipc","address":"Βελβενδού 20, Αθήνα 113 63","categoryIds":["cheap-eats"],"categories":["Gyros & Cheap Eats"]},{"id":"cheapEatsRestaurants_b1a42490e7cb","slug":"gyros-soyvlaki-viktoria-tylixe-to-b1a4","kind":"restaurant","name":"Γύρος σουβλάκι Βικτώρια ΤΥΛΙΞΕ ΤΟ","lat":37.99350120718295,"lng":23.729835255916253,"url":"https://maps.app.goo.gl/eKw6YctPXBvBSifU7?g_st=ipc","address":"Πλ. Βικτώριας 6, Αθήνα 104 34","categoryIds":["cheap-eats"],"categories":["Gyros & Cheap Eats"]},{"id":"cheapEatsRestaurants_9b9687edb09a","slug":"cantina-alexandras-9b96","kind":"restaurant","name":"Cantina Alexandras","lat":37.990601219280784,"lng":23.740100216268857,"url":"https://maps.app.goo.gl/sC6f9QqoMvhYZn9L6?g_st=ipc","address":"Λεωφ. Αλεξάνδρας 31, Αθήνα 114 73","categoryIds":["cheap-eats"],"categories":["Gyros & Cheap Eats"]},{"id":"cheapEatsRestaurants_a3dfa66f0ec8","slug":"green-kebab-a3df","kind":"restaurant","name":"Green Kebab","lat":37.99197488379709,"lng":23.725139444636163,"url":"https://maps.app.goo.gl/tAkTZ6x1vZQez7uq5?g_st=ipc","address":"Ιουλιανού 81, Αθήνα 104 39","categoryIds":["cheap-eats"],"categories":["Gyros & Cheap Eats"]},{"id":"cheapEatsRestaurants_dcf501d079db","slug":"psitopoleio-o-meraklis-dcf5","kind":"restaurant","name":"Ψητοπωλείο Ο Μερακλής","lat":38.00168245244077,"lng":23.720330195200393,"url":"https://maps.app.goo.gl/szXw2A8e1LoKnCFc6?g_st=ipc","address":"Αγ. Μελετίου 183, Αθήνα 104 43","categoryIds":["cheap-eats"],"categories":["Gyros & Cheap Eats"]},{"id":"cheapEatsRestaurants_d1e6c2dac993","slug":"o-thomas-d1e6","kind":"restaurant","name":"\"Ο Θωμάς\"","lat":37.990509282943826,"lng":23.72671200338313,"url":"https://maps.app.goo.gl/sNkqRi8WyMgYec9D6?g_st=ipc","address":"Αχαρνών 33, Αθήνα 104 39","categoryIds":["cheap-eats"],"categories":["Gyros & Cheap Eats"]},{"id":"cheapEatsRestaurants_cda079c65f38","slug":"lorda-cda0","kind":"restaurant","name":"Λόρδα","lat":37.986574816164286,"lng":23.734456878858524,"url":"https://maps.app.goo.gl/nBaQ33jw6JEZQp7X9?g_st=ipc","address":"Σπύρου Τρικούπη 3, Αθήνα 106 83","categoryIds":["cheap-eats"],"categories":["Gyros & Cheap Eats"]},{"id":"cheapEatsRestaurants_724c8ca91031","slug":"mangal-724c","kind":"restaurant","name":"Mangal","lat":37.98648075392058,"lng":23.733903117356245,"url":"https://maps.app.goo.gl/fZ3o2N67Ya2WA1aQA?g_st=ipc","address":"Σολωμού 12, Αθήνα 106 83","categoryIds":["cheap-eats"],"categories":["Gyros & Cheap Eats"]}],"nearby":[{"id":"vegetarianRestaurants_ac24d91fc2b5","slug":"geyseis-tis-damaskoy-ac24","kind":"restaurant","name":"Γεύσεις της Δαμασκού","lat":38.00104187111536,"lng":23.735527497819955,"url":"https://maps.app.goo.gl/CBgjw3FjXKsmZLqP9?g_st=ipc","address":"Φωκίωνος Νέγρη 19, Αθήνα 112 57","categoryIds":["vegetarian"],"categories":["Vegetarian Friendly Restaurants"],"distanceKm":0.04225671051372695},{"id":"cheapEatsRestaurants_51111124208f","slug":"soyvlakopoleion-rigani-5111","kind":"restaurant","name":"Σουβλακοπωλείον Ρίγανη","lat":38.00099448703569,"lng":23.73511231778499,"url":"https://maps.app.goo.gl/fCW1TYPSHgUdCft78?g_st=ipc","address":"Φωκίωνος Νέγρη 15, Αθήνα 112 57","categoryIds":["cheap-eats"],"categories":["Gyros & Cheap Eats"],"distanceKm":0.051649189663564354},{"id":"italianRestaurants_fee68a36e757","slug":"lisa-athens-fee6","kind":"restaurant","name":"Lisa Athens","lat":38.00121668798056,"lng":23.737030313370706,"url":"https://maps.app.goo.gl/eiXsobGt1KWweP7UA?g_st=ipc","address":"Φωκίωνος Νέγρη 25, Αθήνα 113 61","categoryIds":["italian"],"categories":["Italian Restaurants"],"distanceKm":0.14571267739420501},{"id":"coffeeBrunchRestaurants_ce89cd6aa5d7","slug":"kick-ce89","kind":"restaurant","name":"KICK","lat":37.99916132656893,"lng":23.737461252467714,"url":"https://maps.app.goo.gl/72fZq7DBsWg8jnSR8?g_st=ipc","address":"Σποράδων 26, Αθήνα 113 61","categoryIds":["coffee-brunch"],"categories":["Coffee & Brunch Spots"],"distanceKm":0.23803606559402188},{"id":"coffeeBrunchRestaurants_5e77841cb06d","slug":"flake-5e77","kind":"restaurant","name":"Flake","lat":37.99900849338742,"lng":23.737419912416144,"url":"https://maps.app.goo.gl/Xk1A8oDNqWipGzYL6?g_st=ipc","address":"Σποράδων 24, Αθήνα 113 61","categoryIds":["coffee-brunch"],"categories":["Coffee & Brunch Spots"],"distanceKm":0.2477988516018039},{"id":"greekRestaurants_bfb413275b7f","slug":"kyveli-bfb4","kind":"restaurant","name":"Κυβέλη","lat":37.99805749284101,"lng":23.73519064835316,"url":"https://maps.app.goo.gl/GZkR3yG4uYF9Asep6","address":"Επτανήσου 15, Αθήνα 112 57","categoryIds":["greek-restaurants"],"categories":["Greek Restaurants"],"distanceKm":0.29105945477950906},{"id":"coffeeBrunchRestaurants_8eea389a06d0","slug":"santo-belto-8eea","kind":"restaurant","name":"Santo Belto","lat":38.00295539657206,"lng":23.737407823969118,"url":"https://maps.app.goo.gl/ZWa6fMfeNKbHNQGB7?g_st=ipc","address":"Αγίας Ζώνης 21, Αθήνα 113 61","categoryIds":["coffee-brunch","desserts"],"categories":["Coffee & Brunch Spots","Dessert Shops"],"legacySlugs":["santo-belto-1567"],"distanceKm":0.3037973502535649},{"id":"cheapEatsRestaurants_ec6036039639","slug":"dionysos-ec60","kind":"restaurant","name":"Διόνυσος","lat":37.99776607364749,"lng":23.735031186199688,"url":"https://maps.app.goo.gl/f7GyH9GtFQKGQmmS9?g_st=ipc","address":"Ιθάκης 12 12, Αθήνα 112 57","categoryIds":["cheap-eats"],"categories":["Gyros & Cheap Eats"],"distanceKm":0.32487633795379706},{"id":"fishTavernasRestaurants_4ef32e781ddb","slug":"psaradiko-psarofageio-vlasis-4ef3","kind":"restaurant","name":"Ψαράδικο-Ψαροφαγείο Βλάσης","lat":38.00159683768883,"lng":23.739141642286196,"url":"https://maps.app.goo.gl/fHgyjqw3Rn6yqq6N6?g_st=ipc","address":"Φωκίωνος Νέγρη 47, Αθήνα 113 61","categoryIds":["fish-tavernas"],"categories":["Fish Tavernas"],"distanceKm":0.3336178299479708},{"id":"dessertsRestaurants_b17cae58055b","slug":"solo-gelato-kypseli-b17c","kind":"restaurant","name":"SOLO GELATO ΚΥΨΕΛΗ","lat":37.997495076308105,"lng":23.735075284705523,"url":"https://maps.app.goo.gl/xy8KGbP1LQZJCmxX7?g_st=ipc","address":"Ιθάκης 9, Αθήνα 112 57","categoryIds":["desserts"],"categories":["Dessert Shops"],"distanceKm":0.3543160195162835},{"id":"coffeeBrunchRestaurants_76650a6337b0","slug":"o-foyrnos-toy-remoyndoy-7665","kind":"restaurant","name":"Ο Φούρνος του Ρεμούνδου","lat":37.99778393444846,"lng":23.737266306236258,"url":"https://maps.app.goo.gl/6mpkX4B7SCACHFyy6?g_st=ipc","address":"Κυψέλης 37, Αθήνα 113 61","categoryIds":["coffee-brunch"],"categories":["Coffee & Brunch Spots"],"distanceKm":0.3545712881324358},{"id":"vegetarianRestaurants_83307181ea44","slug":"gknoy-8330","kind":"restaurant","name":"ΓΚΝΟΥ","lat":37.99747301743944,"lng":23.73513103670901,"url":"https://maps.app.goo.gl/9hv6BgvR3DARK8469?g_st=ipc","address":"Επτανήσου 13, Αθήνα 112 57","categoryIds":["vegetarian"],"categories":["Vegetarian Friendly Restaurants"],"distanceKm":0.3562488128974291},{"id":"cheapEatsRestaurants_b098fa4e8c79","slug":"kaproys-b098","kind":"restaurant","name":"Κάπρους","lat":37.997892215729216,"lng":23.738708713405035,"url":"https://maps.app.goo.gl/zmZ9p1KuXBfmeQTP9?g_st=ipc","address":"Σπετσών 49, Αθήνα 113 62","categoryIds":["cheap-eats"],"categories":["Gyros & Cheap Eats"],"distanceKm":0.41560836078114394},{"id":"greekRestaurants_3fdb385cf32e","slug":"dylan-3fdb","kind":"restaurant","name":"Dylan","lat":38.004029735437285,"lng":23.737919535339657,"url":"https://maps.app.goo.gl/BnADd9od1HHo98uB7?g_st=ipc","address":"Agias Zonis 38, Athina 113 64","categoryIds":["greek-restaurants"],"categories":["Greek Restaurants"],"distanceKm":0.429312493595822},{"id":"greekRestaurants_f9f686e79eab","slug":"o-mpakalogatos-f9f6","kind":"restaurant","name":"Ο Μπακαλόγατος","lat":38.00187471148547,"lng":23.740181411434346,"url":"https://maps.app.goo.gl/981vRQxbrAtrVwL46","address":"Φωκίωνος Νέγρη 72, Αθήνα 113 61","categoryIds":["greek-restaurants"],"categories":["Greek Restaurants"],"distanceKm":0.42981629513883174},{"id":"greekRestaurants_7620f2ece9a6","slug":"mpompyras-7620","kind":"restaurant","name":"Μπόμπυρας","lat":38.00484148971816,"lng":23.732856919000913,"url":"https://maps.app.goo.gl/9Ay3zpP2cfdFbPpw8","address":"Ευπαλίνου 21, Αθήνα 112 53","categoryIds":["greek-restaurants"],"categories":["Greek Restaurants"],"distanceKm":0.5201884621624001},{"id":"dessertsRestaurants_500065b70e96","slug":"mpozas-5000","kind":"restaurant","name":"Μπόζας","lat":37.99742038031428,"lng":23.73986164387991,"url":"https://maps.app.goo.gl/zSMSytPeL1fEn7U3A?g_st=ipc","address":"Κερκύρας 39 &, Παξών, Αθήνα 113 62","categoryIds":["desserts"],"categories":["Dessert Shops"],"distanceKm":0.5238250376457102},{"id":"italianRestaurants_a2a46beb60d1","slug":"mamas-pizza-a2a4","kind":"restaurant","name":"mamas pizza","lat":38.00286067766126,"lng":23.729687108811326,"url":"https://maps.app.goo.gl/GBCYCeq3F77e7FqH8?g_st=ipc","address":"Φυλής 197, Αθήνα 112 52","categoryIds":["italian"],"categories":["Italian Restaurants"],"distanceKm":0.5668507379952457},{"id":"vegetarianRestaurants_35af3a72d872","slug":"leik-kafe-35af","kind":"restaurant","name":"λέικ καφέ","lat":37.99570532128052,"lng":23.737094528681606,"url":"https://maps.app.goo.gl/c3DSV5tXT2pKELDL8?g_st=ipc","address":"Αιγίνης 1, Αθήνα 113 62","categoryIds":["vegetarian"],"categories":["Vegetarian Friendly Restaurants"],"distanceKm":0.5680686026847825},{"id":"cheapEatsRestaurants_3855239555fb","slug":"oi-meraklides-3855","kind":"restaurant","name":"Οι Μερακλήδες","lat":38.005421507151304,"lng":23.738069532004765,"url":"https://maps.app.goo.gl/cQBiuhmvhu6SiSrp9?g_st=ipc","address":"Αγίας Ζώνης 60, Αθήνα 112 56","categoryIds":["cheap-eats"],"categories":["Gyros & Cheap Eats"],"distanceKm":0.5743341224434442},{"id":"municipalities_f73663b8f738","slug":"attiki-f736","kind":"municipality","name":"Αττική","lat":37.9958,"lng":23.7292,"aliases":["Αττικη","Victoria"],"region":"Κέντρο Αθήνας","name_en":"Attiki","region_en":"Athens Center","distanceKm":0.7741513546357789},{"id":"greekRestaurants_47b0ee0c8d13","slug":"mi-la-re-47b0","kind":"restaurant","name":"Μι λα ρε","lat":37.99704423560871,"lng":23.74315138793718,"url":"https://maps.app.goo.gl/mURYyiemhV3PvXjDA","address":"Ευελπίδων 87, Αθήνα 113 62","categoryIds":["greek-restaurants"],"categories":["Greek Restaurants"],"distanceKm":0.7800811261206145},{"id":"cheapEatsRestaurants_4b2392e8f1da","slug":"peirasmos-4b23","kind":"restaurant","name":"ΠΕΙΡΑΣΜΟΣ","lat":38.00274661999109,"lng":23.744683791776005,"url":"https://maps.app.goo.gl/wXj4gGBY4uF6K2yW8?g_st=ipc","address":"Βελβενδού 20, Αθήνα 113 63","categoryIds":["cheap-eats"],"categories":["Gyros & Cheap Eats"],"distanceKm":0.8354164845690449},{"id":"familyFriendly_8133c93f98d4","slug":"pedion-areos-8133","kind":"restaurant","name":"Πεδίον Άρεως","lat":37.99296743190719,"lng":23.73662502583579,"url":"https://maps.app.goo.gl/qo4PWWenK9kDd9qC7?g_st=ipc","address":"Λεωφ. Αλεξάνδρας, Αθήνα 114 74","categoryIds":["family-friendly"],"categories":["Kid Friendly Locations"],"distanceKm":0.8610062239542576}],"sameRegion":[],"mentionedGuides":[{"slug":"american-college-of-greece-agia-paraskevi-guide-el","title":"American College of Greece: Οδηγός Αγίας Παρασκευής"},{"slug":"american-college-of-greece-agia-paraskevi-guide","title":"American College of Greece: Welcome to Agia Paraskevi"}],"canonicalSlug":"jackaroo-fcf2","isCanonicalEntity":true,"enrichment":{"summary_en":"Jackaroo is a curated restaurant in Αθήνα 112 57 in the Gyros & Cheap Eats collection. It is connected to 22 nearby Googlementor picks to help travelers build a stronger local route.","summary_el":"Jackaroo είναι ένα επιλεγμένο σημείο φαγητού στην περιοχή Αθήνα 112 57 και ανήκει στη συλλογή Gyros & Cheap Eats. Συνδέεται με 22 κοντινές προτάσεις του Googlementor για πιο ολοκληρωμένη εμπειρία.","vibe_tags":["curated","budget-friendly"],"best_for":["first-time visitors","food lovers","budget travelers"],"visit_moments":["lunch stop","dinner stop"],"practical_note":"Address and direct map link are available for easy turn-by-turn access.","nearby_walkable_count":22,"nearby_count_2km":115,"confidence":0.98},"areaContext":{"slug":"attiki","name":"Attiki"},"intentContexts":[{"href":"/cheap-eats/attiki","label":"Gyros & Cheap Eats in Attiki","categorySlug":"cheap-eats","categoryName":"Gyros & Cheap Eats","areaSlug":"attiki","areaName":"Attiki"}]},"__N_SSG":true}