{"pageProps":{"entity":{"id":"coffeeBrunchRestaurants_f243ffc9ef50","slug":"kanela-homemade-delicacies-f243","kind":"restaurant","name":"Kanela | Homemade Delicacies","lat":39.119057575812455,"lng":23.730567589663472,"url":"https://maps.app.goo.gl/ToCtxBp1UXx9DGvx7?g_st=ipc","address":"El. Venizelou, Skopelos 370 03","categoryIds":["coffee-brunch"],"categories":["Coffee & Brunch Spots"]},"sameCategory":[{"id":"coffeeBrunchRestaurants_e16b7b061028","slug":"decimo-coffee-brunch-e16b","kind":"restaurant","name":"Decimo Coffee & Brunch","lat":39.11943395916134,"lng":23.73078206958329,"url":"https://maps.app.goo.gl/L1JDBzithBcgv3Qj7?g_st=ipc","address":"Σκόπελος 370 03","categoryIds":["coffee-brunch"],"categories":["Coffee & Brunch Spots"]},{"id":"coffeeBrunchRestaurants_a6de03ead415","slug":"bourtzi-skiathos-a6de","kind":"restaurant","name":"Bourtzi Skiathos","lat":39.16082655884958,"lng":23.49110174510934,"url":"https://maps.app.goo.gl/biyFuX6UBoZ8TcJc9?g_st=ipc","address":"Port of, Skiathos 370 02","categoryIds":["coffee-brunch"],"categories":["Coffee & Brunch Spots"]},{"id":"coffeeBrunchRestaurants_e35f2fd907c7","slug":"aeriko-cafe-bar-makrinitsa-e35f","kind":"restaurant","name":"Aeriko cafe bar - Makrinitsa","lat":39.396275519682625,"lng":22.994190417214696,"url":"https://maps.app.goo.gl/uEvFEaZxa3VWrgDA7?g_st=ipc","address":"1o km PORTARIAS-MAKRINITSAS, PELION 370 11","categoryIds":["coffee-brunch"],"categories":["Coffee & Brunch Spots"]},{"id":"coffeeBrunchRestaurants_8f68ea1d28c9","slug":"isalos-beach-club-8f68","kind":"restaurant","name":"Isalos Beach Club","lat":39.35159082602954,"lng":22.9581356571748,"url":"https://maps.app.goo.gl/whtVq9izZXDLCZ8k7?g_st=ipc","address":"Plastira 17b, Volos 382 22","categoryIds":["coffee-brunch"],"categories":["Coffee & Brunch Spots"]},{"id":"coffeeBrunchRestaurants_14f7d11e7920","slug":"agora-14f7","kind":"restaurant","name":"AGORA","lat":38.90450343769536,"lng":24.564405519725188,"url":"https://maps.app.goo.gl/Ak5n1GwVGESyRydk7?g_st=ipc","address":"Χώρα - κεντρική πλατεία, Skiros 340 07","categoryIds":["coffee-brunch"],"categories":["Coffee & Brunch Spots"]},{"id":"coffeeBrunchRestaurants_336240e739f2","slug":"o-mitsos-bakery-and-bougatsa-pies-3362","kind":"restaurant","name":"“O Mitsos” Bakery and Bougatsa pies","lat":38.906123668565485,"lng":24.565786457853836,"url":"https://maps.app.goo.gl/nrqc18TzCiFo5osh7?g_st=ipc","address":"Αγορά Σκυρου, Skiros 340 07","categoryIds":["coffee-brunch"],"categories":["Coffee & Brunch Spots"]},{"id":"coffeeBrunchRestaurants_77abfb08a4c5","slug":"pink-banana-opa-greek-cuisine-77ab","kind":"restaurant","name":"Pink Banana & OPA Greek cuisine","lat":39.928119861265856,"lng":23.5848530921533,"url":"https://maps.app.goo.gl/4qjSp1aZXXsPHmu16?g_st=ipc","address":"Λουτρά, Ag. Paraskevi 630 85","categoryIds":["coffee-brunch"],"categories":["Coffee & Brunch Spots"]},{"id":"coffeeBrunchRestaurants_25a3d49e80e1","slug":"navagos-beach-bar-paliouri-25a3","kind":"restaurant","name":"Navagos beach bar Paliouri","lat":39.93652533814293,"lng":23.688978937103037,"url":"https://maps.app.goo.gl/k1GdJrNWZuw6bw1y7?g_st=ipc","address":"Navagos Beach-Restaurant, Paliouri 630 85","categoryIds":["coffee-brunch"],"categories":["Coffee & Brunch Spots"]},{"id":"coffeeBrunchRestaurants_c7392dd258a0","slug":"lemonis-bakery-c739","kind":"restaurant","name":"Lemonis Bakery","lat":39.94203436230197,"lng":23.66329350381582,"url":"https://maps.app.goo.gl/Q7a2SEfBJaFYitVS7?g_st=ipc","address":"Epar.Od. Paliouriou-Afitou, Paliouri 630 85","categoryIds":["coffee-brunch"],"categories":["Coffee & Brunch Spots"]},{"id":"coffeeBrunchRestaurants_fc07764e5b52","slug":"season-beach-house-koursaros-fc07","kind":"restaurant","name":"Season beach house (KOURSAROS)","lat":39.95767524817121,"lng":23.67935820697653,"url":"https://maps.app.goo.gl/kxSvMZBHgQaQt2dS8?g_st=ipc","address":"Koursaros, Paliouri 630 85","categoryIds":["coffee-brunch"],"categories":["Coffee & Brunch Spots"]},{"id":"coffeeBrunchRestaurants_2db4944d88a6","slug":"leuki-ammos-beach-bar-2db4","kind":"restaurant","name":"Leuki Ammos Beach bar","lat":39.96367051219052,"lng":23.675446495469675,"url":"https://maps.app.goo.gl/xySqYYNGHWHqAXNeA?g_st=ipc","address":"Akti xenia, Paliouri 630 85","categoryIds":["coffee-brunch"],"categories":["Coffee & Brunch Spots"]},{"id":"coffeeBrunchRestaurants_ec562584f606","slug":"lago-seaside-experience-ec56","kind":"restaurant","name":"Lago Seaside Experience","lat":39.97322433297595,"lng":23.675843364420007,"url":"https://maps.app.goo.gl/5BvhEbLtGovxPUe36?g_st=ipc","address":"Unnamed Road, Kassandra 630 85","categoryIds":["coffee-brunch"],"categories":["Coffee & Brunch Spots"]}],"nearby":[{"id":"coffeeBrunchRestaurants_e16b7b061028","slug":"decimo-coffee-brunch-e16b","kind":"restaurant","name":"Decimo Coffee & Brunch","lat":39.11943395916134,"lng":23.73078206958329,"url":"https://maps.app.goo.gl/L1JDBzithBcgv3Qj7?g_st=ipc","address":"Σκόπελος 370 03","categoryIds":["coffee-brunch"],"categories":["Coffee & Brunch Spots"],"distanceKm":0.045759609401833753},{"id":"municipalities_5a21ee6d3ece","slug":"skopelos-5a21","kind":"municipality","name":"Σκόπελος","lat":39.121,"lng":23.725,"region":"Θεσσαλία","name_en":"Skopelos","region_en":"Thessaly","distanceKm":0.5266335556631573},{"id":"fishTavernasRestaurants_baf37ae6d6a8","slug":"korali-seafood-restaurant-agnontas-skopelos-baf3","kind":"restaurant","name":"Korali Seafood Restaurant . Agnontas Skopelos","lat":39.08302676907846,"lng":23.71151668170709,"url":"https://maps.app.goo.gl/DpvC9bsrL18rv9WD9?g_st=ipc","address":"Epar.Od. Agnontas, Skopelos 370 03","categoryIds":["fish-tavernas"],"categories":["Fish Tavernas"],"distanceKm":4.330597301744314},{"id":"municipalities_dd7ffd7012fc","slug":"alonnisos-dd7f","kind":"municipality","name":"Αλόννησος","lat":39.15,"lng":23.8667,"region":"Θεσσαλία","name_en":"Alonissos","region_en":"Thessaly","distanceKm":12.23517021801849},{"id":"fishTavernasRestaurants_71c8fedcef80","slug":"carnayo-restaurant-skiathos-71c8","kind":"restaurant","name":"Carnayo Restaurant Skiathos","lat":39.165824279351774,"lng":23.493041550704223,"url":"https://maps.app.goo.gl/DardoapX9Zoh1VF77?g_st=ipc","address":"Paraliakos, Skiathos 370 02","categoryIds":["fish-tavernas"],"categories":["Fish Tavernas"],"distanceKm":21.13411250715185},{"id":"greekRestaurants_eb03c4eec71f","slug":"bourtzi-skiathos-eb03","kind":"restaurant","name":"Bourtzi Skiathos","lat":39.160842059339465,"lng":23.49110714443105,"url":"https://maps.app.goo.gl/GAukhmcUEzWCaV92A?g_st=ipc","address":"Port of, Σκιάθος 370 02","categoryIds":["greek-restaurants"],"categories":["Greek Restaurants"],"distanceKm":21.168098425292584},{"id":"coffeeBrunchRestaurants_a6de03ead415","slug":"bourtzi-skiathos-a6de","kind":"restaurant","name":"Bourtzi Skiathos","lat":39.16082655884958,"lng":23.49110174510934,"url":"https://maps.app.goo.gl/biyFuX6UBoZ8TcJc9?g_st=ipc","address":"Port of, Skiathos 370 02","categoryIds":["coffee-brunch"],"categories":["Coffee & Brunch Spots"],"distanceKm":21.168176709594288},{"id":"municipalities_97b9bf0a5122","slug":"skiathos-97b9","kind":"municipality","name":"Σκιάθος","lat":39.162,"lng":23.491,"region":"Θεσσαλία","name_en":"Skiathos","region_en":"Thessaly","distanceKm":21.205569239920035},{"id":"luxuryDiningRestaurants_bee2cc095415","slug":"the-windmill-restaurant-skiathos-bee2","kind":"restaurant","name":"The Windmill Restaurant Skiathos","lat":39.16543805944577,"lng":23.490849932444878,"url":"https://maps.app.goo.gl/4ZzNn5XN7C4AnWHF9?g_st=ipc","address":"Pension Margarita, Kontroni Opposite, Skiathos 370 02","categoryIds":["luxury-dining"],"categories":["Luxury Dining"],"distanceKm":21.306977691459277},{"id":"greekRestaurants_8909c10306f0","slug":"agnantio-8909","kind":"restaurant","name":"Αγνάντιo","lat":39.17417093692817,"lng":23.493218253227656,"url":"https://maps.app.goo.gl/QiCu3GHeGYnmjtw57?g_st=ipc","address":"Βιγλες, Σκιάθος 370 02","categoryIds":["greek-restaurants"],"categories":["Greek Restaurants"],"distanceKm":21.365650283642317},{"id":"italianRestaurants_0856ecb11f91","slug":"la-cucina-di-maria-0856","kind":"restaurant","name":"La Cucina di Maria","lat":39.16258431460264,"lng":23.488686516582533,"url":"https://maps.app.goo.gl/MBu7u1d7kC6PuBVm8?g_st=ipc","address":"Πλατεία Τριών Ιεραρχών, Skiathos 370 02","categoryIds":["italian"],"categories":["Italian Restaurants"],"distanceKm":21.414520080118933},{"id":"greekRestaurants_638088e18f08","slug":"ricchi-e-poveri-6380","kind":"restaurant","name":"Ricchi E Poveri","lat":39.16154097266096,"lng":23.48811897164505,"url":"https://maps.app.goo.gl/mPaTUD9FQz1XBrkn7?g_st=ipc","address":"Σκιάθος 370 02","categoryIds":["greek-restaurants"],"categories":["Greek Restaurants"],"distanceKm":21.43648954590647},{"id":"greekRestaurants_50b52c2fce61","slug":"giardino-segreto-50b5","kind":"restaurant","name":"Giardino Segreto","lat":39.16422013445391,"lng":23.48827332832573,"url":"https://maps.app.goo.gl/oYFqCwTb84JgPcHYA?g_st=ipc","address":"Ευαγγελιστρίας 14, Σκιάθος 370 02","categoryIds":["greek-restaurants"],"categories":["Greek Restaurants"],"distanceKm":21.4907722802673},{"id":"greekRestaurants_c392fb301228","slug":"marmita-c392","kind":"restaurant","name":"Marmita","lat":39.16450960419779,"lng":23.488358363186613,"url":"https://maps.app.goo.gl/jYUxHbE5ospf2bg48?g_st=ipc","address":"Ευαγγελιστρίας 30, Σκιάθος 370 02","categoryIds":["greek-restaurants"],"categories":["Greek Restaurants"],"distanceKm":21.491146794775773},{"id":"vegetarianRestaurants_4b016e396a37","slug":"basilikos-4b01","kind":"restaurant","name":"Basilikos","lat":39.16312454298035,"lng":23.487902942019232,"url":"https://maps.app.goo.gl/ds7UYPCteddf9Z6T7?g_st=ipc","address":"5F7Q+65W, Skiathos 370 02","categoryIds":["vegetarian"],"categories":["Vegetarian Friendly Restaurants"],"distanceKm":21.493890797540505},{"id":"greekRestaurants_bba8f99baf04","slug":"vasilikos-bba8","kind":"restaurant","name":"Βασιλικός","lat":39.163149427181544,"lng":23.4879040653568,"url":"https://maps.app.goo.gl/72rYJCHEmhpQn6o56?g_st=ipc","address":"5F7Q+65W, Σκιάθος 370 02","categoryIds":["greek-restaurants"],"categories":["Greek Restaurants"],"distanceKm":21.49442383855066},{"id":"luxuryDiningRestaurants_fb0ed7fd7dd6","slug":"the-borzoi-fb0e","kind":"restaurant","name":"The Borzoi","lat":39.16344583170151,"lng":23.487355001180887,"url":"https://maps.app.goo.gl/bVHwisskrmA58dT18?g_st=ipc","address":"Papadiamanti, Skiathos 370 02","categoryIds":["luxury-dining"],"categories":["Luxury Dining"],"distanceKm":21.548013217177523},{"id":"greekRestaurants_2de2c6623e00","slug":"crazy-cow-restaurant-2de2","kind":"restaurant","name":"Crazy Cow Restaurant","lat":39.167432153990596,"lng":23.488032347781342,"url":"https://maps.app.goo.gl/L62CBz8TJif4qS2W9?g_st=ipc","address":"Evaggelistrias Str, Σκιάθος 370 02","categoryIds":["greek-restaurants"],"categories":["Greek Restaurants"],"distanceKm":21.596690921887266},{"id":"greekRestaurants_60ce3bb5b5ca","slug":"asprolithos-60ce","kind":"restaurant","name":"Ασπρολιθος","lat":39.16504324740699,"lng":23.486717425412987,"url":"https://maps.app.goo.gl/k2pRsteYSiF9tWJy9?g_st=ipc","address":"Σκιάθος 370 02","categoryIds":["greek-restaurants"],"categories":["Greek Restaurants"],"distanceKm":21.642585092343797},{"id":"greekRestaurants_e46cac5a2bec","slug":"taverna-to-kalo-pigadi-e46c","kind":"restaurant","name":"Taverna To Kalo Pigadi","lat":39.16487848589254,"lng":23.486317545591145,"url":"https://maps.app.goo.gl/Q3s16ZJgMJx6HdbA8?g_st=ipc","address":"Καραϊσκάκη, Σκιάθος 370 02","categoryIds":["greek-restaurants"],"categories":["Greek Restaurants"],"distanceKm":21.671805717590615},{"id":"dessertsRestaurants_80d05b4a9112","slug":"dafni-s-sweets-80d0","kind":"restaurant","name":"Dafni's Sweets","lat":39.16451312827066,"lng":23.484321078437517,"url":"https://maps.app.goo.gl/qZaYAac8rhBH69sC8?g_st=ipc","address":"Τέρμα Παπαδιαμάντη, Skiathos 370 02","categoryIds":["desserts"],"categories":["Dessert Shops"],"distanceKm":21.829805920631077},{"id":"wineriesVineyards_1ba3565ec57e","slug":"parissis-winery-1ba3","kind":"restaurant","name":"Parissis Winery","lat":39.18153615640374,"lng":23.469914268213092,"url":"https://maps.app.goo.gl/xFt7L59eLpWAg6GJ8?g_st=ipc","address":"Unnamed Road, Σκιάθος 370 02","categoryIds":["wineries-vineyards"],"categories":["Wineries & Vineyards"],"distanceKm":23.525536979162137}],"sameRegion":[],"mentionedGuides":[],"canonicalSlug":"kanela-homemade-delicacies-f243","isCanonicalEntity":true,"enrichment":{"summary_en":"Kanela | Homemade Delicacies is a curated restaurant in Skopelos 370 03 in the Coffee & Brunch Spots collection. It is connected to 2 nearby Googlementor picks to help travelers build a stronger local route.","summary_el":"Kanela | Homemade Delicacies είναι ένα επιλεγμένο σημείο φαγητού στην περιοχή Skopelos 370 03 και ανήκει στη συλλογή Coffee & Brunch Spots. Συνδέεται με 2 κοντινές προτάσεις του Googlementor για πιο ολοκληρωμένη εμπειρία.","vibe_tags":["curated","daytime-favorite"],"best_for":["first-time visitors","food lovers"],"visit_moments":["early morning","late brunch"],"practical_note":"Address and direct map link are available for easy turn-by-turn access.","nearby_walkable_count":2,"nearby_count_2km":2,"confidence":0.9},"areaContext":null,"intentContexts":[]},"__N_SSG":true}