{"pageProps":{"entity":{"id":"fishTavernasRestaurants_1a19623dc76c","slug":"keri-lighthouse-restaurant-1a19","kind":"restaurant","name":"Keri Lighthouse Restaurant","lat":37.6544155286365,"lng":20.810506312482314,"url":"https://maps.app.goo.gl/5DwsHksg1ZHKzA62A?g_st=ipc","address":"Φάρος κεριού, Keri 290 92","categoryIds":["fish-tavernas"],"categories":["Fish Tavernas"]},"sameCategory":[{"id":"fishTavernasRestaurants_7b6b6c02756b","slug":"blue-sea-restaurant-7b6b","kind":"restaurant","name":"Blue Sea Restaurant","lat":38.06482061618168,"lng":20.749944356791246,"url":"https://maps.app.goo.gl/w2imtD4bnSK6jDox6?g_st=ipc","address":"Κάτω Κατελειός 280 86","categoryIds":["fish-tavernas"],"categories":["Fish Tavernas"]},{"id":"fishTavernasRestaurants_aba93243463b","slug":"sunrise-fish-restaurant-aba9","kind":"restaurant","name":"Sunrise fish restaurant","lat":38.069862361650536,"lng":20.798458806990475,"url":"https://maps.app.goo.gl/zpgr1Pu7huw8UAn16?g_st=ipc","address":"Sunrise, Skala 280 86","categoryIds":["fish-tavernas"],"categories":["Fish Tavernas"]},{"id":"fishTavernasRestaurants_2ef1060ceab9","slug":"kalyva-tou-psara-2ef1","kind":"restaurant","name":"Kalyva tou Psara","lat":38.30990002692816,"lng":20.4759773849458,"url":"https://maps.app.goo.gl/usLMqjcjtFy6fTWd6?g_st=ipc","address":"Unnamed Rd, Zola 281 00","categoryIds":["fish-tavernas"],"categories":["Fish Tavernas"]},{"id":"fishTavernasRestaurants_b598193b21ce","slug":"gia-psaraki-b598","kind":"restaurant","name":"για ψαράκι","lat":38.16996316334188,"lng":21.67408353856444,"url":"https://maps.app.goo.gl/Mp22UWxr4LuQZaQa6?g_st=ipc","address":"Stavropoulou 101, Monodendri 250 02","categoryIds":["fish-tavernas"],"categories":["Fish Tavernas"]},{"id":"fishTavernasRestaurants_701e88cdc0f1","slug":"moyrtas-psarotaverna-701e","kind":"restaurant","name":"Μουρτάς Ψαροταβέρνα","lat":38.19791064176577,"lng":21.696505177930376,"url":"https://maps.app.goo.gl/SyckXnzEqa1w9FPR9?g_st=ipc","address":"Palea EO Patras Pyrgou 35-45, Paralia 265 00","categoryIds":["fish-tavernas"],"categories":["Fish Tavernas"]},{"id":"fishTavernasRestaurants_deef9d161177","slug":"tavern-zolithros-deef","kind":"restaurant","name":"Tavern Zolithros","lat":38.63883302731558,"lng":20.699578514278645,"url":"https://maps.app.goo.gl/tsdwoX24ZG7uLKB6A?g_st=ipc","address":"Epar.Od. Porou, Lefkada 311 00","categoryIds":["fish-tavernas"],"categories":["Fish Tavernas"]},{"id":"fishTavernasRestaurants_da16f2b84772","slug":"errikos-fish-tavern-da16","kind":"restaurant","name":"Errikos Fish Tavern","lat":38.66357210962554,"lng":20.783477705259653,"url":"https://maps.app.goo.gl/Exf4TBgcUy5RfeRQA?g_st=ipc","address":"Meganisi 310 83","categoryIds":["fish-tavernas"],"categories":["Fish Tavernas"]},{"id":"fishTavernasRestaurants_8c846286bb7f","slug":"hippocampus-restaurant-8c84","kind":"restaurant","name":"Hippocampus Restaurant","lat":38.68645020644706,"lng":20.712029545342183,"url":"https://maps.app.goo.gl/dycgkVizrbH5BJsH7?g_st=ipc","address":"Γενί 311 00","categoryIds":["fish-tavernas"],"categories":["Fish Tavernas"]},{"id":"fishTavernasRestaurants_1f52f6889767","slug":"ta-kanioria-tavern-1f52","kind":"restaurant","name":"Ta Kanioria Tavern","lat":38.79179727346099,"lng":20.720165771019264,"url":"https://maps.app.goo.gl/EbWqYiGwVkKbLu5h6?g_st=ipc","address":"Λυγιά 311 00","categoryIds":["fish-tavernas"],"categories":["Fish Tavernas"]},{"id":"fishTavernasRestaurants_7810838c2d0c","slug":"psaropoula-7810","kind":"restaurant","name":"Psaropoúla","lat":38.82126467879608,"lng":20.655911390455394,"url":"https://maps.app.goo.gl/64Q772kGwY6K6Mps8?g_st=ipc","address":"Τσουκαλαδες, Tsoukalades Λευκαδα, Lefkada 311 00","categoryIds":["fish-tavernas"],"categories":["Fish Tavernas"]},{"id":"fishTavernasRestaurants_46da75bbca86","slug":"kitro-beach-bar-46da","kind":"restaurant","name":"KITRO beach bar","lat":36.929308748219135,"lng":22.141911839670122,"url":"https://maps.app.goo.gl/UZ9gptAC7Z6jkYbL6?g_st=ipc","address":"Kitries 240 16","categoryIds":["fish-tavernas"],"categories":["Fish Tavernas"]},{"id":"fishTavernasRestaurants_8e7680f38e05","slug":"esperos-ichthys-psarotaverna-8e76","kind":"restaurant","name":"Έσπερος ΙΧΘΥΣ Ψαροταβέρνα","lat":38.13318899935724,"lng":22.423103842089304,"url":"https://maps.app.goo.gl/vF6q9SxKr2jVHXpy7?g_st=ipc","address":"Derveni 200 09","categoryIds":["fish-tavernas"],"categories":["Fish Tavernas"]}],"nearby":[{"id":"greekRestaurants_2f52a7e9d852","slug":"to-perivoli-toy-oyranoy-2f52","kind":"restaurant","name":"Το Περιβόλι του Ουρανού","lat":37.75066406986317,"lng":20.81144889930085,"url":"https://maps.app.goo.gl/Bxqpj1UNd4GdkRJ99?g_st=ipc","address":"Λαγώποδο 290 92","categoryIds":["greek-restaurants"],"categories":["Greek Restaurants"],"distanceKm":10.702670747795114},{"id":"greekRestaurants_0508aab0e4db","slug":"ampelostrates-0508","kind":"restaurant","name":"Αμπελοστράτες","lat":37.74910381219431,"lng":20.775003142233945,"url":"https://maps.app.goo.gl/dcPreoTjacUfw2gE7?g_st=ipc","address":"Κοιλιωμένος 290 92","categoryIds":["greek-restaurants"],"categories":["Greek Restaurants"],"distanceKm":10.982397146962624},{"id":"wineriesVineyards_fdc81e37eccd","slug":"ktima-grampsa-grampsas-winery-restaurant-fdc8","kind":"restaurant","name":"Κτήμα Γράμψα ( Grampsas Winery & Restaurant)","lat":37.75447353990938,"lng":20.823574548385672,"url":"https://maps.app.goo.gl/m1RiUmNLtuMu1JHV9?g_st=ipc","address":"Lagopodo 290 92","categoryIds":["wineries-vineyards"],"categories":["Wineries & Vineyards"],"distanceKm":11.18518503745402},{"id":"greekRestaurants_e73aaa95127b","slug":"paradosiaki-taverna-to-piroynaki-e73a","kind":"restaurant","name":"Παραδοσιακή Ταβέρνα Το Πηρουνάκι","lat":37.775396020007214,"lng":20.812027974617365,"url":"https://maps.app.goo.gl/fGjWbBB2hRjDmHD9A?g_st=ipc","address":"Ζάκυνθος, Λαγκαδάκια 290 92","categoryIds":["greek-restaurants"],"categories":["Greek Restaurants"],"distanceKm":13.45308273208576},{"id":"greekRestaurants_86504f0faf2d","slug":"taverna-kanalos-8650","kind":"restaurant","name":"Ταβέρνα Κανάλος","lat":37.74512607213738,"lng":20.917628670414246,"url":"https://maps.app.goo.gl/ebFS85SgPTyHbVcT9?g_st=ipc","address":"Ζάκυνθος 291 00","categoryIds":["greek-restaurants"],"categories":["Greek Restaurants"],"distanceKm":13.804443750074723},{"id":"greekRestaurants_b11ec83ff251","slug":"windmill-restaurant-vasilikos-b11e","kind":"restaurant","name":"Windmill Restaurant Vasilikos","lat":37.740610146426334,"lng":20.948246366300793,"url":"https://maps.app.goo.gl/V9M7P1MyavrnAWWj7?g_st=ipc","address":"Ζάκυνθος 291 00","categoryIds":["greek-restaurants"],"categories":["Greek Restaurants"],"distanceKm":15.450747120398129},{"id":"coffeeBrunchRestaurants_4e218b55f113","slug":"madisons-kitchen-bar-4e21","kind":"restaurant","name":"Madisons Kitchen Bar","lat":37.78371523709895,"lng":20.898097278049377,"url":"https://maps.app.goo.gl/Anc3Yu4uRzD8XagR9?g_st=ipc","address":"Lomvardou 36, Zakinthos 291 00","categoryIds":["coffee-brunch"],"categories":["Coffee & Brunch Spots"],"distanceKm":16.31157445837309},{"id":"coffeeBrunchRestaurants_ebff8d600624","slug":"jenkins-lounge-eatery-ebff","kind":"restaurant","name":"Jenkins Lounge Eatery","lat":37.786543893628924,"lng":20.898568985854595,"url":"https://maps.app.goo.gl/1TG8uMAi1MTZQgiY8?g_st=ipc","address":"Psaron 3, Zakinthos 291 00","categoryIds":["coffee-brunch"],"categories":["Coffee & Brunch Spots"],"distanceKm":16.60871696649522},{"id":"municipalities_baf5b688aa1e","slug":"zakynthos-baf5","kind":"municipality","name":"Ζάκυνθος","lat":37.787,"lng":20.899,"aliases":["Zakynthos","Zante","Ζακύνθη","Ζακύνθια","Ζακυνθος","Ζακυνθο"],"region":"Ιόνιο","name_en":"Zakynthos","region_en":"Ionian Islands","distanceKm":16.671252197452105},{"id":"luxuryDiningRestaurants_297c60e6e419","slug":"prosilio-restaurant-297c","kind":"restaurant","name":"Prosilio Restaurant","lat":37.788001222025756,"lng":20.899925444650034,"url":"https://maps.app.goo.gl/ubyLMAurXvicrjVq5?g_st=ipc","address":"Ag. Panton 15, Zakinthos 291 00","categoryIds":["luxury-dining"],"categories":["Luxury Dining"],"distanceKm":16.807694392950896},{"id":"luxuryDiningRestaurants_889a9d30e511","slug":"melia-fine-dining-889a","kind":"restaurant","name":"Melia fine dining","lat":37.828072825552965,"lng":20.841384143587636,"url":"https://maps.app.goo.gl/vE8rWsiQpSVYvijD9?g_st=ipc","address":"Τραγάκι 291 00","categoryIds":["luxury-dining"],"categories":["Luxury Dining"],"distanceKm":19.49976005754095},{"id":"greekRestaurants_039c6865507c","slug":"taverna-to-poyrnari-039c","kind":"restaurant","name":"Ταβέρνα Το Πουρνάρι","lat":37.845018124044586,"lng":20.69557997574229,"url":"https://maps.app.goo.gl/KraNs6fJrs6US1EV7?g_st=ipc","address":"Ορθονιές 290 91","categoryIds":["greek-restaurants"],"categories":["Greek Restaurants"],"distanceKm":23.479497717802285},{"id":"mustSeeAttractions_08514e911c7d","slug":"navagio-0851","kind":"restaurant","name":"Navagio","lat":37.85945060305929,"lng":20.624902110473712,"url":"https://maps.app.goo.gl/7zGrDtLoU6SSdcuS9?g_st=ipc","address":"Elatia 290 91","categoryIds":["attractions"],"categories":["Must-See Attractions"],"distanceKm":28.036207037743644},{"id":"mustSeeAttractions_20af350a9d06","slug":"blue-caves-zakynthos-20af","kind":"restaurant","name":"Blue Caves Zakynthos","lat":37.93034342843555,"lng":20.705251154680667,"url":"https://maps.app.goo.gl/aFhekQczUnCUCkXt7?g_st=ipc","address":"Porthmos Zakinthou","categoryIds":["attractions"],"categories":["Must-See Attractions"],"distanceKm":32.04546205626548}],"sameRegion":[],"mentionedGuides":[],"canonicalSlug":"keri-lighthouse-restaurant-1a19","isCanonicalEntity":true,"enrichment":{"summary_en":"Keri Lighthouse Restaurant is a curated restaurant in Keri 290 92 in the Fish Tavernas collection. It is connected to 0 nearby Googlementor picks to help travelers build a stronger local route.","summary_el":"Keri Lighthouse Restaurant είναι ένα επιλεγμένο σημείο φαγητού στην περιοχή Keri 290 92 και ανήκει στη συλλογή Fish Tavernas. Συνδέεται με 0 κοντινές προτάσεις του Googlementor για πιο ολοκληρωμένη εμπειρία.","vibe_tags":["curated","seafood-local"],"best_for":["first-time visitors","food lovers"],"visit_moments":["lunch stop","dinner stop"],"practical_note":"Address and direct map link are available for easy turn-by-turn access.","nearby_walkable_count":0,"nearby_count_2km":0,"confidence":0.9},"areaContext":null,"intentContexts":[]},"__N_SSG":true}