{"pageProps":{"entity":{"id":"italianRestaurants_0856ecb11f91","slug":"la-cucina-di-maria-0856","kind":"restaurant","name":"La Cucina di Maria","lat":39.16258431460264,"lng":23.488686516582533,"url":"https://maps.app.goo.gl/MBu7u1d7kC6PuBVm8?g_st=ipc","address":"Πλατεία Τριών Ιεραρχών, Skiathos 370 02","categoryIds":["italian"],"categories":["Italian Restaurants"]},"sameCategory":[{"id":"italianRestaurants_c53ee4efcd79","slug":"pasta-la-vista-kala-nera-c53e","kind":"restaurant","name":"Pasta La Vista KALA NERA","lat":39.3056996345145,"lng":23.120100052879696,"url":"https://maps.app.goo.gl/tYaU41CZfgnnQu8V7","address":"Kala Nera 370 10","categoryIds":["italian"],"categories":["Italian Restaurants"]},{"id":"italianRestaurants_221ef1307bb3","slug":"lupo-trattoria-221e","kind":"restaurant","name":"Lupo Trattoria","lat":38.46311896550072,"lng":23.590229926533073,"url":"https://maps.app.goo.gl/DESesA1yAU2maSDx7?g_st=ipc","address":"Βουδούρη 6, Χαλκίδα 341 00","categoryIds":["italian"],"categories":["Italian Restaurants"]},{"id":"italianRestaurants_f83f25bf777f","slug":"nonna-rossa-f83f","kind":"restaurant","name":"Nonna Rossa","lat":39.64111484868426,"lng":22.41428751769153,"url":"https://maps.app.goo.gl/ETYecXBUFzQCRmS47?g_st=ipc","address":"Skilosofou 9, Larisa 412 21","categoryIds":["italian"],"categories":["Italian Restaurants"]},{"id":"italianRestaurants_fae68809d6c4","slug":"deluxe-pizza-fae6","kind":"restaurant","name":"Deluxe Pizza","lat":40.09497571247146,"lng":23.785047733849556,"url":"https://maps.app.goo.gl/GPBVkCTKG7m2uSNw7?g_st=ipc","address":"Ιωάννη Καρρά, Neos Marmaras 630 81","categoryIds":["italian"],"categories":["Italian Restaurants"]},{"id":"italianRestaurants_733e26d4376e","slug":"capri-nuovo-733e","kind":"restaurant","name":"Capri Nuovo","lat":40.21248872613691,"lng":23.671364142442222,"url":"https://maps.app.goo.gl/rZCcxBdEfxEpaj619?g_st=ipc","address":"Egialou, Nikiti 630 88","categoryIds":["italian"],"categories":["Italian Restaurants"]},{"id":"coffeeBrunchRestaurants_546a0710ab1d","slug":"alexandros-cafe-restaurant-bar-546a","kind":"restaurant","name":"Alexandros Cafe Restaurant Bar","lat":40.21526877453814,"lng":23.66789134136706,"url":"https://maps.app.goo.gl/3iczx4sTEWWz3ZCY9?g_st=ipc","address":"Egialou 30, Nikiti 630 88","categoryIds":["coffee-brunch","italian"],"categories":["Coffee & Brunch Spots","Italian Restaurants"],"legacySlugs":["alexandros-cafe-restaurant-bar-ffaa"]},{"id":"italianRestaurants_6f0d9cef63fd","slug":"goloso-ristorante-pizzeria-6f0d","kind":"restaurant","name":"GOLOSO ristorante pizzeria","lat":38.139099968736645,"lng":23.85960963696723,"url":"https://maps.app.goo.gl/kpW87YGKNcL27Bhi9","address":"Grigoriou Lampraki 6, Ag. Stefanos 145 65","categoryIds":["italian"],"categories":["Italian Restaurants"]},{"id":"italianRestaurants_493a4203dbb3","slug":"da-michele-493a","kind":"restaurant","name":"Da Michele","lat":38.133061719353606,"lng":23.858730163431314,"url":"https://maps.app.goo.gl/ZAb7BbVjZ5jTGd8i8?g_st=ipc","address":"Λεωφ. Μαραθώνος 61, Άνοιξη 145 69","categoryIds":["italian"],"categories":["Italian Restaurants"]},{"id":"italianRestaurants_7494ebc89891","slug":"amici-miei-cucina-italiana-7494","kind":"restaurant","name":"Amici Miei Cucina Italiana","lat":38.1201358654641,"lng":23.85982839112877,"url":"https://maps.app.goo.gl/TKR7jw9ozmdL38DBA?g_st=ipc","address":"στρατηγού πετρίτη 7, Δροσιά 145 72","categoryIds":["italian"],"categories":["Italian Restaurants"]},{"id":"italianRestaurants_b94ef05a5cdb","slug":"nebbiolo-b94e","kind":"restaurant","name":"Nebbiolo","lat":38.114438017917074,"lng":23.849732672241302,"url":"https://maps.app.goo.gl/wzivni6cAptzeBTTA","address":"Leof. Thiseos 111, Ekali 145 78","categoryIds":["italian"],"categories":["Italian Restaurants"]},{"id":"italianRestaurants_27d92444b722","slug":"goloso-acharnes-27d9","kind":"restaurant","name":"GOLOSO - ΑΧΑΡΝΕΣ","lat":38.09475606530576,"lng":23.739483205778253,"url":"https://maps.app.goo.gl/fx2nPPeJ6gGMBbSBA","address":"Agiou Eleftheriou 18, Acharnes 136 74","categoryIds":["italian"],"categories":["Italian Restaurants"]},{"id":"italianRestaurants_764eadc47084","slug":"pizza-days-ano-liosion-764e","kind":"restaurant","name":"Pizza Days - Άνω Λιοσίων","lat":38.08738762293733,"lng":23.705019354443774,"url":"https://maps.app.goo.gl/j8oAF5aTcAufPq229?g_st=ipc","address":"Πηνειού 38, Άνω Λιόσια 133 41","categoryIds":["italian"],"categories":["Italian Restaurants"]}],"nearby":[{"id":"vegetarianRestaurants_4b016e396a37","slug":"basilikos-4b01","kind":"restaurant","name":"Basilikos","lat":39.16312454298035,"lng":23.487902942019232,"url":"https://maps.app.goo.gl/ds7UYPCteddf9Z6T7?g_st=ipc","address":"5F7Q+65W, Skiathos 370 02","categoryIds":["vegetarian"],"categories":["Vegetarian Friendly Restaurants"],"distanceKm":0.0904009247433044},{"id":"greekRestaurants_bba8f99baf04","slug":"vasilikos-bba8","kind":"restaurant","name":"Βασιλικός","lat":39.163149427181544,"lng":23.4879040653568,"url":"https://maps.app.goo.gl/72rYJCHEmhpQn6o56?g_st=ipc","address":"5F7Q+65W, Σκιάθος 370 02","categoryIds":["greek-restaurants"],"categories":["Greek Restaurants"],"distanceKm":0.09219184540607894},{"id":"greekRestaurants_638088e18f08","slug":"ricchi-e-poveri-6380","kind":"restaurant","name":"Ricchi E Poveri","lat":39.16154097266096,"lng":23.48811897164505,"url":"https://maps.app.goo.gl/mPaTUD9FQz1XBrkn7?g_st=ipc","address":"Σκιάθος 370 02","categoryIds":["greek-restaurants"],"categories":["Greek Restaurants"],"distanceKm":0.1259112184483308},{"id":"luxuryDiningRestaurants_fb0ed7fd7dd6","slug":"the-borzoi-fb0e","kind":"restaurant","name":"The Borzoi","lat":39.16344583170151,"lng":23.487355001180887,"url":"https://maps.app.goo.gl/bVHwisskrmA58dT18?g_st=ipc","address":"Papadiamanti, Skiathos 370 02","categoryIds":["luxury-dining"],"categories":["Luxury Dining"],"distanceKm":0.14951679066048376},{"id":"greekRestaurants_50b52c2fce61","slug":"giardino-segreto-50b5","kind":"restaurant","name":"Giardino Segreto","lat":39.16422013445391,"lng":23.48827332832573,"url":"https://maps.app.goo.gl/oYFqCwTb84JgPcHYA?g_st=ipc","address":"Ευαγγελιστρίας 14, Σκιάθος 370 02","categoryIds":["greek-restaurants"],"categories":["Greek Restaurants"],"distanceKm":0.18535030691103105},{"id":"municipalities_97b9bf0a5122","slug":"skiathos-97b9","kind":"municipality","name":"Σκιάθος","lat":39.162,"lng":23.491,"region":"Θεσσαλία","name_en":"Skiathos","region_en":"Thessaly","distanceKm":0.20977510146740044},{"id":"greekRestaurants_c392fb301228","slug":"marmita-c392","kind":"restaurant","name":"Marmita","lat":39.16450960419779,"lng":23.488358363186613,"url":"https://maps.app.goo.gl/jYUxHbE5ospf2bg48?g_st=ipc","address":"Ευαγγελιστρίας 30, Σκιάθος 370 02","categoryIds":["greek-restaurants"],"categories":["Greek Restaurants"],"distanceKm":0.21594375274286265},{"id":"greekRestaurants_eb03c4eec71f","slug":"bourtzi-skiathos-eb03","kind":"restaurant","name":"Bourtzi Skiathos","lat":39.160842059339465,"lng":23.49110714443105,"url":"https://maps.app.goo.gl/GAukhmcUEzWCaV92A?g_st=ipc","address":"Port of, Σκιάθος 370 02","categoryIds":["greek-restaurants"],"categories":["Greek Restaurants"],"distanceKm":0.2847569397539929},{"id":"coffeeBrunchRestaurants_a6de03ead415","slug":"bourtzi-skiathos-a6de","kind":"restaurant","name":"Bourtzi Skiathos","lat":39.16082655884958,"lng":23.49110174510934,"url":"https://maps.app.goo.gl/biyFuX6UBoZ8TcJc9?g_st=ipc","address":"Port of, Skiathos 370 02","categoryIds":["coffee-brunch"],"categories":["Coffee & Brunch Spots"],"distanceKm":0.2855927596455871},{"id":"greekRestaurants_60ce3bb5b5ca","slug":"asprolithos-60ce","kind":"restaurant","name":"Ασπρολιθος","lat":39.16504324740699,"lng":23.486717425412987,"url":"https://maps.app.goo.gl/k2pRsteYSiF9tWJy9?g_st=ipc","address":"Σκιάθος 370 02","categoryIds":["greek-restaurants"],"categories":["Greek Restaurants"],"distanceKm":0.3218364370338984},{"id":"greekRestaurants_e46cac5a2bec","slug":"taverna-to-kalo-pigadi-e46c","kind":"restaurant","name":"Taverna To Kalo Pigadi","lat":39.16487848589254,"lng":23.486317545591145,"url":"https://maps.app.goo.gl/Q3s16ZJgMJx6HdbA8?g_st=ipc","address":"Καραϊσκάκη, Σκιάθος 370 02","categoryIds":["greek-restaurants"],"categories":["Greek Restaurants"],"distanceKm":0.32678711737211186},{"id":"luxuryDiningRestaurants_bee2cc095415","slug":"the-windmill-restaurant-skiathos-bee2","kind":"restaurant","name":"The Windmill Restaurant Skiathos","lat":39.16543805944577,"lng":23.490849932444878,"url":"https://maps.app.goo.gl/4ZzNn5XN7C4AnWHF9?g_st=ipc","address":"Pension Margarita, Kontroni Opposite, Skiathos 370 02","categoryIds":["luxury-dining"],"categories":["Luxury Dining"],"distanceKm":0.3680784281994366},{"id":"dessertsRestaurants_80d05b4a9112","slug":"dafni-s-sweets-80d0","kind":"restaurant","name":"Dafni's Sweets","lat":39.16451312827066,"lng":23.484321078437517,"url":"https://maps.app.goo.gl/qZaYAac8rhBH69sC8?g_st=ipc","address":"Τέρμα Παπαδιαμάντη, Skiathos 370 02","categoryIds":["desserts"],"categories":["Dessert Shops"],"distanceKm":0.4331852097519727},{"id":"fishTavernasRestaurants_71c8fedcef80","slug":"carnayo-restaurant-skiathos-71c8","kind":"restaurant","name":"Carnayo Restaurant Skiathos","lat":39.165824279351774,"lng":23.493041550704223,"url":"https://maps.app.goo.gl/DardoapX9Zoh1VF77?g_st=ipc","address":"Paraliakos, Skiathos 370 02","categoryIds":["fish-tavernas"],"categories":["Fish Tavernas"],"distanceKm":0.5203517775481357},{"id":"greekRestaurants_2de2c6623e00","slug":"crazy-cow-restaurant-2de2","kind":"restaurant","name":"Crazy Cow Restaurant","lat":39.167432153990596,"lng":23.488032347781342,"url":"https://maps.app.goo.gl/L62CBz8TJif4qS2W9?g_st=ipc","address":"Evaggelistrias Str, Σκιάθος 370 02","categoryIds":["greek-restaurants"],"categories":["Greek Restaurants"],"distanceKm":0.5419973733917653},{"id":"greekRestaurants_8909c10306f0","slug":"agnantio-8909","kind":"restaurant","name":"Αγνάντιo","lat":39.17417093692817,"lng":23.493218253227656,"url":"https://maps.app.goo.gl/QiCu3GHeGYnmjtw57?g_st=ipc","address":"Βιγλες, Σκιάθος 370 02","categoryIds":["greek-restaurants"],"categories":["Greek Restaurants"],"distanceKm":1.3463036542642077},{"id":"wineriesVineyards_1ba3565ec57e","slug":"parissis-winery-1ba3","kind":"restaurant","name":"Parissis Winery","lat":39.18153615640374,"lng":23.469914268213092,"url":"https://maps.app.goo.gl/xFt7L59eLpWAg6GJ8?g_st=ipc","address":"Unnamed Road, Σκιάθος 370 02","categoryIds":["wineries-vineyards"],"categories":["Wineries & Vineyards"],"distanceKm":2.6569979006332654},{"id":"greekRestaurants_40646fb63153","slug":"crazy-rooster-4064","kind":"restaurant","name":"Crazy Rooster","lat":39.14456218374441,"lng":23.44548982931251,"url":"https://maps.app.goo.gl/oMMC2zscQn9skACV6?g_st=ipc","address":"Κολιός 370 02","categoryIds":["greek-restaurants"],"categories":["Greek Restaurants"],"distanceKm":4.229583670760003},{"id":"fishTavernasRestaurants_77d3e9a1bb44","slug":"infinity-blue-restaurant-77d3","kind":"restaurant","name":"Infinity Blue Restaurant","lat":39.142389727462664,"lng":23.44573084758166,"url":"https://maps.app.goo.gl/GYPTidFzoXiRNDdCA?g_st=ipc","address":"Kolios, 370 02","categoryIds":["fish-tavernas"],"categories":["Fish Tavernas"],"distanceKm":4.331507142921226},{"id":"fishTavernasRestaurants_efccd15b6223","slug":"kehria-tarsanas-taverna-efcc","kind":"restaurant","name":"Kehria Tarsanas Taverna","lat":39.18412173483994,"lng":23.445119695165598,"url":"https://maps.app.goo.gl/tUiEEByDucNo1PfbA?g_st=ipc","address":"Unnamed Road, Skiathos 370 02","categoryIds":["fish-tavernas"],"categories":["Fish Tavernas"],"distanceKm":4.4541706196102},{"id":"greekRestaurants_f034f0fe0cac","slug":"salt-and-pepper-skiathos-f034","kind":"restaurant","name":"Salt and Pepper Skiathos","lat":39.14185621850757,"lng":23.426181107584785,"url":"https://maps.app.goo.gl/VjcQnWCRSBW1Vy5HA?g_st=ipc","address":"Τρούλος 370 02","categoryIds":["greek-restaurants"],"categories":["Greek Restaurants"],"distanceKm":5.861888288204455},{"id":"greekRestaurants_e3849f333d19","slug":"estiatorio-kryfi-ammos-e384","kind":"restaurant","name":"Εστιατόριο Κρυφή Άμμος","lat":39.15831978512696,"lng":23.390064394645744,"url":"https://maps.app.goo.gl/AsLp5CVRi7LKmbyu5?g_st=ipc","address":"Σκιάθος 370 02","categoryIds":["greek-restaurants"],"categories":["Greek Restaurants"],"distanceKm":8.516251638711308},{"id":"fishTavernasRestaurants_c628ee14dc22","slug":"taverna-areti-stamoulis-c628","kind":"restaurant","name":"Taverna Areti - Stamoulis","lat":39.172445737181256,"lng":23.342568733517215,"url":"https://maps.app.goo.gl/tHMerUFf4UU2S8jr8?g_st=ipc","address":"Αγ. Γεώργιος 370 06","categoryIds":["fish-tavernas"],"categories":["Fish Tavernas"],"distanceKm":12.644409300275383},{"id":"municipalities_5a21ee6d3ece","slug":"skopelos-5a21","kind":"municipality","name":"Σκόπελος","lat":39.121,"lng":23.725,"region":"Θεσσαλία","name_en":"Skopelos","region_en":"Thessaly","distanceKm":20.897940815209502}],"sameRegion":[],"mentionedGuides":[],"canonicalSlug":"la-cucina-di-maria-0856","isCanonicalEntity":true,"enrichment":{"summary_en":"La Cucina di Maria is a curated restaurant in Skiathos 370 02 in the Italian Restaurants collection. It is connected to 15 nearby Googlementor picks to help travelers build a stronger local route.","summary_el":"La Cucina di Maria είναι ένα επιλεγμένο σημείο φαγητού στην περιοχή Skiathos 370 02 και ανήκει στη συλλογή Italian Restaurants. Συνδέεται με 15 κοντινές προτάσεις του Googlementor για πιο ολοκληρωμένη εμπειρία.","vibe_tags":["curated"],"best_for":["first-time visitors","food lovers"],"visit_moments":["lunch stop","dinner stop"],"practical_note":"Address and direct map link are available for easy turn-by-turn access.","nearby_walkable_count":15,"nearby_count_2km":16,"confidence":0.98},"areaContext":{"slug":"skiathos","name":"Skiathos"},"intentContexts":[]},"__N_SSG":true}