{"pageProps":{"entity":{"id":"vegetarianRestaurants_3ea2a766339f","slug":"mimi-s-cafe-vegan-3ea2","kind":"restaurant","name":"Mimi's Cafe Vegan","lat":37.98928428831877,"lng":23.74327396218684,"url":"https://maps.app.goo.gl/iJpPrYiwEWZ6Zhk59?g_st=ipc","address":"Πλ. Αργεντινής Δημοκρατίας 4, Αθήνα 114 72","categoryIds":["vegetarian"],"categories":["Vegetarian Friendly Restaurants"]},"sameCategory":[{"id":"vegetarianRestaurants_20df7d290d02","slug":"vicky-s-saj-20df","kind":"restaurant","name":"Vicky’s saj","lat":37.984555575680844,"lng":23.737197350556286,"url":"https://maps.app.goo.gl/GQheLZNx169PbGDK9?g_st=ipc","address":"Αραχώβης 29, Αθήνα 106 80","categoryIds":["vegetarian"],"categories":["Vegetarian Friendly Restaurants"]},{"id":"vegetarianRestaurants_7f7c33a1a56c","slug":"rozalia-7f7c","kind":"restaurant","name":"Ροζαλία","lat":37.98607917346581,"lng":23.735180101843408,"url":"https://maps.app.goo.gl/UngDLMKcNPzNvksZ6?g_st=ipc","address":"Βαλτετσίου 59, Αθήνα 106 81","categoryIds":["vegetarian"],"categories":["Vegetarian Friendly Restaurants"]},{"id":"vegetarianRestaurants_cf7f490bbd2d","slug":"bamboo-vegan-cf7f","kind":"restaurant","name":"Bamboo Vegan","lat":37.984730799052805,"lng":23.735878610157684,"url":"https://maps.app.goo.gl/BtDhoy7Tfhqa4zzX7?g_st=ipc","address":"Ζωοδόχου Πηγής 36, Αθήνα 106 81","categoryIds":["vegetarian"],"categories":["Vegetarian Friendly Restaurants"]},{"id":"vegetarianRestaurants_4f70d2b2123b","slug":"filomila-vegeterian-food-4f70","kind":"restaurant","name":"Filomila Vegeterian Food","lat":37.9853717765479,"lng":23.73508897094766,"url":"https://maps.app.goo.gl/JYkwhsRENEnEtjgHA?g_st=ipc","address":"Ανδρέα Μεταξά 13, Αθήνα 106 81","categoryIds":["vegetarian"],"categories":["Vegetarian Friendly Restaurants"]},{"id":"vegetarianRestaurants_35af3a72d872","slug":"leik-kafe-35af","kind":"restaurant","name":"λέικ καφέ","lat":37.99570532128052,"lng":23.737094528681606,"url":"https://maps.app.goo.gl/c3DSV5tXT2pKELDL8?g_st=ipc","address":"Αιγίνης 1, Αθήνα 113 62","categoryIds":["vegetarian"],"categories":["Vegetarian Friendly Restaurants"]},{"id":"vegetarianRestaurants_77e942c763e9","slug":"magic-kitchen-chortofagia-themistokleoys-kentro-77e9","kind":"restaurant","name":"Magic Kitchen Χορτοφαγία Θεμιστοκλέους Κέντρο","lat":37.98582880467768,"lng":23.733583710090212,"url":"https://maps.app.goo.gl/ZQqCgQBx8g5Gjgrh7?g_st=ipc","address":"Θεμιστοκλέους 45, Αθήνα 106 82","categoryIds":["vegetarian"],"categories":["Vegetarian Friendly Restaurants"]},{"id":"vegetarianRestaurants_ad1aabfd0107","slug":"cookoomela-grill-vegan-ad1a","kind":"restaurant","name":"Cookoomela Grill Vegan","lat":37.985828644021424,"lng":23.73352687550602,"url":"https://maps.app.goo.gl/QbLppt3u9uZg36Xi6?g_st=ipc","address":"Θεμιστοκλέους 43, Αθήνα 106 83","categoryIds":["vegetarian"],"categories":["Vegetarian Friendly Restaurants"]},{"id":"vegetarianRestaurants_49bc3b76300b","slug":"falafelo-street-food-49bc","kind":"restaurant","name":"Falafelo Street Food","lat":37.98589482225123,"lng":23.733448804787468,"url":"https://maps.app.goo.gl/R4ear5h1EDzpwe8Y8?g_st=ipc","address":"Σουλτάνη 2-4, Αθήνα 106 83","categoryIds":["vegetarian"],"categories":["Vegetarian Friendly Restaurants"]},{"id":"vegetarianRestaurants_4aaf4cac48a9","slug":"pure-juice-bar-kolonaki-4aaf","kind":"restaurant","name":"PURE Juice Bar | Kolonaki","lat":37.981469364192144,"lng":23.7374505875668,"url":"https://maps.app.goo.gl/5fer5pjj8yDkf3VZ7?g_st=ipc","address":"Σίνα 21, Αθήνα 106 80","categoryIds":["vegetarian"],"categories":["Vegetarian Friendly Restaurants"]},{"id":"vegetarianRestaurants_ea997a3c2b69","slug":"handwich-athens-ea99","kind":"restaurant","name":"Handwich Athens","lat":37.98638339493441,"lng":23.731698144915832,"url":"https://maps.app.goo.gl/WwKS8hQTt3PyFTcN9?g_st=ipc","address":"Τζώρτζ 3, Αθήνα 106 82","categoryIds":["vegetarian"],"categories":["Vegetarian Friendly Restaurants"]},{"id":"vegetarianRestaurants_1d02bb631594","slug":"nice-n-easy-1d02","kind":"restaurant","name":"nice n easy","lat":37.98055624645478,"lng":23.738055581611157,"url":"https://maps.app.goo.gl/5WJ6mEF77rV1Cpfv8?g_st=ipc","address":"Ομήρου 60, Αθήνα 106 72","categoryIds":["vegetarian"],"categories":["Vegetarian Friendly Restaurants"]},{"id":"vegetarianRestaurants_90f93033da7a","slug":"up-kyttariki-threpsi-90f9","kind":"restaurant","name":"UP - Κυτταρική Θρέψη","lat":37.984784636631375,"lng":23.731547822244607,"url":"https://maps.app.goo.gl/GaPAS9YHhNwunuDSA?g_st=ipc","address":"Ακαδημίας 91 &, Themistokleous, Athina 106 77","categoryIds":["vegetarian"],"categories":["Vegetarian Friendly Restaurants"]}],"nearby":[{"id":"dessertsRestaurants_98b6e615d276","slug":"chunky-cookie-bar-98b6","kind":"restaurant","name":"Chunky Cookie Bar","lat":37.990432042632165,"lng":23.743378760155576,"url":"https://maps.app.goo.gl/RyoKAVU7gY9FtBng6?g_st=ipc","address":"Πέτρου Καλλιγά 6, Αθήνα 114 74","categoryIds":["desserts"],"categories":["Dessert Shops"],"distanceKm":0.1279544726987246},{"id":"greekRestaurants_e2f8a1a4ded7","slug":"katsarola-e2f8","kind":"restaurant","name":"Κατσαρόλα","lat":37.98993156504118,"lng":23.741864128657266,"url":"https://maps.app.goo.gl/R5o9th6YAJUun6xp6","address":"Λεωφ. Αλεξάνδρας 74, Αθήνα 114 73","categoryIds":["greek-restaurants"],"categories":["Greek Restaurants"],"distanceKm":0.14298638192351357},{"id":"coffeeBrunchRestaurants_a3230d252f22","slug":"bayard-cafe-bar-a323","kind":"restaurant","name":"Bayard Cafe Bar","lat":37.98818653598511,"lng":23.742397891424794,"url":"https://maps.app.goo.gl/uimsu3ktFK4Xu2bBA?g_st=ipc","address":"Ζωοδόχου Πηγής 134, Αθήνα 114 72","categoryIds":["coffee-brunch"],"categories":["Coffee & Brunch Spots"],"distanceKm":0.14420203380647323},{"id":"cheapEatsRestaurants_9b9687edb09a","slug":"cantina-alexandras-9b96","kind":"restaurant","name":"Cantina Alexandras","lat":37.990601219280784,"lng":23.740100216268857,"url":"https://maps.app.goo.gl/sC6f9QqoMvhYZn9L6?g_st=ipc","address":"Λεωφ. Αλεξάνδρας 31, Αθήνα 114 73","categoryIds":["cheap-eats"],"categories":["Gyros & Cheap Eats"],"distanceKm":0.31432493074221945},{"id":"coffeeBrunchRestaurants_a95b26c47b64","slug":"hygge-athens-a95b","kind":"restaurant","name":"Hygge Athens","lat":37.988231189980574,"lng":23.746766075427747,"url":"https://maps.app.goo.gl/gFbRCwSSyvTd57Ti8?g_st=ipc","address":"Ιπποκράτους 192, Αθήνα 114 71","categoryIds":["coffee-brunch"],"categories":["Coffee & Brunch Spots"],"distanceKm":0.3276736649657681},{"id":"dessertsRestaurants_d3301ebc9d06","slug":"portatif-ippokratous-d330","kind":"restaurant","name":"Portatif - ippokratous","lat":37.98880796872772,"lng":23.747928642094816,"url":"https://maps.app.goo.gl/Hjds2t3JrKoqCot39?g_st=ipc","address":"Ιπποκράτους 206, Αθήνα 114 72","categoryIds":["desserts"],"categories":["Dessert Shops"],"distanceKm":0.411341087169502},{"id":"municipalities_75ddb64a42fd","slug":"gyzi-75dd","kind":"municipality","name":"Γύζη","lat":37.9933,"lng":23.7439,"aliases":["Γυζη","Gizi"],"region":"Κέντρο Αθήνας","name_en":"Gyzi","region_en":"Athens Center","distanceKm":0.44988438344122067},{"id":"dessertsRestaurants_50c92ff86d1d","slug":"portatif-factory-50c9","kind":"restaurant","name":"Πορτατίφ - Factory","lat":37.98547841789868,"lng":23.739345621810312,"url":"https://maps.app.goo.gl/Q5VYitKyncAmC1Wn8?g_st=ipc","address":"Μαυρομιχάλη 81, Αθήνα 114 72","categoryIds":["desserts"],"categories":["Dessert Shops"],"distanceKm":0.5455414891252791},{"id":"greekRestaurants_0cec67514103","slug":"ama-lachei-0cec","kind":"restaurant","name":"Άμα Λάχει","lat":37.9881200037971,"lng":23.737007621122938,"url":"https://maps.app.goo.gl/94C3hp4xbRp1fKYt7","address":"Καλλιδρομίου 69, Αθήνα 106 83","categoryIds":["greek-restaurants"],"categories":["Greek Restaurants"],"distanceKm":0.5642127801474479},{"id":"coffeeBrunchRestaurants_6ecc469a1225","slug":"the-black-salami-microbakery-6ecc","kind":"restaurant","name":"The Black Salami Microbakery","lat":37.98610295066266,"lng":23.73813379013077,"url":"https://maps.app.goo.gl/HJ9cCZfV3LeKP7U3A?g_st=ipc","address":"Ζωοδόχου Πηγής 71, Αθήνα 106 81","categoryIds":["coffee-brunch"],"categories":["Coffee & Brunch Spots"],"distanceKm":0.5727677930914291},{"id":"greekRestaurants_3eb28aec894c","slug":"ayli-geysi-poleion-3eb2","kind":"restaurant","name":"Αυλη Γευση-πωλείον","lat":37.98655857103421,"lng":23.737630934967044,"url":"https://maps.app.goo.gl/BGHehjaYVZctQ5Mv6","address":"Μεθώνης 43, Αθήνα 106 81","categoryIds":["greek-restaurants"],"categories":["Greek Restaurants"],"distanceKm":0.5800260031608658},{"id":"dessertsRestaurants_be636dabd487","slug":"afoi-asimakopoyloi-be63","kind":"restaurant","name":"Αφοι Ασημακόπουλοι","lat":37.98543510745225,"lng":23.738217370820664,"url":"https://maps.app.goo.gl/zhMqHSFRswEjySMi9?g_st=ipc","address":"Χαρ. Τρικούπη 82, Αθήνα 106 80","categoryIds":["desserts"],"categories":["Dessert Shops"],"distanceKm":0.6160950464288752},{"id":"cheapEatsRestaurants_c56025371d6e","slug":"hayat-c560","kind":"restaurant","name":"Hayat","lat":37.98451943968109,"lng":23.73920441819002,"url":"https://maps.app.goo.gl/mqY78SsShBqeen4Q9?g_st=ipc","address":"Ιπποκράτους 78, Αθήνα 106 80","categoryIds":["cheap-eats"],"categories":["Gyros & Cheap Eats"],"distanceKm":0.6386820837006073},{"id":"greekRestaurants_6dfb86c3c849","slug":"lontza-tis-geitonias-6dfb","kind":"restaurant","name":"Λόντζα της Γειτονιάς","lat":37.98528728518512,"lng":23.737900936097155,"url":"https://maps.app.goo.gl/KuXHrJwbKRvdajxz5","address":"Χαρ. Τρικούπη 76, Αθήνα 106 80","categoryIds":["greek-restaurants"],"categories":["Greek Restaurants"],"distanceKm":0.6475042551873514},{"id":"familyFriendly_8133c93f98d4","slug":"pedion-areos-8133","kind":"restaurant","name":"Πεδίον Άρεως","lat":37.99296743190719,"lng":23.73662502583579,"url":"https://maps.app.goo.gl/qo4PWWenK9kDd9qC7?g_st=ipc","address":"Λεωφ. Αλεξάνδρας, Αθήνα 114 74","categoryIds":["family-friendly"],"categories":["Kid Friendly Locations"],"distanceKm":0.7122020026203202},{"id":"mexicanRestaurants_5d5b665dab34","slug":"poncho-tacos-5d5b","kind":"restaurant","name":"Poncho TACOS","lat":37.986865601219684,"lng":23.73564152842256,"url":"https://maps.app.goo.gl/UDV48UEWHbvnBPVPA?g_st=ipc","address":"Θεμιστοκλέους 63, Αθήνα 106 83","categoryIds":["mexican"],"categories":["Mexican Restaurants"],"distanceKm":0.7209282408392902},{"id":"mustSeeAttractions_0e9341b94f04","slug":"lykavittos-0e93","kind":"restaurant","name":"Λυκαβηττός","lat":37.98323503241099,"lng":23.746500382209337,"url":"https://maps.app.goo.gl/muvvb7CTCn3yFhWj6?g_st=ipc","address":"Σαρανταπήχου, Μονοπατι Λυκαβηττου &, Αθήνα 114 71","categoryIds":["attractions"],"categories":["Must-See Attractions"],"distanceKm":0.7296623440919628},{"id":"greekRestaurants_82fedd8f5eb8","slug":"aylak-politiki-kouzina-82fe","kind":"restaurant","name":"Aylak Politiki Kouzina","lat":37.986296240543886,"lng":23.73577500465613,"url":"https://maps.app.goo.gl/8H5UM5CTNGhY6tCz8","address":"Εμμανουήλ Μπενάκη 73, Αθήνα 106 81","categoryIds":["greek-restaurants"],"categories":["Greek Restaurants"],"distanceKm":0.7364043036120179},{"id":"vegetarianRestaurants_20df7d290d02","slug":"vicky-s-saj-20df","kind":"restaurant","name":"Vicky’s saj","lat":37.984555575680844,"lng":23.737197350556286,"url":"https://maps.app.goo.gl/GQheLZNx169PbGDK9?g_st=ipc","address":"Αραχώβης 29, Αθήνα 106 80","categoryIds":["vegetarian"],"categories":["Vegetarian Friendly Restaurants"],"distanceKm":0.74838410829718},{"id":"greekRestaurants_399d4f103d60","slug":"pakoymel-399d","kind":"restaurant","name":"Pακουμελ","lat":37.98611213872367,"lng":23.7356153825947,"url":"https://maps.app.goo.gl/ES9bhy4RguonMm8G8","address":"Εμμανουήλ Μπενάκη 71, Αθήνα 106 81","categoryIds":["greek-restaurants"],"categories":["Greek Restaurants"],"distanceKm":0.7582197419954607},{"id":"greekRestaurants_be06a546e935","slug":"giantes-be06","kind":"restaurant","name":"Γιάντες","lat":37.98561482975353,"lng":23.735926375159003,"url":"https://maps.app.goo.gl/LuGL5j7KgtCFWxmA8","address":"Βαλτετσίου 44, Αθήνα 106 81","categoryIds":["greek-restaurants","luxury-dining"],"categories":["Greek Restaurants","Luxury Dining"],"legacySlugs":["giantes-2f3a"],"distanceKm":0.7623159598731699},{"id":"monasteriesChurches_caa9124a394d","slug":"ieros-naos-agion-isidoron-lykavittoy-caa9","kind":"restaurant","name":"Ιερός Ναός Αγίων Ισιδώρων Λυκαβηττού","lat":37.982296617522,"lng":23.742795127887568,"url":"https://maps.app.goo.gl/vi4b8bvA5jdYKcqf9?g_st=ipc","address":"Μονοπατι Λυκαβηττου, Αθήνα 114 71","categoryIds":["monasteries-churches","attractions"],"categories":["Monasteries & Spiritual Sites","Must-See Attractions"],"legacySlugs":["ieros-naos-agion-isidoron-lykavittoy-361f"],"distanceKm":0.7781259660730672},{"id":"coffeeBrunchRestaurants_24a3c9b03a04","slug":"behold-theman-24a3","kind":"restaurant","name":"behold theman","lat":37.986871883204095,"lng":23.73489020906335,"url":"https://maps.app.goo.gl/avUBs2LwMous6Xs97?g_st=ipc","address":"Ιδεοχώρος, Στουρνάρη 6, Αθήνα 106 83","categoryIds":["coffee-brunch"],"categories":["Coffee & Brunch Spots"],"distanceKm":0.7821641706220871},{"id":"italianRestaurants_26c15b5688a4","slug":"valtezziana-2-0-26c1","kind":"restaurant","name":"Valtezziana 2.0","lat":37.985220488107345,"lng":23.735852167301612,"url":"https://maps.app.goo.gl/qNCJTFj4cbH4ymKR8?g_st=ipc","address":"Βαλτετσίου 41, Αθήνα 106 81","categoryIds":["italian"],"categories":["Italian Restaurants"],"distanceKm":0.7919918970969109}],"sameRegion":[],"mentionedGuides":[],"canonicalSlug":"mimi-s-cafe-vegan-3ea2","isCanonicalEntity":true,"enrichment":{"summary_en":"Mimi's Cafe Vegan is a curated restaurant in Αθήνα 114 72 in the Vegetarian Friendly Restaurants collection. It is connected to 25 nearby Googlementor picks to help travelers build a stronger local route.","summary_el":"Mimi's Cafe Vegan είναι ένα επιλεγμένο σημείο φαγητού στην περιοχή Αθήνα 114 72 και ανήκει στη συλλογή Vegetarian Friendly Restaurants. Συνδέεται με 25 κοντινές προτάσεις του Googlementor για πιο ολοκληρωμένη εμπειρία.","vibe_tags":["curated"],"best_for":["first-time visitors","food lovers"],"visit_moments":["lunch stop","dinner stop"],"practical_note":"Address and direct map link are available for easy turn-by-turn access.","nearby_walkable_count":25,"nearby_count_2km":403,"confidence":0.98},"areaContext":{"slug":"gyzi","name":"Gyzi"},"intentContexts":[{"href":"/vegetarian/gyzi","label":"Vegetarian Friendly Restaurants in Gyzi","categorySlug":"vegetarian","categoryName":"Vegetarian Friendly Restaurants","areaSlug":"gyzi","areaName":"Gyzi"}]},"__N_SSG":true}