{"pageProps":{"entity":{"id":"luxuryDiningRestaurants_ef48010de0b4","slug":"mitsis-n-u-piraeus-port-ef48","kind":"restaurant","name":"Mitsis N'U Piraeus Port","lat":37.946256281878604,"lng":23.642735306655823,"url":"https://maps.app.goo.gl/3DKm52Lh2ApKNN1X8?g_st=ipc","address":"Αριστείδου 16-20, Πειραιάς 185 31","categoryIds":["luxury-dining"],"categories":["Luxury Dining"]},"sameCategory":[{"id":"luxuryDiningRestaurants_e93ed529fdfa","slug":"hams-clams-e93e","kind":"restaurant","name":"Hams & Clams","lat":37.93313157813386,"lng":23.64744436080488,"url":"https://maps.app.goo.gl/KsnmFZ1WnGooiyEV7?g_st=ipc","address":"Λιμάνι, Μαρίνα Ζέας, Πειραιάς 185 37","categoryIds":["luxury-dining"],"categories":["Luxury Dining"]},{"id":"fishTavernasRestaurants_159bf25520a5","slug":"varoulko-seaside-restaurant-159b","kind":"restaurant","name":"Varoulko Seaside Restaurant","lat":37.93728962950612,"lng":23.658502308499486,"url":"https://maps.app.goo.gl/hXejEzhnCFuwNgQb8?g_st=ipc","address":"Ακτή Κουμουνδούρου 54, Πειραιάς 185 33","categoryIds":["fish-tavernas","luxury-dining"],"categories":["Fish Tavernas","Luxury Dining"],"legacySlugs":["varoulko-seaside-restaurant-e7d4"]},{"id":"luxuryDiningRestaurants_223cae9767cf","slug":"nest-rooftop-monte-kastella-223c","kind":"restaurant","name":"ΝΕΣΤ Rooftop - Monte Kastella","lat":37.93966255701075,"lng":23.661584217897186,"url":"https://maps.app.goo.gl/KrWjCjHhBZcKtAsU9?g_st=ipc","address":"Λεωφ. Αλ. Παπαναστασίου 109, Πειραιάς 185 33","categoryIds":["luxury-dining","rooftop-lounges"],"categories":["Luxury Dining","Rooftop Lounges"],"legacySlugs":["nest-rooftop-monte-kastella-d731"]},{"id":"luxuryDiningRestaurants_84da05872d04","slug":"delta-restaurant-84da","kind":"restaurant","name":"Delta Restaurant","lat":37.939081506016144,"lng":23.69146940163584,"url":"https://maps.app.goo.gl/GSgBvngfewJdVtkA7?g_st=ipc","address":"Λεωφ. Ανδρέα Συγγρού 364, Αθήνα 176 74","categoryIds":["luxury-dining"],"categories":["Luxury Dining"]},{"id":"luxuryDiningRestaurants_8af90b11228b","slug":"e-o-pan-asian-restaurant-athens-8af9","kind":"restaurant","name":"e&o Pan-Asian Restaurant Athens","lat":37.94077150497406,"lng":23.696879786243304,"url":"https://maps.app.goo.gl/nAwF6RqCeQF6rY2P9?g_st=ipc","address":"Λεωφ. Ανδρέα Συγγρού 385, Παλαιό Φάληρο 175 64","categoryIds":["luxury-dining"],"categories":["Luxury Dining"]},{"id":"luxuryDiningRestaurants_b29116d56a30","slug":"herve-restaurant-b291","kind":"restaurant","name":"Herve Restaurant","lat":37.96670241575443,"lng":23.709370285349806,"url":"https://maps.app.goo.gl/o5KA9u8fZnaZ9XMY6?g_st=ipc","address":"Τριών Ιεραρχών 170, Αθήνα 118 52","categoryIds":["luxury-dining"],"categories":["Luxury Dining"]},{"id":"asianRestaurants_6ef4181fa78e","slug":"kenko-japanese-restaurant-6ef4","kind":"restaurant","name":"Kenko Japanese Restaurant","lat":37.94729381865282,"lng":23.715042181127906,"url":"https://maps.app.goo.gl/XHTSnCRdEDq5dRxc7?g_st=ipc","address":"Λεωφ. Ελ. Βενιζέλου 22, Νέα Σμύρνη 171 21","categoryIds":["asian","luxury-dining"],"categories":["Asian Restaurants","Luxury Dining"],"legacySlugs":["kenko-japanese-restaurant-c964"]},{"id":"luxuryDiningRestaurants_c1adda39b182","slug":"sta-kala-kathoymena-c1ad","kind":"restaurant","name":"Στα Καλά Καθούμενα","lat":37.97981343858823,"lng":23.713855292153,"url":"https://maps.app.goo.gl/kdwd63rguvb581o36?g_st=ipc","address":"Ιερά Οδός 25-27-29, Ιερά Οδός 29, Αθήνα 118 54","categoryIds":["luxury-dining"],"categories":["Luxury Dining"]},{"id":"luxuryDiningRestaurants_a27bfcd50aac","slug":"ctc-urban-gastronomy-a27b","kind":"restaurant","name":"CTC Urban Gastronomy","lat":37.98049469537203,"lng":23.71689046945663,"url":"https://maps.app.goo.gl/GpnAhWfdMHLu7ZMPA?g_st=ipc","address":"Πλαταιών 15, Αθήνα 104 35","categoryIds":["luxury-dining"],"categories":["Luxury Dining"]},{"id":"luxuryDiningRestaurants_449388b6e901","slug":"gallina-athens-4493","kind":"restaurant","name":"Gallina Athens","lat":37.964508186769734,"lng":23.726121733406966,"url":"https://maps.app.goo.gl/zkqCQmDUHjdt7RX4A?g_st=ipc","address":"Μαρκ. Μπότσαρη 49, Αθήνα 117 42","categoryIds":["luxury-dining"],"categories":["Luxury Dining"]},{"id":"luxuryDiningRestaurants_79d4330d9768","slug":"osteria-mamma-79d4","kind":"restaurant","name":"Osteria Mamma","lat":37.98294206858995,"lng":23.71602963121187,"url":"https://maps.app.goo.gl/KpcsdbWmQM1rsB9dA?g_st=ipc","address":"Σαλαμίνος 64, Αθήνα 104 35","categoryIds":["luxury-dining"],"categories":["Luxury Dining"]},{"id":"luxuryDiningRestaurants_e1b949521388","slug":"kuzina-e1b9","kind":"restaurant","name":"Kuzina","lat":37.97641837479381,"lng":23.722069175394093,"url":"https://maps.app.goo.gl/SEiQ4TaHrnqFedUp9?g_st=ipc","address":"Αδριανού 9, Αθήνα 105 55","categoryIds":["luxury-dining"],"categories":["Luxury Dining"]}],"nearby":[{"id":"cheapEatsRestaurants_44069571c770","slug":"o-giorgos-4406","kind":"restaurant","name":"Ο Γιώργος","lat":37.94626514113319,"lng":23.644321784628165,"url":"https://maps.app.goo.gl/41PfRyTP8uJ6c3uy9?g_st=ipc","address":"Γούναρη 18 και, Νικήτα, Πειραιάς 185 31","categoryIds":["cheap-eats"],"categories":["Gyros & Cheap Eats"],"distanceKm":0.13911693175533835},{"id":"vegetarianRestaurants_8b929e1b12ca","slug":"little-bear-piraeus-vegan-patisserie-bistro-8b92","kind":"restaurant","name":"Little Bear Piraeus - Vegan Patisserie & Bistro","lat":37.94629157937497,"lng":23.647726020498503,"url":"https://maps.app.goo.gl/JNBSLzAJfWz7F5zV6?g_st=ipc","address":"Little Bear Piraeus - Vegan Patisserie & Bistro","categoryIds":["vegetarian"],"categories":["Vegetarian Friendly Restaurants"],"distanceKm":0.43763808878433874},{"id":"dessertsRestaurants_bfa57b4eb085","slug":"little-bear-piraeus-vegan-patisserie-bistro-bfa5","kind":"restaurant","name":"Little Bear Piraeus - Vegan Patisserie & Bistro","lat":37.946303720961154,"lng":23.647731238367324,"url":"https://maps.app.goo.gl/u2qFa1uh9dMczD9G6?g_st=ipc","address":"Ελ. Βενιζέλου 14, Πειραιάς 185 31","categoryIds":["desserts"],"categories":["Dessert Shops"],"distanceKm":0.4381097486820319},{"id":"municipalities_45e34fb512ae","slug":"peiraias-45e3","kind":"municipality","name":"Πειραιάς","lat":37.9421,"lng":23.6465,"aliases":["Πειραιας","Πειραια","Pireaus","Pireus","Piraeus"],"region":"Πειραιάς","name_en":"Piraeus","region_en":"Piraeus","distanceKm":0.5679536138896868},{"id":"cheapEatsRestaurants_5cd53c0e6d00","slug":"la-jacka-5cd5","kind":"restaurant","name":"La Jacka","lat":37.9421277470468,"lng":23.647527719022438,"url":"https://maps.app.goo.gl/4aXg5d6SUN73hXDt8?g_st=ic","address":"Καραΐσκου 117, Pireas 185 32","categoryIds":["cheap-eats"],"categories":["Gyros & Cheap Eats"],"distanceKm":0.6223762446206622},{"id":"coffeeBrunchRestaurants_fe42c1fe0d07","slug":"la-belle-epoque-fe42","kind":"restaurant","name":"La Belle Époque","lat":37.94126457803724,"lng":23.646089165937596,"url":"https://maps.app.goo.gl/BAXbDkZ2it9TjYv19?g_st=ipc","address":"Αριστοτέλους 10, Πειραιάς 185 35","categoryIds":["coffee-brunch"],"categories":["Coffee & Brunch Spots"],"distanceKm":0.6281540810407515},{"id":"coffeeBrunchRestaurants_dede4a68abbb","slug":"temps-perdu-dede","kind":"restaurant","name":"Temps Perdu","lat":37.94112588112371,"lng":23.646526456108827,"url":"https://maps.app.goo.gl/ABEv497Uv63A5df28?g_st=ipc","address":"Καραΐσκου 114, Πειραιάς 185 35","categoryIds":["coffee-brunch"],"categories":["Coffee & Brunch Spots"],"distanceKm":0.6602738500264748},{"id":"cheapEatsRestaurants_338abca2bc3e","slug":"jackaroo-338a","kind":"restaurant","name":"Jackaroo","lat":37.940156634414215,"lng":23.643183475106575,"url":"https://maps.app.goo.gl/QjFk2WWeE9jasgmR8?g_st=ipc","address":"Κολοκοτρώνη 126, Πειραιάς 185 35","categoryIds":["cheap-eats"],"categories":["Gyros & Cheap Eats"],"distanceKm":0.6793874927404493},{"id":"mexicanRestaurants_a97d037088f2","slug":"che-cocina-y-barra-sudamericana-a97d","kind":"restaurant","name":"CHE Cocina y Barra Sudamericana","lat":37.94032437815617,"lng":23.645996360812326,"url":"https://maps.app.goo.gl/TyUmY21xfn9LHmce7?g_st=ipc","address":"Καραΐσκου 151, Πειραιάς 185 35","categoryIds":["mexican"],"categories":["Mexican Restaurants"],"distanceKm":0.7189187180568972},{"id":"municipalities_3f3b35dfaf09","slug":"kaminia-3f3b","kind":"municipality","name":"Καμίνια","lat":37.9525,"lng":23.6406,"aliases":["Καμινια"],"region":"Πειραιάς","name_en":"Kaminia","region_en":"Piraeus","distanceKm":0.7190728971720489},{"id":"greekRestaurants_559e0d9ef868","slug":"marigo-edesmatopoleio-559e","kind":"restaurant","name":"Μαριγώ Εδεσματοπωλείο","lat":37.93961721991741,"lng":23.641779536091324,"url":"https://maps.app.goo.gl/4advyD22Ta7qiUEv7","address":"Φίλωνος 133, Πειραιάς 185 36","categoryIds":["greek-restaurants"],"categories":["Greek Restaurants"],"distanceKm":0.7429724524959462},{"id":"italianRestaurants_245a69e4c28d","slug":"italida-restaurant-245a","kind":"restaurant","name":"Italida Restaurant","lat":37.939531794803344,"lng":23.64139153468878,"url":"https://maps.app.goo.gl/vJFoPpuhcPupJ3ju7?g_st=ipc","address":"Φιλελλήνων 9, Πειραιάς 185 36","categoryIds":["italian"],"categories":["Italian Restaurants"],"distanceKm":0.7569570092833683},{"id":"cheapEatsRestaurants_06c18b2e0a28","slug":"o-polyvios-06c1","kind":"restaurant","name":"ο Πολύβιος","lat":37.94989609662676,"lng":23.635292950073545,"url":"https://maps.app.goo.gl/hykabQee4Gtqnvuk9?g_st=ipc","address":"Αγίου Δημητρίου 28, Πειραιάς 185 45","categoryIds":["cheap-eats"],"categories":["Gyros & Cheap Eats"],"distanceKm":0.767898563872007},{"id":"asianRestaurants_4f2a760fc2e5","slug":"rouan-thai-4f2a","kind":"restaurant","name":"Rouan Thai","lat":37.939187297472465,"lng":23.64209685014842,"url":"https://maps.app.goo.gl/s9uo8VDSoDevpowm6?g_st=ipc","address":"Νοταρά 131, Πειραιάς 185 36","categoryIds":["asian"],"categories":["Asian Restaurants"],"distanceKm":0.7880265763591642},{"id":"cheapEatsRestaurants_ff4578059709","slug":"story-streat-ff45","kind":"restaurant","name":"Story Streat","lat":37.93927555121359,"lng":23.639905760009334,"url":"https://maps.app.goo.gl/EXsQn9E1PkJeJjZU9?g_st=ipc","address":"301 Ακτή Μιαούλη, Enanti Agiou Nikolaou, Πειραιάς 185 35","categoryIds":["cheap-eats"],"categories":["Gyros & Cheap Eats"],"distanceKm":0.814915290685115},{"id":"burgersRestaurants_d46a3e1807bd","slug":"what-they-said-d46a","kind":"restaurant","name":"What They Said","lat":37.94935179980419,"lng":23.633928811446484,"url":"https://maps.app.goo.gl/1hcPfQeHfJrzqf8KA","address":"Eth. Antistaseos 37, Drapetsona 186 48","categoryIds":["burgers"],"categories":["Burger Spots"],"distanceKm":0.8454397932848362},{"id":"italianRestaurants_4128f283696a","slug":"santa-pasta-cucina-italiana-4128","kind":"restaurant","name":"SANTA PASTA Cucina Italiana","lat":37.94068201075252,"lng":23.64952027321399,"url":"https://maps.app.goo.gl/s3jT1Jfm88nb6Y8f8?g_st=ipc","address":"Γρ. Λαμπράκη 144, Πειραιάς 185 35","categoryIds":["italian"],"categories":["Italian Restaurants"],"distanceKm":0.8591776311970977},{"id":"monasteriesChurches_616a7205bceb","slug":"ieros-naos-agioy-nikolaoy-616a","kind":"restaurant","name":"Ιερός Ναός Αγίου Νικολάου","lat":37.93852657714825,"lng":23.640083861716022,"url":"https://maps.app.goo.gl/yhWmXb3651phCnDF8?g_st=ipc","address":"Αγίου Νικολάου 2, Πειραιάς 185 37","categoryIds":["monasteries-churches"],"categories":["Monasteries & Spiritual Sites"],"distanceKm":0.8903974770045839},{"id":"dessertsRestaurants_7b04a6c0e5e9","slug":"loukoumother-s-peiraias-7b04","kind":"restaurant","name":"Loukoumother's Πειραιάς","lat":37.93905157733481,"lng":23.647294517023667,"url":"https://maps.app.goo.gl/n5Dp63fF47u9TZuz6?g_st=ipc","address":"Ακτή Μουτσοπούλου 12, Πειραιάς 185 35","categoryIds":["desserts"],"categories":["Dessert Shops"],"distanceKm":0.8953469851596634},{"id":"cheapEatsRestaurants_cd23ca747a49","slug":"jackaroo-cd23","kind":"restaurant","name":"JACKAROO","lat":37.94026416396424,"lng":23.649684152709604,"url":"https://maps.app.goo.gl/7CALFJPovo6YskzUA?g_st=ipc","address":"Σωτήρος Διός 45, Πειραιάς 185 34","categoryIds":["cheap-eats"],"categories":["Gyros & Cheap Eats"],"distanceKm":0.9029128686624731},{"id":"cheapEatsRestaurants_8cc8f7ce2a5d","slug":"kali-pita-8cc8","kind":"restaurant","name":"Καλή Πίτα","lat":37.93904235716474,"lng":23.647494180172405,"url":"https://maps.app.goo.gl/5Uc5sfiitWqftH1u6?g_st=ipc","address":"Ακτή Μουτσοπούλου 10, Πειραιάς 185 35","categoryIds":["cheap-eats"],"categories":["Gyros & Cheap Eats"],"distanceKm":0.9042104911621885},{"id":"greekRestaurants_f42ac62c3249","slug":"bounty-all-aboard-f42a","kind":"restaurant","name":"Bounty all aboard","lat":37.949723445369806,"lng":23.63332963263093,"url":"https://maps.app.goo.gl/2iShe5bzo7qg3ohc6","address":"Εθ. Αντιστάσεως 10, Δραπετσώνα 186 48","categoryIds":["greek-restaurants"],"categories":["Greek Restaurants"],"distanceKm":0.9103971691810129},{"id":"greekRestaurants_8e907eeb8136","slug":"fagopoteion-stoy-thoma-8e90","kind":"restaurant","name":"Φαγοποτείον στου Θωμά","lat":37.954509819048326,"lng":23.642613690114224,"url":"https://maps.app.goo.gl/jQSs2dndkMDG9Tsq7","address":"Μαυρομιχάλη 22-24, Πειραιάς 185 45","categoryIds":["greek-restaurants"],"categories":["Greek Restaurants"],"distanceKm":0.9178134095213124},{"id":"cheapEatsRestaurants_976f1c06c63f","slug":"i-vromiara-the-gourmet-street-food-piraeus-976f","kind":"restaurant","name":"Η Βρωμιαρα - The Gourmet Street Food Piraeus","lat":37.94005665661438,"lng":23.649946814929663,"url":"https://maps.app.goo.gl/9bVUq8xDuxLwaLim9?g_st=ipc","address":"Σωτήρος Διός 47, Πειραιάς 185 34","categoryIds":["cheap-eats"],"categories":["Gyros & Cheap Eats"],"distanceKm":0.9354858093507321}],"sameRegion":[],"mentionedGuides":[{"slug":"athens-airport-to-city-guide-el","title":"Πώς να Πάτε από το Αεροδρόμιο της Αθήνας στο Κέντρο"},{"slug":"athens-airport-to-city-guide","title":"Getting From Athens Airport to the City Center"},{"slug":"greece-weather-swimming-ferry-guide-el","title":"Πότε να Επισκεφτείτε την Ελλάδα: Καιρός & Κολύμπι"},{"slug":"greece-weather-swimming-ferry-guide","title":"When to Visit Greece: Weather, Swimming & Ferries"},{"slug":"traveling-to-greece-on-a-budget-el","title":"Ταξιδι στην Ελλαδα με μικρο budget"},{"slug":"traveling-to-greece-on-a-budget","title":"Traveling to Greece on a Budget"}],"canonicalSlug":"mitsis-n-u-piraeus-port-ef48","isCanonicalEntity":true,"enrichment":{"summary_en":"Mitsis N'U Piraeus Port is a curated restaurant in Πειραιάς 185 31 in the Luxury Dining collection. It is connected to 14 nearby Googlementor picks to help travelers build a stronger local route.","summary_el":"Mitsis N'U Piraeus Port είναι ένα επιλεγμένο σημείο φαγητού στην περιοχή Πειραιάς 185 31 και ανήκει στη συλλογή Luxury Dining. Συνδέεται με 14 κοντινές προτάσεις του Googlementor για πιο ολοκληρωμένη εμπειρία.","vibe_tags":["curated","premium-dining"],"best_for":["first-time visitors","food lovers","special occasions"],"visit_moments":["lunch stop","dinner stop"],"practical_note":"Address and direct map link are available for easy turn-by-turn access.","nearby_walkable_count":14,"nearby_count_2km":58,"confidence":0.98},"areaContext":{"slug":"peiraias","name":"Piraeus"},"intentContexts":[{"href":"/luxury-dining/peiraias","label":"Luxury Dining in Piraeus","categorySlug":"luxury-dining","categoryName":"Luxury Dining","areaSlug":"peiraias","areaName":"Piraeus"}]},"__N_SSG":true}