{"pageProps":{"entity":{"id":"burgersRestaurants_8219677fe965","slug":"nom-street-food-smashed-burgers-8219","kind":"restaurant","name":"Nom street food & smashed burgers","lat":36.44818806230804,"lng":28.221540618444198,"url":"https://maps.app.goo.gl/jzcVrFqav7KsRnsy7?g_st=ipc","address":"Sofokli Venizelou 30, Rodos 851 00","categoryIds":["burgers"],"categories":["Burger Spots"]},"sameCategory":[{"id":"burgersRestaurants_a09dc77f6aff","slug":"panburger-a09d","kind":"restaurant","name":"PANBURGER","lat":35.50835121764677,"lng":27.212476234633463,"url":"https://maps.app.goo.gl/Xvc6UCxi2LxHq36TA?g_st=ipc","address":"Karpathos 857 00","categoryIds":["burgers"],"categories":["Burger Spots"]},{"id":"burgersRestaurants_cd2472c6c11c","slug":"burger-lab-cd24","kind":"restaurant","name":"Burger lab","lat":35.34068409863636,"lng":25.1306859517302,"url":"https://maps.app.goo.gl/uWp5QLp34WVqvaSm8?g_st=ic","address":"Chandakos 63, Iraklio 712 02","categoryIds":["burgers"],"categories":["Burger Spots"]},{"id":"burgersRestaurants_d078b3ea9f88","slug":"burgerilla-voulas-d078","kind":"restaurant","name":"BURGERILLA.VOULAS","lat":37.84784984477906,"lng":23.754080911973716,"url":"https://maps.app.goo.gl/eGL3Mk2KpVNgRAzn6?g_st=ipc","address":"Λεωφ. Βασιλέως Παύλου 0, Βούλα 166 73","categoryIds":["burgers"],"categories":["Burger Spots"]},{"id":"burgersRestaurants_aaf9b8df7638","slug":"the-burger-joint-aaf9","kind":"restaurant","name":"the burger joint","lat":37.85975416543059,"lng":23.75632935360373,"url":"https://maps.app.goo.gl/4ebsLmRmHgQAtXCy5?g_st=ipc","address":"Πλ. Νυμφών 1, Γλυφάδα 166 74","categoryIds":["burgers"],"categories":["Burger Spots"]},{"id":"asianRestaurants_6985f147fd97","slug":"ekiben-kitchen-glyfada-6985","kind":"restaurant","name":"Ekiben Kitchen Glyfada","lat":37.861176848381916,"lng":23.75639518380584,"url":"https://maps.app.goo.gl/bR7jaQSkxn33eLgq7","address":"Laodikis 41, Glifada 166 74","categoryIds":["asian","burgers"],"categories":["Asian Restaurants","Burger Spots"],"legacySlugs":["ekiben-kitchen-glyfada-7ec8"]},{"id":"burgersRestaurants_dcffa319373f","slug":"just-burgers-dcff","kind":"restaurant","name":"Just Burgers","lat":37.86233017342334,"lng":23.756048198703365,"url":"https://maps.app.goo.gl/JHVusoRbYHy3Y7vt5?g_st=ipc","address":"Βασ. Γεωργίου Β 10, Γλυφάδα 166 74","categoryIds":["burgers"],"categories":["Burger Spots"]},{"id":"burgersRestaurants_ba4a0b5f3045","slug":"ryotei118-ba4a","kind":"restaurant","name":"Ryōtei118","lat":37.87936856839685,"lng":23.763367179515893,"url":"https://maps.app.goo.gl/jQiZ1pYw63j3q8zG9","address":"Dim. Gounari 118, Glifada 166 74","categoryIds":["burgers"],"categories":["Burger Spots"]},{"id":"asianRestaurants_84fbfd57e68e","slug":"ryotei-118-84fb","kind":"restaurant","name":"Ryōtei 118","lat":37.879367097165485,"lng":23.763308738653866,"url":"https://maps.app.goo.gl/XC6EcCoyBojTFzQp9?g_st=ipc","address":"Δημ. Γούναρη 118, Γλυφάδα 166 74","categoryIds":["asian","burgers"],"categories":["Asian Restaurants","Burger Spots"],"legacySlugs":["ryotei-118-5acf"]},{"id":"burgersRestaurants_01217d39d9c7","slug":"queen-burger-0121","kind":"restaurant","name":"Queen Burger","lat":37.8629143636926,"lng":23.754961929770175,"url":"https://maps.app.goo.gl/cTKmuer8pw34Mj4m6","address":"Giannitsopoulou 3, Glifada 166 74","categoryIds":["burgers"],"categories":["Burger Spots"]},{"id":"burgersRestaurants_9c2f22b0606b","slug":"hashtag-burger-9c2f","kind":"restaurant","name":"Hashtag#Burger","lat":37.89371001882756,"lng":23.763217485797266,"url":"https://maps.app.goo.gl/BsuHdbYYc8dsSTwn8?g_st=ipc","address":"Γεωρ. Γεννηματά 26, Γλυφάδα 165 62","categoryIds":["burgers","cheap-eats"],"categories":["Burger Spots","Gyros & Cheap Eats"],"legacySlugs":["hashtag-burger-30dc"]},{"id":"burgersRestaurants_797126963f1f","slug":"amam-estiatorio-glyfada-7971","kind":"restaurant","name":"ΑΜΑΜ - ΕΣΤΙΑΤΟΡΙΟ - ΓΛΥΦΑΔΑ","lat":37.895880681449796,"lng":23.761095559330744,"url":"https://maps.app.goo.gl/fAsTx4mwCTHC78t86?g_st=ipc","address":"Γεωρ. Γεννηματά 11, Γλυφάδα 165 62","categoryIds":["burgers","cheap-eats"],"categories":["Burger Spots","Gyros & Cheap Eats"],"legacySlugs":["amam-estiatorio-glyfada-af98"]},{"id":"burgersRestaurants_b5cd5e9d8f33","slug":"comet-street-gourmet-athens-b5cd","kind":"restaurant","name":"Comet Street Gourmet Athens","lat":38.05458806834009,"lng":23.84252767987863,"url":"https://maps.app.goo.gl/7yT5TAqAFBttQ8yZ7?g_st=ipc","address":"Σωκράτους 3, Μελίσσια 151 27","categoryIds":["burgers"],"categories":["Burger Spots"]}],"nearby":[{"id":"fishTavernasRestaurants_7e035939a6db","slug":"traditional-cafe-symi-7e03","kind":"restaurant","name":"Traditional Cafe Symi","lat":36.447396932123645,"lng":28.225462639664087,"url":"https://maps.app.goo.gl/bB5NM791bDAKeYYP8?g_st=ipc","address":"Nea Agora 109, Rodos 851 00","categoryIds":["fish-tavernas"],"categories":["Fish Tavernas"],"distanceKm":0.36166702610756013},{"id":"mustSeeAttractions_d121969affdc","slug":"palace-of-the-grand-master-of-the-knights-of-rhodes-d121","kind":"restaurant","name":"Palace of the Grand Master of the Knights of Rhodes","lat":36.44545330682862,"lng":28.224197135579786,"url":"https://maps.app.goo.gl/R9sce6Eydu3PYta2A?g_st=ipc","address":"Ippoton, Rodos 851 00","categoryIds":["attractions"],"categories":["Must-See Attractions"],"distanceKm":0.3859174797223623},{"id":"greekRestaurants_17adb0f648d3","slug":"mama-sofia-17ad","kind":"restaurant","name":"Μαμά Σοφία","lat":36.4441876301452,"lng":28.223517806980094,"url":"https://maps.app.goo.gl/X3ifevtVb6h2atUp6?g_st=ipc","address":"Οδός Ορφέως 28, Παλιά Πόλη, 28 Orfeos Street, Old Town, Rhodes/Rodos 851 00","categoryIds":["greek-restaurants"],"categories":["Greek Restaurants"],"distanceKm":0.47869494069805807},{"id":"cheapEatsRestaurants_a7d0ccb07796","slug":"mr-g-s-psitopoleio-greek-street-food-a7d0","kind":"restaurant","name":"Mr.G's - Ψητοπωλείο - Greek Street Food","lat":36.45328895287043,"lng":28.221248936648102,"url":"https://maps.app.goo.gl/HQkLX39r1Ru88dxq8?g_st=ipc","address":"Geor. Papanikolaou 8, Rodos 851 00","categoryIds":["cheap-eats"],"categories":["Gyros & Cheap Eats"],"distanceKm":0.5677928154531923},{"id":"mustSeeAttractions_9e44fa658aa5","slug":"colossus-of-rhodes-9e44","kind":"restaurant","name":"Colossus of Rhodes","lat":36.451202414947005,"lng":28.227839764419826,"url":"https://maps.app.goo.gl/11HZKgu3Z71ViGrP9?g_st=ipc","address":"Pl. Neoriou, Rodos 851 00","categoryIds":["attractions"],"categories":["Must-See Attractions"],"distanceKm":0.6555767702230078},{"id":"mustSeeAttractions_934f36a67efa","slug":"medieval-city-of-rhodes-934f","kind":"restaurant","name":"Medieval City of Rhodes","lat":36.44472167652259,"lng":28.227519564434186,"url":"https://maps.app.goo.gl/ni4J6nqoFxCxVhof9?g_st=ipc","address":"Pl. Mouson 6, Rodos 851 00","categoryIds":["attractions"],"categories":["Must-See Attractions"],"distanceKm":0.6592226526271336},{"id":"fishTavernasRestaurants_21b0c4363779","slug":"pizanias-the-sea-star-21b0","kind":"restaurant","name":"Pizanias The Sea Star","lat":36.44219184483265,"lng":28.227392660524885,"url":"https://maps.app.goo.gl/bmjrpg6PxNfVuRyLA?g_st=ipc","address":"Sofokleous 24, Rodos 851 31","categoryIds":["fish-tavernas"],"categories":["Fish Tavernas"],"distanceKm":0.8476779580138072},{"id":"municipalities_0334126572d2","slug":"rodos-0334","kind":"municipality","name":"Ρόδος","lat":36.434,"lng":28.217,"aliases":["Rodos","Rhodos","Ρόδη","Ροδος"],"region":"Δωδεκάνησα","name_en":"Rhodes","region_en":"Dodecanese","distanceKm":1.6290869978748437},{"id":"dessertsRestaurants_ebbd52b2670e","slug":"hatzifotiou-ebbd","kind":"restaurant","name":"Hatzifotiou","lat":36.436204834104664,"lng":28.23364904254758,"url":"https://maps.app.goo.gl/KUPjw8WfQrcXZbYA6?g_st=ipc","address":"Kanada 69, Rodos 851 32","categoryIds":["desserts"],"categories":["Dessert Shops"],"distanceKm":1.717157203502352},{"id":"coffeeBrunchRestaurants_e533a6bcb85f","slug":"naval-cafe-bar-restaurant-e533","kind":"restaurant","name":"NAVAL Cafe Bar Restaurant","lat":36.43323816273261,"lng":28.237832164715215,"url":"https://maps.app.goo.gl/LEtJZTyLhqkrZEGE7?g_st=ipc","address":"Rhodes","categoryIds":["coffee-brunch"],"categories":["Coffee & Brunch Spots"],"distanceKm":2.210708198940254},{"id":"municipalities_949baf66ab53","slug":"ixia-949b","kind":"municipality","name":"Ίξια","lat":36.4328,"lng":28.2056,"aliases":["Ιξια"],"region":"Ρόδος","name_en":"Ixia","region_en":"Rhodes","distanceKm":2.2273504588078374},{"id":"municipalities_f04269be7e15","slug":"ialysos-f042","kind":"municipality","name":"Ιαλυσός","lat":36.4149,"lng":28.1588,"region":"Ρόδος","name_en":"Ialysos","region_en":"Rhodes","distanceKm":6.723595239123379},{"id":"municipalities_00d2375b94d4","slug":"kallithea-rodoy-00d2","kind":"municipality","name":"Καλλιθέα Ρόδου","lat":36.3856,"lng":28.2236,"aliases":["Καλλιθεα Ροδου","Kallithea Springs","Kalithea Springs"],"region":"Ρόδος","name_en":"Kalithea Rhodes","region_en":"Rhodes","distanceKm":6.961914207085036},{"id":"luxuryDiningRestaurants_f925bc8a8505","slug":"noble-gourmet-restaurant-f925","kind":"restaurant","name":"Noble Gourmet Restaurant","lat":36.37247796232997,"lng":28.224879049367335,"url":"https://maps.app.goo.gl/ymJ2kfjKBHsihXtt9?g_st=ipc","address":"Elysium Resort & Spa | 5 star hotel in Rhodes, Leoforos Rodou - Kallitheas, Ammoudes 851 00","categoryIds":["luxury-dining"],"categories":["Luxury Dining"],"distanceKm":8.423878218857332},{"id":"familyFriendly_569351c660b6","slug":"waterpark-5693","kind":"restaurant","name":"WaterPark","lat":36.36437213652793,"lng":28.212294371159473,"url":"https://maps.app.goo.gl/6wgTeh9tgUC2bD1a8?g_st=ipc","address":"Athanaton, Rodos 851 05","categoryIds":["family-friendly"],"categories":["Kid Friendly Locations"],"distanceKm":9.356567439413158},{"id":"municipalities_a670e0839011","slug":"faliraki-a670","kind":"municipality","name":"Φαληράκι","lat":36.339,"lng":28.199,"region":"Ρόδος","name_en":"Faliraki","region_en":"Rhodes","distanceKm":12.307650168574034},{"id":"municipalities_a9dfbd3c4048","slug":"kolympia-a9df","kind":"municipality","name":"Κολύμπια","lat":36.2943,"lng":28.2011,"region":"Ρόδος","name_en":"Kolympia","region_en":"Rhodes","distanceKm":17.209160417433907},{"id":"familyFriendly_79cc8da6366f","slug":"butterflies-valley-79cc","kind":"restaurant","name":"Butterflies Valley","lat":36.33937370008562,"lng":28.059689128523214,"url":"https://maps.app.goo.gl/VV66xLTvU3w6LKzy9?g_st=ipc","address":"Επάνω Καλαμωνας 851 06","categoryIds":["family-friendly"],"categories":["Kid Friendly Locations"],"distanceKm":18.875117405553645},{"id":"greekRestaurants_091086b3e4f0","slug":"taverna-to-steki-0910","kind":"restaurant","name":"Taverna To Steki","lat":36.214820215510855,"lng":28.116222906463367,"url":"https://maps.app.goo.gl/whsyEjKzT1J9MqBz8?g_st=ipc","address":"Mezedopwleio To steki, Αρχάγγελος 851 02","categoryIds":["greek-restaurants"],"categories":["Greek Restaurants"],"distanceKm":27.61108357274013},{"id":"fishTavernasRestaurants_5c524a0645d5","slug":"taverna-to-steki-5c52","kind":"restaurant","name":"Taverna To Steki","lat":36.21481289800798,"lng":28.116223331846093,"url":"https://maps.app.goo.gl/uGAqX7jPtUdH564r6?g_st=ipc","address":"Mezedopwleio To steki, Archaggelos 851 02","categoryIds":["fish-tavernas"],"categories":["Fish Tavernas"],"distanceKm":27.611835404441358},{"id":"fishTavernasRestaurants_3329c5f3ac04","slug":"perigiali-sea-food-restaurant-3329","kind":"restaurant","name":"Perigiali Sea Food Restaurant","lat":36.20335875535593,"lng":28.1401896188144,"url":"https://maps.app.goo.gl/BQHAxew1vaRjgSqj8?g_st=ipc","address":"Archangelos 851 02","categoryIds":["fish-tavernas"],"categories":["Fish Tavernas"],"distanceKm":28.182385929184687},{"id":"greekRestaurants_8fa1ab96ff3b","slug":"estiatorio-paragka-8fa1","kind":"restaurant","name":"Εστιατόριο Παράγκα","lat":36.26098242565237,"lng":27.96998024225855,"url":"https://maps.app.goo.gl/rr6G3z1rwAh5ZVjW6?g_st=ipc","address":"Επαρ.Οδ. Απόλλωνα 13, Απόλλωνα 851 06","categoryIds":["greek-restaurants"],"categories":["Greek Restaurants"],"distanceKm":30.672801244376945}],"sameRegion":[],"mentionedGuides":[],"canonicalSlug":"nom-street-food-smashed-burgers-8219","isCanonicalEntity":true,"enrichment":{"summary_en":"Nom street food & smashed burgers is a curated restaurant in Rodos 851 00 in the Burger Spots collection. It is connected to 6 nearby Googlementor picks to help travelers build a stronger local route.","summary_el":"Nom street food & smashed burgers είναι ένα επιλεγμένο σημείο φαγητού στην περιοχή Rodos 851 00 και ανήκει στη συλλογή Burger Spots. Συνδέεται με 6 κοντινές προτάσεις του Googlementor για πιο ολοκληρωμένη εμπειρία.","vibe_tags":["curated"],"best_for":["first-time visitors","food lovers"],"visit_moments":["lunch stop","dinner stop"],"practical_note":"Address and direct map link are available for easy turn-by-turn access.","nearby_walkable_count":6,"nearby_count_2km":9,"confidence":0.98},"areaContext":{"slug":"rodos","name":"Rhodes"},"intentContexts":[]},"__N_SSG":true}