{"pageProps":{"entity":{"id":"municipalities_4044fe56cffd","slug":"parga-4044","kind":"municipality","name":"Πάργα","lat":39.2856,"lng":20.4014,"aliases":["Παργα"],"region":"Ήπειρος","name_en":"Parga","region_en":"Epirus"},"sameCategory":[],"nearby":[{"id":"rooftopLoungesRestaurants_022b40d3c73a","slug":"avocado-cocktail-bar-022b","kind":"restaurant","name":"Avocado Cocktail Bar","lat":39.28423915622935,"lng":20.39914061806164,"url":"https://maps.app.goo.gl/Rej46ZikGi16jCPa6?g_st=ipc","address":"23ης Φεβρουαρίου, Parga 480 60","categoryIds":["rooftop-lounges"],"categories":["Rooftop Lounges"],"distanceKm":0.24639444468632507},{"id":"italianRestaurants_9f740af053b2","slug":"filomila-9f74","kind":"restaurant","name":"Filomila","lat":39.28501094493868,"lng":20.39762732442374,"url":"https://maps.app.goo.gl/q6frpMcS63aQ6eSu5?g_st=ipc","address":"Filomila","categoryIds":["italian"],"categories":["Italian Restaurants"],"distanceKm":0.33123662128425063},{"id":"fishTavernasRestaurants_60db33e5dbf6","slug":"ionion-fish-restaurant-60db","kind":"restaurant","name":"Ionion Fish Restaurant","lat":39.39885130705451,"lng":20.25621796602664,"url":"https://maps.app.goo.gl/UjAp1padEHJ7Q3nQ7?g_st=ipc","address":"Mega Ammos, Sivota 461 00","categoryIds":["fish-tavernas"],"categories":["Fish Tavernas"],"distanceKm":17.73293046710175},{"id":"mustSeeAttractions_ed63de4c6ad6","slug":"paralia-voutoumi-ed63","kind":"restaurant","name":"Paralia Voutoumi","lat":39.15774095957267,"lng":20.227494022688056,"url":"https://maps.app.goo.gl/zBjCseaorqmLUWjo6?g_st=ipc","address":"490 82","categoryIds":["attractions"],"categories":["Must-See Attractions"],"distanceKm":20.65323368852936},{"id":"dessertsRestaurants_40ed95d6ca7b","slug":"il-capriccio-creperie-gelateria-40ed","kind":"restaurant","name":"Il Capriccio Creperie Gelateria","lat":39.196184264572324,"lng":20.187150122565953,"url":"https://maps.app.goo.gl/cvmdPcy2F9CSE1Jx6?g_st=ipc","address":"Unnamed Road,, Gaios 490 82","categoryIds":["desserts"],"categories":["Dessert Shops"],"distanceKm":20.95946010001586},{"id":"municipalities_761b6508fb52","slug":"paxoi-761b","kind":"municipality","name":"Παξοί","lat":39.1969,"lng":20.1863,"region":"Ιόνιο","name_en":"Paxoi","region_en":"Ionian Islands","distanceKm":20.98633550777692},{"id":"municipalities_7196d20fb090","slug":"igoymenitsa-7196","kind":"municipality","name":"Ηγουμενίτσα","lat":39.5036,"lng":20.2669,"region":"Ήπειρος","name_en":"Igoumenitsa","region_en":"Epirus","distanceKm":26.85481333563777},{"id":"dessertsRestaurants_bf5c88e2b8a0","slug":"paylos-boutique-gelateria-bf5c","kind":"restaurant","name":"Παύλος Boutique Gelateria","lat":39.50673573079307,"lng":20.262695193015087,"url":"https://maps.app.goo.gl/jvvGBnLGwBaooftv9?g_st=ipc","address":"Eth. Antistasis 88, Igoumenitsa 461 00","categoryIds":["desserts"],"categories":["Dessert Shops"],"distanceKm":27.325501013426774},{"id":"municipalities_6d7c9163781b","slug":"filiates-6d7c","kind":"municipality","name":"Φιλιάτες","lat":39.601,"lng":20.309,"region":"Ήπειρος","name_en":"Filiates","region_en":"Epirus","distanceKm":35.95721974810924},{"id":"municipalities_531c931f5f7f","slug":"nikopoli-531c","kind":"municipality","name":"Νικόπολη","lat":39.003,"lng":20.716,"region":"Ήπειρος","name_en":"Nikopolis","region_en":"Epirus","distanceKm":41.515160239588596},{"id":"municipalities_761f6f2874f3","slug":"preveza-761f","kind":"municipality","name":"Πρέβεζα","lat":38.9567,"lng":20.75,"aliases":["Preveza"],"region":"Ήπειρος","name_en":"Preveza","region_en":"Epirus","distanceKm":47.34827880824348},{"id":"municipalities_78251352f402","slug":"dodoni-7825","kind":"municipality","name":"Δωδώνη","lat":39.6167,"lng":20.7833,"region":"Ήπειρος","name_en":"Dodoni","region_en":"Epirus","distanceKm":49.301718017451826},{"id":"municipalities_6249e4ce05d5","slug":"arta-6249","kind":"municipality","name":"Άρτα","lat":39.16,"lng":20.985,"region":"Ήπειρος","name_en":"Arta","region_en":"Epirus","distanceKm":52.17620634900486},{"id":"municipalities_01ab94a963a7","slug":"ioannina-01ab","kind":"municipality","name":"Ιωάννινα","lat":39.6675,"lng":20.85,"aliases":["Ioannina","Janina","Ιωάννινα","Γιάννινα","Ιωαννινα","Γιαννενα","Γιάννενα"],"region":"Ήπειρος","name_en":"Ioannina","region_en":"Epirus","distanceKm":57.32173723786817},{"id":"municipalities_d3feba2113c4","slug":"pogoni-d3fe","kind":"municipality","name":"Πωγώνι","lat":39.8,"lng":20.5167,"region":"Ήπειρος","name_en":"Pogoni","region_en":"Epirus","distanceKm":58.04681998499061},{"id":"municipalities_6d3e0429ac44","slug":"zagorochoria-6d3e","kind":"municipality","name":"Ζαγοροχώρια","lat":39.9167,"lng":20.7333,"region":"Ήπειρος","name_en":"Zagorochoria","region_en":"Epirus","distanceKm":75.71733505413481},{"id":"municipalities_5b04c25765e9","slug":"zagori-5b04","kind":"municipality","name":"Ζαγόρι","lat":39.9,"lng":20.8,"region":"Ήπειρος","name_en":"Zagori","region_en":"Epirus","distanceKm":76.37972898191421},{"id":"municipalities_cb2980eb2be9","slug":"papigko-cb29","kind":"municipality","name":"Πάπιγκο","lat":39.9667,"lng":20.7833,"region":"Ήπειρος","name_en":"Papingo","region_en":"Epirus","distanceKm":82.49561547851562},{"id":"municipalities_2bf842811a54","slug":"metsovo-2bf8","kind":"municipality","name":"Μετσόβο","lat":39.77,"lng":21.18,"region":"Ήπειρος","name_en":"Metsovo","region_en":"Epirus","distanceKm":85.79254020522522},{"id":"municipalities_d7318da3e580","slug":"metsovo-d731","kind":"municipality","name":"Μέτσοβο","lat":39.7703,"lng":21.1825,"aliases":["Μετσοβο"],"region":"Ήπειρος","name_en":"Metsovo","region_en":"Epirus","distanceKm":85.98032720332961}],"sameRegion":[{"id":"municipalities_01ab94a963a7","slug":"ioannina-01ab","kind":"municipality","name":"Ιωάννινα","lat":39.6675,"lng":20.85,"aliases":["Ioannina","Janina","Ιωάννινα","Γιάννινα","Ιωαννινα","Γιαννενα","Γιάννενα"],"region":"Ήπειρος","name_en":"Ioannina","region_en":"Epirus"},{"id":"municipalities_2bf842811a54","slug":"metsovo-2bf8","kind":"municipality","name":"Μετσόβο","lat":39.77,"lng":21.18,"region":"Ήπειρος","name_en":"Metsovo","region_en":"Epirus"},{"id":"municipalities_531c931f5f7f","slug":"nikopoli-531c","kind":"municipality","name":"Νικόπολη","lat":39.003,"lng":20.716,"region":"Ήπειρος","name_en":"Nikopolis","region_en":"Epirus"},{"id":"municipalities_5b04c25765e9","slug":"zagori-5b04","kind":"municipality","name":"Ζαγόρι","lat":39.9,"lng":20.8,"region":"Ήπειρος","name_en":"Zagori","region_en":"Epirus"},{"id":"municipalities_6249e4ce05d5","slug":"arta-6249","kind":"municipality","name":"Άρτα","lat":39.16,"lng":20.985,"region":"Ήπειρος","name_en":"Arta","region_en":"Epirus"},{"id":"municipalities_6d3e0429ac44","slug":"zagorochoria-6d3e","kind":"municipality","name":"Ζαγοροχώρια","lat":39.9167,"lng":20.7333,"region":"Ήπειρος","name_en":"Zagorochoria","region_en":"Epirus"},{"id":"municipalities_6d7c9163781b","slug":"filiates-6d7c","kind":"municipality","name":"Φιλιάτες","lat":39.601,"lng":20.309,"region":"Ήπειρος","name_en":"Filiates","region_en":"Epirus"},{"id":"municipalities_7196d20fb090","slug":"igoymenitsa-7196","kind":"municipality","name":"Ηγουμενίτσα","lat":39.5036,"lng":20.2669,"region":"Ήπειρος","name_en":"Igoumenitsa","region_en":"Epirus"},{"id":"municipalities_761f6f2874f3","slug":"preveza-761f","kind":"municipality","name":"Πρέβεζα","lat":38.9567,"lng":20.75,"aliases":["Preveza"],"region":"Ήπειρος","name_en":"Preveza","region_en":"Epirus"},{"id":"municipalities_78251352f402","slug":"dodoni-7825","kind":"municipality","name":"Δωδώνη","lat":39.6167,"lng":20.7833,"region":"Ήπειρος","name_en":"Dodoni","region_en":"Epirus"},{"id":"municipalities_cb2980eb2be9","slug":"papigko-cb29","kind":"municipality","name":"Πάπιγκο","lat":39.9667,"lng":20.7833,"region":"Ήπειρος","name_en":"Papingo","region_en":"Epirus"},{"id":"municipalities_d3feba2113c4","slug":"pogoni-d3fe","kind":"municipality","name":"Πωγώνι","lat":39.8,"lng":20.5167,"region":"Ήπειρος","name_en":"Pogoni","region_en":"Epirus"},{"id":"municipalities_d7318da3e580","slug":"metsovo-d731","kind":"municipality","name":"Μέτσοβο","lat":39.7703,"lng":21.1825,"aliases":["Μετσοβο"],"region":"Ήπειρος","name_en":"Metsovo","region_en":"Epirus"}],"mentionedGuides":[],"canonicalSlug":"parga-4044","isCanonicalEntity":true,"enrichment":{"summary_en":"Πάργα is a curated neighborhood area in Ήπειρος. It is connected to 2 nearby Googlementor picks to help travelers build a stronger local route.","summary_el":"Πάργα είναι ένα επιλεγμένο σημείο ενδιαφέροντος στην περιοχή Ήπειρος. Συνδέεται με 2 κοντινές προτάσεις του Googlementor για πιο ολοκληρωμένη εμπειρία.","vibe_tags":["local-neighborhood","base-for-exploring"],"best_for":["first-time visitors","walk-and-explore days","return visitors"],"visit_moments":["late morning walks","sunset exploration"],"practical_note":"2 curated places are within walkable distance from this area center.","nearby_walkable_count":2,"nearby_count_2km":2,"confidence":0.55},"areaContext":null,"intentContexts":[]},"__N_SSG":true}