{"pageProps":{"entity":{"id":"coffeeBrunchRestaurants_b9249c7456d4","slug":"patriko-pub-cafe-b924","kind":"restaurant","name":"Patriko Pub-Cafe","lat":36.844945849235245,"lng":22.259663624938703,"url":"https://maps.app.goo.gl/cmXtN3A11tRUN13MA?g_st=ipc","address":"Παραλία Στούπας, Stoupa 240 24","categoryIds":["coffee-brunch"],"categories":["Coffee & Brunch Spots"]},"sameCategory":[{"id":"coffeeBrunchRestaurants_de7e3474dbb3","slug":"bouka-bouka-mare-de7e","kind":"restaurant","name":"Bouka Bouka Mare","lat":37.013989599006756,"lng":21.99717016667302,"url":"https://maps.app.goo.gl/8DUAGWFE2uqSxjoi6?g_st=ipc","address":"Παραλία, Messini 242 00","categoryIds":["coffee-brunch"],"categories":["Coffee & Brunch Spots"]},{"id":"coffeeBrunchRestaurants_63f25ca28818","slug":"ear-cafe-bar-63f2","kind":"restaurant","name":"Έαρ Cafe Bar","lat":37.67079207904159,"lng":22.182043630957757,"url":"https://maps.app.goo.gl/JnZa27RuEpaKVL4p6?g_st=ipc","address":"Τρύφωνα Ζαχαρόπουλου, Vitina 220 10","categoryIds":["coffee-brunch"],"categories":["Coffee & Brunch Spots"]},{"id":"coffeeBrunchRestaurants_4eafd9c8fe54","slug":"ar-ko-4eaf","kind":"restaurant","name":"Ar&Ko","lat":37.565832099209665,"lng":22.80288803557191,"url":"https://maps.app.goo.gl/VsqimzGRSLvrL3FN7?g_st=ipc","address":"Πάρκο Κολοκοτρώνη, Vasileos Pavlou, Nafplio 211 00","categoryIds":["coffee-brunch"],"categories":["Coffee & Brunch Spots"]},{"id":"coffeeBrunchRestaurants_1d9f7f941901","slug":"liberty-view-of-nafplio-1d9f","kind":"restaurant","name":"Liberty View Of Nafplio","lat":37.56620305969031,"lng":22.806201213990434,"url":"https://maps.app.goo.gl/ZB4UYRxyx55zXBkS9?g_st=ipc","address":"Sidiras Merarchias 39, Nafplio 211 00","categoryIds":["coffee-brunch"],"categories":["Coffee & Brunch Spots"]},{"id":"coffeeBrunchRestaurants_24def4a9906d","slug":"ydroneta-24de","kind":"restaurant","name":"Υδρονέτα","lat":37.35156953668086,"lng":23.462454743451826,"url":"https://maps.app.goo.gl/JdZyRYb4EEJyr1MGA?g_st=ipc","address":"Επαρ.Οδ. Μανδρακίου-Μωλόυ, Ύδρα 180 40","categoryIds":["coffee-brunch"],"categories":["Coffee & Brunch Spots"]},{"id":"coffeeBrunchRestaurants_6a007e672d77","slug":"the-pirate-bar-6a00","kind":"restaurant","name":"The Pirate Bar","lat":37.34970734644238,"lng":23.46509825080948,"url":"https://maps.app.goo.gl/kHR9XPEtdhdttpmr9?g_st=ipc","address":"Βότση, Ύδρα 180 40","categoryIds":["coffee-brunch"],"categories":["Coffee & Brunch Spots"]},{"id":"coffeeBrunchRestaurants_e7e97fb2d3e5","slug":"anemos-cafe-bar-e7e9","kind":"restaurant","name":"Anemos Cafe Bar","lat":37.77116024105471,"lng":21.29250825374054,"url":"https://maps.app.goo.gl/M2pxCK9uxiBVApkD7?g_st=ipc","address":"Kourouta 272 00","categoryIds":["coffee-brunch"],"categories":["Coffee & Brunch Spots"]},{"id":"coffeeBrunchRestaurants_52f2d70fc21e","slug":"to-mikro-cafe-52f2","kind":"restaurant","name":"Το Μικρό Cafe","lat":37.69190688153916,"lng":23.451237398771788,"url":"https://maps.app.goo.gl/KwgXY17CGsEWtAUX7?g_st=ipc","address":"Unnamed Road, Πέρδικα 180 10","categoryIds":["coffee-brunch"],"categories":["Coffee & Brunch Spots"]},{"id":"coffeeBrunchRestaurants_376f978cdcbd","slug":"leof-dimokratias-51-aigina-180-10-376f","kind":"restaurant","name":"Λεωφ. Δημοκρατίας 51, Αίγινα 180 10","lat":37.74458755004641,"lng":23.429733301742875,"url":"https://maps.app.goo.gl/iAGPEbpGe5cmBZmJ9?g_st=ipc","address":"Λεωφ. Δημοκρατίας 51, Αίγινα 180 10","categoryIds":["coffee-brunch"],"categories":["Coffee & Brunch Spots"]},{"id":"coffeeBrunchRestaurants_a0f98e1c2b12","slug":"aiakeion-a0f9","kind":"restaurant","name":"Αιάκειον","lat":37.746460271999695,"lng":23.42831871522419,"url":"https://maps.app.goo.gl/Qzj36fpjYDeGE7CdA?g_st=ipc","address":"Λεωφ. Δημοκρατίας 18, Αίγινα 180 10","categoryIds":["coffee-brunch"],"categories":["Coffee & Brunch Spots"]},{"id":"coffeeBrunchRestaurants_4e218b55f113","slug":"madisons-kitchen-bar-4e21","kind":"restaurant","name":"Madisons Kitchen Bar","lat":37.78371523709895,"lng":20.898097278049377,"url":"https://maps.app.goo.gl/Anc3Yu4uRzD8XagR9?g_st=ipc","address":"Lomvardou 36, Zakinthos 291 00","categoryIds":["coffee-brunch"],"categories":["Coffee & Brunch Spots"]},{"id":"coffeeBrunchRestaurants_ebff8d600624","slug":"jenkins-lounge-eatery-ebff","kind":"restaurant","name":"Jenkins Lounge Eatery","lat":37.786543893628924,"lng":20.898568985854595,"url":"https://maps.app.goo.gl/1TG8uMAi1MTZQgiY8?g_st=ipc","address":"Psaron 3, Zakinthos 291 00","categoryIds":["coffee-brunch"],"categories":["Coffee & Brunch Spots"]}],"nearby":[{"id":"municipalities_c096fa7dc3e8","slug":"stoypa-c096","kind":"municipality","name":"Στούπα","lat":36.8437,"lng":22.2511,"region":"Μάνη","name_en":"Stoupa","region_en":"Mani","distanceKm":0.7745298661852703},{"id":"municipalities_916c7fc5dbd0","slug":"kardamyli-916c","kind":"municipality","name":"Καρδαμύλη","lat":36.887,"lng":22.231,"region":"Μάνη","name_en":"Kardamyli","region_en":"Mani","distanceKm":5.326262206725635},{"id":"greekRestaurants_bea663c90687","slug":"old-kardamili-traditional-restaurant-bea6","kind":"restaurant","name":"Old Kardamili Traditional Restaurant","lat":36.89060323769192,"lng":22.234603142422902,"url":"https://maps.app.goo.gl/6q92ZmmxYbRjcPAK7?g_st=ipc","address":"Καρδαμύλη 240 22","categoryIds":["greek-restaurants"],"categories":["Greek Restaurants"],"distanceKm":5.544778454084945},{"id":"fishTavernasRestaurants_46da75bbca86","slug":"kitro-beach-bar-46da","kind":"restaurant","name":"KITRO beach bar","lat":36.929308748219135,"lng":22.141911839670122,"url":"https://maps.app.goo.gl/UZ9gptAC7Z6jkYbL6?g_st=ipc","address":"Kitries 240 16","categoryIds":["fish-tavernas"],"categories":["Fish Tavernas"],"distanceKm":14.059453832866831},{"id":"greekRestaurants_4b292579b6c1","slug":"kastraki-4b29","kind":"restaurant","name":"Καστράκι","lat":36.99814863061726,"lng":22.16327783385712,"url":"https://maps.app.goo.gl/ruMr5U1HpLAsRyMj8?g_st=ipc","address":"Verga, Καλαμάτα 241 00","categoryIds":["greek-restaurants"],"categories":["Greek Restaurants"],"distanceKm":19.068805491430673},{"id":"fishTavernasRestaurants_665f7217dc6b","slug":"black-pirate-665f","kind":"restaurant","name":"Black Pirate","lat":36.690856383249425,"lng":22.389756995558262,"url":"https://maps.app.goo.gl/heQpgB74pYJ6gzkA7?g_st=ipc","address":"Νέο Οίτυλο 230 62","categoryIds":["fish-tavernas"],"categories":["Fish Tavernas"],"distanceKm":20.684645947427832},{"id":"luxuryDiningRestaurants_572c742b427a","slug":"teloneio-572c","kind":"restaurant","name":"Teloneio","lat":36.679751486113695,"lng":22.377303718290054,"url":"https://maps.app.goo.gl/yvA5KkBJg5eZfsvV9?g_st=ipc","address":"Limeni 230 62","categoryIds":["luxury-dining"],"categories":["Luxury Dining"],"distanceKm":21.14785061523156},{"id":"municipalities_509e8926d849","slug":"areopoli-509e","kind":"municipality","name":"Αρεόπολη","lat":36.6667,"lng":22.3833,"region":"Μάνη","name_en":"Areopoli","region_en":"Mani","distanceKm":22.674979462587952},{"id":"greekRestaurants_b6d91074b1e0","slug":"to-chagiati-b6d9","kind":"restaurant","name":"Το Χαγιάτι","lat":37.02551903300677,"lng":22.1045265688528,"url":"https://maps.app.goo.gl/ULLkprr1KA3431Kr5?g_st=ipc","address":"Χρυσοστόμου Σμύρνης 14, Καλαμάτα 241 00","categoryIds":["greek-restaurants"],"categories":["Greek Restaurants"],"distanceKm":24.35739668585201},{"id":"municipalities_27bb87995f2c","slug":"kalamata-27bb","kind":"municipality","name":"Καλαμάτα","lat":37.0389,"lng":22.1142,"aliases":["Kalamata","Καλαματα"],"region":"Μεσσηνία","name_en":"Kalamata","region_en":"Messinia","distanceKm":25.144518574856686},{"id":"mustSeeAttractions_a11f312d6e9f","slug":"caves-of-diros-a11f","kind":"restaurant","name":"Caves of Diros","lat":36.63819892596898,"lng":22.38069545600633,"url":"https://maps.app.goo.gl/Quro2ZP1jQNXZ1M5A?g_st=ipc","address":"Pyrgos Dirou 230 63","categoryIds":["attractions"],"categories":["Must-See Attractions"],"distanceKm":25.39311093965664},{"id":"cheapEatsRestaurants_4a509c86a037","slug":"souvlakia-o-tzimis-4a50","kind":"restaurant","name":"Souvlakia o Tzimis","lat":37.04342911583992,"lng":22.113254908943482,"url":"https://maps.app.goo.gl/VEjvVPTR3XkkoZxW8?g_st=ipc","address":"Mpenaki 1, Kalamata 241 00","categoryIds":["cheap-eats"],"categories":["Gyros & Cheap Eats"],"distanceKm":25.620142055735617},{"id":"dessertsRestaurants_56efe2dc9d58","slug":"mama-s-sweethouse-56ef","kind":"restaurant","name":"Mama's Sweethouse","lat":37.04347618258237,"lng":22.112767283500112,"url":"https://maps.app.goo.gl/S4yCk6avJpgbawKA7?g_st=ipc","address":"Amfias 20, Kalamata 241 00","categoryIds":["desserts"],"categories":["Dessert Shops"],"distanceKm":25.646679571892232},{"id":"dessertsRestaurants_0a8378cb10e5","slug":"chrysanthe-0a83","kind":"restaurant","name":"Chrysánthē","lat":37.04381316216458,"lng":22.112403710830222,"url":"https://maps.app.goo.gl/CqfQrVAqTCRArs3DA?g_st=ipc","address":"Ithomis 8, Kalamata 241 00","categoryIds":["desserts"],"categories":["Dessert Shops"],"distanceKm":25.695365726235128},{"id":"greekRestaurants_b977f4338c5f","slug":"i-goyrnopoyla-b977","kind":"restaurant","name":"Η Γουρνοπούλα","lat":37.04086694947287,"lng":22.10214692733091,"url":"https://maps.app.goo.gl/t4ZM2LzPoSJAP4xr7?g_st=ipc","address":"Αγίου Δημητρίου 3, Μπουρνιάς 241 00","categoryIds":["greek-restaurants"],"categories":["Greek Restaurants"],"distanceKm":25.89529935498609},{"id":"greekRestaurants_d642ef20da89","slug":"taverna-stoy-kosta-vasileiadis-d642","kind":"restaurant","name":"Ταβέρνα ...Στου Κώστα (Βασιλειάδης)","lat":37.03271251663096,"lng":22.08556254235988,"url":"https://maps.app.goo.gl/kFDrXkX44UQVsEuj6?g_st=ipc","address":"Μπουρνιάς 241 00","categoryIds":["greek-restaurants"],"categories":["Greek Restaurants"],"distanceKm":25.987376869468758},{"id":"greekRestaurants_35c3e15ee9bd","slug":"drosopigi-chasapotaverna-mani-35c3","kind":"restaurant","name":"Δροσοπηγή Χασαποταβέρνα Μάνη.","lat":36.67483709727042,"lng":22.460812585960976,"url":"https://maps.app.goo.gl/Wggw4Prn73TfQ9b49?g_st=ipc","address":"MFF6+W8, Δροσοπηγή 232 00","categoryIds":["greek-restaurants"],"categories":["Greek Restaurants"],"distanceKm":26.05533231820476},{"id":"mustSeeAttractions_10eb6a61dc7d","slug":"mystras-10eb","kind":"restaurant","name":"Mystras","lat":37.06880575051119,"lng":22.375815197260966,"url":"https://maps.app.goo.gl/Ad6oLYv7MUahs6GT6?g_st=ipc","address":"Mistras 231 00","categoryIds":["attractions"],"categories":["Must-See Attractions"],"distanceKm":26.94680404863222},{"id":"mustSeeAttractions_007b974cc264","slug":"archaeological-site-of-mystras-007b","kind":"restaurant","name":"Archaeological Site of Mystras","lat":37.0741056706056,"lng":22.3669181951106,"url":"https://maps.app.goo.gl/hRfeUmzdQ9kFWn689?g_st=ipc","address":"Lower Town 231 00","categoryIds":["attractions"],"categories":["Must-See Attractions"],"distanceKm":27.2051019219354},{"id":"municipalities_9eb3f53efc0e","slug":"sparti-9eb3","kind":"municipality","name":"Σπάρτη","lat":37.0745,"lng":22.4301,"aliases":["Sparta","Sparti","Σπάρτα","Σπαρτιάτες","Σπαρτη"],"region":"Λακωνία","name_en":"Sparta","region_en":"Laconia","distanceKm":29.679334936583775},{"id":"coffeeBrunchRestaurants_de7e3474dbb3","slug":"bouka-bouka-mare-de7e","kind":"restaurant","name":"Bouka Bouka Mare","lat":37.013989599006756,"lng":21.99717016667302,"url":"https://maps.app.goo.gl/8DUAGWFE2uqSxjoi6?g_st=ipc","address":"Παραλία, Messini 242 00","categoryIds":["coffee-brunch"],"categories":["Coffee & Brunch Spots"],"distanceKm":29.961758106972677}],"sameRegion":[],"mentionedGuides":[],"canonicalSlug":"patriko-pub-cafe-b924","isCanonicalEntity":true,"enrichment":{"summary_en":"Patriko Pub-Cafe is a curated restaurant in Stoupa 240 24 in the Coffee & Brunch Spots collection. It is connected to 1 nearby Googlementor picks to help travelers build a stronger local route.","summary_el":"Patriko Pub-Cafe είναι ένα επιλεγμένο σημείο φαγητού στην περιοχή Stoupa 240 24 και ανήκει στη συλλογή Coffee & Brunch Spots. Συνδέεται με 1 κοντινές προτάσεις του Googlementor για πιο ολοκληρωμένη εμπειρία.","vibe_tags":["curated","daytime-favorite"],"best_for":["first-time visitors","food lovers"],"visit_moments":["early morning","late brunch"],"practical_note":"Address and direct map link are available for easy turn-by-turn access.","nearby_walkable_count":1,"nearby_count_2km":1,"confidence":0.9},"areaContext":null,"intentContexts":[]},"__N_SSG":true}