{"pageProps":{"entity":{"id":"cheapEatsRestaurants_24f0cfa0516a","slug":"ringo-kalamaki-pub-24f0","kind":"restaurant","name":"RINGO Kalamaki Pub","lat":37.978249435688795,"lng":23.72590325237898,"url":"https://maps.app.goo.gl/EvDBZN3YG2DfzNcdA?g_st=ipc","address":"Πρωτογένους 8, Αθήνα 105 54","categoryIds":["cheap-eats"],"categories":["Gyros & Cheap Eats"]},"sameCategory":[{"id":"cheapEatsRestaurants_97e6c85445da","slug":"tsiken-the-van-97e6","kind":"restaurant","name":"ΤΣΙΚΕΝ The Van","lat":37.97797456722786,"lng":23.725133314287408,"url":"https://maps.app.goo.gl/QK18bYTh1b11fJt97?g_st=ipc","address":"Μιαούλη 19, Αθήνα 105 54","categoryIds":["cheap-eats"],"categories":["Gyros & Cheap Eats"]},{"id":"cheapEatsRestaurants_16ba629709d2","slug":"just-pita-16ba","kind":"restaurant","name":"Just Pita","lat":37.97840949020096,"lng":23.726739666799467,"url":"https://maps.app.goo.gl/hyeDVXAzDsSq1RQz5?g_st=ipc","address":"Αθηνάς 18, Αθήνα 105 51","categoryIds":["cheap-eats"],"categories":["Gyros & Cheap Eats"]},{"id":"cheapEatsRestaurants_0f0b8dd68736","slug":"the-doc-s-burger-bar-0f0b","kind":"restaurant","name":"The Doc's Burger Bar","lat":37.97742334199844,"lng":23.725636669246807,"url":"https://maps.app.goo.gl/U7fwr2D5HgEHTzhH6?g_st=ipc","address":"Ανδρέα Μιαούλη 10, Αθήνα 105 54","categoryIds":["cheap-eats","vegetarian"],"categories":["Gyros & Cheap Eats","Vegetarian Friendly Restaurants"],"legacySlugs":["the-doc-s-burger-bar-089d"]},{"id":"cheapEatsRestaurants_0371c77b2517","slug":"tsiknaboom-0371","kind":"restaurant","name":"TsiknaBoom","lat":37.97906604032225,"lng":23.726418827071747,"url":"https://maps.app.goo.gl/DxnAjbtDdfK3oFbr9?g_st=ipc","address":"Παλλάδος 2-4, Αθήνα 105 54","categoryIds":["cheap-eats"],"categories":["Gyros & Cheap Eats"]},{"id":"cheapEatsRestaurants_0155944d18e6","slug":"feyrouz-athens-0155","kind":"restaurant","name":"Feyrouz_Athens","lat":37.97815189918129,"lng":23.727647148068286,"url":"https://maps.app.goo.gl/vF2fcE6pnayp7atp8?g_st=ipc","address":"Καρόρη 23 και, Αγάθωνος 1, Αθήνα 105 51","categoryIds":["cheap-eats","vegetarian"],"categories":["Gyros & Cheap Eats","Vegetarian Friendly Restaurants"],"legacySlugs":["feyrouz-athens-e417"]},{"id":"cheapEatsRestaurants_753d5449336c","slug":"la-pizzetta-753d","kind":"restaurant","name":"La Pizzetta","lat":37.97847520528142,"lng":23.728112025622647,"url":"https://maps.app.goo.gl/K4gKpgJyy7hobcQQ6?g_st=ipc","address":"Αιόλου 56, Αθήνα 105 60","categoryIds":["cheap-eats"],"categories":["Gyros & Cheap Eats"]},{"id":"cheapEatsRestaurants_86cc4f5a9e30","slug":"kosta-souvlaki-86cc","kind":"restaurant","name":"Kosta Souvlaki","lat":37.97741645492704,"lng":23.72799295408667,"url":"https://maps.app.goo.gl/Hxj6uVgcEgiQuTDv8?g_st=ipc","address":"Πλ. Αγίας Ειρήνης 2, Αθήνα 105 60","categoryIds":["cheap-eats"],"categories":["Gyros & Cheap Eats"]},{"id":"cheapEatsRestaurants_73b2f6130df6","slug":"groovy-ham-73b2","kind":"restaurant","name":"Groovy Ham","lat":37.978434992498535,"lng":23.728303604469694,"url":"https://maps.app.goo.gl/bFq352ScX4ijnYoH8?g_st=ipc","address":"Μιλτιάδου 22, Αθήνα 105 60","categoryIds":["cheap-eats"],"categories":["Gyros & Cheap Eats"]},{"id":"asianRestaurants_3e39975f70d5","slug":"streetwok-3e39","kind":"restaurant","name":"StreetWok","lat":37.97689230907057,"lng":23.727592595188877,"url":"https://maps.app.goo.gl/qhpXyetVXaLisBEWA?g_st=ipc","address":"Αιόλου 21, Αθήνα 105 63","categoryIds":["asian","cheap-eats"],"categories":["Asian Restaurants","Gyros & Cheap Eats"],"legacySlugs":["streetwok-7239"]},{"id":"cheapEatsRestaurants_f2848f6727ab","slug":"tylixto-monastiraki-f284","kind":"restaurant","name":"TYLIXTO MONASTIRAKI","lat":37.976859135543,"lng":23.727597993730694,"url":"https://maps.app.goo.gl/s8G17xLU1a1prvZq8?g_st=ipc","address":"Aiolou 19 TYLIXTO, Αιόλου 19, Αθήνα 105 51","categoryIds":["cheap-eats"],"categories":["Gyros & Cheap Eats"]},{"id":"cheapEatsRestaurants_3d671140dfef","slug":"o-thanasis-kempap-monastiraki-3d67","kind":"restaurant","name":"Ο Θανάσης κεμπάπ Μοναστηράκι","lat":37.976291478347854,"lng":23.726486093222853,"url":"https://maps.app.goo.gl/1dqXX7TB1pvVovcv8?g_st=ipc","address":"Μητροπόλεως 69, Αθήνα 105 55","categoryIds":["cheap-eats"],"categories":["Gyros & Cheap Eats"]},{"id":"cheapEatsRestaurants_eaf8d8c0d190","slug":"bouloukos-kebab-eaf8","kind":"restaurant","name":"Bouloukos Kebab","lat":37.980172161906935,"lng":23.72690266572384,"url":"https://maps.app.goo.gl/eUePB41Ppi2PT7NL7?g_st=ipc","address":"Αθηνάς 53, Αθήνα 105 52","categoryIds":["cheap-eats"],"categories":["Gyros & Cheap Eats"]}],"nearby":[{"id":"dessertsRestaurants_d96257796e81","slug":"kokkion-monastiraki-d962","kind":"restaurant","name":"Kokkion Μοναστηράκι","lat":37.97829626511462,"lng":23.72638522814765,"url":"https://maps.app.goo.gl/FfAWG58apt6AFDPU7?g_st=ipc","address":"Πρωτογένους 2, Αθήνα 105 54","categoryIds":["desserts"],"categories":["Dessert Shops"],"distanceKm":0.042564291972905344},{"id":"dessertsRestaurants_259da585070b","slug":"loukoumadaki-athens-259d","kind":"restaurant","name":"Loukoumadaki Athens","lat":37.977901135383384,"lng":23.725373600096002,"url":"https://maps.app.goo.gl/qqDCoKK1WRYwRxk99?g_st=ipc","address":"Miaouli 18, Athina 105 54","categoryIds":["desserts"],"categories":["Dessert Shops"],"distanceKm":0.060457366061940916},{"id":"dessertsRestaurants_64c591cf617e","slug":"l-arte-del-gelato-64c5","kind":"restaurant","name":"L'Arte del Gelato","lat":37.97831483150659,"lng":23.72508265750619,"url":"https://maps.app.goo.gl/8FCA5DcN18fwe2916?g_st=ipc","address":"Μιαούλη 26, Αθήνα 105 54","categoryIds":["desserts"],"categories":["Dessert Shops"],"distanceKm":0.0722907641117009},{"id":"cheapEatsRestaurants_97e6c85445da","slug":"tsiken-the-van-97e6","kind":"restaurant","name":"ΤΣΙΚΕΝ The Van","lat":37.97797456722786,"lng":23.725133314287408,"url":"https://maps.app.goo.gl/QK18bYTh1b11fJt97?g_st=ipc","address":"Μιαούλη 19, Αθήνα 105 54","categoryIds":["cheap-eats"],"categories":["Gyros & Cheap Eats"],"distanceKm":0.07408294134403294},{"id":"cheapEatsRestaurants_16ba629709d2","slug":"just-pita-16ba","kind":"restaurant","name":"Just Pita","lat":37.97840949020096,"lng":23.726739666799467,"url":"https://maps.app.goo.gl/hyeDVXAzDsSq1RQz5?g_st=ipc","address":"Αθηνάς 18, Αθήνα 105 51","categoryIds":["cheap-eats"],"categories":["Gyros & Cheap Eats"],"distanceKm":0.07543997348023938},{"id":"dessertsRestaurants_b25f1646b2cd","slug":"zoympoyrloy-b25f","kind":"restaurant","name":"Ζουμπουρλού","lat":37.97853908270467,"lng":23.72510275526626,"url":"https://maps.app.goo.gl/Cfhdki2vmrcV7YwL6?g_st=ipc","address":"Αισχύλου 4, Αθήνα 105 54","categoryIds":["desserts"],"categories":["Dessert Shops"],"distanceKm":0.0772015487296038},{"id":"dessertsRestaurants_5f029576403e","slug":"mrsofty-5f02","kind":"restaurant","name":"MrSofty","lat":37.97794945664196,"lng":23.72507127899626,"url":"https://maps.app.goo.gl/qwbSWbdWTMN4EmVKA?g_st=ipc","address":"Miaouli 19, Athina 105 54","categoryIds":["desserts"],"categories":["Dessert Shops"],"distanceKm":0.08018848097026564},{"id":"coffeeBrunchRestaurants_efaa63d4fa10","slug":"dope-efaa","kind":"restaurant","name":"Dope","lat":37.97832305246442,"lng":23.72690477526337,"url":"https://maps.app.goo.gl/JomysUEbYVtYn2KN6?g_st=ipc","address":"Βύσσης 25, Αθήνα 105 51","categoryIds":["coffee-brunch"],"categories":["Coffee & Brunch Spots"],"distanceKm":0.08816305763568391},{"id":"dessertsRestaurants_d00ebd9aea63","slug":"to-sermpetospito-tis-nansys-d00e","kind":"restaurant","name":"Το Σερμπετόσπιτο της Νάνσυς","lat":37.97833603994479,"lng":23.724854486877806,"url":"https://maps.app.goo.gl/uH3RaY6mJ3jPCHMHA?g_st=ipc","address":"Πλ. Ηρώων 1, Αθήνα 105 54","categoryIds":["desserts"],"categories":["Dessert Shops"],"distanceKm":0.09242600818227927},{"id":"dessertsRestaurants_195d87455c89","slug":"ta-serbetia-stou-psyrri-195d","kind":"restaurant","name":"Ta Serbetia stou Psyrri","lat":37.97876489928662,"lng":23.725063077362762,"url":"https://maps.app.goo.gl/t2M6Ma6B3LXC2PSo6?g_st=ipc","address":"105 54, Eschilou 3, Athina 105 54","categoryIds":["desserts"],"categories":["Dessert Shops"],"distanceKm":0.09331714290091164},{"id":"cheapEatsRestaurants_0f0b8dd68736","slug":"the-doc-s-burger-bar-0f0b","kind":"restaurant","name":"The Doc's Burger Bar","lat":37.97742334199844,"lng":23.725636669246807,"url":"https://maps.app.goo.gl/U7fwr2D5HgEHTzhH6?g_st=ipc","address":"Ανδρέα Μιαούλη 10, Αθήνα 105 54","categoryIds":["cheap-eats","vegetarian"],"categories":["Gyros & Cheap Eats","Vegetarian Friendly Restaurants"],"legacySlugs":["the-doc-s-burger-bar-089d"],"distanceKm":0.09478263759113023},{"id":"cheapEatsRestaurants_0371c77b2517","slug":"tsiknaboom-0371","kind":"restaurant","name":"TsiknaBoom","lat":37.97906604032225,"lng":23.726418827071747,"url":"https://maps.app.goo.gl/DxnAjbtDdfK3oFbr9?g_st=ipc","address":"Παλλάδος 2-4, Αθήνα 105 54","categoryIds":["cheap-eats"],"categories":["Gyros & Cheap Eats"],"distanceKm":0.10142545941560169},{"id":"coffeeBrunchRestaurants_8d3de33104cf","slug":"the-brunch-factory-8d3d","kind":"restaurant","name":"The Brunch Factory","lat":37.977341602927304,"lng":23.726205472467996,"url":"https://maps.app.goo.gl/CB8h73sPXUiPQmTu7?g_st=ipc","address":"Αθηνάς 11, Αθήνα 105 54","categoryIds":["coffee-brunch"],"categories":["Coffee & Brunch Spots"],"distanceKm":0.10436408718644644},{"id":"fishTavernasRestaurants_258b48244975","slug":"linoy-soympasis-kai-sia-258b","kind":"restaurant","name":"ΛΙΝΟΥ ΣΟΥΜΠΑΣΗΣ ΚΑΙ ΣΙΑ","lat":37.97931845245544,"lng":23.725978511536088,"url":"https://maps.app.goo.gl/K7omqvkBiNsvXTkW8?g_st=ipc","address":"Μελανθίου 2, Αθήνα 105 54 &, Καλαμίδα 9, Αθήνα 105 54","categoryIds":["fish-tavernas"],"categories":["Fish Tavernas"],"distanceKm":0.11905212283041418},{"id":"fishTavernasRestaurants_4ce059d48e50","slug":"lsandsia-4ce0","kind":"restaurant","name":"lsandsia","lat":37.97936959687578,"lng":23.725957904871184,"url":"https://maps.app.goo.gl/VGsVN7MnXG9J2joA7?g_st=ipc","address":"Μελανθίου 2, Αθήνα 105 54","categoryIds":["fish-tavernas"],"categories":["Fish Tavernas"],"distanceKm":0.12464831757523956},{"id":"greekRestaurants_63d3f13668e8","slug":"flint-athens-63d3","kind":"restaurant","name":"Flint Athens","lat":37.97865798885805,"lng":23.724488894508067,"url":"https://maps.app.goo.gl/Fj4mZsQhG6Dryz9HA","address":"Αγ. Αναργύρων 6, Αθήνα 105 54","categoryIds":["greek-restaurants"],"categories":["Greek Restaurants"],"distanceKm":0.1320282738655079},{"id":"italianRestaurants_f99f052e2cb0","slug":"tartufo-cucina-italiana-f99f","kind":"restaurant","name":"Tartufo Cucina Italiana","lat":37.97745304334609,"lng":23.72475266844782,"url":"https://maps.app.goo.gl/VGYffngsR22p4GZ36?g_st=ipc","address":"Αγ. Θέκλας 9, Αθήνα 105 54","categoryIds":["italian"],"categories":["Italian Restaurants"],"distanceKm":0.13420966525972317},{"id":"coffeeBrunchRestaurants_06cd6550247a","slug":"to-koyloyri-toy-psyrri-06cd","kind":"restaurant","name":"Το Κουλούρι του Ψυρρή","lat":37.977887972011985,"lng":23.724432470303434,"url":"https://maps.app.goo.gl/mrSptKu5z8RBZP9j8?g_st=ipc","address":"Γεωργίου Καραϊσκάκη 23, Αθήνα 105 54","categoryIds":["coffee-brunch"],"categories":["Coffee & Brunch Spots"],"distanceKm":0.135033042292842},{"id":"burgersRestaurants_d55e3b1fc4f6","slug":"one-burger-d55e","kind":"restaurant","name":"ONE BURGER","lat":37.97831953861062,"lng":23.727493287060057,"url":"https://maps.app.goo.gl/N76y7HGoU6TuZHcW8?g_st=ipc","address":"Αγάθωνος 7, Αθήνα 105 51","categoryIds":["burgers"],"categories":["Burger Spots"],"distanceKm":0.13958236447462768},{"id":"coffeeBrunchRestaurants_26528fa68af9","slug":"the-brunchers-2652","kind":"restaurant","name":"The Brunchers","lat":37.97723167635048,"lng":23.724930062728706,"url":"https://maps.app.goo.gl/28Tan1nmqMaPBFMr7?g_st=ipc","address":"Αγ. Θέκλας 5, Αθήνα 105 54","categoryIds":["coffee-brunch","vegetarian"],"categories":["Coffee & Brunch Spots","Vegetarian Friendly Restaurants"],"legacySlugs":["the-brunchers-2110"],"distanceKm":0.14171582855587123},{"id":"rooftopLoungesRestaurants_24e545264e5c","slug":"ms-24e5","kind":"restaurant","name":"MS","lat":37.97691417323162,"lng":23.726058429208038,"url":"https://maps.app.goo.gl/bs3sf3hsdSxC6Beo9?g_st=ipc","address":"Athinas 1 &, Ερμού, Αθήνα 105 54","categoryIds":["rooftop-lounges"],"categories":["Rooftop Lounges"],"distanceKm":0.14909608615167172},{"id":"coffeeBrunchRestaurants_dda6cb75ebfa","slug":"snob-athens-luxury-rooms-espresso-gastro-bar-dda6","kind":"restaurant","name":"SNOB Athens Luxury Rooms & Espresso Gastro Bar","lat":37.97706349386115,"lng":23.726726410113187,"url":"https://maps.app.goo.gl/Z7rJpaKMWG44Coit8?g_st=ipc","address":"Αγίας Ειρήνης 17, Αθήνα 105 51","categoryIds":["coffee-brunch"],"categories":["Coffee & Brunch Spots"],"distanceKm":0.150317712237569},{"id":"dessertsRestaurants_31563f38c3c8","slug":"little-kook-3156","kind":"restaurant","name":"Little Kook","lat":37.977733085549225,"lng":23.724289592884226,"url":"https://maps.app.goo.gl/i8dJi89C6KdUv3Qy8?g_st=ipc","address":"Καραϊσκάκη, Αθήνα 105 54","categoryIds":["desserts"],"categories":["Dessert Shops"],"distanceKm":0.1526454133789351},{"id":"rooftopLoungesRestaurants_18ce337fd426","slug":"a-for-athens-18ce","kind":"restaurant","name":"A for Athens","lat":37.97687634031922,"lng":23.725767271545557,"url":"https://maps.app.goo.gl/Vq5qVpsf9STrBATY9?g_st=ipc","address":"Μιαούλη 2-4, Αθήνα 105 54","categoryIds":["rooftop-lounges"],"categories":["Rooftop Lounges"],"distanceKm":0.15314573223106007}],"sameRegion":[],"mentionedGuides":[],"canonicalSlug":"ringo-kalamaki-pub-24f0","isCanonicalEntity":true,"enrichment":{"summary_en":"RINGO Kalamaki Pub is a curated restaurant in Αθήνα 105 54 in the Gyros & Cheap Eats collection. It is connected to 293 nearby Googlementor picks to help travelers build a stronger local route.","summary_el":"RINGO Kalamaki Pub είναι ένα επιλεγμένο σημείο φαγητού στην περιοχή Αθήνα 105 54 και ανήκει στη συλλογή Gyros & Cheap Eats. Συνδέεται με 293 κοντινές προτάσεις του Googlementor για πιο ολοκληρωμένη εμπειρία.","vibe_tags":["curated","budget-friendly"],"best_for":["first-time visitors","food lovers","budget travelers"],"visit_moments":["lunch stop","dinner stop"],"practical_note":"Address and direct map link are available for easy turn-by-turn access.","nearby_walkable_count":293,"nearby_count_2km":628,"confidence":0.98},"areaContext":{"slug":"monastiraki","name":"Monastiraki"},"intentContexts":[{"href":"/cheap-eats/monastiraki","label":"Gyros & Cheap Eats in Monastiraki","categorySlug":"cheap-eats","categoryName":"Gyros & Cheap Eats","areaSlug":"monastiraki","areaName":"Monastiraki"}]},"__N_SSG":true}