{"pageProps":{"entity":{"id":"municipalities_0334126572d2","slug":"rodos-0334","kind":"municipality","name":"Ρόδος","lat":36.434,"lng":28.217,"aliases":["Rodos","Rhodos","Ρόδη","Ροδος"],"region":"Δωδεκάνησα","name_en":"Rhodes","region_en":"Dodecanese"},"sameCategory":[],"nearby":[{"id":"municipalities_949baf66ab53","slug":"ixia-949b","kind":"municipality","name":"Ίξια","lat":36.4328,"lng":28.2056,"aliases":["Ιξια"],"region":"Ρόδος","name_en":"Ixia","region_en":"Rhodes","distanceKm":1.0285544245865268},{"id":"greekRestaurants_17adb0f648d3","slug":"mama-sofia-17ad","kind":"restaurant","name":"Μαμά Σοφία","lat":36.4441876301452,"lng":28.223517806980094,"url":"https://maps.app.goo.gl/X3ifevtVb6h2atUp6?g_st=ipc","address":"Οδός Ορφέως 28, Παλιά Πόλη, 28 Orfeos Street, Old Town, Rhodes/Rodos 851 00","categoryIds":["greek-restaurants"],"categories":["Greek Restaurants"],"distanceKm":1.274053799395164},{"id":"fishTavernasRestaurants_21b0c4363779","slug":"pizanias-the-sea-star-21b0","kind":"restaurant","name":"Pizanias The Sea Star","lat":36.44219184483265,"lng":28.227392660524885,"url":"https://maps.app.goo.gl/bmjrpg6PxNfVuRyLA?g_st=ipc","address":"Sofokleous 24, Rodos 851 31","categoryIds":["fish-tavernas"],"categories":["Fish Tavernas"],"distanceKm":1.3015542100071893},{"id":"mustSeeAttractions_d121969affdc","slug":"palace-of-the-grand-master-of-the-knights-of-rhodes-d121","kind":"restaurant","name":"Palace of the Grand Master of the Knights of Rhodes","lat":36.44545330682862,"lng":28.224197135579786,"url":"https://maps.app.goo.gl/R9sce6Eydu3PYta2A?g_st=ipc","address":"Ippoton, Rodos 851 00","categoryIds":["attractions"],"categories":["Must-See Attractions"],"distanceKm":1.4270341008255487},{"id":"dessertsRestaurants_ebbd52b2670e","slug":"hatzifotiou-ebbd","kind":"restaurant","name":"Hatzifotiou","lat":36.436204834104664,"lng":28.23364904254758,"url":"https://maps.app.goo.gl/KUPjw8WfQrcXZbYA6?g_st=ipc","address":"Kanada 69, Rodos 851 32","categoryIds":["desserts"],"categories":["Dessert Shops"],"distanceKm":1.5094607579882118},{"id":"mustSeeAttractions_934f36a67efa","slug":"medieval-city-of-rhodes-934f","kind":"restaurant","name":"Medieval City of Rhodes","lat":36.44472167652259,"lng":28.227519564434186,"url":"https://maps.app.goo.gl/ni4J6nqoFxCxVhof9?g_st=ipc","address":"Pl. Mouson 6, Rodos 851 00","categoryIds":["attractions"],"categories":["Must-See Attractions"],"distanceKm":1.5188349306777618},{"id":"burgersRestaurants_8219677fe965","slug":"nom-street-food-smashed-burgers-8219","kind":"restaurant","name":"Nom street food & smashed burgers","lat":36.44818806230804,"lng":28.221540618444198,"url":"https://maps.app.goo.gl/jzcVrFqav7KsRnsy7?g_st=ipc","address":"Sofokli Venizelou 30, Rodos 851 00","categoryIds":["burgers"],"categories":["Burger Spots"],"distanceKm":1.6290869978748437},{"id":"fishTavernasRestaurants_7e035939a6db","slug":"traditional-cafe-symi-7e03","kind":"restaurant","name":"Traditional Cafe Symi","lat":36.447396932123645,"lng":28.225462639664087,"url":"https://maps.app.goo.gl/bB5NM791bDAKeYYP8?g_st=ipc","address":"Nea Agora 109, Rodos 851 00","categoryIds":["fish-tavernas"],"categories":["Fish Tavernas"],"distanceKm":1.6709829294103942},{"id":"coffeeBrunchRestaurants_e533a6bcb85f","slug":"naval-cafe-bar-restaurant-e533","kind":"restaurant","name":"NAVAL Cafe Bar Restaurant","lat":36.43323816273261,"lng":28.237832164715215,"url":"https://maps.app.goo.gl/LEtJZTyLhqkrZEGE7?g_st=ipc","address":"Rhodes","categoryIds":["coffee-brunch"],"categories":["Coffee & Brunch Spots"],"distanceKm":1.865598356697467},{"id":"mustSeeAttractions_9e44fa658aa5","slug":"colossus-of-rhodes-9e44","kind":"restaurant","name":"Colossus of Rhodes","lat":36.451202414947005,"lng":28.227839764419826,"url":"https://maps.app.goo.gl/11HZKgu3Z71ViGrP9?g_st=ipc","address":"Pl. Neoriou, Rodos 851 00","categoryIds":["attractions"],"categories":["Must-See Attractions"],"distanceKm":2.1445427510222714},{"id":"cheapEatsRestaurants_a7d0ccb07796","slug":"mr-g-s-psitopoleio-greek-street-food-a7d0","kind":"restaurant","name":"Mr.G's - Ψητοπωλείο - Greek Street Food","lat":36.45328895287043,"lng":28.221248936648102,"url":"https://maps.app.goo.gl/HQkLX39r1Ru88dxq8?g_st=ipc","address":"Geor. Papanikolaou 8, Rodos 851 00","categoryIds":["cheap-eats"],"categories":["Gyros & Cheap Eats"],"distanceKm":2.1782475112686353},{"id":"municipalities_00d2375b94d4","slug":"kallithea-rodoy-00d2","kind":"municipality","name":"Καλλιθέα Ρόδου","lat":36.3856,"lng":28.2236,"aliases":["Καλλιθεα Ροδου","Kallithea Springs","Kalithea Springs"],"region":"Ρόδος","name_en":"Kalithea Rhodes","region_en":"Rhodes","distanceKm":5.4141464058644235},{"id":"municipalities_f04269be7e15","slug":"ialysos-f042","kind":"municipality","name":"Ιαλυσός","lat":36.4149,"lng":28.1588,"region":"Ρόδος","name_en":"Ialysos","region_en":"Rhodes","distanceKm":5.623722260238745},{"id":"luxuryDiningRestaurants_f925bc8a8505","slug":"noble-gourmet-restaurant-f925","kind":"restaurant","name":"Noble Gourmet Restaurant","lat":36.37247796232997,"lng":28.224879049367335,"url":"https://maps.app.goo.gl/ymJ2kfjKBHsihXtt9?g_st=ipc","address":"Elysium Resort & Spa | 5 star hotel in Rhodes, Leoforos Rodou - Kallitheas, Ammoudes 851 00","categoryIds":["luxury-dining"],"categories":["Luxury Dining"],"distanceKm":6.877184770407248},{"id":"familyFriendly_569351c660b6","slug":"waterpark-5693","kind":"restaurant","name":"WaterPark","lat":36.36437213652793,"lng":28.212294371159473,"url":"https://maps.app.goo.gl/6wgTeh9tgUC2bD1a8?g_st=ipc","address":"Athanaton, Rodos 851 05","categoryIds":["family-friendly"],"categories":["Kid Friendly Locations"],"distanceKm":7.753711664069607},{"id":"municipalities_a670e0839011","slug":"faliraki-a670","kind":"municipality","name":"Φαληράκι","lat":36.339,"lng":28.199,"region":"Ρόδος","name_en":"Faliraki","region_en":"Rhodes","distanceKm":10.685697938734794},{"id":"municipalities_a9dfbd3c4048","slug":"kolympia-a9df","kind":"municipality","name":"Κολύμπια","lat":36.2943,"lng":28.2011,"region":"Ρόδος","name_en":"Kolympia","region_en":"Rhodes","distanceKm":15.599037202309054},{"id":"familyFriendly_79cc8da6366f","slug":"butterflies-valley-79cc","kind":"restaurant","name":"Butterflies Valley","lat":36.33937370008562,"lng":28.059689128523214,"url":"https://maps.app.goo.gl/VV66xLTvU3w6LKzy9?g_st=ipc","address":"Επάνω Καλαμωνας 851 06","categoryIds":["family-friendly"],"categories":["Kid Friendly Locations"],"distanceKm":17.578603321217127},{"id":"greekRestaurants_091086b3e4f0","slug":"taverna-to-steki-0910","kind":"restaurant","name":"Taverna To Steki","lat":36.214820215510855,"lng":28.116222906463367,"url":"https://maps.app.goo.gl/whsyEjKzT1J9MqBz8?g_st=ipc","address":"Mezedopwleio To steki, Αρχάγγελος 851 02","categoryIds":["greek-restaurants"],"categories":["Greek Restaurants"],"distanceKm":25.990174829237873},{"id":"fishTavernasRestaurants_5c524a0645d5","slug":"taverna-to-steki-5c52","kind":"restaurant","name":"Taverna To Steki","lat":36.21481289800798,"lng":28.116223331846093,"url":"https://maps.app.goo.gl/uGAqX7jPtUdH564r6?g_st=ipc","address":"Mezedopwleio To steki, Archaggelos 851 02","categoryIds":["fish-tavernas"],"categories":["Fish Tavernas"],"distanceKm":25.990924739414073},{"id":"fishTavernasRestaurants_3329c5f3ac04","slug":"perigiali-sea-food-restaurant-3329","kind":"restaurant","name":"Perigiali Sea Food Restaurant","lat":36.20335875535593,"lng":28.1401896188144,"url":"https://maps.app.goo.gl/BQHAxew1vaRjgSqj8?g_st=ipc","address":"Archangelos 851 02","categoryIds":["fish-tavernas"],"categories":["Fish Tavernas"],"distanceKm":26.55338510578647},{"id":"greekRestaurants_8fa1ab96ff3b","slug":"estiatorio-paragka-8fa1","kind":"restaurant","name":"Εστιατόριο Παράγκα","lat":36.26098242565237,"lng":27.96998024225855,"url":"https://maps.app.goo.gl/rr6G3z1rwAh5ZVjW6?g_st=ipc","address":"Επαρ.Οδ. Απόλλωνα 13, Απόλλωνα 851 06","categoryIds":["greek-restaurants"],"categories":["Greek Restaurants"],"distanceKm":29.318295253797213},{"id":"municipalities_6a80701acb8f","slug":"symi-6a80","kind":"municipality","name":"Σύμη","lat":36.6167,"lng":27.8333,"aliases":["Συμη","Συμι"],"region":"Δωδεκάνησα","name_en":"Symi","region_en":"Dodecanese","distanceKm":39.85245532937378},{"id":"municipalities_1ff64765be31","slug":"chalki-1ff6","kind":"municipality","name":"Χάλκη","lat":36.2167,"lng":27.6167,"aliases":["Χαλκη"],"region":"Δωδεκάνησα","name_en":"Halki","region_en":"Dodecanese","distanceKm":58.957105092793306}],"sameRegion":[{"id":"municipalities_1e15a9b9c22f","slug":"tilos-1e15","kind":"municipality","name":"Τήλος","lat":36.4167,"lng":27.3833,"aliases":["Τηλος"],"region":"Δωδεκάνησα","name_en":"Tilos","region_en":"Dodecanese"},{"id":"municipalities_1ff64765be31","slug":"chalki-1ff6","kind":"municipality","name":"Χάλκη","lat":36.2167,"lng":27.6167,"aliases":["Χαλκη"],"region":"Δωδεκάνησα","name_en":"Halki","region_en":"Dodecanese"},{"id":"municipalities_23af7cf13cb7","slug":"kos-23af","kind":"municipality","name":"Κως","lat":36.892,"lng":27.287,"aliases":["Kos","Κώς","Κω","Κος"],"region":"Δωδεκάνησα","name_en":"Kos","region_en":"Dodecanese"},{"id":"municipalities_426a1844230a","slug":"leros-426a","kind":"municipality","name":"Λέρος","lat":37.133,"lng":26.85,"aliases":["Λερος"],"region":"Δωδεκάνησα","name_en":"Leros","region_en":"Dodecanese"},{"id":"municipalities_6a80701acb8f","slug":"symi-6a80","kind":"municipality","name":"Σύμη","lat":36.6167,"lng":27.8333,"aliases":["Συμη","Συμι"],"region":"Δωδεκάνησα","name_en":"Symi","region_en":"Dodecanese"},{"id":"municipalities_8f7e81543417","slug":"patmos-8f7e","kind":"municipality","name":"Πάτμος","lat":37.308,"lng":26.547,"aliases":["Πατμος"],"region":"Δωδεκάνησα","name_en":"Patmos","region_en":"Dodecanese"},{"id":"municipalities_99d9186f1f31","slug":"agathonisi-99d9","kind":"municipality","name":"Αγαθονήσι","lat":37.456,"lng":26.963,"region":"Δωδεκάνησα","name_en":"Agathonisi","region_en":"Dodecanese"},{"id":"municipalities_a1a685a55092","slug":"arkoi-a1a6","kind":"municipality","name":"Αρκοί","lat":37.372,"lng":26.736,"region":"Δωδεκάνησα","name_en":"Arki","region_en":"Dodecanese"},{"id":"municipalities_a49800fc1df5","slug":"leipsoi-a498","kind":"municipality","name":"Λειψοί","lat":37.2833,"lng":26.7667,"region":"Δωδεκάνησα","name_en":"Lipsi","region_en":"Dodecanese"},{"id":"municipalities_c02abdf5e086","slug":"kalymnos-c02a","kind":"municipality","name":"Κάλυμνος","lat":36.951,"lng":26.98,"aliases":["Καλυμνος"],"region":"Δωδεκάνησα","name_en":"Kalymnos","region_en":"Dodecanese"},{"id":"municipalities_c534040de11e","slug":"karpathos-c534","kind":"municipality","name":"Κάρπαθος","lat":35.507,"lng":27.213,"aliases":["Καρπαθος"],"region":"Δωδεκάνησα","name_en":"Karpathos","region_en":"Dodecanese"},{"id":"municipalities_c60cde881d21","slug":"nisyros-c60c","kind":"municipality","name":"Νίσυρος","lat":36.6,"lng":27.1667,"aliases":["Νισυρος"],"region":"Δωδεκάνησα","name_en":"Nisyros","region_en":"Dodecanese"},{"id":"municipalities_d2bf66140ab6","slug":"astypalaia-d2bf","kind":"municipality","name":"Αστυπάλαια","lat":36.55,"lng":26.35,"region":"Δωδεκάνησα","name_en":"Astypalaia","region_en":"Dodecanese"},{"id":"municipalities_f43d8df9036c","slug":"kastellorizo-f43d","kind":"municipality","name":"Καστελλόριζο","lat":36.151,"lng":29.593,"region":"Δωδεκάνησα","name_en":"Kastellorizo","region_en":"Dodecanese"}],"mentionedGuides":[{"slug":"choose-perfect-greek-island-el","title":"Πώς να Επιλέξετε το Ιδανικό Ελληνικό Νησί"},{"slug":"greece-weather-swimming-ferry-guide-el","title":"Πότε να Επισκεφτείτε την Ελλάδα: Καιρός & Κολύμπι"}],"canonicalSlug":"rodos-0334","isCanonicalEntity":true,"enrichment":{"summary_en":"Ρόδος is a curated neighborhood area in Δωδεκάνησα. It is connected to 0 nearby Googlementor picks to help travelers build a stronger local route.","summary_el":"Ρόδος είναι ένα επιλεγμένο σημείο ενδιαφέροντος στην περιοχή Δωδεκάνησα. Συνδέεται με 0 κοντινές προτάσεις του Googlementor για πιο ολοκληρωμένη εμπειρία.","vibe_tags":["local-neighborhood","base-for-exploring"],"best_for":["first-time visitors","walk-and-explore days","return visitors"],"visit_moments":["late morning walks","sunset exploration"],"practical_note":"0 curated places are within walkable distance from this area center.","nearby_walkable_count":0,"nearby_count_2km":9,"confidence":0.55},"areaContext":{"slug":"rodos","name":"Rhodes"},"intentContexts":[]},"__N_SSG":true}