{"pageProps":{"entity":{"id":"municipalities_9db4da788e71","slug":"rodopoli-9db4","kind":"municipality","name":"Ροδόπολη","lat":38.1307,"lng":23.8504,"region":"Βόρεια Προάστια","name_en":"Rodopoli","region_en":"North Suburbs"},"sameCategory":[],"nearby":[{"id":"italianRestaurants_493a4203dbb3","slug":"da-michele-493a","kind":"restaurant","name":"Da Michele","lat":38.133061719353606,"lng":23.858730163431314,"url":"https://maps.app.goo.gl/ZAb7BbVjZ5jTGd8i8?g_st=ipc","address":"Λεωφ. Μαραθώνος 61, Άνοιξη 145 69","categoryIds":["italian"],"categories":["Italian Restaurants"],"distanceKm":0.7744799650423261},{"id":"dessertsRestaurants_f058cc3bd51b","slug":"galaktopoleio-stamoy-f058","kind":"restaurant","name":"Γαλακτοπωλείο ΣΤΑΜΟΥ","lat":38.1355559087603,"lng":23.85739092129188,"url":"https://maps.app.goo.gl/qoaBzXLhGQRUPCxZ8?g_st=ipc","address":"Λεωφ. Μαραθώνος 88, Άνοιξη 145 69","categoryIds":["desserts"],"categories":["Dessert Shops"],"distanceKm":0.8157329423060197},{"id":"fishTavernasRestaurants_eaec6bd11d2a","slug":"tsipoyradiko-anoixi-para-tetarto-eaec","kind":"restaurant","name":"Τσιπουράδικο \"Άνοιξη παρά Τέταρτο\"","lat":38.13115537085702,"lng":23.860540472523713,"url":"https://maps.app.goo.gl/sSz3YRigMVCbLBcq6?g_st=ipc","address":"Αθηνών Χαλκίδος 17, Άνοιξη 145 69","categoryIds":["fish-tavernas"],"categories":["Fish Tavernas"],"distanceKm":0.8883920961822152},{"id":"municipalities_da89497c2656","slug":"agios-stefanos-da89","kind":"municipality","name":"Άγιος Στέφανος","lat":38.1369,"lng":23.8586,"region":"Βόρεια Προάστια","name_en":"Agios Stefanos","region_en":"North Suburbs","distanceKm":0.9948122816816151},{"id":"italianRestaurants_6f0d9cef63fd","slug":"goloso-ristorante-pizzeria-6f0d","kind":"restaurant","name":"GOLOSO ristorante pizzeria","lat":38.139099968736645,"lng":23.85960963696723,"url":"https://maps.app.goo.gl/kpW87YGKNcL27Bhi9","address":"Grigoriou Lampraki 6, Ag. Stefanos 145 65","categoryIds":["italian"],"categories":["Italian Restaurants"],"distanceKm":1.2333813054315088},{"id":"burgersRestaurants_95cc953a5a70","slug":"con-voi-brunch-burgers-cocktails-95cc","kind":"restaurant","name":"Con Voi Brunch - Burgers & Cocktails","lat":38.12062536277459,"lng":23.858921152377892,"url":"https://maps.app.goo.gl/Nzdtzrh2vbG4T4VM8?g_st=ipc","address":"Λεωφ. Δροσιάς Σταματάς 2, Δροσιά 145 72","categoryIds":["burgers"],"categories":["Burger Spots"],"distanceKm":1.3455583572771146},{"id":"cheapEatsRestaurants_0da1d84ce28f","slug":"mitsos-0da1","kind":"restaurant","name":"Μητσος","lat":38.120677354658696,"lng":23.859244908556484,"url":"https://maps.app.goo.gl/5G7Zm7z9NT4rMbC6A?g_st=ipc","address":"Λεωφ. Δροσιάς Σταματάς 4, Δροσιά 145 75","categoryIds":["cheap-eats"],"categories":["Gyros & Cheap Eats"],"distanceKm":1.3566969477723516},{"id":"asianRestaurants_d8c154eb91c4","slug":"cho-cho-san-drosia-d8c1","kind":"restaurant","name":"Cho Cho San Drosiá","lat":38.12004731625109,"lng":23.859184242640065,"url":"https://maps.app.goo.gl/uWRDz7jVt5VDWMv8A?g_st=ipc","address":"Πεύκων 17, Δροσιά 145 72","categoryIds":["asian"],"categories":["Asian Restaurants"],"distanceKm":1.4119168624057112},{"id":"italianRestaurants_7494ebc89891","slug":"amici-miei-cucina-italiana-7494","kind":"restaurant","name":"Amici Miei Cucina Italiana","lat":38.1201358654641,"lng":23.85982839112877,"url":"https://maps.app.goo.gl/TKR7jw9ozmdL38DBA?g_st=ipc","address":"στρατηγού πετρίτη 7, Δροσιά 145 72","categoryIds":["italian"],"categories":["Italian Restaurants"],"distanceKm":1.4352852264052476},{"id":"greekRestaurants_a8f96784536e","slug":"peinirli-eleytheriadis-a8f9","kind":"restaurant","name":"Πεϊνιρλί Ελευθεριάδης","lat":38.11739320879304,"lng":23.862199451872925,"url":"https://maps.app.goo.gl/hWqtsGrqa7nCZyh16","address":"Σολωμού 26, Δροσιά 145 72","categoryIds":["greek-restaurants"],"categories":["Greek Restaurants"],"distanceKm":1.8040760146366999},{"id":"italianRestaurants_b94ef05a5cdb","slug":"nebbiolo-b94e","kind":"restaurant","name":"Nebbiolo","lat":38.114438017917074,"lng":23.849732672241302,"url":"https://maps.app.goo.gl/wzivni6cAptzeBTTA","address":"Leof. Thiseos 111, Ekali 145 78","categoryIds":["italian"],"categories":["Italian Restaurants"],"distanceKm":1.8091919161421948},{"id":"municipalities_51534bbed11a","slug":"ekali-5153","kind":"municipality","name":"Εκάλη","lat":38.1177,"lng":23.8368,"region":"Βόρεια Προάστια","name_en":"Ekali","region_en":"North Suburbs","distanceKm":1.8721200612673077},{"id":"greekRestaurants_8bd7eaffbbd0","slug":"ayli-8bd7","kind":"restaurant","name":"Αυλή","lat":38.1169884488727,"lng":23.873697271500465,"url":"https://maps.app.goo.gl/j3KcRnM1M4kAsQz36","address":"25ης Μαρτίου 24, Ροδόπολη 145 74","categoryIds":["greek-restaurants"],"categories":["Greek Restaurants"],"distanceKm":2.545130738379342},{"id":"greekRestaurants_3188c54ebc61","slug":"vlachiki-gastra-3188","kind":"restaurant","name":"Βλάχικη Γάστρα","lat":38.11813280551885,"lng":23.875469007658698,"url":"https://maps.app.goo.gl/DHcE17CBEXSZqg9G9","address":"Κολοκοτρώνη 14, Ροδόπολη 145 74","categoryIds":["greek-restaurants"],"categories":["Greek Restaurants"],"distanceKm":2.6002871699609598},{"id":"greekRestaurants_626964779e0f","slug":"pipinios-6269","kind":"restaurant","name":"Pipinios","lat":38.12550464522669,"lng":23.87986733346546,"url":"https://maps.app.goo.gl/iPGdNokEkHQwjcP5A","address":"Πέππα 1, Σταμάτα 145 75","categoryIds":["greek-restaurants"],"categories":["Greek Restaurants"],"distanceKm":2.6414402425733967},{"id":"monasteriesChurches_0be61b94a0f8","slug":"ieros-naos-agias-marinas-ekalis-0be6","kind":"restaurant","name":"Ιερός Ναός Αγίας Μαρίνας Εκάλης","lat":38.10774629476024,"lng":23.837173739444502,"url":"https://maps.app.goo.gl/rDcWxEZj5h9aqKaW6?g_st=ipc","address":"Λεωφ. Θησέως 54, Εκάλη 145 78","categoryIds":["monasteries-churches"],"categories":["Monasteries & Spiritual Sites"],"distanceKm":2.802346807245399},{"id":"municipalities_b9a5c4b0e427","slug":"dionysos-b9a5","kind":"municipality","name":"Διόνυσος","lat":38.106,"lng":23.8583,"region":"Βόρεια Προάστια","name_en":"Dionysos","region_en":"North Suburbs","distanceKm":2.832130682955778},{"id":"municipalities_10b34011c7ab","slug":"stamata-10b3","kind":"municipality","name":"Σταμάτα","lat":38.108,"lng":23.8669,"region":"Βόρεια Προάστια","name_en":"Stamata","region_en":"North Suburbs","distanceKm":2.9076911219456876},{"id":"greekRestaurants_eb34b601c233","slug":"amygdaleza-eb34","kind":"restaurant","name":"Αμυγδαλέζα","lat":38.138791020092526,"lng":23.886474004082586,"url":"https://maps.app.goo.gl/xbczXzqr95568Y2p7","address":"Μεγ. Αλεξάνδρου 86, Σταμάτα 145 75","categoryIds":["greek-restaurants"],"categories":["Greek Restaurants"],"distanceKm":3.280854889676776},{"id":"greekRestaurants_a9fd28504adb","slug":"agroktima-regkoykoy-taverna-stamata-a9fd","kind":"restaurant","name":"Αγρόκτημα Ρεγκούκου Ταβέρνα Σταμάτα","lat":38.142623703496184,"lng":23.888598580375778,"url":"https://maps.app.goo.gl/X9aRczkLosh9Awyu8","address":"Έκτορος, Σταμάτα 145 75","categoryIds":["greek-restaurants"],"categories":["Greek Restaurants"],"distanceKm":3.594296591306888},{"id":"familyFriendly_840d2fe28674","slug":"ktima-kokotoy-840d","kind":"restaurant","name":"ΚΤΗΜΑ ΚΟΚΟΤΟΥ","lat":38.12312970101472,"lng":23.891798090837362,"url":"https://maps.app.goo.gl/9xRLBKhZXYMexEQX8?g_st=ipc","address":"Κτήμα Γ. Κοκοτού 1, Σταμάτα 145 75","categoryIds":["family-friendly","wineries-vineyards"],"categories":["Kid Friendly Locations","Wineries & Vineyards"],"legacySlugs":["ktima-kokotoy-a927"],"distanceKm":3.7176839372713544},{"id":"familyFriendly_993db4ae8c60","slug":"paidikes-ekdiloseis-xenes-glosses-petit-paris-993d","kind":"restaurant","name":"ΠΑΙΔΙΚΕΣ ΕΚΔΗΛΩΣΕΙΣ-ΞΕΝΕΣ ΓΛΩΣΣΕΣ | PETIT PARIS","lat":38.10232524306243,"lng":23.827672622944732,"url":"https://maps.app.goo.gl/4YmyHX6EqG7wK1GEA?g_st=ipc","address":"Κρίνων 2, Νέα Ερυθραία 146 71","categoryIds":["family-friendly"],"categories":["Kid Friendly Locations"],"distanceKm":3.7293497807927043},{"id":"familyFriendly_53d1fe8092e8","slug":"parko-andrea-papandreoy-53d1","kind":"restaurant","name":"Πάρκο Ανδρέα Παπανδρέου","lat":38.1031196150353,"lng":23.81935226972679,"url":"https://maps.app.goo.gl/DqJ2RQU9EoTQdjWRA?g_st=ipc","address":"146 71, Αισχύλου 18, Νέα Ερυθραία 146 71","categoryIds":["family-friendly"],"categories":["Kid Friendly Locations"],"distanceKm":4.096670119253938},{"id":"municipalities_21a4cf6d5b03","slug":"nea-erythraia-21a4","kind":"municipality","name":"Νέα Ερυθραία","lat":38.1025,"lng":23.817,"region":"Βόρεια Προάστια","name_en":"Nea Erythraia","region_en":"Northern Suburbs","distanceKm":4.28606357848605}],"sameRegion":[{"id":"municipalities_1017b19e3550","slug":"nea-filadelfeia-1017","kind":"municipality","name":"Νέα Φιλαδέλφεια","lat":38.0333,"lng":23.7333,"region":"Βόρεια Προάστια","name_en":"Nea Filadelfeia","region_en":"Northern Suburbs"},{"id":"municipalities_10b34011c7ab","slug":"stamata-10b3","kind":"municipality","name":"Σταμάτα","lat":38.108,"lng":23.8669,"region":"Βόρεια Προάστια","name_en":"Stamata","region_en":"North Suburbs"},{"id":"municipalities_138c7310c224","slug":"lykovrysi-138c","kind":"municipality","name":"Λυκόβρυση","lat":38.065,"lng":23.788,"aliases":["Likovrysi","Likovrissi"],"region":"Βόρεια Προάστια","name_en":"Lykovrysi","region_en":"Northern Suburbs"},{"id":"municipalities_21a4cf6d5b03","slug":"nea-erythraia-21a4","kind":"municipality","name":"Νέα Ερυθραία","lat":38.1025,"lng":23.817,"region":"Βόρεια Προάστια","name_en":"Nea Erythraia","region_en":"Northern Suburbs"},{"id":"municipalities_261961302eff","slug":"papagoy-cholargos-2619","kind":"municipality","name":"Παπάγου - Χολαργός","lat":38,"lng":23.8,"region":"Βόρεια Προάστια","name_en":"Papagou - Cholargos","region_en":"Northern Suburbs"},{"id":"municipalities_3dd9311bd3cf","slug":"peyki-3dd9","kind":"municipality","name":"Πεύκη","lat":38.06,"lng":23.792,"aliases":["Pefki","Pefkakia","Πευκη","Peuki","Pefka"],"region":"Βόρεια Προάστια","name_en":"Pefki","region_en":"Northern Suburbs"},{"id":"municipalities_3f6a045ce221","slug":"agia-paraskeyi-3f6a","kind":"municipality","name":"Αγία Παρασκευή","lat":38.0216,"lng":23.827,"region":"Βόρεια Προάστια","name_en":"Agia Paraskevi","region_en":"Northern Suburbs"},{"id":"municipalities_4d3a6952ff1a","slug":"psychiko-4d3a","kind":"municipality","name":"Ψυχικό","lat":38.021,"lng":23.765,"aliases":["Psychiko","Psychicon","Ψυχικο","Psihiko","Psyxiko","Psixiko","Psychico"],"region":"Βόρεια Προάστια","name_en":"Psychiko","region_en":"Northern Suburbs"},{"id":"municipalities_51534bbed11a","slug":"ekali-5153","kind":"municipality","name":"Εκάλη","lat":38.1177,"lng":23.8368,"region":"Βόρεια Προάστια","name_en":"Ekali","region_en":"North Suburbs"},{"id":"municipalities_5c4c490c8c5a","slug":"galatsi-5c4c","kind":"municipality","name":"Γαλάτσι","lat":38.0167,"lng":23.75,"aliases":["Galatsi","Galatsia","Γαλατσι","Galatsion"],"region":"Βόρεια Προάστια","name_en":"Galatsi","region_en":"Northern Suburbs"},{"id":"municipalities_6dce5446e51c","slug":"filothei-6dce","kind":"municipality","name":"Φιλοθέη","lat":38.024,"lng":23.766,"aliases":["Filothei","Filothee","Φιλοθεη","Philothei"],"region":"Βόρεια Προάστια","name_en":"Filothei","region_en":"Northern Suburbs"},{"id":"municipalities_797866e61212","slug":"melissia-7978","kind":"municipality","name":"Μελίσσια","lat":38.05,"lng":23.8333,"aliases":["Melissia","Melissa","Μελισσια"],"region":"Βόρεια Προάστια","name_en":"Melissia","region_en":"Northern Suburbs"},{"id":"municipalities_a312b31dd129","slug":"nea-ionia-a312","kind":"municipality","name":"Νέα Ιωνία","lat":38.0357,"lng":23.7573,"aliases":["Nea Ionia","Νεα Ιωνια"],"region":"Βόρεια Προάστια","name_en":"Nea Ionia","region_en":"Northern Suburbs"},{"id":"municipalities_b9a5c4b0e427","slug":"dionysos-b9a5","kind":"municipality","name":"Διόνυσος","lat":38.106,"lng":23.8583,"region":"Βόρεια Προάστια","name_en":"Dionysos","region_en":"North Suburbs"},{"id":"municipalities_cb47d94cb6da","slug":"maroysi-cb47","kind":"municipality","name":"Μαρούσι","lat":38.0543,"lng":23.808,"aliases":["Marousi","Maroussi","Μαρουσι","Αμαρουσιο","Αμαρούσιο","Marusi","Amarousion"],"region":"Βόρεια Προάστια","name_en":"Marousi","region_en":"Northern Suburbs"},{"id":"municipalities_d9eb5d0054e1","slug":"chalandri-d9eb","kind":"municipality","name":"Χαλάνδρι","lat":38.0232,"lng":23.8007,"aliases":["Chalandr","Halandri","Khalandri","Halandra","Khalandra","Χαλάνδρα","Χαλάνδρη","Χαλανδρι","Xalandri","Xalandr"],"region":"Βόρεια Προάστια","name_en":"Chalandri","region_en":"Northern Suburbs"}],"mentionedGuides":[],"canonicalSlug":"rodopoli-9db4","isCanonicalEntity":true,"enrichment":{"summary_en":"Ροδόπολη is a curated neighborhood area in Βόρεια Προάστια. It is connected to 1 nearby Googlementor picks to help travelers build a stronger local route.","summary_el":"Ροδόπολη είναι ένα επιλεγμένο σημείο ενδιαφέροντος στην περιοχή Βόρεια Προάστια. Συνδέεται με 1 κοντινές προτάσεις του Googlementor για πιο ολοκληρωμένη εμπειρία.","vibe_tags":["local-neighborhood","base-for-exploring"],"best_for":["first-time visitors","walk-and-explore days","return visitors"],"visit_moments":["late morning walks","sunset exploration"],"practical_note":"1 curated places are within walkable distance from this area center.","nearby_walkable_count":1,"nearby_count_2km":12,"confidence":0.55},"areaContext":{"slug":"rodopoli","name":"Rodopoli"},"intentContexts":[]},"__N_SSG":true}