{"pageProps":{"entity":{"id":"luxuryDiningRestaurants_6d0eec69a8bb","slug":"sense-modern-greek-cuisine-6d0e","kind":"restaurant","name":"SENSE Modern Greek Cuisine","lat":37.96950501164825,"lng":23.730857786980206,"url":"https://maps.app.goo.gl/BrJr73pSejAaUrbq6?g_st=ipc","address":"Διονυσίου Αρεοπαγίτου 5, Αθήνα 117 42","categoryIds":["luxury-dining","rooftop-lounges"],"categories":["Luxury Dining","Rooftop Lounges"],"legacySlugs":["sense-modern-greek-cuisine-ffb0"]},"sameCategory":[{"id":"luxuryDiningRestaurants_8f9976dae124","slug":"point-a-acropolis-point-8f99","kind":"restaurant","name":"POINT A (Acropolis Point)","lat":37.968415622994755,"lng":23.72706617377212,"url":"https://maps.app.goo.gl/NiwbpnxKE4g22Tzw6?g_st=ipc","address":"Ροβέρτου Γκάλι 4a, Αθήνα 117 42","categoryIds":["luxury-dining","rooftop-lounges"],"categories":["Luxury Dining","Rooftop Lounges"],"legacySlugs":["point-a-acropolis-point-fcea"]},{"id":"luxuryDiningRestaurants_d7864d62c4d5","slug":"electra-roof-garden-d786","kind":"restaurant","name":"Electra Roof Garden","lat":37.97379853875271,"lng":23.731619747681133,"url":"https://maps.app.goo.gl/DRSR8qGkR5GU1Bts9?g_st=ipc","address":"Ναυάρχου Νικοδήμου 18-20, Αθήνα 105 57","categoryIds":["luxury-dining","rooftop-lounges"],"categories":["Luxury Dining","Rooftop Lounges"],"legacySlugs":["electra-roof-garden-e530"]},{"id":"luxuryDiningRestaurants_ea67b94ccce5","slug":"art-lounge-rooftop-ea67","kind":"restaurant","name":"Art Lounge Rooftop","lat":37.97343240978713,"lng":23.73349750420062,"url":"https://maps.app.goo.gl/ou4XFAAMpTQ3uTaeA?g_st=ipc","address":"Ναυάρχου Νικοδήμου 1, Αθήνα 105 57","categoryIds":["luxury-dining","rooftop-lounges"],"categories":["Luxury Dining","Rooftop Lounges"],"legacySlugs":["art-lounge-rooftop-f22b"]},{"id":"luxuryDiningRestaurants_45e8a4dd5c78","slug":"metropolis-roof-garden-45e8","kind":"restaurant","name":"Metropolis Roof Garden","lat":37.97522262578899,"lng":23.732019777211896,"url":"https://maps.app.goo.gl/zUugGUWG4UDszZX58?g_st=ipc","address":"Μητροπόλεως 15, Αθήνα 105 57","categoryIds":["luxury-dining","rooftop-lounges"],"categories":["Luxury Dining","Rooftop Lounges"],"legacySlugs":["metropolis-roof-garden-f3d7"]},{"id":"luxuryDiningRestaurants_2a500f95083c","slug":"the-zillers-rooftop-gastronomy-2a50","kind":"restaurant","name":"The Zillers Rooftop Gastronomy","lat":37.97561073825588,"lng":23.729618727455946,"url":"https://maps.app.goo.gl/3rX2B6EznK5THCsX9?g_st=ipc","address":"Μητροπόλεως 54, Αθήνα 105 63","categoryIds":["luxury-dining","rooftop-lounges"],"categories":["Luxury Dining","Rooftop Lounges"],"legacySlugs":["the-zillers-rooftop-gastronomy-deda"]},{"id":"luxuryDiningRestaurants_83e86c45f94e","slug":"dolli-s-83e8","kind":"restaurant","name":"DOLLI•S","lat":37.97581257538226,"lng":23.728126338151636,"url":"https://maps.app.goo.gl/otc3c7Va7CjPm1DW6?g_st=ipc","address":"Μητροπόλεως 49, Αθήνα 105 56","categoryIds":["luxury-dining","rooftop-lounges"],"categories":["Luxury Dining","Rooftop Lounges"],"legacySlugs":["dolli-s-6749"]},{"id":"luxuryDiningRestaurants_1ec414f34680","slug":"okra-1ec4","kind":"restaurant","name":"Okra","lat":37.976265060511366,"lng":23.727023267502062,"url":"https://maps.app.goo.gl/WKQy9EmSUhqhWCug7?g_st=ipc","address":"Μητροπόλεως 82, Αθήνα 105 55","categoryIds":["luxury-dining","rooftop-lounges"],"categories":["Luxury Dining","Rooftop Lounges"],"legacySlugs":["okra-912c"]},{"id":"luxuryDiningRestaurants_625d4bb407a4","slug":"tudor-hall-625d","kind":"restaurant","name":"Tudor Hall","lat":37.97626476939356,"lng":23.73492119381686,"url":"https://maps.app.goo.gl/cS5CQSpmozciczpaA?g_st=ipc","address":"Γεωρ. Α' 3, Αθήνα 105 64","categoryIds":["luxury-dining","rooftop-lounges"],"categories":["Luxury Dining","Rooftop Lounges"],"legacySlugs":["tudor-hall-611d"]},{"id":"luxuryDiningRestaurants_1c82eb719373","slug":"mappemonde-restaurant-bar-lounge-1c82","kind":"restaurant","name":"MAPPEMONDE RESTAURANT BAR-LOUNGE","lat":37.97696364697298,"lng":23.73616989138591,"url":"https://maps.app.goo.gl/WYq3Lbdn3q9HxutG9?g_st=ipc","address":"4 Eleftheriou Venizelou Avenue and, Κριεζώτου 2, Αθήνα 106 71","categoryIds":["luxury-dining","rooftop-lounges"],"categories":["Luxury Dining","Rooftop Lounges"],"legacySlugs":["mappemonde-restaurant-bar-lounge-a1dc"]},{"id":"asianRestaurants_e45a00190680","slug":"nyx-japanese-rooftop-gastrobar-e45a","kind":"restaurant","name":"NYX Japanese Rooftop Gastrobar","lat":37.979692107976724,"lng":23.736124325689694,"url":"https://maps.app.goo.gl/Tg5ncVYwYwG98YZBA?g_st=ipc","address":"Ομήρου 19, Αθήνα 106 19","categoryIds":["asian","luxury-dining","rooftop-lounges"],"categories":["Asian Restaurants","Luxury Dining","Rooftop Lounges"],"legacySlugs":["nyx-japanese-rooftop-gastrobar-3e6e","nyx-japanese-rooftop-gastrobar-f14e"]},{"id":"luxuryDiningRestaurants_d4cce740d47c","slug":"rooftop-terrace-on-top-of-st-george-hotel-d4cc","kind":"restaurant","name":"Rooftop Terrace on top of St. George Hotel","lat":37.97925289319014,"lng":23.74214536289671,"url":"https://maps.app.goo.gl/NWNaSroxE1Lncry6A?g_st=ipc","address":"Αθήνα 106 75","categoryIds":["luxury-dining","rooftop-lounges"],"categories":["Luxury Dining","Rooftop Lounges"],"legacySlugs":["rooftop-terrace-on-top-of-st-george-hotel-9716"]},{"id":"luxuryDiningRestaurants_44502c11c3d7","slug":"orizontes-lycabettus-4450","kind":"restaurant","name":"Orizontes Lycabettus","lat":37.98180885773441,"lng":23.743545726263044,"url":"https://maps.app.goo.gl/aRWFTJLNa9obfB379?g_st=ipc","address":"Αριστίππου 1, Αθήνα 106 76","categoryIds":["luxury-dining","rooftop-lounges"],"categories":["Luxury Dining","Rooftop Lounges"],"legacySlugs":["orizontes-lycabettus-8840"]}],"nearby":[{"id":"rooftopLoungesRestaurants_f8cacb8baac7","slug":"athens-gate-rooftop-bar-restaurant-f8ca","kind":"restaurant","name":"Athens Gate Rooftop Bar & Restaurant","lat":37.968775997362016,"lng":23.73145032913701,"url":"https://maps.app.goo.gl/q9X7pZzbyKPo8wEb6?g_st=ipc","address":"Leof. Andrea Siggrou 10, Athina 117 41","categoryIds":["rooftop-lounges"],"categories":["Rooftop Lounges"],"distanceKm":0.09627634947930515},{"id":"vegetarianRestaurants_981aa1875a12","slug":"indian-haveli-981a","kind":"restaurant","name":"Indian Haveli","lat":37.96857000104929,"lng":23.731444541000045,"url":"https://maps.app.goo.gl/2tEYTJw1y4aL2Rgo7?g_st=ipc","address":"Λεωφ. Ανδρέα Συγγρού 12, Αθήνα 117 42","categoryIds":["vegetarian"],"categories":["Vegetarian Friendly Restaurants"],"distanceKm":0.11599554619803912},{"id":"mustSeeAttractions_a3aa8075d8fc","slug":"arch-of-hadrian-a3aa","kind":"restaurant","name":"Arch of Hadrian","lat":37.970210610652515,"lng":23.73198089152641,"url":"https://maps.app.goo.gl/XDM6bEzic8EMa3FX7?g_st=ipc","address":"Leof. Vasilisis Amalias 50, Athina 105 58","categoryIds":["attractions"],"categories":["Must-See Attractions"],"distanceKm":0.12588971873341645},{"id":"cheapEatsRestaurants_7d6699a91456","slug":"o-gyros-poy-gyreyeis-7d66","kind":"restaurant","name":"ο γύρος που γυρεύεις","lat":37.968706021561665,"lng":23.729791439377735,"url":"https://maps.app.goo.gl/bMFjRtNN6Ztw4H43A?g_st=ipc","address":"Αθανασίου Διάκου 1 Ακρόπολη, Αθήνα 117 42","categoryIds":["cheap-eats"],"categories":["Gyros & Cheap Eats"],"distanceKm":0.12896085206825458},{"id":"dessertsRestaurants_7f61f06e1814","slug":"ice-queen-gelato-7f61","kind":"restaurant","name":"Ice Queen Gelato","lat":37.96875198593791,"lng":23.729719578537868,"url":"https://maps.app.goo.gl/HyCCcJSVYZCw8dMV7?g_st=ipc","address":"Μακρυγιάννη 9, Αθήνα 117 42","categoryIds":["desserts","vegetarian"],"categories":["Dessert Shops","Vegetarian Friendly Restaurants"],"legacySlugs":["ice-queen-gelato-e688"],"distanceKm":0.1302543703006046},{"id":"mustSeeAttractions_397dfba9f16b","slug":"notia-klitys-akropolis-athinon-397d","kind":"restaurant","name":"Νότια Κλιτύς Ακρόπολης Αθηνών","lat":37.96962866994438,"lng":23.729046031418846,"url":"https://maps.app.goo.gl/5RAt8qpszUA945pG8?g_st=ipc","address":"Διονυσίου Αρεοπαγίτου, Αθήνα 105 58","categoryIds":["attractions"],"categories":["Must-See Attractions"],"distanceKm":0.15941107396787305},{"id":"italianRestaurants_354541199b79","slug":"aglio-olio-peperoncino-3545","kind":"restaurant","name":"AGLIO, OLIO & PEPERONCINO","lat":37.96798831953671,"lng":23.7299912754838,"url":"https://maps.app.goo.gl/EgPatpb6TGQzX94s6?g_st=ipc","address":"Πορίνου 13, Αθήνα 117 42","categoryIds":["italian"],"categories":["Italian Restaurants"],"distanceKm":0.18496486347330884},{"id":"mustSeeAttractions_8085cf28024a","slug":"choragic-monument-of-lysicrates-8085","kind":"restaurant","name":"Choragic Monument of Lysicrates","lat":37.97108971386169,"lng":23.72994596958006,"url":"https://maps.app.goo.gl/7Xgk65sqPNFM93Sy9?g_st=ipc","address":"Epimenidou 3, Athina 105 58","categoryIds":["attractions"],"categories":["Must-See Attractions"],"distanceKm":0.19349109041775564},{"id":"mustSeeAttractions_a7a2908a9221","slug":"naos-toy-olympioy-dios-a7a2","kind":"restaurant","name":"Ναός του Ολυμπίου Διός","lat":37.96929966455042,"lng":23.733099967898216,"url":"https://maps.app.goo.gl/MRiS2rx9HUUxeppD6?g_st=ipc","address":"Αθήνα 105 57","categoryIds":["attractions"],"categories":["Must-See Attractions"],"distanceKm":0.19786998366084063},{"id":"greekRestaurants_c15edd7fcde2","slug":"estiatorio-smile-c15e","kind":"restaurant","name":"Εστιατόριο Smile","lat":37.967615812266935,"lng":23.729979287152204,"url":"https://maps.app.goo.gl/dzqWtwgMFs9Vcqew6","address":"Πλ. Τσώκρη 1, Αθήνα 117 42","categoryIds":["greek-restaurants"],"categories":["Greek Restaurants"],"distanceKm":0.22374008580445356},{"id":"dessertsRestaurants_22239c987b1a","slug":"patisserie-artemis-gelateria-ice-cream-2223","kind":"restaurant","name":"Patisserie Artemis - Gelateria Ice Cream","lat":37.96786547488155,"lng":23.729346783174314,"url":"https://maps.app.goo.gl/dE6muCbG7gwaWz9H8?g_st=ipc","address":"Μακρυγιάννη 33, Αθήνα 117 42","categoryIds":["desserts"],"categories":["Dessert Shops"],"distanceKm":0.22534544295570802},{"id":"vegetarianRestaurants_aff422e1c3ba","slug":"mama-tierra-acropolis-vegan-street-food-aff4","kind":"restaurant","name":"Mama Tierra Acropolis - Vegan street food","lat":37.967546083723775,"lng":23.729864462543613,"url":"https://maps.app.goo.gl/3M9tmest5ooaQwtE8?g_st=ipc","address":"Χατζηχρήστου 29, Αθήνα 117 42","categoryIds":["vegetarian"],"categories":["Vegetarian Friendly Restaurants"],"distanceKm":0.23458236204207197},{"id":"mustSeeAttractions_8c69e6a7063e","slug":"moyseio-akropolis-8c69","kind":"restaurant","name":"Μουσείο Ακρόπολης","lat":37.96845037815513,"lng":23.728523216398074,"url":"https://maps.app.goo.gl/ZqiBPBtN3PxoeXmY8?g_st=ipc","address":"Διονυσίου Αρεοπαγίτου 15, Αθήνα 117 42","categoryIds":["attractions"],"categories":["Must-See Attractions"],"distanceKm":0.23586665087031103},{"id":"luxuryDiningRestaurants_915576fc1c0f","slug":"samano-radio-restaurant-9155","kind":"restaurant","name":"Samano Radio Restaurant","lat":37.97164530530575,"lng":23.731079390163124,"url":"https://maps.app.goo.gl/HCtBkZVH9f9shwEp9?g_st=ipc","address":"Πλ. Φιλόμουσου Εταιρίας 3, Αθήνα 105 58","categoryIds":["luxury-dining"],"categories":["Luxury Dining"],"distanceKm":0.23878124841539966},{"id":"coffeeBrunchRestaurants_6b3f7db90a24","slug":"nonnas-athens-6b3f","kind":"restaurant","name":"Nonnas Athens","lat":37.971651792837406,"lng":23.731123841030353,"url":"https://maps.app.goo.gl/5RFfLvtqnpk2BDQp8?g_st=ipc","address":"Pl. Filomousou Eterias 3, Athina 105 58","categoryIds":["coffee-brunch"],"categories":["Coffee & Brunch Spots"],"distanceKm":0.23984772247181993},{"id":"coffeeBrunchRestaurants_ca5c6fd3b033","slug":"plakaki-cafe-ca5c","kind":"restaurant","name":"Plakaki Cafe","lat":37.97168034602651,"lng":23.731177071228885,"url":"https://maps.app.goo.gl/fCZvCfcqYbM4mrRz8?g_st=ic","address":"Pl. Filomousou Eterias 2, Athina 105 58","categoryIds":["coffee-brunch"],"categories":["Coffee & Brunch Spots"],"distanceKm":0.2434999477272565},{"id":"mustSeeAttractions_513259a6b06d","slug":"olympioy-dios-5132","kind":"restaurant","name":"Ολυμπίου Διός","lat":37.97177631416209,"lng":23.731310537974434,"url":"https://maps.app.goo.gl/FgkJ1umuygHQYmoC8?g_st=ipc","address":"Αθήνα 105 58","categoryIds":["attractions"],"categories":["Must-See Attractions"],"distanceKm":0.2556565485069615},{"id":"rooftopLoungesRestaurants_208f904925e8","slug":"stork-rooftop-bar-restaurant-208f","kind":"restaurant","name":"stork rooftop bar restaurant","lat":37.967099364958976,"lng":23.7303307646006,"url":"https://maps.app.goo.gl/AF5AEBzt63j5tves7?g_st=ipc","address":"Λεωφόρος Συγγρού 21, Βούρβαχη 2, Αθήνα 117 43","categoryIds":["rooftop-lounges"],"categories":["Rooftop Lounges"],"distanceKm":0.2714559132088403},{"id":"vegetarianRestaurants_0ae45380f9c5","slug":"veganaki-0ae4","kind":"restaurant","name":"Veganaki","lat":37.96756765452738,"lng":23.732928786701812,"url":"https://maps.app.goo.gl/t4BDCPnwuYDPfBZS9?g_st=ipc","address":"Αθανασίου Διάκου 38 (38, Αθήνα 117 43","categoryIds":["vegetarian"],"categories":["Vegetarian Friendly Restaurants"],"distanceKm":0.28171984378532494},{"id":"coffeeBrunchRestaurants_ce537fc177ce","slug":"fika-coffee-croissant-ce53","kind":"restaurant","name":"Fika coffee & croissant","lat":37.96693585116076,"lng":23.730676001624726,"url":"https://maps.app.goo.gl/aGhcjD61LQ7BLCn98?g_st=ipc","address":"Βούρβαχη 6, Αθήνα 117 43","categoryIds":["coffee-brunch"],"categories":["Coffee & Brunch Spots"],"distanceKm":0.28612171582229545},{"id":"dessertsRestaurants_44e6918dfa7f","slug":"alchimistis-cafe-patisserie-44e6","kind":"restaurant","name":"Αλχημιστής Cafe Patisserie","lat":37.96784501160447,"lng":23.7283241033881,"url":"https://maps.app.goo.gl/n2exdkXc6qfVR4fM9?g_st=ipc","address":"Χατζηχρήστου 8, Αθήνα 117 42","categoryIds":["desserts"],"categories":["Dessert Shops"],"distanceKm":0.2887922255506459},{"id":"greekRestaurants_104d52bd2241","slug":"mpalkoni-estiatorio-kai-mpar-104d","kind":"restaurant","name":"Μπαλκόνι Εστιατόριο και Μπαρ","lat":37.96744106512062,"lng":23.72879886025239,"url":"https://maps.app.goo.gl/7XXsfB27aRZAsikR7","address":"Βεΐκου 1, Αθήνα 117 42","categoryIds":["greek-restaurants"],"categories":["Greek Restaurants"],"distanceKm":0.29196880797093056},{"id":"coffeeBrunchRestaurants_b61f62d1d8af","slug":"coffee-joint-b61f","kind":"restaurant","name":"Coffee Joint","lat":37.9668407337925,"lng":23.731062695575126,"url":"https://maps.app.goo.gl/LK48eZA7q9nxiZiR6?g_st=ipc","address":"Βούρβαχη 5-9, Αθήνα 117 43","categoryIds":["coffee-brunch"],"categories":["Coffee & Brunch Spots"],"distanceKm":0.2967982300308626},{"id":"mustSeeAttractions_7df9738c0c83","slug":"romaika-loytra-zappeioy-7df9","kind":"restaurant","name":"Ρωμαϊκά Λουτρά Ζαππείου","lat":37.97157046328902,"lng":23.73377918203135,"url":"https://maps.app.goo.gl/umvyXLD9iKw3FVBTA?g_st=ipc","address":"Λεωφ. Βασιλίσσης Αμαλίας 405, Αθήνα 105 57","categoryIds":["attractions"],"categories":["Must-See Attractions"],"distanceKm":0.3439855954492115}],"sameRegion":[],"mentionedGuides":[{"slug":"luxury-rooftop-restaurants-athens-el","title":"Πολυτελή Rooftop Εστιατόρια και Μπαρ στην Αθήνα"},{"slug":"luxury-rooftop-restaurants-athens","title":"Luxury Rooftop Restaurants & Bars in Athens"}],"canonicalSlug":"sense-modern-greek-cuisine-6d0e","isCanonicalEntity":true,"enrichment":{"summary_en":"SENSE Modern Greek Cuisine is a curated restaurant in Αθήνα 117 42 in the Luxury Dining collection. It is connected to 177 nearby Googlementor picks to help travelers build a stronger local route.","summary_el":"SENSE Modern Greek Cuisine είναι ένα επιλεγμένο σημείο φαγητού στην περιοχή Αθήνα 117 42 και ανήκει στη συλλογή Luxury Dining. Συνδέεται με 177 κοντινές προτάσεις του Googlementor για πιο ολοκληρωμένη εμπειρία.","vibe_tags":["curated","premium-dining","city-views"],"best_for":["first-time visitors","food lovers","special occasions"],"visit_moments":["golden hour","night out"],"practical_note":"Address and direct map link are available for easy turn-by-turn access.","nearby_walkable_count":177,"nearby_count_2km":650,"confidence":0.98},"areaContext":{"slug":"plaka","name":"Plaka"},"intentContexts":[{"href":"/luxury-dining/plaka","label":"Luxury Dining in Plaka","categorySlug":"luxury-dining","categoryName":"Luxury Dining","areaSlug":"plaka","areaName":"Plaka"},{"href":"/rooftops/plaka","label":"Rooftop Lounges in Plaka","categorySlug":"rooftops","categoryName":"Rooftop Lounges","areaSlug":"plaka","areaName":"Plaka"}]},"__N_SSG":true}