{"pageProps":{"entity":{"id":"greekRestaurants_cb270382bf75","slug":"spiti-neat-eat-drinks-spiti-filothei-filothei-cb27","kind":"restaurant","name":"Spiti neat eat + drinks σπίτι Φιλοθέη Filothei","lat":38.027348561849706,"lng":23.784455346396886,"url":"https://maps.app.goo.gl/aHoAWHKWgJf5N5Tm6","address":"Λεωφ. Καποδιστρίου 42, Μαρούσι 151 23","categoryIds":["greek-restaurants"],"categories":["Greek Restaurants"]},"sameCategory":[{"id":"greekRestaurants_ecd1114337bb","slug":"taverna-kissos-ecd1","kind":"restaurant","name":"Ταβέρνα Κισσός","lat":38.02828285759166,"lng":23.793071906306483,"url":"https://maps.app.goo.gl/DEUMA4eJH6RLG2DU8","address":"Ρούμελης 28 &, Σπάρτης, Χαλάνδρι 152 33","categoryIds":["greek-restaurants"],"categories":["Greek Restaurants"]},{"id":"greekRestaurants_f482326498f3","slug":"taverna-michalis-f482","kind":"restaurant","name":"Ταβέρνα Μιχάλης","lat":38.024972399350155,"lng":23.792694033579224,"url":"https://maps.app.goo.gl/o1rWWp4p742jj85G7?g_st=ipc","address":"Βαλαωρίτου 20, Χαλάνδρι 152 33","categoryIds":["greek-restaurants"],"categories":["Greek Restaurants"]},{"id":"greekRestaurants_22195ee291a7","slug":"i-parea-tis-fanis-2219","kind":"restaurant","name":"Η παρέα της Φανής","lat":38.02610478288273,"lng":23.79313013557708,"url":"https://maps.app.goo.gl/BaPBtWqbaacn9oDc6?g_st=ipc","address":"Καρέλλα 20, Χαλάνδρι 152 33","categoryIds":["greek-restaurants"],"categories":["Greek Restaurants"]},{"id":"greekRestaurants_96a815ab2fda","slug":"spitjack-golden-hall-96a8","kind":"restaurant","name":"Spitjack Golden Hall","lat":38.034373053538495,"lng":23.793186418589283,"url":"https://maps.app.goo.gl/MjaG7qgQXBbLTT8n7","address":"Λεωφ. Κηφισίας 37A, Μαρούσι 151 23","categoryIds":["greek-restaurants"],"categories":["Greek Restaurants"]},{"id":"cheapEatsRestaurants_d9e484914294","slug":"mparmpalias-d9e4","kind":"restaurant","name":"Μπαρμπαλιάς","lat":38.022224299572,"lng":23.79656538042495,"url":"https://maps.app.goo.gl/LeEZCDs2GRC6YKuT7?g_st=ipc","address":"Λεωφ. Βασιλέως Γεωργίου B 6, Χαλάνδρι 152 33","categoryIds":["cheap-eats","greek-restaurants"],"categories":["Gyros & Cheap Eats","Greek Restaurants"],"legacySlugs":["mparmpalias-c76d"]},{"id":"greekRestaurants_42b778a801b1","slug":"psomi-alati-42b7","kind":"restaurant","name":"ΨΩΜΙ & ΑΛΑΤΙ","lat":38.02138760980619,"lng":23.797709722137604,"url":"https://maps.app.goo.gl/3yMZtJ6XHLXuktHM7?g_st=ipc","address":"Πλ. Ελευθερωτών 8, Χαλάνδρι 152 32","categoryIds":["greek-restaurants"],"categories":["Greek Restaurants"]},{"id":"greekRestaurants_d69b3b0c43b8","slug":"kitsoylas-d69b","kind":"restaurant","name":"Κίτσουλας","lat":38.016425119808176,"lng":23.79174907985474,"url":"https://maps.app.goo.gl/BU8FgqdqottuQizc9?g_st=ipc","address":"Φιλικής Εταιρείας 25Γ, Χαλάνδρι 152 32","categoryIds":["greek-restaurants"],"categories":["Greek Restaurants"]},{"id":"greekRestaurants_f52198928cda","slug":"mystikos-kipos-f521","kind":"restaurant","name":"Μυστικός Κήπος","lat":38.02018220795105,"lng":23.798366893276665,"url":"https://maps.app.goo.gl/RvfsJX8RaCUstXSa6?g_st=ipc","address":"Καραολη Δημήτριου 21, Χαλάνδρι 152 32","categoryIds":["greek-restaurants"],"categories":["Greek Restaurants"]},{"id":"greekRestaurants_69231f24503b","slug":"mpakalotaverna-6923","kind":"restaurant","name":"Μπακαλοταβέρνα","lat":38.02091962634735,"lng":23.79935272546419,"url":"https://maps.app.goo.gl/D6gW3fsdkz7sh9bg8?g_st=ipc","address":"Θουκυδίδου 6, Χαλάνδρι 152 32","categoryIds":["greek-restaurants"],"categories":["Greek Restaurants"]},{"id":"greekRestaurants_6657f75f25c7","slug":"trypia-dekara-6657","kind":"restaurant","name":"Τρύπια Δεκάρα","lat":38.020535111511364,"lng":23.799981150995844,"url":"https://maps.app.goo.gl/aTApNBNRqHkEo3CH8?g_st=ipc","address":"Θεμιστοκλέους 6, Χαλάνδρι 152 32","categoryIds":["greek-restaurants"],"categories":["Greek Restaurants"]},{"id":"greekRestaurants_a120da3cfe10","slug":"mezedopoleio-iordanis-a120","kind":"restaurant","name":"Μεζεδοπωλείο Ιορδάνης","lat":38.020133303757966,"lng":23.80185334902281,"url":"https://maps.app.goo.gl/FYyCghhM4WWKom5n9?g_st=ipc","address":"Αριστοτέλους 42, Χαλάνδρι 152 32","categoryIds":["greek-restaurants"],"categories":["Greek Restaurants"]},{"id":"greekRestaurants_166b7c278db9","slug":"tzitzikas-kai-mermigkas-166b","kind":"restaurant","name":"Τζίτζικας Και Μέρμηγκας","lat":38.02047878345652,"lng":23.804706604274816,"url":"https://maps.app.goo.gl/8pYJH9GZBYeQD5mk6?g_st=ipc","address":"Αισχύλου 26, Χαλάνδρι 152 34","categoryIds":["greek-restaurants"],"categories":["Greek Restaurants"]}],"nearby":[{"id":"dessertsRestaurants_632e9113067f","slug":"mike-632e","kind":"restaurant","name":"ΜΙΚΕ","lat":38.023677794017026,"lng":23.786751421962965,"url":"https://maps.app.goo.gl/V5DcUdgiwebZo8JS6?g_st=ipc","address":"Καλλιγά 31, Φιλοθέη 152 37","categoryIds":["desserts"],"categories":["Dessert Shops"],"distanceKm":0.4550297147342507},{"id":"coffeeBrunchRestaurants_30b7a9a0db9b","slug":"palia-agora-30b7","kind":"restaurant","name":"Palia Agora","lat":38.023405893296015,"lng":23.786302411937246,"url":"https://maps.app.goo.gl/xrBYBKpsUdVTC1vj6?g_st=ipc","address":"Κεχαγιά 26, Φιλοθέη 152 37","categoryIds":["coffee-brunch"],"categories":["Coffee & Brunch Spots"],"distanceKm":0.46730547454865545},{"id":"vegetarianRestaurants_d059c20a8f7f","slug":"eyripidis-d059","kind":"restaurant","name":"Ευριπίδης","lat":38.0306192216948,"lng":23.77843102660416,"url":"https://maps.app.goo.gl/645ivXdiBXiq5evG9?g_st=ipc","address":"Λεωφ. Καποδιστρίου 78, Φιλοθέη 142 35","categoryIds":["vegetarian"],"categories":["Vegetarian Friendly Restaurants"],"distanceKm":0.6408492774390309},{"id":"greekRestaurants_ecd1114337bb","slug":"taverna-kissos-ecd1","kind":"restaurant","name":"Ταβέρνα Κισσός","lat":38.02828285759166,"lng":23.793071906306483,"url":"https://maps.app.goo.gl/DEUMA4eJH6RLG2DU8","address":"Ρούμελης 28 &, Σπάρτης, Χαλάνδρι 152 33","categoryIds":["greek-restaurants"],"categories":["Greek Restaurants"],"distanceKm":0.7618373446339846},{"id":"greekRestaurants_f482326498f3","slug":"taverna-michalis-f482","kind":"restaurant","name":"Ταβέρνα Μιχάλης","lat":38.024972399350155,"lng":23.792694033579224,"url":"https://maps.app.goo.gl/o1rWWp4p742jj85G7?g_st=ipc","address":"Βαλαωρίτου 20, Χαλάνδρι 152 33","categoryIds":["greek-restaurants"],"categories":["Greek Restaurants"],"distanceKm":0.7684880692458212},{"id":"greekRestaurants_22195ee291a7","slug":"i-parea-tis-fanis-2219","kind":"restaurant","name":"Η παρέα της Φανής","lat":38.02610478288273,"lng":23.79313013557708,"url":"https://maps.app.goo.gl/BaPBtWqbaacn9oDc6?g_st=ipc","address":"Καρέλλα 20, Χαλάνδρι 152 33","categoryIds":["greek-restaurants"],"categories":["Greek Restaurants"],"distanceKm":0.772316248926171},{"id":"italianRestaurants_99d6d6ea615c","slug":"alio-99d6","kind":"restaurant","name":"ALIO","lat":38.02380840827294,"lng":23.79252131680721,"url":"https://maps.app.goo.gl/pCWntKXiEkk3VBdj8?g_st=ipc","address":"Βασιλέως Γεωργίου 34, Χαλάνδρι 152 33","categoryIds":["italian"],"categories":["Italian Restaurants"],"distanceKm":0.8087789281603742},{"id":"dessertsRestaurants_8ce39ac32801","slug":"cinnabon-halandri-8ce3","kind":"restaurant","name":"Cinnabon Halandri","lat":38.0300758962987,"lng":23.793141060079883,"url":"https://maps.app.goo.gl/n8CZv8iLgAB4Xf2E9?g_st=ipc","address":"Μαραθώνος 4, Χαλάνδρι 152 33","categoryIds":["desserts"],"categories":["Dessert Shops"],"distanceKm":0.8189864324821343},{"id":"familyFriendly_cd77fb44ab16","slug":"parko-makedonias-cd77","kind":"restaurant","name":"Πάρκο Μακεδονίας","lat":38.028321368571035,"lng":23.775138311849886,"url":"https://maps.app.goo.gl/XSK7TXJhDYgZz5qh7?g_st=ic","address":"Μακεδονίας, Louki Akrita &, Filothei 152 37","categoryIds":["family-friendly"],"categories":["Kid Friendly Locations"],"distanceKm":0.8232125336286108},{"id":"coffeeBrunchRestaurants_13c765a56547","slug":"gardenista-13c7","kind":"restaurant","name":"Gardenista","lat":38.022288294318166,"lng":23.791808518147295,"url":"https://maps.app.goo.gl/Ae2mzr6PphQKvoxT8?g_st=ipc","address":"Παπανικολή 18, Χαλάνδρι 152 32","categoryIds":["coffee-brunch"],"categories":["Coffee & Brunch Spots"],"distanceKm":0.8552502039155685},{"id":"dessertsRestaurants_8a66394cff02","slug":"andrias-8a66","kind":"restaurant","name":"Ανδριάς","lat":38.031915217615015,"lng":23.776449986064225,"url":"https://maps.app.goo.gl/UyXFW37fEx8CzcR76?g_st=ipc","address":"Λεωφ. Καποδιστρίου 92, Νέα Ιωνία 142 35","categoryIds":["desserts"],"categories":["Dessert Shops"],"distanceKm":0.8657291448042275},{"id":"luxuryDiningRestaurants_0a7040f4978e","slug":"botrini-s-restaurant-athens-0a70","kind":"restaurant","name":"Botrini's Restaurant Athens","lat":38.02321116531418,"lng":23.793992884008055,"url":"https://maps.app.goo.gl/9QeJrtg4uVD3LnL38?g_st=ipc","address":"Λεωφ. Βασιλέως Γεωργίου B 24, Χαλάνδρι 152 33","categoryIds":["luxury-dining"],"categories":["Luxury Dining"],"distanceKm":0.9537166345307568},{"id":"mustSeeAttractions_54efa8dcf204","slug":"olympiako-stadio-athinon-54ef","kind":"restaurant","name":"Ολυμπιακό Στάδιο Αθηνών","lat":38.035910568153284,"lng":23.786973025948996,"url":"https://maps.app.goo.gl/8fas6bpPgSs2neZj8?g_st=ipc","address":"Λεωφ. Ολυμπιονίκου Σπύρου Λούη 1, Μαρούσι 151 23","categoryIds":["attractions"],"categories":["Must-See Attractions"],"distanceKm":0.9772550565461674},{"id":"familyFriendly_714cd57583c7","slug":"xplore-714c","kind":"restaurant","name":"XPLORE","lat":38.034636437257035,"lng":23.79103363842638,"url":"https://maps.app.goo.gl/TKKhEa5LN1Dy53v36?g_st=ipc","address":"Λεωφ. Κηφισίας 37Α, Μαρούσι 151 23","categoryIds":["family-friendly"],"categories":["Kid Friendly Locations"],"distanceKm":0.9943203691177884},{"id":"asianRestaurants_302bc43e3be3","slug":"wagamama-golden-hall-302b","kind":"restaurant","name":"Wagamama Golden Hall","lat":38.03406369279884,"lng":23.792244943430262,"url":"https://maps.app.goo.gl/A7uShDTP3yFcChSd7?g_st=ipc","address":"Λεωφ. Κηφισίας, Μαρούσι 151 23","categoryIds":["asian"],"categories":["Asian Restaurants"],"distanceKm":1.0114459741138422},{"id":"familyFriendly_bdbc58481ced","slug":"enydreio-xplore-oceans-bdbc","kind":"restaurant","name":"Ενυδρείο XPLORE Oceans","lat":38.03457407087024,"lng":23.791982125171685,"url":"https://maps.app.goo.gl/qibAD4W4gNvVSf698?g_st=ipc","address":"Αγησιλάου, Μαρούσι 151 23","categoryIds":["family-friendly"],"categories":["Kid Friendly Locations"],"distanceKm":1.0392841975593452},{"id":"cheapEatsRestaurants_778124c76b47","slug":"kayteros-7781","kind":"restaurant","name":"Καυτερός","lat":38.01875295817606,"lng":23.790041802148505,"url":"https://maps.app.goo.gl/pxJjypQCU2pCdj2c9?g_st=ipc","address":"Αγρινίου 5, Χαλάνδρι 152 32","categoryIds":["cheap-eats"],"categories":["Gyros & Cheap Eats"],"distanceKm":1.0737738367878116},{"id":"familyFriendly_ca1b21e5d960","slug":"planet-physics-ca1b","kind":"restaurant","name":"Planet Physics","lat":38.03717219186782,"lng":23.78478282955737,"url":"https://maps.app.goo.gl/zXVMtXNDFGQx4jhn7?g_st=ipc","address":"Located in: Olympic Indoor Hall Nikos Galis, Leof. Olimpionikou Spirou Loui, Marousi 151 23","categoryIds":["family-friendly"],"categories":["Kid Friendly Locations"],"distanceKm":1.0927143219128606},{"id":"greekRestaurants_96a815ab2fda","slug":"spitjack-golden-hall-96a8","kind":"restaurant","name":"Spitjack Golden Hall","lat":38.034373053538495,"lng":23.793186418589283,"url":"https://maps.app.goo.gl/MjaG7qgQXBbLTT8n7","address":"Λεωφ. Κηφισίας 37A, Μαρούσι 151 23","categoryIds":["greek-restaurants"],"categories":["Greek Restaurants"],"distanceKm":1.0931117214191304},{"id":"coffeeBrunchRestaurants_15371932080b","slug":"willow-cafe-chalandri-1537","kind":"restaurant","name":"Willow Cafe Χαλάνδρι","lat":38.03103124415517,"lng":23.796167188145933,"url":"https://maps.app.goo.gl/KjpKvzNXdWoxzDFA7?g_st=ipc","address":"Ριζαρείου 9, Χαλάνδρι 152 33","categoryIds":["coffee-brunch"],"categories":["Coffee & Brunch Spots"],"distanceKm":1.1045291138338877},{"id":"coffeeBrunchRestaurants_3bc65dffef91","slug":"hide-seek-all-day-bar-restaurant-3bc6","kind":"restaurant","name":"Hide & Seek - All day bar restaurant","lat":38.01697332433943,"lng":23.786770693061168,"url":"https://maps.app.goo.gl/6jRQwexkVc3z2pR59?g_st=ipc","address":"Λεωφ. Κηφισίας 254, Χαλάνδρι 152 31","categoryIds":["coffee-brunch"],"categories":["Coffee & Brunch Spots"],"distanceKm":1.1713656292962595},{"id":"italianRestaurants_5125cdfe0b5a","slug":"portofino-pizza-xalandri-5125","kind":"restaurant","name":"Portofino Pizza Xalandri","lat":38.0247038627797,"lng":23.797586721157028,"url":"https://maps.app.goo.gl/D9rRduThcXn2ff1i8?g_st=ipc","address":"Γρ. Γυφτοπούλου 23, Χαλάνδρι 152 33","categoryIds":["italian"],"categories":["Italian Restaurants"],"distanceKm":1.1871983237754886},{"id":"cheapEatsRestaurants_d9e484914294","slug":"mparmpalias-d9e4","kind":"restaurant","name":"Μπαρμπαλιάς","lat":38.022224299572,"lng":23.79656538042495,"url":"https://maps.app.goo.gl/LeEZCDs2GRC6YKuT7?g_st=ipc","address":"Λεωφ. Βασιλέως Γεωργίου B 6, Χαλάνδρι 152 33","categoryIds":["cheap-eats","greek-restaurants"],"categories":["Gyros & Cheap Eats","Greek Restaurants"],"legacySlugs":["mparmpalias-c76d"],"distanceKm":1.2041041717609218},{"id":"asianRestaurants_509760bf71d6","slug":"oishi-sushi-bar-5097","kind":"restaurant","name":"OISHI SUSHI BAR","lat":38.02268166865243,"lng":23.7974397280377,"url":"https://maps.app.goo.gl/NXeqhq8bkraS8SxK8?g_st=ipc","address":"Ζαλοκώστα 3, Χαλάνδρι 152 33","categoryIds":["asian"],"categories":["Asian Restaurants"],"distanceKm":1.250133937010435}],"sameRegion":[],"mentionedGuides":[],"canonicalSlug":"spiti-neat-eat-drinks-spiti-filothei-filothei-cb27","isCanonicalEntity":true,"enrichment":{"summary_en":"Spiti neat eat + drinks σπίτι Φιλοθέη Filothei is a curated restaurant in Μαρούσι 151 23 in the Greek Restaurants collection. It is connected to 6 nearby Googlementor picks to help travelers build a stronger local route.","summary_el":"Spiti neat eat + drinks σπίτι Φιλοθέη Filothei είναι ένα επιλεγμένο σημείο φαγητού στην περιοχή Μαρούσι 151 23 και ανήκει στη συλλογή Greek Restaurants. Συνδέεται με 6 κοντινές προτάσεις του Googlementor για πιο ολοκληρωμένη εμπειρία.","vibe_tags":["curated"],"best_for":["first-time visitors","food lovers"],"visit_moments":["lunch stop","dinner stop"],"practical_note":"Address and direct map link are available for easy turn-by-turn access.","nearby_walkable_count":6,"nearby_count_2km":102,"confidence":0.98},"areaContext":{"slug":"chalandri","name":"Chalandri"},"intentContexts":[{"href":"/greek-restaurants/chalandri","label":"Greek Restaurants in Chalandri","categorySlug":"greek-restaurants","categoryName":"Greek Restaurants","areaSlug":"chalandri","areaName":"Chalandri"}]},"__N_SSG":true}