{"pageProps":{"entity":{"id":"fishTavernasRestaurants_531d3190b4cc","slug":"ta-kalamia-531d","kind":"restaurant","name":"Τα Καλάμια","lat":37.79114152759292,"lng":23.879331978178946,"url":"https://maps.app.goo.gl/UabcyR39Vi7C4sYK7?g_st=ipc","address":"Αθηνων, Καλύβια Θορικού 190 10","categoryIds":["fish-tavernas"],"categories":["Fish Tavernas"]},"sameCategory":[{"id":"fishTavernasRestaurants_01155b02f60d","slug":"kyra-popi-taverna-0115","kind":"restaurant","name":"Κυρά Πόπη Ταβέρνα","lat":37.78165801312647,"lng":23.89057104630703,"url":"https://maps.app.goo.gl/inr16Vqi6f4XARj86?g_st=ipc","address":"40.5, Λεωφ. Αθηνών Σουνίου, Καλύβια Θορικού 190 10","categoryIds":["fish-tavernas"],"categories":["Fish Tavernas"]},{"id":"fishTavernasRestaurants_f7b6756d4a93","slug":"psaraki-f7b6","kind":"restaurant","name":"ψαΡΑΚΙ","lat":37.83998892168737,"lng":23.92872058927444,"url":"https://maps.app.goo.gl/RqqP9EwfK4qQLD1v5?g_st=ipc","address":"Ευαγγελίστριας, Καλύβια Θορικού 190 10","categoryIds":["fish-tavernas"],"categories":["Fish Tavernas"]},{"id":"fishTavernasRestaurants_f4426065c5a4","slug":"sardelaki-me-thea-f442","kind":"restaurant","name":"Σαρδελάκι με θέα","lat":37.80897457022261,"lng":23.782330412997638,"url":"https://maps.app.goo.gl/6zBxpoBupuA67wwt8?g_st=ipc","address":"Λεωφ. Ποσειδώνος 18, Βουλιαγμένη 166 71","categoryIds":["fish-tavernas"],"categories":["Fish Tavernas"]},{"id":"fishTavernasRestaurants_a752a7fe8192","slug":"matsuhisa-athens-a752","kind":"restaurant","name":"Matsuhisa Athens","lat":37.806991167366505,"lng":23.7721702530857,"url":"https://maps.app.goo.gl/kX1Hohg5k4FcqjgeA?g_st=ipc","address":"40, Απόλλωνος street, Βουλιαγμένη 166 71","categoryIds":["fish-tavernas","luxury-dining"],"categories":["Fish Tavernas","Luxury Dining"],"legacySlugs":["matsuhisa-athens-c10d"]},{"id":"fishTavernasRestaurants_bee964d3fc5b","slug":"akrogiali-bee9","kind":"restaurant","name":"ΑΚΡΟΓΙΑΛΙ","lat":37.71656419364308,"lng":23.94570181232825,"url":"https://maps.app.goo.gl/zRnJu32Cpbu5tH579?g_st=ipc","address":"Λεωφ. Αθηνών Σουνίου 5, Παλαιά Φώκαια 190 13","categoryIds":["fish-tavernas"],"categories":["Fish Tavernas"]},{"id":"fishTavernasRestaurants_eb690c18b7db","slug":"sea-satin-athens-riviera-eb69","kind":"restaurant","name":"Sea Satin Athens Riviera","lat":37.840376863615674,"lng":23.760387360489776,"url":"https://maps.app.goo.gl/1QEDPDZdZC7GT8ne9?g_st=ipc","address":"Λεωφ. Κωνσταντίνου Καραμανλή 14, Βούλα 166 73","categoryIds":["fish-tavernas","luxury-dining"],"categories":["Fish Tavernas","Luxury Dining"],"legacySlugs":["sea-satin-athens-riviera-daf4"]},{"id":"fishTavernasRestaurants_c23b79f3de18","slug":"taverna-antigoni-c23b","kind":"restaurant","name":"Ταβερνα Αντιγόνη","lat":37.69076965870636,"lng":23.94467815593701,"url":"https://maps.app.goo.gl/HmragYkeYQJ2VW7G6?g_st=ipc","address":"Μακροδημητραίων, Θυμάρι 190 13","categoryIds":["fish-tavernas"],"categories":["Fish Tavernas"]},{"id":"fishTavernasRestaurants_a989c7b64d77","slug":"mparmpoynaki-glyfada-a989","kind":"restaurant","name":"Μπαρμπουνάκι Γλυφάδα","lat":37.85833613514832,"lng":23.75466359649667,"url":"https://maps.app.goo.gl/KZucjQ49PpF8K1GL7?g_st=ipc","address":"Λεωφ. Δημάρχου Αγγέλου Μεταξά 48, Γλυφάδα 166 74","categoryIds":["fish-tavernas"],"categories":["Fish Tavernas"]},{"id":"fishTavernasRestaurants_09bf347d2df8","slug":"astakos-09bf","kind":"restaurant","name":"Astakos","lat":37.861679317741114,"lng":23.746806965342177,"url":"https://maps.app.goo.gl/ZCrtkSHsj9hx9EuQA?g_st=ipc","address":"Διαδόχου Παύλου 46, Γλυφάδα 166 75","categoryIds":["fish-tavernas"],"categories":["Fish Tavernas"]},{"id":"fishTavernasRestaurants_fd7ed352bb9f","slug":"kapetan-giorgis-o-mytilinios-fd7e","kind":"restaurant","name":"Καπετάν Γιώργης «Ο Μυτιληνιός»","lat":37.86441144968363,"lng":23.748467238824272,"url":"https://maps.app.goo.gl/SNmz2TBABsNaydEj9?g_st=ipc","address":"Κωνσταντινουπόλεως 9, Γλυφάδα 166 75","categoryIds":["fish-tavernas"],"categories":["Fish Tavernas"]},{"id":"fishTavernasRestaurants_3cf7850d662e","slug":"to-agkistri-3cf7","kind":"restaurant","name":"Το Αγκίστρι","lat":37.88417743586951,"lng":23.75467629204283,"url":"https://maps.app.goo.gl/tT9ydwBCoa2EgT5d7?g_st=ipc","address":"Παλμύρας 2, Γλυφάδα 165 61","categoryIds":["fish-tavernas"],"categories":["Fish Tavernas"]},{"id":"fishTavernasRestaurants_e10a32c39c5a","slug":"tom-psarotaverna-e10a","kind":"restaurant","name":"TOM Psarotaverna","lat":37.83896686862904,"lng":24.048707414360276,"url":"https://maps.app.goo.gl/ofvaTy2Fz5my1RhL9?g_st=ipc","address":"Παραλία Κακής Θαλάσσης 190 01","categoryIds":["fish-tavernas"],"categories":["Fish Tavernas"]}],"nearby":[{"id":"cheapEatsRestaurants_2fe91c5ec4e8","slug":"pita-lagonisi-2fe9","kind":"restaurant","name":"Πίτα Λαγονήσι","lat":37.787769077925994,"lng":23.886240321695578,"url":"https://maps.app.goo.gl/gnVwTeJ7a9GqoCGQ9?g_st=ipc","address":"Λεωφ. Καλυβίων 4, Σαρωνικός 190 10","categoryIds":["cheap-eats"],"categories":["Gyros & Cheap Eats"],"distanceKm":0.71354675384267},{"id":"fishTavernasRestaurants_01155b02f60d","slug":"kyra-popi-taverna-0115","kind":"restaurant","name":"Κυρά Πόπη Ταβέρνα","lat":37.78165801312647,"lng":23.89057104630703,"url":"https://maps.app.goo.gl/inr16Vqi6f4XARj86?g_st=ipc","address":"40.5, Λεωφ. Αθηνών Σουνίου, Καλύβια Θορικού 190 10","categoryIds":["fish-tavernas"],"categories":["Fish Tavernas"],"distanceKm":1.4448121644933214},{"id":"municipalities_96cb11c2edc9","slug":"lagonisi-96cb","kind":"municipality","name":"Λαγονήσι","lat":37.8053,"lng":23.8864,"region":"Νότια Αττική","name_en":"Lagonisi","region_en":"South Attica","distanceKm":1.6924079747654885},{"id":"monasteriesChurches_74cb37d8010a","slug":"ieros-naos-agioy-dimitrioy-saronikoy-11os-ai-74cb","kind":"restaurant","name":"Ιερός Ναός Αγίου Δημητρίου Σαρωνικού (11ος αι.)","lat":37.807214865085356,"lng":23.869268370594398,"url":"https://maps.app.goo.gl/Yg4DX1pMZC5BvTyv9?g_st=ipc","address":"Αγίου Δημητρίου, Αγ. Μαρίνα 194 00","categoryIds":["monasteries-churches"],"categories":["Monasteries & Spiritual Sites"],"distanceKm":1.9940349852274393},{"id":"municipalities_0343e4758ade","slug":"saronikos-0343","kind":"municipality","name":"Σαρωνικός","lat":37.8333,"lng":23.9333,"region":"Ανατολικά Προάστια","name_en":"Saronikos","region_en":"Eastern Suburbs","distanceKm":6.667217576651227},{"id":"familyFriendly_18bddf615bf3","slug":"anima-club-18bd","kind":"restaurant","name":"Anima Club","lat":37.74050273423326,"lng":23.921750567749367,"url":"https://maps.app.goo.gl/iMm9xyAzQoQ2dUJU9?g_st=ipc","address":"Υακίνθου Str, Ανάβυσσος 190 13","categoryIds":["family-friendly"],"categories":["Kid Friendly Locations"],"distanceKm":6.753417638881586},{"id":"greekRestaurants_8851a9198b0c","slug":"o-christoforos-8851","kind":"restaurant","name":"Ο Χριστόφορος","lat":37.84084854419875,"lng":23.927116302854657,"url":"https://maps.app.goo.gl/qHLpPbKqrYerTaBG8","address":"Μιχάλη Καλαβρυτινού 11, Καλύβια Θορικού 190 10","categoryIds":["greek-restaurants"],"categories":["Greek Restaurants"],"distanceKm":6.94034748304264},{"id":"fishTavernasRestaurants_f7b6756d4a93","slug":"psaraki-f7b6","kind":"restaurant","name":"ψαΡΑΚΙ","lat":37.83998892168737,"lng":23.92872058927444,"url":"https://maps.app.goo.gl/RqqP9EwfK4qQLD1v5?g_st=ipc","address":"Ευαγγελίστριας, Καλύβια Θορικού 190 10","categoryIds":["fish-tavernas"],"categories":["Fish Tavernas"],"distanceKm":6.951550486216004},{"id":"greekRestaurants_2ecb7afbe3a2","slug":"taverna-o-moyroyzis-2ecb","kind":"restaurant","name":"Ταβέρνα ο Μουρούζης","lat":37.841203116649474,"lng":23.927040364485364,"url":"https://maps.app.goo.gl/ezdUi47iiXAnpXxY9","address":"Βασιλείου Γεωργάκη 2, Καλύβια Θορικού 190 10","categoryIds":["greek-restaurants"],"categories":["Greek Restaurants"],"distanceKm":6.967766781086006},{"id":"familyFriendly_c8ef51000921","slug":"margi-farm-c8ef","kind":"restaurant","name":"Margi Farm","lat":37.84874963465927,"lng":23.91294630423687,"url":"https://maps.app.goo.gl/LpauJpU7FAqyQdA8A?g_st=ipc","address":"Thorikou, Saronikos 190 10","categoryIds":["family-friendly"],"categories":["Kid Friendly Locations"],"distanceKm":7.05345317779378},{"id":"greekRestaurants_4897cd79b835","slug":"to-trigono-4897","kind":"restaurant","name":"Το Τρίγωνο","lat":37.842540231960264,"lng":23.92981276182192,"url":"https://maps.app.goo.gl/pPFdZPKhVShhMrpC6","address":"Αθηνων 36, Καλύβια Θορικού 190 10","categoryIds":["greek-restaurants"],"categories":["Greek Restaurants"],"distanceKm":7.233762078902246},{"id":"cheapEatsRestaurants_b59c9010c8a4","slug":"zachos-b59c","kind":"restaurant","name":"Ζάχος","lat":37.821251970598816,"lng":23.80344271241433,"url":"https://maps.app.goo.gl/DsP5tZnJxShfNf3H9?g_st=ipc","address":"Βασ. Κωνσταντίνου 94, Βάρη 166 72","categoryIds":["cheap-eats"],"categories":["Gyros & Cheap Eats"],"distanceKm":7.460632985093632},{"id":"italianRestaurants_1195b260712d","slug":"napul-e-italian-comfort-food-wine-1195","kind":"restaurant","name":"Napul'è Italian Comfort Food & Wine","lat":37.8271502092117,"lng":23.80408943661563,"url":"https://maps.app.goo.gl/7yzTG7SodJm8Ubug6?g_st=ipc","address":"Βασ. Κωνσταντίνου 43, Βάρη 166 72","categoryIds":["italian"],"categories":["Italian Restaurants"],"distanceKm":7.728199997847539},{"id":"cheapEatsRestaurants_0c78537a51b9","slug":"pitta-fan-grill-0c78","kind":"restaurant","name":"ΠΙΤΤΑ FAN grill","lat":37.84574550115403,"lng":23.82243212849934,"url":"https://maps.app.goo.gl/xQ5Aqm4jpK3KEQLx8?g_st=ipc","address":"Λεωφ. Ευελπίδων 364, Κίτσι 194 00","categoryIds":["cheap-eats"],"categories":["Gyros & Cheap Eats"],"distanceKm":7.8642085503841495},{"id":"municipalities_0d14e9726ecb","slug":"anavyssos-0d14","kind":"municipality","name":"Ανάβυσσος","lat":37.7339,"lng":23.9355,"region":"Νότια Αττική","name_en":"Anavyssos","region_en":"South Attica","distanceKm":8.055535673739259},{"id":"familyFriendly_37e90b2f8c07","slug":"happy-play-park-37e9","kind":"restaurant","name":"Happy Play Park","lat":37.83676394128604,"lng":23.807828606428487,"url":"https://maps.app.goo.gl/RA9ywQvUBdabkNk1A?g_st=ic","address":"Varis Koropiou Ave 27, Vari 166 72","categoryIds":["family-friendly"],"categories":["Kid Friendly Locations"],"distanceKm":8.073935877512369},{"id":"mustSeeAttractions_96c6dc77490d","slug":"limni-voyliagmenis-96c6","kind":"restaurant","name":"Λίμνη Βουλιαγμένης","lat":37.80708594211009,"lng":23.78595413697381,"url":"https://maps.app.goo.gl/HJESfC3rnS8i8UYa9?g_st=ipc","address":"Βουλιαγμένη 166 71","categoryIds":["attractions"],"categories":["Must-See Attractions"],"distanceKm":8.39376687974272},{"id":"coffeeBrunchRestaurants_80a974b8dc70","slug":"estiatorio-limnis-80a9","kind":"restaurant","name":"Εστιατόριο Λίμνης","lat":37.80691600865377,"lng":23.785479129703763,"url":"https://maps.app.goo.gl/mDVVDSh15YWjZRdF9?g_st=ipc","address":"Λίμνη, Βουλιαγμένη 166 71","categoryIds":["coffee-brunch"],"categories":["Coffee & Brunch Spots"],"distanceKm":8.430622741747307},{"id":"luxuryDiningRestaurants_42ea23e17e35","slug":"abraovata-42ea","kind":"restaurant","name":"abraOvata","lat":37.806852023213075,"lng":23.785311811319485,"url":"https://maps.app.goo.gl/XBCeyEooo1BQ3GPW6?g_st=ipc","address":"Εστιατόριο Λίμνης, Αθήνα 166 71","categoryIds":["luxury-dining"],"categories":["Luxury Dining"],"distanceKm":8.443531183337333},{"id":"coffeeBrunchRestaurants_e72432c365d7","slug":"nisos-cafe-bar-e724","kind":"restaurant","name":"Nisos Café Bar","lat":37.71981320719648,"lng":23.912954314854076,"url":"https://maps.app.goo.gl/c8xgWYxc6QFikVut9?g_st=ipc","address":"Λεωφ. Αθηνών Σουνίου 48 5, Ανάβυσσος 190 13","categoryIds":["coffee-brunch"],"categories":["Coffee & Brunch Spots"],"distanceKm":8.464247828814715},{"id":"luxuryDiningRestaurants_08bbcc5a4dd6","slug":"labros-restaurant-08bb","kind":"restaurant","name":"Labros Restaurant","lat":37.8081975831625,"lng":23.78348018457994,"url":"https://maps.app.goo.gl/H6wg8L7hEhDJU9C38?g_st=ipc","address":"Λεωφ. Ποσειδώνος 20, Βουλιαγμένη 166 71","categoryIds":["luxury-dining"],"categories":["Luxury Dining"],"distanceKm":8.632601726228698},{"id":"fishTavernasRestaurants_f4426065c5a4","slug":"sardelaki-me-thea-f442","kind":"restaurant","name":"Σαρδελάκι με θέα","lat":37.80897457022261,"lng":23.782330412997638,"url":"https://maps.app.goo.gl/6zBxpoBupuA67wwt8?g_st=ipc","address":"Λεωφ. Ποσειδώνος 18, Βουλιαγμένη 166 71","categoryIds":["fish-tavernas"],"categories":["Fish Tavernas"],"distanceKm":8.750312116087578},{"id":"municipalities_e38c35bbed55","slug":"voyliagmeni-e38c","kind":"municipality","name":"Βουλιαγμένη","lat":37.8095,"lng":23.7821,"region":"Νότια Προάστια","name_en":"Vouliagmeni","region_en":"Southern Suburbs","distanceKm":8.783396012738331},{"id":"greekRestaurants_cce1cd728bae","slug":"loyizidis-estiatorio-voyliagmeni-cce1","kind":"restaurant","name":"Λουιζίδης Εστιατόριο Βουλιαγμένη","lat":37.813204547074946,"lng":23.78315032705324,"url":"https://maps.app.goo.gl/DrVjHpSB5fMFZXij9","address":"Ερμού 2, Βουλιαγμένη 166 71","categoryIds":["greek-restaurants"],"categories":["Greek Restaurants"],"distanceKm":8.799302990165994}],"sameRegion":[],"mentionedGuides":[],"canonicalSlug":"ta-kalamia-531d","isCanonicalEntity":true,"enrichment":{"summary_en":"Τα Καλάμια is a curated restaurant in Καλύβια Θορικού 190 10 in the Fish Tavernas collection. It is connected to 1 nearby Googlementor picks to help travelers build a stronger local route.","summary_el":"Τα Καλάμια είναι ένα επιλεγμένο σημείο φαγητού στην περιοχή Καλύβια Θορικού 190 10 και ανήκει στη συλλογή Fish Tavernas. Συνδέεται με 1 κοντινές προτάσεις του Googlementor για πιο ολοκληρωμένη εμπειρία.","vibe_tags":["curated","seafood-local"],"best_for":["first-time visitors","food lovers"],"visit_moments":["lunch stop","dinner stop"],"practical_note":"Address and direct map link are available for easy turn-by-turn access.","nearby_walkable_count":1,"nearby_count_2km":4,"confidence":0.9},"areaContext":null,"intentContexts":[]},"__N_SSG":true}