{"pageProps":{"entity":{"id":"greekRestaurants_cd7bd8c142b3","slug":"ta-peyka-cd7b","kind":"restaurant","name":"Τα Πεύκα","lat":38.060680665394344,"lng":23.798177860938093,"url":"https://maps.app.goo.gl/47TqLWgDNWfa9U2QA","address":"Χαϊμαντά Δημητρίου 34, Μαρούσι 151 22","categoryIds":["greek-restaurants"],"categories":["Greek Restaurants"]},"sameCategory":[{"id":"greekRestaurants_1ff9a64c2696","slug":"kempaptzidikon-mparmpalias-maroysi-1ff9","kind":"restaurant","name":"Κεμπαπτζιδικον Μπαρμπαλιάς Μαρούσι","lat":38.05149931311812,"lng":23.790028540438847,"url":"https://maps.app.goo.gl/NL3SuAhkVPXxocnF9","address":"Βύρωνος 19, Μαρούσι 151 22","categoryIds":["greek-restaurants"],"categories":["Greek Restaurants"]},{"id":"greekRestaurants_81215dd76f6b","slug":"artisanal-8121","kind":"restaurant","name":"Artisanal","lat":38.067981010642875,"lng":23.811453792339574,"url":"https://maps.app.goo.gl/WsfMSGTo3b3Mq3hS6","address":"Ζηρίνη 2, Κηφισιά 145 62","categoryIds":["greek-restaurants"],"categories":["Greek Restaurants"]},{"id":"greekRestaurants_ee1040d986a2","slug":"o-tzitzikas-kai-o-mermigkas-ee10","kind":"restaurant","name":"Ο Τζίτζικας και ο Μέρμηγκας","lat":38.071444564634874,"lng":23.81158159449847,"url":"https://maps.app.goo.gl/Baz66z9eF1nXkQDe8","address":"Γεωρ. Δροσίνη 12, Κηφισιά 145 62","categoryIds":["greek-restaurants"],"categories":["Greek Restaurants"]},{"id":"greekRestaurants_b3a06913c0a6","slug":"striggla-b3a0","kind":"restaurant","name":"Striggla","lat":38.046725624480935,"lng":23.806442690864635,"url":"https://maps.app.goo.gl/zrq9BbB4MU8m8xEA7","address":"Αγίου Κωνσταντίνου 56, Μαρούσι 151 24","categoryIds":["greek-restaurants"],"categories":["Greek Restaurants"]},{"id":"greekRestaurants_191a2f7954ba","slug":"to-aythaireto-191a","kind":"restaurant","name":"ΤΟ ΑΥΘΑΙΡΕΤΟ","lat":38.05739141623042,"lng":23.82532230565926,"url":"https://maps.app.goo.gl/oF5WnEmN9HdHPyPo9","address":"Πεύκων 10, Μαρούσι 151 26","categoryIds":["greek-restaurants"],"categories":["Greek Restaurants"]},{"id":"greekRestaurants_b901d82ee343","slug":"vasilis-kifisia-b901","kind":"restaurant","name":"Βασίλης Κηφισιά","lat":38.08032122894861,"lng":23.814581872798477,"url":"https://maps.app.goo.gl/eB16zN6dJoMUydyJA","address":"Λεωφ. Κηφισίας 284, Κηφισιά 145 61","categoryIds":["greek-restaurants"],"categories":["Greek Restaurants"]},{"id":"greekRestaurants_96a815ab2fda","slug":"spitjack-golden-hall-96a8","kind":"restaurant","name":"Spitjack Golden Hall","lat":38.034373053538495,"lng":23.793186418589283,"url":"https://maps.app.goo.gl/MjaG7qgQXBbLTT8n7","address":"Λεωφ. Κηφισίας 37A, Μαρούσι 151 23","categoryIds":["greek-restaurants"],"categories":["Greek Restaurants"]},{"id":"greekRestaurants_be5c399cb3b9","slug":"to-vietnam-be5c","kind":"restaurant","name":"Το Βιετνάμ","lat":38.0615311115762,"lng":23.764059030004713,"url":"https://maps.app.goo.gl/xC1aTbCCv97NuUkz6?g_st=ipc","address":"Agiou Konstantinou 18, Metamorfosi 144 52","categoryIds":["greek-restaurants"],"categories":["Greek Restaurants"]},{"id":"greekRestaurants_89a2b5f64a13","slug":"taverna-to-koytoyki-89a2","kind":"restaurant","name":"Ταβέρνα Το Κουτούκι","lat":38.083850431201256,"lng":23.816117674528748,"url":"https://maps.app.goo.gl/wD1K2DMnmMrpmHVu7","address":"Λεωφ. Κηφισίας 308, Κηφισιά 145 63","categoryIds":["greek-restaurants"],"categories":["Greek Restaurants"]},{"id":"cheapEatsRestaurants_5f9d5dd343a6","slug":"ypoyrgeio-geyseon-soyvlaki-psita-5f9d","kind":"restaurant","name":"ΥΠΟΥΡΓΕΙΟ ΓΕΥΣΕΩΝ-Σουβλάκι,Ψητά","lat":38.04303394507047,"lng":23.771779772357615,"url":"https://maps.app.goo.gl/LCrvDRPpRco2nVuF9?g_st=ipc","address":"Φιλοθέης 67, Ηράκλειο 141 21","categoryIds":["cheap-eats","greek-restaurants"],"categories":["Gyros & Cheap Eats","Greek Restaurants"],"legacySlugs":["ypoyrgeio-geyseon-soyvlaki-psita-5023"]},{"id":"greekRestaurants_b22d69737b66","slug":"parasia-istories-geyseon-b22d","kind":"restaurant","name":"Παρασιά Ιστορίες Γεύσεων","lat":38.08628061091575,"lng":23.81539216213334,"url":"https://maps.app.goo.gl/FtKavrSVarJSeYwXA","address":"Σκιάθου 3, Κηφισιά 145 64","categoryIds":["greek-restaurants"],"categories":["Greek Restaurants"]},{"id":"greekRestaurants_ea49f706ac3a","slug":"vathis-taverna-kifisia-ea49","kind":"restaurant","name":"Βαθης - Ταβέρνα - Κηφισιά","lat":38.08767324286352,"lng":23.812020752033984,"url":"https://maps.app.goo.gl/8zy6QLVSBAEWjShh9","address":"Κύρου 7, Κηφισιά 145 64","categoryIds":["greek-restaurants"],"categories":["Greek Restaurants"]}],"nearby":[{"id":"coffeeBrunchRestaurants_37b671b3632a","slug":"alepou-37b6","kind":"restaurant","name":"Alepou","lat":38.060273733807854,"lng":23.79751630322254,"url":"https://maps.app.goo.gl/heYFVvSaJ4P8dDiS6?g_st=ipc","address":"Βαρβαρεσου, Πεύκη 151 21","categoryIds":["coffee-brunch"],"categories":["Coffee & Brunch Spots"],"distanceKm":0.07349924649335411},{"id":"italianRestaurants_602b491bd8e4","slug":"puff-daddy-pizzeria-602b","kind":"restaurant","name":"Puff Daddy Pizzeria","lat":38.06473867888921,"lng":23.799010812565253,"url":"https://maps.app.goo.gl/kgXB1etikXQDGo7k6?g_st=ipc","address":"Σκρα 16, Πεύκη 151 21","categoryIds":["italian"],"categories":["Italian Restaurants"],"distanceKm":0.45708506204180854},{"id":"dessertsRestaurants_11d8eb3a5116","slug":"solo-gelato-pefki-11d8","kind":"restaurant","name":"Solo Gelato Pefki","lat":38.058776038280556,"lng":23.79284350703131,"url":"https://maps.app.goo.gl/SjAsiViMGast8vsf9?g_st=ipc","address":"Σοφούλη 3, Πεύκη 151 21","categoryIds":["desserts"],"categories":["Dessert Shops"],"distanceKm":0.5128059309035687},{"id":"municipalities_3dd9311bd3cf","slug":"peyki-3dd9","kind":"municipality","name":"Πεύκη","lat":38.06,"lng":23.792,"aliases":["Pefki","Pefkakia","Πευκη","Peuki","Pefka"],"region":"Βόρεια Προάστια","name_en":"Pefki","region_en":"Northern Suburbs","distanceKm":0.5461456220371151},{"id":"familyFriendly_a0024b80ee95","slug":"block-games-a002","kind":"restaurant","name":"Block Games","lat":38.05634420757886,"lng":23.803830698656842,"url":"https://maps.app.goo.gl/KumHXE484XwJxn489?g_st=ipc","address":"Περικλέους 1, Μαρούσι 151 22","categoryIds":["family-friendly"],"categories":["Kid Friendly Locations"],"distanceKm":0.6909826426938563},{"id":"burgersRestaurants_6d610eb79dbd","slug":"taz-smash-burger-6d61","kind":"restaurant","name":"Taz Smash Burger","lat":38.05644521597169,"lng":23.804667787562405,"url":"https://maps.app.goo.gl/tj3ojXGmrnTvMA9c7?g_st=ipc","address":"Περικλέους 2, Μαρούσι 151 22","categoryIds":["burgers"],"categories":["Burger Spots"],"distanceKm":0.738016024923229},{"id":"asianRestaurants_02d0f232a272","slug":"new-great-wall-marousi-02d0","kind":"restaurant","name":"New Great Wall Marousi","lat":38.05713122309269,"lng":23.805863056780513,"url":"https://maps.app.goo.gl/UXfhhMjtr2rYJfNW7?g_st=ipc","address":"Βασ. Αμαλίας 1, Μαρούσι 151 22","categoryIds":["asian"],"categories":["Asian Restaurants"],"distanceKm":0.780069847323088},{"id":"cheapEatsRestaurants_484ec346fe11","slug":"souzi-tros-street-food-484e","kind":"restaurant","name":"SOUZI TROS street food","lat":38.0550996125921,"lng":23.804743752516742,"url":"https://maps.app.goo.gl/Q2YtxKh8LosNGyHJ6?g_st=ipc","address":"Σπύρου Λέκκα 9, Μαρούσι 151 24","categoryIds":["cheap-eats"],"categories":["Gyros & Cheap Eats"],"distanceKm":0.8459301998133033},{"id":"coffeeBrunchRestaurants_7046edfbce5c","slug":"janet-craig-7046","kind":"restaurant","name":"Janet Craig","lat":38.05641063632366,"lng":23.806182036715274,"url":"https://maps.app.goo.gl/o5wNnYy8d5rdfCBx5?g_st=ipc","address":"28ης Οκτωβρίου 5, Μαρούσι 151 24","categoryIds":["coffee-brunch"],"categories":["Coffee & Brunch Spots"],"distanceKm":0.8464893115061505},{"id":"cheapEatsRestaurants_8e2845b1b79c","slug":"to-elliniko-soyvlaki-8e28","kind":"restaurant","name":"Το Ελληνικό Σουβλάκι","lat":38.055611201936195,"lng":23.805858315965597,"url":"https://maps.app.goo.gl/GjgUbFCMPcughxPW6?g_st=ipc","address":"Διονύσου 19, Μαρούσι 151 24","categoryIds":["cheap-eats"],"categories":["Gyros & Cheap Eats"],"distanceKm":0.8774644227275449},{"id":"burgersRestaurants_3d23e4017c79","slug":"f-smashing-marousi-delivery-take-away-only-3d23","kind":"restaurant","name":"F* Smashing Marousi (Delivery & Take away Only!)","lat":38.05659414043942,"lng":23.807978426457023,"url":"https://maps.app.goo.gl/YDf78cc6DThEFAdSA?g_st=ipc","address":"Π. Κυριακού 18, Μαρούσι 151 24","categoryIds":["burgers"],"categories":["Burger Spots"],"distanceKm":0.9709568374043678},{"id":"municipalities_138c7310c224","slug":"lykovrysi-138c","kind":"municipality","name":"Λυκόβρυση","lat":38.065,"lng":23.788,"aliases":["Likovrysi","Likovrissi"],"region":"Βόρεια Προάστια","name_en":"Lykovrysi","region_en":"Northern Suburbs","distanceKm":1.0122465437007215},{"id":"dessertsRestaurants_f3991d5c3e79","slug":"smyrni-baklava-f399","kind":"restaurant","name":"Smyrni Baklava","lat":38.05518643071446,"lng":23.80748099367396,"url":"https://maps.app.goo.gl/FMXAiNt1SKKDggh88?g_st=ipc","address":"Βασ. Σοφίας 55, Μαρούσι 151 24","categoryIds":["desserts"],"categories":["Dessert Shops"],"distanceKm":1.0181763218449156},{"id":"italianRestaurants_c5639b50090e","slug":"the-italians-c563","kind":"restaurant","name":"The italians","lat":38.05489203613415,"lng":23.80737502626759,"url":"https://maps.app.goo.gl/JMrxX5Rq7Q7HgR487?g_st=ipc","address":"Βασ. Σοφίας 47, Μαρούσι 151 24","categoryIds":["italian"],"categories":["Italian Restaurants"],"distanceKm":1.0308866080474135},{"id":"municipalities_cb47d94cb6da","slug":"maroysi-cb47","kind":"municipality","name":"Μαρούσι","lat":38.0543,"lng":23.808,"aliases":["Marousi","Maroussi","Μαρουσι","Αμαρουσιο","Αμαρούσιο","Marusi","Amarousion"],"region":"Βόρεια Προάστια","name_en":"Marousi","region_en":"Northern Suburbs","distanceKm":1.1148686668223031},{"id":"greekRestaurants_1ff9a64c2696","slug":"kempaptzidikon-mparmpalias-maroysi-1ff9","kind":"restaurant","name":"Κεμπαπτζιδικον Μπαρμπαλιάς Μαρούσι","lat":38.05149931311812,"lng":23.790028540438847,"url":"https://maps.app.goo.gl/NL3SuAhkVPXxocnF9","address":"Βύρωνος 19, Μαρούσι 151 22","categoryIds":["greek-restaurants"],"categories":["Greek Restaurants"],"distanceKm":1.2455471431238958},{"id":"cheapEatsRestaurants_dac5582833c7","slug":"taliban-street-food-dac5","kind":"restaurant","name":"Taliban Street Food","lat":38.06195061055415,"lng":23.783033784917546,"url":"https://maps.app.goo.gl/4yeaKT2EdHHJPxdj7?g_st=ipc","address":"Λεωφ. Αμαρουσίου 29, Λυκόβρυση 141 23","categoryIds":["cheap-eats"],"categories":["Gyros & Cheap Eats"],"distanceKm":1.3333547942655521},{"id":"greekRestaurants_81215dd76f6b","slug":"artisanal-8121","kind":"restaurant","name":"Artisanal","lat":38.067981010642875,"lng":23.811453792339574,"url":"https://maps.app.goo.gl/WsfMSGTo3b3Mq3hS6","address":"Ζηρίνη 2, Κηφισιά 145 62","categoryIds":["greek-restaurants"],"categories":["Greek Restaurants"],"distanceKm":1.4176701693559148},{"id":"burgersRestaurants_ceb67d2517dd","slug":"godgilla-umami-street-food-ceb6","kind":"restaurant","name":"Godgilla umami street food","lat":38.056565975998105,"lng":23.814008768575892,"url":"https://maps.app.goo.gl/WyovvCKHo17WtrPb8?g_st=ipc","address":"Γεωρ. Κοτζιά 2, Μαρούσι 151 26","categoryIds":["burgers","cheap-eats"],"categories":["Burger Spots","Gyros & Cheap Eats"],"legacySlugs":["godgilla-umami-street-food-784d"],"distanceKm":1.459602578003259},{"id":"familyFriendly_dcb80555b0c4","slug":"hakuna-matata-family-park-dcb8","kind":"restaurant","name":"Hakuna Matata Family Park","lat":38.07414614693604,"lng":23.79446488393812,"url":"https://maps.app.goo.gl/wTSkxqJ3qSwLG4aJA?g_st=ipc","address":"Αχαρνών 53, Κηφισιά 145 61","categoryIds":["family-friendly"],"categories":["Kid Friendly Locations"],"distanceKm":1.5321682067124125},{"id":"dessertsRestaurants_91ba7ff0c788","slug":"galaktopoleio-stamoy-91ba","kind":"restaurant","name":"Γαλακτοπωλείο ΣΤΑΜΟΥ","lat":38.06327717225913,"lng":23.780942994591154,"url":"https://maps.app.goo.gl/rMwhBDoVuWArY4T36?g_st=ipc","address":"Λεωφ. Αμαρουσίου 29, Λυκόβρυση 141 23","categoryIds":["desserts"],"categories":["Dessert Shops"],"distanceKm":1.5362641008858646},{"id":"dessertsRestaurants_953419857ace","slug":"zacharoplasteia-konstantinidis-9534","kind":"restaurant","name":"Ζαχαροπλαστεία ΚΩΝΣΤΑΝΤΙΝΙΔΗΣ","lat":38.04797259669027,"lng":23.808277250620737,"url":"https://maps.app.goo.gl/gRUZcBRcbiTVtWhq7?g_st=ipc","address":"Λεωφ. Κηφισίας 86, Μαρούσι 151 25","categoryIds":["desserts"],"categories":["Dessert Shops"],"distanceKm":1.6669514725645485},{"id":"mexicanRestaurants_a0149c25ef48","slug":"dos-hermanos-a014","kind":"restaurant","name":"Dos Hermanos","lat":38.070224929633255,"lng":23.812971812919443,"url":"https://maps.app.goo.gl/4EBL1F4dh9gaVYdh7?g_st=ipc","address":"Κυριαζή 24, Κηφισιά 145 62","categoryIds":["mexican"],"categories":["Mexican Restaurants"],"distanceKm":1.6744141750454624},{"id":"greekRestaurants_ee1040d986a2","slug":"o-tzitzikas-kai-o-mermigkas-ee10","kind":"restaurant","name":"Ο Τζίτζικας και ο Μέρμηγκας","lat":38.071444564634874,"lng":23.81158159449847,"url":"https://maps.app.goo.gl/Baz66z9eF1nXkQDe8","address":"Γεωρ. Δροσίνη 12, Κηφισιά 145 62","categoryIds":["greek-restaurants"],"categories":["Greek Restaurants"],"distanceKm":1.6761408348336186}],"sameRegion":[],"mentionedGuides":[],"canonicalSlug":"ta-peyka-cd7b","isCanonicalEntity":true,"enrichment":{"summary_en":"Τα Πεύκα is a curated restaurant in Μαρούσι 151 22 in the Greek Restaurants collection. It is connected to 7 nearby Googlementor picks to help travelers build a stronger local route.","summary_el":"Τα Πεύκα είναι ένα επιλεγμένο σημείο φαγητού στην περιοχή Μαρούσι 151 22 και ανήκει στη συλλογή Greek Restaurants. Συνδέεται με 7 κοντινές προτάσεις του Googlementor για πιο ολοκληρωμένη εμπειρία.","vibe_tags":["curated"],"best_for":["first-time visitors","food lovers"],"visit_moments":["lunch stop","dinner stop"],"practical_note":"Address and direct map link are available for easy turn-by-turn access.","nearby_walkable_count":7,"nearby_count_2km":48,"confidence":0.98},"areaContext":{"slug":"peyki","name":"Pefki"},"intentContexts":[{"href":"/greek-restaurants/peyki","label":"Greek Restaurants in Pefki","categorySlug":"greek-restaurants","categoryName":"Greek Restaurants","areaSlug":"peyki","areaName":"Pefki"}]},"__N_SSG":true}