{"pageProps":{"entity":{"id":"greekRestaurants_83a0250938d4","slug":"taverna-ton-filon-83a0","kind":"restaurant","name":"Ταβέρνα των Φίλων","lat":37.99014835512761,"lng":23.713340464618646,"url":"https://maps.app.goo.gl/CyUaWUVM84i2Ym18A","address":"Άργους 66, Αθήνα 104 41","categoryIds":["greek-restaurants"],"categories":["Greek Restaurants"]},"sameCategory":[{"id":"greekRestaurants_bad759859413","slug":"ta-skalakia-bad7","kind":"restaurant","name":"Τα Σκαλάκια","lat":37.98954880589726,"lng":23.709123253452237,"url":"https://maps.app.goo.gl/Dec4aP4V9Z2pEehcA","address":"Μαραθωνομάχων 57, Αθήνα 104 41","categoryIds":["greek-restaurants"],"categories":["Greek Restaurants"]},{"id":"greekRestaurants_9611782bc12d","slug":"o-thessalos-9611","kind":"restaurant","name":"Ο Θεσσαλός","lat":37.98471994306453,"lng":23.712346428545427,"url":"https://maps.app.goo.gl/nM83keU2k42E2kxJ6","address":"Μελενίκου 2, Αθήνα 104 47","categoryIds":["greek-restaurants"],"categories":["Greek Restaurants"]},{"id":"greekRestaurants_c6cbcafef8ce","slug":"to-palaio-kafeneio-c6cb","kind":"restaurant","name":"Το παλαιό καφενείο","lat":37.984456056477114,"lng":23.70991900524202,"url":"https://maps.app.goo.gl/giNLK8YBTxmzzF9PA","address":"Κορυτσάς 48, Αθήνα 104 47","categoryIds":["greek-restaurants"],"categories":["Greek Restaurants"]},{"id":"greekRestaurants_7e068071958f","slug":"rafiki-7e06","kind":"restaurant","name":"Ραφίκι","lat":37.98338715429696,"lng":23.71184940799049,"url":"https://maps.app.goo.gl/awtPeTxoWYGakCkX9","address":"Πέλλης 22, Αθήνα 104 47","categoryIds":["greek-restaurants"],"categories":["Greek Restaurants"]},{"id":"greekRestaurants_fc8301cd2394","slug":"geystiki-gonia-fc83","kind":"restaurant","name":"Γευστική Γωνιά","lat":37.9895544491858,"lng":23.722717045952898,"url":"https://maps.app.goo.gl/AkzhbzV5JgMPNbyh8","address":"Ψαρών 45, Αθήνα 104 38","categoryIds":["greek-restaurants"],"categories":["Greek Restaurants"]},{"id":"greekRestaurants_280ac53a773c","slug":"mironi-restaurant-greek-kitchen-280a","kind":"restaurant","name":"MIRONI Restaurant - Greek Kitchen","lat":37.98465016325456,"lng":23.72140702973958,"url":"https://maps.app.goo.gl/5WVbqoo2mBUmdX2z6?g_st=ipc","address":"Meg. Alexandrou 7, Athina 104 37","categoryIds":["greek-restaurants"],"categories":["Greek Restaurants"]},{"id":"greekRestaurants_91881b4e9587","slug":"seramiko-9188","kind":"restaurant","name":"Σεράμικο","lat":37.98162530293091,"lng":23.71443381634983,"url":"https://maps.app.goo.gl/o8XfcUJ1JPyFTfao8","address":"Μεγ. Αλεξάνδρου 109-111, Αθήνα 104 35","categoryIds":["greek-restaurants"],"categories":["Greek Restaurants"]},{"id":"greekRestaurants_6dad5c0e5b55","slug":"to-aygo-toy-kokkora-6dad","kind":"restaurant","name":"Το Αυγό Του Κόκκορα","lat":37.98270365301358,"lng":23.719206888648312,"url":"https://maps.app.goo.gl/iKbPmGsQDpnYazKs9","address":"Λεωνίδου 46, Αθήνα 104 36","categoryIds":["greek-restaurants"],"categories":["Greek Restaurants"]},{"id":"greekRestaurants_fe1298439f3b","slug":"pyroliki-fe12","kind":"restaurant","name":"Πυρολίκι","lat":37.98138914645396,"lng":23.713920948942256,"url":"https://maps.app.goo.gl/VoibgN4wKpaNpoSG7","address":"Μεγ. Αλεξάνδρου 117, Αθήνα 104 35","categoryIds":["greek-restaurants"],"categories":["Greek Restaurants"]},{"id":"greekRestaurants_2a6cdbb60ef0","slug":"balkan-restaurant-2a6c","kind":"restaurant","name":"Balkan Restaurant","lat":37.985310593490546,"lng":23.722959936018757,"url":"https://maps.app.goo.gl/CKhBpbV2aiz5Bpov8","address":"Ακομινάτου 13, Αθήνα 104 37","categoryIds":["greek-restaurants"],"categories":["Greek Restaurants"]},{"id":"greekRestaurants_1b0710fd0635","slug":"loyis-kafeneio-1b07","kind":"restaurant","name":"Λούης καφενείο","lat":37.98085946462118,"lng":23.71532632472864,"url":"https://maps.app.goo.gl/HykcqWbVLkwR9HqJ7","address":"Λεωνίδου 87, Αθήνα 104 35","categoryIds":["greek-restaurants"],"categories":["Greek Restaurants"]},{"id":"greekRestaurants_8c5628ce57f7","slug":"seychelles-8c56","kind":"restaurant","name":"Σεϋχέλλες","lat":37.9823149491854,"lng":23.720253813195804,"url":"https://maps.app.goo.gl/iUj8NxtUsYKhihFV9","address":"Κεραμεικού 49, Αθήνα 104 36","categoryIds":["greek-restaurants"],"categories":["Greek Restaurants"]}],"nearby":[{"id":"cheapEatsRestaurants_8f156c4c3126","slug":"o-meraklis-cheiropoiitos-gyros-8f15","kind":"restaurant","name":"«Ο Μερακλής» Χειροποίητος Γύρος","lat":37.987612206644826,"lng":23.712852337967995,"url":"https://maps.app.goo.gl/SzCvMEeUoY15EeqY8?g_st=ipc","address":"Πλάτωνος 50-52, Αθήνα 104 41","categoryIds":["cheap-eats"],"categories":["Gyros & Cheap Eats"],"distanceKm":0.2852328443280726},{"id":"greekRestaurants_bad759859413","slug":"ta-skalakia-bad7","kind":"restaurant","name":"Τα Σκαλάκια","lat":37.98954880589726,"lng":23.709123253452237,"url":"https://maps.app.goo.gl/Dec4aP4V9Z2pEehcA","address":"Μαραθωνομάχων 57, Αθήνα 104 41","categoryIds":["greek-restaurants"],"categories":["Greek Restaurants"],"distanceKm":0.3755397953026859},{"id":"familyFriendly_8eb78af38b86","slug":"archaiologiko-alsos-akadimias-platonos-8eb7","kind":"restaurant","name":"Αρχαιολογικό Άλσος Ακαδημίας Πλάτωνος","lat":37.99129905736324,"lng":23.708384657791346,"url":"https://maps.app.goo.gl/YkXeKrRsNFSepRDT8?g_st=ipc","address":"Αθήνα 104 42","categoryIds":["family-friendly"],"categories":["Kid Friendly Locations"],"distanceKm":0.45275302314295246},{"id":"greekRestaurants_9611782bc12d","slug":"o-thessalos-9611","kind":"restaurant","name":"Ο Θεσσαλός","lat":37.98471994306453,"lng":23.712346428545427,"url":"https://maps.app.goo.gl/nM83keU2k42E2kxJ6","address":"Μελενίκου 2, Αθήνα 104 47","categoryIds":["greek-restaurants"],"categories":["Greek Restaurants"],"distanceKm":0.6098658470713944},{"id":"cheapEatsRestaurants_26cfead773fa","slug":"o-peinaleos-o-peinaleos-26cf","kind":"restaurant","name":"Ο ΠΕΙΝΑΛΕΟΣ -O Peinaleos","lat":37.984683017890625,"lng":23.71166951732043,"url":"https://maps.app.goo.gl/6gyRh1g3eUYCXoVV9?g_st=ipc","address":"Προφήτου Δανιήλ 35, Αθήνα 104 47","categoryIds":["cheap-eats"],"categories":["Gyros & Cheap Eats"],"distanceKm":0.6251120201314881},{"id":"cheapEatsRestaurants_3735299a67ee","slug":"kantina-christos-3735","kind":"restaurant","name":"Καντίνα Χρήστος","lat":37.99124414586088,"lng":23.720512677134217,"url":"https://maps.app.goo.gl/viHqpygtkwkePK7KA?g_st=ipc","address":"Θεοδ. Δηλιγιάννη, Αθήνα 104 39","categoryIds":["cheap-eats"],"categories":["Gyros & Cheap Eats"],"distanceKm":0.6402306636295989},{"id":"greekRestaurants_c6cbcafef8ce","slug":"to-palaio-kafeneio-c6cb","kind":"restaurant","name":"Το παλαιό καφενείο","lat":37.984456056477114,"lng":23.70991900524202,"url":"https://maps.app.goo.gl/giNLK8YBTxmzzF9PA","address":"Κορυτσάς 48, Αθήνα 104 47","categoryIds":["greek-restaurants"],"categories":["Greek Restaurants"],"distanceKm":0.7003867224288627},{"id":"greekRestaurants_7e068071958f","slug":"rafiki-7e06","kind":"restaurant","name":"Ραφίκι","lat":37.98338715429696,"lng":23.71184940799049,"url":"https://maps.app.goo.gl/awtPeTxoWYGakCkX9","address":"Πέλλης 22, Αθήνα 104 47","categoryIds":["greek-restaurants"],"categories":["Greek Restaurants"],"distanceKm":0.7630831231238605},{"id":"coffeeBrunchRestaurants_694f840c415f","slug":"mour-athens-694f","kind":"restaurant","name":"Mour Athens","lat":37.9833034256398,"lng":23.711600559592124,"url":"https://maps.app.goo.gl/t12h1kgPVWW5kBNk8?g_st=ipc","address":"Κορυτσάς 15, Αθήνα 104 47","categoryIds":["coffee-brunch"],"categories":["Coffee & Brunch Spots"],"distanceKm":0.7762453741713805},{"id":"vegetarianRestaurants_c67e718a73e4","slug":"calibra-votanikos-c67e","kind":"restaurant","name":"CALIBRA - Votanikos","lat":37.98303566126477,"lng":23.711367796488275,"url":"https://maps.app.goo.gl/aPvyrqA5tYdbUuhP8?g_st=ipc","address":"CALIBRA - Votanikos","categoryIds":["vegetarian"],"categories":["Vegetarian Friendly Restaurants"],"distanceKm":0.8095702176298083},{"id":"italianRestaurants_eda14ce07bd0","slug":"proveleggios-eda1","kind":"restaurant","name":"Proveleggioς","lat":37.98314343701362,"lng":23.716034626731084,"url":"https://maps.app.goo.gl/MitPmZaCFjCBtxr4A?g_st=ipc","address":"Παραμυθίας 11, Αθήνα 104 35","categoryIds":["italian"],"categories":["Italian Restaurants"],"distanceKm":0.8139116969893013},{"id":"italianRestaurants_301b52803ea0","slug":"amante-athens-301b","kind":"restaurant","name":"Amante Athens","lat":37.983114932894274,"lng":23.7159682164575,"url":"https://maps.app.goo.gl/9Zg1mEJh6x2SjrNx6?g_st=ipc","address":"Παραμυθίας 13, Αθήνα 104 35","categoryIds":["italian"],"categories":["Italian Restaurants"],"distanceKm":0.8152823570753264},{"id":"greekRestaurants_fc8301cd2394","slug":"geystiki-gonia-fc83","kind":"restaurant","name":"Γευστική Γωνιά","lat":37.9895544491858,"lng":23.722717045952898,"url":"https://maps.app.goo.gl/AkzhbzV5JgMPNbyh8","address":"Ψαρών 45, Αθήνα 104 38","categoryIds":["greek-restaurants"],"categories":["Greek Restaurants"],"distanceKm":0.8243654162712937},{"id":"luxuryDiningRestaurants_79d4330d9768","slug":"osteria-mamma-79d4","kind":"restaurant","name":"Osteria Mamma","lat":37.98294206858995,"lng":23.71602963121187,"url":"https://maps.app.goo.gl/KpcsdbWmQM1rsB9dA?g_st=ipc","address":"Σαλαμίνος 64, Αθήνα 104 35","categoryIds":["luxury-dining"],"categories":["Luxury Dining"],"distanceKm":0.8352416743096323},{"id":"luxuryDiningRestaurants_67ad308e6455","slug":"aleria-restaurant-67ad","kind":"restaurant","name":"Aleria Restaurant","lat":37.983083255227115,"lng":23.717769708530103,"url":"https://maps.app.goo.gl/4upFvmVgdSbUxB7F8?g_st=ipc","address":"Μεγ. Αλεξάνδρου 57, Αθήνα 104 35","categoryIds":["luxury-dining"],"categories":["Luxury Dining"],"distanceKm":0.8762711945321504},{"id":"mexicanRestaurants_624c5c1ab8d8","slug":"mentirosa-tacos-cocktails-624c","kind":"restaurant","name":"Mentirosa - Tacos & Cocktails","lat":37.982550988441936,"lng":23.717503924756294,"url":"https://maps.app.goo.gl/1xXknD2jtrEpodcR7?g_st=ipc","address":"Θερμοπυλών 41, Αθήνα 104 35","categoryIds":["mexican"],"categories":["Mexican Restaurants"],"distanceKm":0.9202209774340575},{"id":"cheapEatsRestaurants_f6e9355765da","slug":"armando-pizzeria-cafeteria-f6e9","kind":"restaurant","name":"Armando Pizzeria Cafeteria","lat":37.98213236236815,"lng":23.71647213293712,"url":"https://maps.app.goo.gl/X5ofrEqzBi24eigT6?g_st=ipc","address":"Σαλαμίνος 43, Αθήνα 104 35","categoryIds":["cheap-eats","italian"],"categories":["Gyros & Cheap Eats","Italian Restaurants"],"legacySlugs":["armando-pizzeria-cafeteria-53d4"],"distanceKm":0.9326359435110291},{"id":"greekRestaurants_280ac53a773c","slug":"mironi-restaurant-greek-kitchen-280a","kind":"restaurant","name":"MIRONI Restaurant - Greek Kitchen","lat":37.98465016325456,"lng":23.72140702973958,"url":"https://maps.app.goo.gl/5WVbqoo2mBUmdX2z6?g_st=ipc","address":"Meg. Alexandrou 7, Athina 104 37","categoryIds":["greek-restaurants"],"categories":["Greek Restaurants"],"distanceKm":0.9346302340767711},{"id":"greekRestaurants_91881b4e9587","slug":"seramiko-9188","kind":"restaurant","name":"Σεράμικο","lat":37.98162530293091,"lng":23.71443381634983,"url":"https://maps.app.goo.gl/o8XfcUJ1JPyFTfao8","address":"Μεγ. Αλεξάνδρου 109-111, Αθήνα 104 35","categoryIds":["greek-restaurants"],"categories":["Greek Restaurants"],"distanceKm":0.9525519237668044},{"id":"burgersRestaurants_96fe4c6a69f2","slug":"stivs-a-e-kerameikos-champoyrgker-pitses-96fe","kind":"restaurant","name":"ΣΤΗΒΣ Α.Ε. Κεραμεικός - ΧΑΜΠΟΥΡΓΚΕΡ & ΠΙΤΣΕΣ","lat":37.981862507718745,"lng":23.71676727771988,"url":"https://maps.app.goo.gl/dfoGjBoXnHtHAokj9?g_st=ipc","address":"Σαλαμίνος 42, Αθήνα 104 35","categoryIds":["burgers","italian"],"categories":["Burger Spots","Italian Restaurants"],"legacySlugs":["stivs-a-e-kerameikos-champoyrgker-pitses-7e62"],"distanceKm":0.9690561262232261},{"id":"greekRestaurants_6dad5c0e5b55","slug":"to-aygo-toy-kokkora-6dad","kind":"restaurant","name":"Το Αυγό Του Κόκκορα","lat":37.98270365301358,"lng":23.719206888648312,"url":"https://maps.app.goo.gl/iKbPmGsQDpnYazKs9","address":"Λεωνίδου 46, Αθήνα 104 36","categoryIds":["greek-restaurants"],"categories":["Greek Restaurants"],"distanceKm":0.974475111986584},{"id":"greekRestaurants_fe1298439f3b","slug":"pyroliki-fe12","kind":"restaurant","name":"Πυρολίκι","lat":37.98138914645396,"lng":23.713920948942256,"url":"https://maps.app.goo.gl/VoibgN4wKpaNpoSG7","address":"Μεγ. Αλεξάνδρου 117, Αθήνα 104 35","categoryIds":["greek-restaurants"],"categories":["Greek Restaurants"],"distanceKm":0.9753072904683153},{"id":"vegetarianRestaurants_5038de25697a","slug":"los-v-vegan-vegetarian-restaurant-5038","kind":"restaurant","name":"Los V - Vegan & Vegetarian Restaurant","lat":37.98154957793841,"lng":23.71604712211994,"url":"https://maps.app.goo.gl/ZWkqdkixRwwqeKq8A?g_st=ipc","address":"Πλαταιών 37, Αθήνα 104 35","categoryIds":["vegetarian"],"categories":["Vegetarian Friendly Restaurants"],"distanceKm":0.9851260626150843},{"id":"municipalities_7e1691d5f08d","slug":"metaxoyrgeio-7e16","kind":"municipality","name":"Μεταξουργείο","lat":37.9843,"lng":23.7219,"region":"Κέντρο Αθήνας","name_en":"Metaxourgeio","region_en":"Athens Center","distanceKm":0.9927796225843541}],"sameRegion":[],"mentionedGuides":[],"canonicalSlug":"taverna-ton-filon-83a0","isCanonicalEntity":true,"enrichment":{"summary_en":"Ταβέρνα των Φίλων is a curated restaurant in Αθήνα 104 41 in the Greek Restaurants collection. It is connected to 9 nearby Googlementor picks to help travelers build a stronger local route.","summary_el":"Ταβέρνα των Φίλων είναι ένα επιλεγμένο σημείο φαγητού στην περιοχή Αθήνα 104 41 και ανήκει στη συλλογή Greek Restaurants. Συνδέεται με 9 κοντινές προτάσεις του Googlementor για πιο ολοκληρωμένη εμπειρία.","vibe_tags":["curated"],"best_for":["first-time visitors","food lovers"],"visit_moments":["lunch stop","dinner stop"],"practical_note":"Address and direct map link are available for easy turn-by-turn access.","nearby_walkable_count":9,"nearby_count_2km":270,"confidence":0.98},"areaContext":{"slug":"metaxoyrgeio","name":"Metaxourgeio"},"intentContexts":[{"href":"/greek-restaurants/metaxoyrgeio","label":"Greek Restaurants in Metaxourgeio","categorySlug":"greek-restaurants","categoryName":"Greek Restaurants","areaSlug":"metaxoyrgeio","areaName":"Metaxourgeio"}]},"__N_SSG":true}