{"pageProps":{"entity":{"id":"mexicanRestaurants_855638776a76","slug":"tekila-8556","kind":"restaurant","name":"Tekila","lat":37.97697304778162,"lng":23.733460625726625,"url":"https://maps.app.goo.gl/CAhgNENSirDV1fWq7?g_st=ipc","address":"Κολοκοτρώνη 3, Αθήνα 105 62","categoryIds":["mexican"],"categories":["Mexican Restaurants"]},"sameCategory":[{"id":"mexicanRestaurants_33052426e7a2","slug":"mamacita-taqueria-y-cocteleria-3305","kind":"restaurant","name":"Mamacita - Taquería y Coctelería","lat":37.97469687554734,"lng":23.731910676858394,"url":"https://maps.app.goo.gl/KcBA2GUcjk1cY9FJ8?g_st=ipc","address":"Απόλλωνος 9Β, Αθήνα 105 57","categoryIds":["mexican"],"categories":["Mexican Restaurants"]},{"id":"mexicanRestaurants_d1ef1807c1f0","slug":"taco-loco-athens-d1ef","kind":"restaurant","name":"Taco Loco Athens","lat":37.9776204281013,"lng":23.730210870551065,"url":"https://maps.app.goo.gl/6pEPXa7waRhazPjR9?g_st=ipc","address":"Κολοκοτρώνη 39, Αθήνα 105 62","categoryIds":["mexican"],"categories":["Mexican Restaurants"]},{"id":"mexicanRestaurants_12ba982b5dec","slug":"ancho-mexican-grill-12ba","kind":"restaurant","name":"Ancho Mexican Grill","lat":37.97715705569823,"lng":23.72766354204186,"url":"https://maps.app.goo.gl/iYXrRpCvSYJUhEHx8?g_st=ipc","address":"Αιόλου 25, Αθήνα 105 51","categoryIds":["mexican"],"categories":["Mexican Restaurants"]},{"id":"mexicanRestaurants_68ac307861c4","slug":"morenita-all-day-bar-restaurant-68ac","kind":"restaurant","name":"Morenita All Day Bar Restaurant","lat":37.978327591113846,"lng":23.724081018892964,"url":"https://maps.app.goo.gl/HF699YbZfp4NJUYi7?g_st=ipc","address":"Τάκη 13, Αθήνα 105 54","categoryIds":["mexican"],"categories":["Mexican Restaurants"]},{"id":"mexicanRestaurants_78038d8f26a9","slug":"dos-gardenias-7803","kind":"restaurant","name":"Dos Gardenias","lat":37.977603557604816,"lng":23.722737599299293,"url":"https://maps.app.goo.gl/Gi4zf9TfzCfLeQPL6?g_st=ipc","address":"Ήβης 21 &, Ναυάρχου Αποστόλη 17, Αθήνα 105 54","categoryIds":["mexican"],"categories":["Mexican Restaurants"]},{"id":"mexicanRestaurants_5d5b665dab34","slug":"poncho-tacos-5d5b","kind":"restaurant","name":"Poncho TACOS","lat":37.986865601219684,"lng":23.73564152842256,"url":"https://maps.app.goo.gl/UDV48UEWHbvnBPVPA?g_st=ipc","address":"Θεμιστοκλέους 63, Αθήνα 106 83","categoryIds":["mexican"],"categories":["Mexican Restaurants"]},{"id":"cheapEatsRestaurants_d094097525b6","slug":"senor-picante-d094","kind":"restaurant","name":"Señor Picante","lat":37.965308606012925,"lng":23.726477821309263,"url":"https://maps.app.goo.gl/bZNApSKDTgmvuiXB7?g_st=ipc","address":"Φαλήρου 40, Αθήνα 117 42","categoryIds":["cheap-eats","mexican"],"categories":["Gyros & Cheap Eats","Mexican Restaurants"],"legacySlugs":["senor-picante-fbd3"]},{"id":"mexicanRestaurants_624c5c1ab8d8","slug":"mentirosa-tacos-cocktails-624c","kind":"restaurant","name":"Mentirosa - Tacos & Cocktails","lat":37.982550988441936,"lng":23.717503924756294,"url":"https://maps.app.goo.gl/1xXknD2jtrEpodcR7?g_st=ipc","address":"Θερμοπυλών 41, Αθήνα 104 35","categoryIds":["mexican"],"categories":["Mexican Restaurants"]},{"id":"mexicanRestaurants_b734434ef46c","slug":"el-burro-tacos-y-tequila-b734","kind":"restaurant","name":"El burro tacos y tequila","lat":37.962922862445566,"lng":23.7215865155236,"url":"https://maps.app.goo.gl/5kJKHTBcWjkVftX99?g_st=ipc","address":"Δημητρακοπούλου 102, Αθήνα 117 41","categoryIds":["mexican"],"categories":["Mexican Restaurants"]},{"id":"mexicanRestaurants_246d0cbd5711","slug":"kaisaras-mpar-kaisaras-bar-246d","kind":"restaurant","name":"Καίσαρας Μπαρ - Kaisaras Bar","lat":37.96879437306453,"lng":23.758782238098565,"url":"https://maps.app.goo.gl/dNnjqQMeoX6QVGm38?g_st=ipc","address":"Πλατεία Παναγιώτη Μακρή 7-9, Καισαριανή 161 21","categoryIds":["mexican"],"categories":["Mexican Restaurants"]},{"id":"mexicanRestaurants_ec31cb806a86","slug":"dos-banditos-ec31","kind":"restaurant","name":"Dos Banditos","lat":37.957023186399105,"lng":23.71172894880883,"url":"https://maps.app.goo.gl/A9S8uhRtFHyQhuDh6?g_st=ipc","address":"Δημοσθένους 31, Καλλιθέα 176 71","categoryIds":["mexican"],"categories":["Mexican Restaurants"]},{"id":"mexicanRestaurants_7f0e3c29626a","slug":"o-mexikanos-7f0e","kind":"restaurant","name":"Ο Μεξικανός","lat":37.98186119461787,"lng":23.768203133980027,"url":"https://maps.app.goo.gl/bgqno3epSEAwFEp1A?g_st=ipc","address":"157 73, Γεωρ. Παπανδρέου 47, Ζωγράφου 157 73","categoryIds":["mexican"],"categories":["Mexican Restaurants"]}],"nearby":[{"id":"dessertsRestaurants_ce9de85fc0a1","slug":"aristokratikon-epich-ap-to-1928-syntagma-athina-ce9d","kind":"restaurant","name":"Αριστοκρατικόν (Επιχ. απ'το 1928) - Σύνταγμα, Αθήνα","lat":37.97685312862056,"lng":23.732864293474787,"url":"https://maps.app.goo.gl/ZpgyyzyeJjW4e7Y58?g_st=ipc","address":"Βουλής 7, Αθήνα 105 62","categoryIds":["desserts"],"categories":["Dessert Shops"],"distanceKm":0.05394282233579161},{"id":"coffeeBrunchRestaurants_10f7636fb183","slug":"fillo-10f7","kind":"restaurant","name":"Fillo","lat":37.97664924966537,"lng":23.732881855883917,"url":"https://maps.app.goo.gl/kXhn28aSgrw8SgU47?g_st=ipc","address":"105 62, Βουλής 11, Αθήνα 105 62","categoryIds":["coffee-brunch"],"categories":["Coffee & Brunch Spots"],"distanceKm":0.06220785770043616},{"id":"dessertsRestaurants_c341ccbd87e0","slug":"ariston-lompotesis-c341","kind":"restaurant","name":"ΑΡΙΣΤΟΝ ΛΟΜΠΟΤΕΣΗΣ","lat":37.97670511785389,"lng":23.732649290748736,"url":"https://maps.app.goo.gl/GQVtxtBLY3rpmzsa9?g_st=ipc","address":"Βουλής 10, Αθήνα 105 62","categoryIds":["desserts","vegetarian"],"categories":["Dessert Shops","Vegetarian Friendly Restaurants"],"legacySlugs":["ariston-lompotesis-daef"],"distanceKm":0.07710236677966653},{"id":"cheapEatsRestaurants_fa954f16db19","slug":"i-kantina-tis-karagiorgi-servias-o-kritikos-fa95","kind":"restaurant","name":"Η καντίνα της Καραγιώργη Σερβίας (Ο Κρητικός)","lat":37.97642356412653,"lng":23.734100321342698,"url":"https://maps.app.goo.gl/EeFjaZknqeTjfN8V6?g_st=ipc","address":"Καραγιώργη Σερβίας 2, Αθήνα 105 62","categoryIds":["cheap-eats"],"categories":["Gyros & Cheap Eats"],"distanceKm":0.08292767325033591},{"id":"dessertsRestaurants_9b5ef29493b0","slug":"fystiki-shop-downtown-9b5e","kind":"restaurant","name":"Fystiki Shop Downtown","lat":37.97606272763876,"lng":23.7332915007465,"url":"https://maps.app.goo.gl/kHKQgnoXfNFn8vtP9?g_st=ipc","address":"Ερμού &, Νίκης 4, Αθήνα 105 63","categoryIds":["desserts"],"categories":["Dessert Shops"],"distanceKm":0.1023026950547837},{"id":"coffeeBrunchRestaurants_34ae78424cdb","slug":"abuelo-34ae","kind":"restaurant","name":"Abuelo","lat":37.977278007040915,"lng":23.732254640031748,"url":"https://maps.app.goo.gl/mtDzW4EBiKS3shLM8?g_st=ipc","address":"Κολοκοτρώνη 11, Αθήνα 105 62","categoryIds":["coffee-brunch"],"categories":["Coffee & Brunch Spots"],"distanceKm":0.11101074791574282},{"id":"rooftopLoungesRestaurants_a85e8793b95e","slug":"galaxy-bar-a85e","kind":"restaurant","name":"Galaxy Bar","lat":37.97799760915879,"lng":23.73380131955468,"url":"https://maps.app.goo.gl/onyhWrgj9TNpbXLX8?g_st=ipc","address":"Σταδίου 10, Αθήνα 105 62","categoryIds":["rooftop-lounges"],"categories":["Rooftop Lounges"],"distanceKm":0.11777462096713637},{"id":"dessertsRestaurants_ecf6d66518c8","slug":"oggi-officina-gelato-gusto-italiano-athens-ecf6","kind":"restaurant","name":"Oggi - Officina Gelato Gusto Italiano, Athens","lat":37.97609425961556,"lng":23.73264733165775,"url":"https://maps.app.goo.gl/tFchspxKZcFEKXjf6?g_st=ipc","address":"Βουλής 17, Αθήνα 105 63","categoryIds":["desserts"],"categories":["Dessert Shops"],"distanceKm":0.12095556878613932},{"id":"cheapEatsRestaurants_1bc4d9fd56dd","slug":"harry-s-kitchen-1bc4","kind":"restaurant","name":"Harry's Kitchen","lat":37.97623023407263,"lng":23.732424722550896,"url":"https://maps.app.goo.gl/4ThbHca8EWSeyv4f9?g_st=ipc","address":"Αθανασίου Αξαρλιάν 2, Αθήνα 105 63","categoryIds":["cheap-eats"],"categories":["Gyros & Cheap Eats"],"distanceKm":0.12274568691657833},{"id":"luxuryDiningRestaurants_c75b4f75eed4","slug":"geco-athens-c75b","kind":"restaurant","name":"Geco Athens","lat":37.97686179118327,"lng":23.732026538746123,"url":"https://maps.app.goo.gl/p3ytMHs2cKCwK2j76?g_st=ipc","address":"Λέκκα 14, Αθήνα 105 62","categoryIds":["luxury-dining"],"categories":["Luxury Dining"],"distanceKm":0.12630557063599124},{"id":"luxuryDiningRestaurants_625d4bb407a4","slug":"tudor-hall-625d","kind":"restaurant","name":"Tudor Hall","lat":37.97626476939356,"lng":23.73492119381686,"url":"https://maps.app.goo.gl/cS5CQSpmozciczpaA?g_st=ipc","address":"Γεωρ. Α' 3, Αθήνα 105 64","categoryIds":["luxury-dining","rooftop-lounges"],"categories":["Luxury Dining","Rooftop Lounges"],"legacySlugs":["tudor-hall-611d"],"distanceKm":0.15030549733127987},{"id":"italianRestaurants_e7c94ca15e1b","slug":"granello-pizza-italiana-e7c9","kind":"restaurant","name":"Granello - Pizza Italiana","lat":37.97667761548528,"lng":23.73173801660532,"url":"https://maps.app.goo.gl/nkhWXfUCf8UqXp5W9?g_st=ipc","address":"Περικλέους 18, Αθήνα 105 62","categoryIds":["italian"],"categories":["Italian Restaurants"],"distanceKm":0.15451987068436498},{"id":"luxuryDiningRestaurants_35d3fcaae0e0","slug":"athenee-35d3","kind":"restaurant","name":"Athénée","lat":37.97732441090204,"lng":23.73522238103731,"url":"https://maps.app.goo.gl/XVTtg2fQJZ9BgKwf8?g_st=ipc","address":"Βουκουρεστίου 9, Αθήνα 106 71","categoryIds":["luxury-dining"],"categories":["Luxury Dining"],"distanceKm":0.1592839401400408},{"id":"italianRestaurants_41ab3f71a154","slug":"aliola-s-ermou-41ab","kind":"restaurant","name":"Aliola’s Ermou","lat":37.97633249966058,"lng":23.7318293724108,"url":"https://maps.app.goo.gl/4FHfDnNt7PhJxhxK6?g_st=ipc","address":"Ερμού 18 &, Διομείας 2, Αθήνα 105 63","categoryIds":["italian"],"categories":["Italian Restaurants"],"distanceKm":0.15973890006208166},{"id":"rooftopLoungesRestaurants_986af6d41f8f","slug":"ermou-18-beyond-the-horizon-986a","kind":"restaurant","name":"Ermou 18 Beyond the Horizon","lat":37.97612467035227,"lng":23.731892472806617,"url":"https://maps.app.goo.gl/29x8TUkS1Zi5ckeK6?g_st=ipc","address":"Ermou 18 Beyond the Horizon","categoryIds":["rooftop-lounges"],"categories":["Rooftop Lounges"],"distanceKm":0.1667081594966875},{"id":"coffeeBrunchRestaurants_eb79294668c4","slug":"ermou-18-beyond-the-horizon-eb79","kind":"restaurant","name":"Ermou 18 Beyond the Horizon","lat":37.97612271055357,"lng":23.731891623776487,"url":"https://maps.app.goo.gl/2L1MqjzdZCmDsrCj6?g_st=ipc","address":"Ερμού 18, Αθήνα 105 63","categoryIds":["coffee-brunch"],"categories":["Coffee & Brunch Spots"],"distanceKm":0.16689288940580752},{"id":"dessertsRestaurants_eb9f02ba5b47","slug":"choureal-choux-profiterole-eb9f","kind":"restaurant","name":"CHOUREAL - Choux & Profiterole","lat":37.97617972861017,"lng":23.73180056203846,"url":"https://maps.app.goo.gl/qEAK3Nkr3LyPuUwh9?g_st=ipc","address":"Διομείας 2 &, Ερμού 18, Αθήνα 105 63","categoryIds":["desserts"],"categories":["Dessert Shops"],"distanceKm":0.1701572930672578},{"id":"coffeeBrunchRestaurants_3321b1393c9d","slug":"s-agapw-coffee-wine-and-love-3321","kind":"restaurant","name":"S’agapw Coffee Wine and Love","lat":37.97818149501619,"lng":23.732268569349888,"url":"https://maps.app.goo.gl/oYaBfSgA7BG2s8ph8?g_st=ipc","address":"Ανθίμου Γαζή 15, Αθήνα 105 61","categoryIds":["coffee-brunch"],"categories":["Coffee & Brunch Spots"],"distanceKm":0.1702142929418822},{"id":"dessertsRestaurants_fb018ad3c271","slug":"baklavas-fb01","kind":"restaurant","name":"Baklavas","lat":37.975429717960225,"lng":23.733177865867727,"url":"https://maps.app.goo.gl/JsVLmYGPmMaYJGiKA?g_st=ipc","address":"Νίκης 10, Αθήνα 105 63","categoryIds":["desserts"],"categories":["Dessert Shops"],"distanceKm":0.1733909000763349},{"id":"coffeeBrunchRestaurants_75593e6eed28","slug":"pura-vida-athens-7559","kind":"restaurant","name":"PURA VIDA athens","lat":37.97668183849927,"lng":23.73150959247157,"url":"https://maps.app.goo.gl/e9ktUnuxp3FdRJyF8?g_st=ipc","address":"Περικλέους 24-26, Αθήνα 105 62","categoryIds":["coffee-brunch"],"categories":["Coffee & Brunch Spots"],"distanceKm":0.17404771174888833},{"id":"cheapEatsRestaurants_7f568e47c0a8","slug":"fuddy-duddy-7f56","kind":"restaurant","name":"FUDDY DUDDY","lat":37.97744212384706,"lng":23.73144118284602,"url":"https://maps.app.goo.gl/vVmR4bTFHYKewmjK9?g_st=ipc","address":"Λέκκα 32, Αθήνα 105 62","categoryIds":["cheap-eats"],"categories":["Gyros & Cheap Eats"],"distanceKm":0.1845292427002468},{"id":"luxuryDiningRestaurants_7703e92f7675","slug":"alexander-s-cigar-lounge-hotel-grande-bretagne-7703","kind":"restaurant","name":"Alexander's Cigar Lounge - Hotel Grande Bretagne","lat":37.9765761269288,"lng":23.735530035440927,"url":"https://maps.app.goo.gl/ATToqJxfAUoZ5G9K9?g_st=ipc","address":"Ξενοδοχείο Μεγάλη Βρεταννία, Αθήνα 105 64","categoryIds":["luxury-dining"],"categories":["Luxury Dining"],"distanceKm":0.18667732847343135},{"id":"luxuryDiningRestaurants_bd5ed00d450e","slug":"the-winter-garden-bd5e","kind":"restaurant","name":"The Winter Garden","lat":37.97623725810017,"lng":23.735438816517487,"url":"https://maps.app.goo.gl/jhibZwcpc2dwd9vw9?g_st=ipc","address":"Γεωρ. Α' 1, Αθήνα 105 64","categoryIds":["luxury-dining"],"categories":["Luxury Dining"],"distanceKm":0.1917235666628045},{"id":"mustSeeAttractions_5ecb5990c6e7","slug":"syntagma-square-5ecb","kind":"restaurant","name":"Syntagma Square","lat":37.97554970639471,"lng":23.734713366778323,"url":"https://maps.app.goo.gl/W5joNY37bu7NJ8Hz8?g_st=ipc","address":"Pl. Sintagmatos, Athina 105 63","categoryIds":["attractions"],"categories":["Must-See Attractions"],"distanceKm":0.19262873580424525}],"sameRegion":[],"mentionedGuides":[],"canonicalSlug":"tekila-8556","isCanonicalEntity":true,"enrichment":{"summary_en":"Tekila is a curated restaurant in Αθήνα 105 62 in the Mexican Restaurants collection. It is connected to 289 nearby Googlementor picks to help travelers build a stronger local route.","summary_el":"Tekila είναι ένα επιλεγμένο σημείο φαγητού στην περιοχή Αθήνα 105 62 και ανήκει στη συλλογή Mexican Restaurants. Συνδέεται με 289 κοντινές προτάσεις του Googlementor για πιο ολοκληρωμένη εμπειρία.","vibe_tags":["curated"],"best_for":["first-time visitors","food lovers"],"visit_moments":["lunch stop","dinner stop"],"practical_note":"Address and direct map link are available for easy turn-by-turn access.","nearby_walkable_count":289,"nearby_count_2km":652,"confidence":0.98},"areaContext":{"slug":"syntagma","name":"Syntagma"},"intentContexts":[{"href":"/mexican/syntagma","label":"Mexican Restaurants in Syntagma","categorySlug":"mexican","categoryName":"Mexican Restaurants","areaSlug":"syntagma","areaName":"Syntagma"}]},"__N_SSG":true}