{"pageProps":{"entity":{"id":"fishTavernasRestaurants_ad8e3851f78d","slug":"to-50raki-toy-xenia-ad8e","kind":"restaurant","name":"Το 50ράκι του Ξενία","lat":38.04899426758984,"lng":24.31914838714323,"url":"https://maps.app.goo.gl/G7eazVK35sNwj5Jm7?g_st=ipc","address":"παραλιακός, 1ος, Μαρμάρι 340 13","categoryIds":["fish-tavernas"],"categories":["Fish Tavernas"]},"sameCategory":[{"id":"fishTavernasRestaurants_d2e31b47d395","slug":"geysiploys-d2e3","kind":"restaurant","name":"Γευσίπλους","lat":38.01363391931526,"lng":24.41848605895524,"url":"https://maps.app.goo.gl/7p2KKH1ay3AcjzQf6?g_st=ipc","address":"Θεοχάρη Κότσικα 3, Κάρυστος 340 01","categoryIds":["fish-tavernas"],"categories":["Fish Tavernas"]},{"id":"fishTavernasRestaurants_7c72e98cf52d","slug":"coralli-sea-food-more-7c72","kind":"restaurant","name":"Coralli sea food & more","lat":38.17680309383435,"lng":24.20738938198672,"url":"https://maps.app.goo.gl/UjGxTE3NH62racTj6?g_st=ipc","address":"Γεωρ. Παπανικολάου, Γκίκα Παναγιώτου και, Νέα Στύρα 340 15","categoryIds":["fish-tavernas"],"categories":["Fish Tavernas"]},{"id":"fishTavernasRestaurants_dbeeca252c4d","slug":"sarde-litsa-nea-styra-sardelitsa-nea-styra-restaurant-dbee","kind":"restaurant","name":"Σαρδε...λίτσα Νέα Στύρα / Sardelitsa Nea Styra Restaurant","lat":38.17743257826927,"lng":24.207403041603783,"url":"https://maps.app.goo.gl/Xe4ATvjns7X2yC947?g_st=ipc","address":"Λιμεναρχείο, Γκίκα Παναγιώτου, Νέα Στύρα 340 15","categoryIds":["fish-tavernas"],"categories":["Fish Tavernas"]},{"id":"fishTavernasRestaurants_383167100733","slug":"akrogiali-nea-styra-georgios-sakkas-3831","kind":"restaurant","name":"Ακρογιάλι,Νέα Στύρα, Γεώργιος Σάκκας","lat":38.18207049369658,"lng":24.205304816688248,"url":"https://maps.app.goo.gl/y16s54T91w6wpMWN8?g_st=ipc","address":"Επαρ.Οδ. Στυρών - Τσακαίων, Νέα Στύρα 340 15","categoryIds":["fish-tavernas"],"categories":["Fish Tavernas"]},{"id":"fishTavernasRestaurants_7e271dc392e1","slug":"xypolitos-7e27","kind":"restaurant","name":"Ξυπόλητος","lat":37.99242931751304,"lng":24.031438739737503,"url":"https://maps.app.goo.gl/Z6jt2F2sqvbCMw5DA?g_st=ipc","address":"25ης Μαρτίου Αγιος Νικολας, Άρτεμις 190 16","categoryIds":["fish-tavernas"],"categories":["Fish Tavernas"]},{"id":"fishTavernasRestaurants_d1fdd80a5c4e","slug":"akrogiali-d1fd","kind":"restaurant","name":"Ακρογιάλι","lat":38.07176023911009,"lng":23.99585573289976,"url":"https://maps.app.goo.gl/xsBV1faj5k58gwi47?g_st=ipc","address":"Μιαούλη 8, Νέα Μάκρη 190 05","categoryIds":["fish-tavernas"],"categories":["Fish Tavernas"]},{"id":"fishTavernasRestaurants_1101abe83696","slug":"mezedopoleio-i-chira-1101","kind":"restaurant","name":"Μεζεδοπωλείο «Η Χηρα»","lat":37.939079061504245,"lng":24.016183745998713,"url":"https://maps.app.goo.gl/ZtfRTs2EoQpXQkyy8?g_st=ipc","address":"Αγίου Κωνσταντίνου και Ελένης, Άρτεμις 190 16","categoryIds":["fish-tavernas"],"categories":["Fish Tavernas"]},{"id":"fishTavernasRestaurants_b12448499c96","slug":"psarotaverna-chamolia-b124","kind":"restaurant","name":"Ψαροταβέρνα Χαμολιά","lat":37.920806600246216,"lng":24.027771872272915,"url":"https://maps.app.goo.gl/f74w2o4iUn9xQDDs8?g_st=ipc","address":"Κλειούς, Βραυρώνα 190 03","categoryIds":["fish-tavernas"],"categories":["Fish Tavernas"]},{"id":"fishTavernasRestaurants_4a2d79882f36","slug":"panormitis-4a2d","kind":"restaurant","name":"Πανορμίτης","lat":38.121572702191,"lng":23.99671729866393,"url":"https://maps.app.goo.gl/aXSXemiooEkkE8AKA?g_st=ipc","address":"Λεωφ. Ποσειδώνος 55, Αγ. Παντελεήμων 190 07","categoryIds":["fish-tavernas"],"categories":["Fish Tavernas"]},{"id":"fishTavernasRestaurants_69aafe29cadb","slug":"the-coral-69aa","kind":"restaurant","name":"The Coral","lat":37.93546332991727,"lng":24.012144070196292,"url":"https://maps.app.goo.gl/LrMfAiKJ9cCQAH6v7?g_st=ipc","address":"Leof. Vravronos 367, Artemis 190 16","categoryIds":["fish-tavernas"],"categories":["Fish Tavernas"]},{"id":"fishTavernasRestaurants_0618ada54b19","slug":"o-psaras-restaurant-0618","kind":"restaurant","name":"Ο Ψαράς Restaurant","lat":38.11793561687655,"lng":23.99065580006594,"url":"https://maps.app.goo.gl/fSjcPNAg9aRVEF926?g_st=ipc","address":"Παραλία Μαραθώνα, Λεωφ. Ποσειδώνος 3, Αγ. Παντελεήμων 190 07","categoryIds":["fish-tavernas"],"categories":["Fish Tavernas"]},{"id":"fishTavernasRestaurants_0b56e36ee289","slug":"trata-i-0b56","kind":"restaurant","name":"ΤΡΑΤΑ (Η)","lat":38.09030258735327,"lng":23.982252068927664,"url":"https://maps.app.goo.gl/4cT7yir2FyLEmVPB8?g_st=ipc","address":"Λεωφ. Ποσειδώνος 30, Νέα Μάκρη 190 05","categoryIds":["fish-tavernas"],"categories":["Fish Tavernas"]}],"nearby":[{"id":"fishTavernasRestaurants_d2e31b47d395","slug":"geysiploys-d2e3","kind":"restaurant","name":"Γευσίπλους","lat":38.01363391931526,"lng":24.41848605895524,"url":"https://maps.app.goo.gl/7p2KKH1ay3AcjzQf6?g_st=ipc","address":"Θεοχάρη Κότσικα 3, Κάρυστος 340 01","categoryIds":["fish-tavernas"],"categories":["Fish Tavernas"],"distanceKm":9.547718104089123},{"id":"fishTavernasRestaurants_7c72e98cf52d","slug":"coralli-sea-food-more-7c72","kind":"restaurant","name":"Coralli sea food & more","lat":38.17680309383435,"lng":24.20738938198672,"url":"https://maps.app.goo.gl/UjGxTE3NH62racTj6?g_st=ipc","address":"Γεωρ. Παπανικολάου, Γκίκα Παναγιώτου και, Νέα Στύρα 340 15","categoryIds":["fish-tavernas"],"categories":["Fish Tavernas"],"distanceKm":17.250287664169733},{"id":"fishTavernasRestaurants_dbeeca252c4d","slug":"sarde-litsa-nea-styra-sardelitsa-nea-styra-restaurant-dbee","kind":"restaurant","name":"Σαρδε...λίτσα Νέα Στύρα / Sardelitsa Nea Styra Restaurant","lat":38.17743257826927,"lng":24.207403041603783,"url":"https://maps.app.goo.gl/Xe4ATvjns7X2yC947?g_st=ipc","address":"Λιμεναρχείο, Γκίκα Παναγιώτου, Νέα Στύρα 340 15","categoryIds":["fish-tavernas"],"categories":["Fish Tavernas"],"distanceKm":17.307300182809545},{"id":"fishTavernasRestaurants_383167100733","slug":"akrogiali-nea-styra-georgios-sakkas-3831","kind":"restaurant","name":"Ακρογιάλι,Νέα Στύρα, Γεώργιος Σάκκας","lat":38.18207049369658,"lng":24.205304816688248,"url":"https://maps.app.goo.gl/y16s54T91w6wpMWN8?g_st=ipc","address":"Επαρ.Οδ. Στυρών - Τσακαίων, Νέα Στύρα 340 15","categoryIds":["fish-tavernas"],"categories":["Fish Tavernas"],"distanceKm":17.836919998683484},{"id":"greekRestaurants_1d92f9bdf6c9","slug":"taverna-kalliontzi-1d92","kind":"restaurant","name":"Ταβερνα Καλλιοντζη","lat":38.30212031451821,"lng":24.192393057705917,"url":"https://maps.app.goo.gl/q5yJNzCzH42Ubojt5?g_st=ipc","address":"Ζάρακες 340 17","categoryIds":["greek-restaurants"],"categories":["Greek Restaurants"],"distanceKm":30.248672523376538},{"id":"fishTavernasRestaurants_e10a32c39c5a","slug":"tom-psarotaverna-e10a","kind":"restaurant","name":"TOM Psarotaverna","lat":37.83896686862904,"lng":24.048707414360276,"url":"https://maps.app.goo.gl/ofvaTy2Fz5my1RhL9?g_st=ipc","address":"Παραλία Κακής Θαλάσσης 190 01","categoryIds":["fish-tavernas"],"categories":["Fish Tavernas"],"distanceKm":33.283660145747525}],"sameRegion":[],"mentionedGuides":[],"canonicalSlug":"to-50raki-toy-xenia-ad8e","isCanonicalEntity":true,"enrichment":{"summary_en":"Το 50ράκι του Ξενία is a curated restaurant in Μαρμάρι 340 13 in the Fish Tavernas collection. It is connected to 0 nearby Googlementor picks to help travelers build a stronger local route.","summary_el":"Το 50ράκι του Ξενία είναι ένα επιλεγμένο σημείο φαγητού στην περιοχή Μαρμάρι 340 13 και ανήκει στη συλλογή Fish Tavernas. Συνδέεται με 0 κοντινές προτάσεις του Googlementor για πιο ολοκληρωμένη εμπειρία.","vibe_tags":["curated","seafood-local"],"best_for":["first-time visitors","food lovers"],"visit_moments":["lunch stop","dinner stop"],"practical_note":"Address and direct map link are available for easy turn-by-turn access.","nearby_walkable_count":0,"nearby_count_2km":0,"confidence":0.9},"areaContext":null,"intentContexts":[]},"__N_SSG":true}