{"pageProps":{"entity":{"id":"fishTavernasRestaurants_07e9864c5c78","slug":"tsaf-07e9","kind":"restaurant","name":"Tsaf","lat":37.44718665279816,"lng":25.39108104189754,"url":"https://maps.app.goo.gl/kJps23htN4HRkisa6?g_st=ipc","address":"Πλατεία Ανω μερας, Ano Mera 846 00","categoryIds":["fish-tavernas"],"categories":["Fish Tavernas"]},"sameCategory":[{"id":"fishTavernasRestaurants_25699dc17efe","slug":"spilia-mykonos-seaside-restaurant-2569","kind":"restaurant","name":"Spilia Mykonos Seaside Restaurant","lat":37.4346532807744,"lng":25.419253772230018,"url":"https://maps.app.goo.gl/WjiGf9HWCLVQssrK7?g_st=ipc","address":"Καλαφάτη 846 00","categoryIds":["fish-tavernas","luxury-dining"],"categories":["Fish Tavernas","Luxury Dining"],"legacySlugs":["spilia-mykonos-seaside-restaurant-5ef9"]},{"id":"fishTavernasRestaurants_d4e628ae7f3c","slug":"lia-tavern-d4e6","kind":"restaurant","name":"Lia Tavern","lat":37.44620505587329,"lng":25.435439300552154,"url":"https://maps.app.goo.gl/tS93xJU8Wr7t5Kdn6?g_st=ipc","address":"Unnamed Road, Mikonos 846 00","categoryIds":["fish-tavernas"],"categories":["Fish Tavernas"]},{"id":"fishTavernasRestaurants_0347c26ff2c2","slug":"fokos-taverna-0347","kind":"restaurant","name":"Fokos Taverna","lat":37.48058147464832,"lng":25.4091552850878,"url":"https://maps.app.goo.gl/NuKJCrD5oxJ47mE18?g_st=ipc","address":"Fokos Φωκός, Ano Mera 846 00","categoryIds":["fish-tavernas"],"categories":["Fish Tavernas"]},{"id":"fishTavernasRestaurants_198b2ec0807d","slug":"pelao-tavern-198b","kind":"restaurant","name":"Pelao Tavern","lat":37.47762741859572,"lng":25.360085295125813,"url":"https://maps.app.goo.gl/xEc3zgbQENWmj7bk8?g_st=ipc","address":"Stopelao@gmail.com, Πάνορμος 846 00","categoryIds":["fish-tavernas"],"categories":["Fish Tavernas"]},{"id":"fishTavernasRestaurants_d5334aaf38d0","slug":"kiki-s-tavern-d533","kind":"restaurant","name":"Kiki's Tavern","lat":37.48580571700608,"lng":25.36037551259411,"url":"https://maps.app.goo.gl/zDFvBri1oSmdB6aV8?g_st=ipc","address":"Κυκλαδες μυκονος, Ag. Sostis 846 00","categoryIds":["fish-tavernas"],"categories":["Fish Tavernas"]},{"id":"fishTavernasRestaurants_08df03bfa4f6","slug":"to-maereio-08df","kind":"restaurant","name":"To Maereio","lat":37.44594592016657,"lng":25.32865488584039,"url":"https://maps.app.goo.gl/FeCit9aZLtZzL7DP8?g_st=ipc","address":"Ν, Kalogera 16, Mikonos 846 00","categoryIds":["fish-tavernas"],"categories":["Fish Tavernas"]},{"id":"fishTavernasRestaurants_27b9fb6e85c7","slug":"captain-s-food-for-sharing-27b9","kind":"restaurant","name":"Captain's - Food for Sharing","lat":37.44729761897664,"lng":25.32716222892849,"url":"https://maps.app.goo.gl/cVYzE7woRBCoPvRG9?g_st=ipc","address":"Mykonos Waterfront, Mikonos 846 00","categoryIds":["fish-tavernas"],"categories":["Fish Tavernas"]},{"id":"fishTavernasRestaurants_aec820e07017","slug":"tasos-taverna-aec8","kind":"restaurant","name":"Tasos Taverna","lat":37.40810167705386,"lng":25.350310426097927,"url":"https://maps.app.goo.gl/97rM65KFuFY4e1Wc9?g_st=ipc","address":"Paraga Beach, Mikonos 846 00","categoryIds":["fish-tavernas"],"categories":["Fish Tavernas"]},{"id":"fishTavernasRestaurants_f9baec1ee464","slug":"kounelas-fish-tavern-f9ba","kind":"restaurant","name":"Kounelas Fish Tavern","lat":37.447078731895196,"lng":25.327109291093613,"url":"https://maps.app.goo.gl/zGu4QC3RAJ8qwFzE6?g_st=ipc","address":"ODOS SVORONOU, Mikonos 846 00","categoryIds":["fish-tavernas"],"categories":["Fish Tavernas"]},{"id":"fishTavernasRestaurants_05c6d38f3545","slug":"nikolas-tavern-mykonos-seafood-restaurant-05c6","kind":"restaurant","name":"Nikolas Tavern Mykonos - Seafood Restaurant","lat":37.409158532586275,"lng":25.34844810083572,"url":"https://maps.app.goo.gl/GfjsFWp6Rpr3hZyH8?g_st=ipc","address":"Paraga Mykonos, Mikonos 846 00","categoryIds":["fish-tavernas"],"categories":["Fish Tavernas"]},{"id":"fishTavernasRestaurants_f0d4e1537e1b","slug":"hippie-fish-mykonos-f0d4","kind":"restaurant","name":"Hippie Fish Mykonos","lat":37.4216168444124,"lng":25.3115215810695,"url":"https://maps.app.goo.gl/P1ey2vdmerWsiMqXA?g_st=ipc","address":"Agios Ioannis, Mikonos 846 00","categoryIds":["fish-tavernas","luxury-dining"],"categories":["Fish Tavernas","Luxury Dining"],"legacySlugs":["hippie-fish-mykonos-d24a"]},{"id":"fishTavernasRestaurants_0de5c8be59df","slug":"o-katsoynas-0de5","kind":"restaurant","name":"Ο ΚΑΤΣΟΥΝΑΣ","lat":37.13969481378141,"lng":25.28757143574355,"url":"https://maps.app.goo.gl/oZW4nirAsKmE2gbg8?g_st=ipc","address":"Σάντα Μαρια 844 01","categoryIds":["fish-tavernas"],"categories":["Fish Tavernas"]}],"nearby":[{"id":"greekRestaurants_38ad3b7a8b6d","slug":"oti-apomeine-38ad","kind":"restaurant","name":"Οτι Απόμεινε","lat":37.44787622617612,"lng":25.39114702118571,"url":"https://maps.app.goo.gl/FKEVGaJFP958nDfq6?g_st=ipc","address":"Άνω Μερά 846 00","categoryIds":["greek-restaurants"],"categories":["Greek Restaurants"],"distanceKm":0.07689796725513037},{"id":"italianRestaurants_2fd6901849b7","slug":"cardamomo-2fd6","kind":"restaurant","name":"Cardamomo","lat":37.4446572877169,"lng":25.396868169763824,"url":"https://maps.app.goo.gl/sh5TMZCTCw3tQKQP9?g_st=ipc","address":"Unnamed Road, Ano Mera 846 00","categoryIds":["italian"],"categories":["Italian Restaurants"],"distanceKm":0.5831924488480201},{"id":"mexicanRestaurants_ef3256c8f86b","slug":"appaloosa-bar-restaurant-ef32","kind":"restaurant","name":"Appaloosa Bar Restaurant","lat":37.45234589794245,"lng":25.38409135881813,"url":"https://maps.app.goo.gl/x9fF3ksZjKbckcRR9?g_st=ipc","address":"Άνω Μερά 846 00","categoryIds":["mexican"],"categories":["Mexican Restaurants"],"distanceKm":0.8425127300805102},{"id":"greekRestaurants_f7c457ab18f6","slug":"rizes-mykonos-folkore-farmstead-f7c4","kind":"restaurant","name":"RIZES Mykonos - Folkore Farmstead","lat":37.45817265669343,"lng":25.40349643556608,"url":"https://maps.app.goo.gl/PJSn3dijenQzfVKcA?g_st=ipc","address":"Maou, Άνω Μερά 846 00","categoryIds":["greek-restaurants"],"categories":["Greek Restaurants"],"distanceKm":1.641146951082668},{"id":"luxuryDiningRestaurants_8d846343f376","slug":"alemagou-8d84","kind":"restaurant","name":"Alemagou","lat":37.4646482904714,"lng":25.380862426799272,"url":"https://maps.app.goo.gl/CFqVN5ZTnDi5b6gYA?g_st=ipc","address":"Greece, Mikonos","categoryIds":["luxury-dining"],"categories":["Luxury Dining"],"distanceKm":2.1409265012349015},{"id":"luxuryDiningRestaurants_68f1019ed7a6","slug":"cabbanes-mykonos-68f1","kind":"restaurant","name":"Cabbanes Mykonos","lat":37.42267215380325,"lng":25.39444539705876,"url":"https://maps.app.goo.gl/dn2BSTCZPyK4NYU26?g_st=ipc","address":"Elia Beach, Mikonos 846 00","categoryIds":["luxury-dining"],"categories":["Luxury Dining"],"distanceKm":2.7420256054392125},{"id":"fishTavernasRestaurants_25699dc17efe","slug":"spilia-mykonos-seaside-restaurant-2569","kind":"restaurant","name":"Spilia Mykonos Seaside Restaurant","lat":37.4346532807744,"lng":25.419253772230018,"url":"https://maps.app.goo.gl/WjiGf9HWCLVQssrK7?g_st=ipc","address":"Καλαφάτη 846 00","categoryIds":["fish-tavernas","luxury-dining"],"categories":["Fish Tavernas","Luxury Dining"],"legacySlugs":["spilia-mykonos-seaside-restaurant-5ef9"],"distanceKm":2.8511033554104657},{"id":"dessertsRestaurants_a10d2504f9c7","slug":"n-ice-cream-mykonos-a10d","kind":"restaurant","name":"N'ice Cream Mykonos","lat":37.45205375388753,"lng":25.358864338055778,"url":"https://maps.app.goo.gl/JpGxtdjqrzWaKvb36?g_st=ipc","address":"Κλούβας 846 00","categoryIds":["desserts"],"categories":["Dessert Shops"],"distanceKm":2.8950090008707052},{"id":"familyFriendly_03f29a25699e","slug":"funbox-03f2","kind":"restaurant","name":"Funbox","lat":37.450143269337566,"lng":25.34837194743214,"url":"https://maps.app.goo.gl/BEmUn1htaDH92gUZ7?g_st=ic","address":"Famelis Spiros, Mikonos 846 00","categoryIds":["family-friendly"],"categories":["Kid Friendly Locations"],"distanceKm":3.784557800813574},{"id":"fishTavernasRestaurants_d4e628ae7f3c","slug":"lia-tavern-d4e6","kind":"restaurant","name":"Lia Tavern","lat":37.44620505587329,"lng":25.435439300552154,"url":"https://maps.app.goo.gl/tS93xJU8Wr7t5Kdn6?g_st=ipc","address":"Unnamed Road, Mikonos 846 00","categoryIds":["fish-tavernas"],"categories":["Fish Tavernas"],"distanceKm":3.9174591759546833},{"id":"fishTavernasRestaurants_0347c26ff2c2","slug":"fokos-taverna-0347","kind":"restaurant","name":"Fokos Taverna","lat":37.48058147464832,"lng":25.4091552850878,"url":"https://maps.app.goo.gl/NuKJCrD5oxJ47mE18?g_st=ipc","address":"Fokos Φωκός, Ano Mera 846 00","categoryIds":["fish-tavernas"],"categories":["Fish Tavernas"],"distanceKm":4.041484187286697},{"id":"municipalities_b456e42c7271","slug":"ormos-b456","kind":"municipality","name":"Όρμος","lat":37.4269,"lng":25.3528,"aliases":["Ορμος","Ornos Beach"],"region":"Κυκλάδες","name_en":"Ornos","region_en":"Cyclades","distanceKm":4.063507313422127},{"id":"luxuryDiningRestaurants_60ad37649fda","slug":"principote-mykonos-60ad","kind":"restaurant","name":"Principote Mykonos","lat":37.47661163546428,"lng":25.359897401386203,"url":"https://maps.app.goo.gl/Ru8EWbLUas6Xvf7K9?g_st=ipc","address":"Panormos Beach, Mikonos 846 00","categoryIds":["luxury-dining"],"categories":["Luxury Dining"],"distanceKm":4.275591857694723},{"id":"fishTavernasRestaurants_198b2ec0807d","slug":"pelao-tavern-198b","kind":"restaurant","name":"Pelao Tavern","lat":37.47762741859572,"lng":25.360085295125813,"url":"https://maps.app.goo.gl/xEc3zgbQENWmj7bk8?g_st=ipc","address":"Stopelao@gmail.com, Πάνορμος 846 00","categoryIds":["fish-tavernas"],"categories":["Fish Tavernas"],"distanceKm":4.352177863389102},{"id":"greekRestaurants_5401b7812885","slug":"xarathymio-5401","kind":"restaurant","name":"Ξαραθυμιο","lat":37.43064695338044,"lng":25.34483466442765,"url":"https://maps.app.goo.gl/k93muyVGMB9vZMRS6?g_st=ipc","address":"Skalado 846 00","categoryIds":["greek-restaurants"],"categories":["Greek Restaurants"],"distanceKm":4.478131558337234},{"id":"greekRestaurants_d1b39b4f3e00","slug":"amethystos-mykonos-d1b3","kind":"restaurant","name":"Amethystos Mykonos","lat":37.43458136770975,"lng":25.342119704198275,"url":"https://maps.app.goo.gl/AKNrBroi1VZKtHvZ7?g_st=ipc","address":"Μύκονος 846 00","categoryIds":["greek-restaurants"],"categories":["Greek Restaurants"],"distanceKm":4.544200798335106},{"id":"greekRestaurants_e4bc58632d82","slug":"i-mortissa-e4bc","kind":"restaurant","name":"Η Μόρτισσα","lat":37.445499840376385,"lng":25.33915107946274,"url":"https://maps.app.goo.gl/N1vfxuYLu3Ld3pfT6?g_st=ipc","address":"Αγιου Γεωργίου Αργύραινα, Μύκονος 846 00","categoryIds":["greek-restaurants"],"categories":["Greek Restaurants"],"distanceKm":4.588223832626241},{"id":"coffeeBrunchRestaurants_7ef5924c8dc6","slug":"velanos-mykonos-brunch-breakfast-cocktails-7ef5","kind":"restaurant","name":"Velanos Mykonos - Brunch, Breakfast & Cocktails","lat":37.43406109514676,"lng":25.3414091685473,"url":"https://maps.app.goo.gl/8BRmDPmozseUfqLY6?g_st=ipc","address":"Skalado, Mikonos 846 00","categoryIds":["coffee-brunch"],"categories":["Coffee & Brunch Spots"],"distanceKm":4.621869321355666},{"id":"greekRestaurants_72c19d32a8b6","slug":"local-bbq-souvlaki-mykonos-delivery-72c1","kind":"restaurant","name":"Local BBQ & Souvlaki Mykonos - Delivery","lat":37.44672138479704,"lng":25.33835911787914,"url":"https://maps.app.goo.gl/smobAtRLSyc56rHg8?g_st=ipc","address":"Argyraina, Επαρ.Οδ. Μυκόνου-'Ανω Μεριάς 1422, Μύκονος 846 00","categoryIds":["greek-restaurants"],"categories":["Greek Restaurants"],"distanceKm":4.654552506297131},{"id":"coffeeBrunchRestaurants_305022a62a4f","slug":"to-davelaki-3050","kind":"restaurant","name":"To Davelaki","lat":37.43471134705592,"lng":25.340570140407053,"url":"https://maps.app.goo.gl/s3ATMeRgiCtC4BjXA?g_st=ic","address":"Unnamed Road, Mikonos 846 00","categoryIds":["coffee-brunch"],"categories":["Coffee & Brunch Spots"],"distanceKm":4.670209591312119},{"id":"greekRestaurants_4f8fc805eb7d","slug":"to-karteri-4f8f","kind":"restaurant","name":"Το καρτερι","lat":37.432738323612284,"lng":25.341244801500245,"url":"https://maps.app.goo.gl/ZPLYvNbeUn9uhSA56?g_st=ipc","address":"Προς Παρανταις, Μύκονος 846 00","categoryIds":["greek-restaurants"],"categories":["Greek Restaurants"],"distanceKm":4.684066679493079},{"id":"dessertsRestaurants_84cc29a238aa","slug":"kyklamino-patisserie-84cc","kind":"restaurant","name":"Kyklamino Patisserie","lat":37.44220457179905,"lng":25.335568445326103,"url":"https://maps.app.goo.gl/dBRJbrtLhCesFwGn6?g_st=ic","address":"Mykonos 846 00","categoryIds":["desserts"],"categories":["Dessert Shops"],"distanceKm":4.931983687931172},{"id":"coffeeBrunchRestaurants_f9e9f62cb460","slug":"el-burro-mykonos-f9e9","kind":"restaurant","name":"El Burro Mykonos","lat":37.44164494565894,"lng":25.3350374340187,"url":"https://maps.app.goo.gl/mFrsGY4rfvzHZgy28?g_st=ipc","address":"37°26'30.4\"N 25°20'06.2\"E, Mikonos 846 00","categoryIds":["coffee-brunch"],"categories":["Coffee & Brunch Spots"],"distanceKm":4.985894794399493},{"id":"mexicanRestaurants_c15838bdee62","slug":"azul-condesa-mykonos-c158","kind":"restaurant","name":"Azul Condesa Mykonos","lat":37.445318743092045,"lng":25.33424731325651,"url":"https://maps.app.goo.gl/PtCSKGqYbgCdSXyz5?g_st=ipc","address":"Πετειναρος, Μύκονος 846 00","categoryIds":["mexican"],"categories":["Mexican Restaurants"],"distanceKm":5.021597346626364}],"sameRegion":[],"mentionedGuides":[],"canonicalSlug":"tsaf-07e9","isCanonicalEntity":true,"enrichment":{"summary_en":"Tsaf is a curated restaurant in Ano Mera 846 00 in the Fish Tavernas collection. It is connected to 2 nearby Googlementor picks to help travelers build a stronger local route.","summary_el":"Tsaf είναι ένα επιλεγμένο σημείο φαγητού στην περιοχή Ano Mera 846 00 και ανήκει στη συλλογή Fish Tavernas. Συνδέεται με 2 κοντινές προτάσεις του Googlementor για πιο ολοκληρωμένη εμπειρία.","vibe_tags":["curated","seafood-local"],"best_for":["first-time visitors","food lovers"],"visit_moments":["lunch stop","dinner stop"],"practical_note":"Address and direct map link are available for easy turn-by-turn access.","nearby_walkable_count":2,"nearby_count_2km":4,"confidence":0.9},"areaContext":{"slug":"ormos","name":"Ornos"},"intentContexts":[]},"__N_SSG":true}