{"pageProps":{"entity":{"id":"wineriesVineyards_65599ab05a5f","slug":"tsantali-6559","kind":"restaurant","name":"Tsantali","lat":40.36907180251345,"lng":23.047266199347828,"url":"https://maps.app.goo.gl/yKNrVSuK1iy4L2Ls9?g_st=ipc","address":"Agios Pavlos 630 80","categoryIds":["wineries-vineyards"],"categories":["Wineries & Vineyards"]},"sameCategory":[{"id":"wineriesVineyards_1453a2659012","slug":"gerovasileiou-estate-1453","kind":"restaurant","name":"Gerovasileiou Estate","lat":40.44938832129469,"lng":22.924743352052637,"url":"https://maps.app.goo.gl/C8APtFGMgaBwFMYcA?g_st=ipc","address":"ktima Gerovassiliou, Epanomi 575 00","categoryIds":["wineries-vineyards"],"categories":["Wineries & Vineyards"]},{"id":"wineriesVineyards_2ab2ad540f09","slug":"kechris-winery-2ab2","kind":"restaurant","name":"KECHRIS Winery","lat":40.64762484465721,"lng":22.85152020450362,"url":"https://maps.app.goo.gl/sv2SwXYfdv3Hc5ob9?g_st=ipc","address":"Olimpou, Delta 570 09","categoryIds":["wineries-vineyards"],"categories":["Wineries & Vineyards"]},{"id":"wineriesVineyards_99bb64a2c9e6","slug":"domaine-porto-carras-new-era-99bb","kind":"restaurant","name":"Domaine Porto Carras new era","lat":40.072188356104746,"lng":23.80576582498951,"url":"https://maps.app.goo.gl/huHWpFUEXo8827o1A?g_st=ipc","address":"Σιθωνία 630 81","categoryIds":["wineries-vineyards"],"categories":["Wineries & Vineyards"]},{"id":"wineriesVineyards_1a8430108b4e","slug":"boutari-winery-s-a-1a84","kind":"restaurant","name":"Boutari Winery S.A.","lat":40.604954538648315,"lng":22.130368216830174,"url":"https://maps.app.goo.gl/faa8usVkmkz6Gxog6?g_st=ipc","address":"592 00, Epar.Od. Naousas-Kato Vermiou, Stenimachos","categoryIds":["wineries-vineyards"],"categories":["Wineries & Vineyards"]},{"id":"wineriesVineyards_a36d8bf4fc67","slug":"kir-yianni-winery-a36d","kind":"restaurant","name":"Kir-Yianni Winery","lat":40.65941086004422,"lng":22.071160405925678,"url":"https://maps.app.goo.gl/J5SjPASnL6fBMV2DA?g_st=ipc","address":"Γιαννακοχώρι 592 00","categoryIds":["wineries-vineyards"],"categories":["Wineries & Vineyards"]},{"id":"wineriesVineyards_49827f52117e","slug":"oinopoieia-vegoritis-4982","kind":"restaurant","name":"Οινοποιεία Βεγορίτις","lat":40.73416864325467,"lng":21.7391401355809,"url":"https://maps.app.goo.gl/MXd7HMch31d1vFaGA?g_st=ipc","address":"Αγ. Παντελεήμονας, Ag. Panteleimon 532 00","categoryIds":["wineries-vineyards"],"categories":["Wineries & Vineyards"]},{"id":"wineriesVineyards_eb4eefea1ef8","slug":"oenops-wines-eb4e","kind":"restaurant","name":"OENOPS WINES","lat":41.18716398837062,"lng":23.94513089525479,"url":"https://maps.app.goo.gl/FMCPZ5ZmPNoWEBFVA?g_st=ipc","address":"3ο χλμ επαρχιακής οδού Προσοτσάνης, Kokkinogia 662 00","categoryIds":["wineries-vineyards"],"categories":["Wineries & Vineyards"]},{"id":"wineriesVineyards_5861d01e2ac1","slug":"alpha-estate-5861","kind":"restaurant","name":"Alpha Estate","lat":40.6946468662729,"lng":21.7063723336842,"url":"https://maps.app.goo.gl/3PDmKNgZdxnTo6Yg8?g_st=ipc","address":"2ο χλμ, Ag. Panteleimon 532 00","categoryIds":["wineries-vineyards"],"categories":["Wineries & Vineyards"]},{"id":"wineriesVineyards_3da11558d51a","slug":"ktima-pavlidis-3da1","kind":"restaurant","name":"Ktima Pavlidis","lat":41.20099538103468,"lng":23.95247116441372,"url":"https://maps.app.goo.gl/7JsSGRBJR1mceRNE9?g_st=ipc","address":"Kokinogeia 662 00","categoryIds":["wineries-vineyards"],"categories":["Wineries & Vineyards"]},{"id":"wineriesVineyards_b94be12d54af","slug":"ktima-dimopoylos-b94b","kind":"restaurant","name":"Κτήμα Δημόπουλος","lat":40.69536137671463,"lng":21.639884501803266,"url":"https://maps.app.goo.gl/vbjKsFrGPLCsWRvm7?g_st=ipc","address":"1ο χλμ, Xino Nero 530 72","categoryIds":["wineries-vineyards"],"categories":["Wineries & Vineyards"]},{"id":"wineriesVineyards_21e4fc1e860b","slug":"wine-art-estate-21e4","kind":"restaurant","name":"\"Wine Art\" Estate","lat":41.10253195746925,"lng":24.17303276432893,"url":"https://maps.app.goo.gl/kuEE1xd8ov4WsHDd9?g_st=ipc","address":"p. mela 2, Mikrochori 661 00","categoryIds":["wineries-vineyards"],"categories":["Wineries & Vineyards"]},{"id":"wineriesVineyards_554af4e222d0","slug":"oenogenesis-s-a-554a","kind":"restaurant","name":"OENOGENESIS S.A.","lat":41.11655968127127,"lng":24.244269125370955,"url":"https://maps.app.goo.gl/bnEeezvifVHw7rFq7?g_st=ipc","address":"Επί επαρχιακής οδού Δοξάτο-Αδριανή, Adriani 661 00","categoryIds":["wineries-vineyards"],"categories":["Wineries & Vineyards"]}],"nearby":[{"id":"coffeeBrunchRestaurants_f566655a51a7","slug":"sahara-resort-f566","kind":"restaurant","name":"Sahara Resort","lat":40.3253593585324,"lng":23.020574138293206,"url":"https://maps.app.goo.gl/kqkoFkCe2U9nzS2E6?g_st=ipc","address":"Νέα Ηράκλεια 630 80","categoryIds":["coffee-brunch"],"categories":["Coffee & Brunch Spots"],"distanceKm":5.361179580595262},{"id":"dessertsRestaurants_1eaa59dec57f","slug":"confectioneries-hatzifotiou-1eaa","kind":"restaurant","name":"Confectioneries Hatzifotiou","lat":40.44091493203973,"lng":23.01172950209268,"url":"https://maps.app.goo.gl/ZBAersiUhet96cfT7?g_st=ipc","address":"24ο χλμ, Θεσ/νίκης - Μουδανιών, Mikra 575 00","categoryIds":["desserts"],"categories":["Dessert Shops"],"distanceKm":8.536489090112264},{"id":"fishTavernasRestaurants_5f888942c0b2","slug":"ouzeri-agkyrovoli-5f88","kind":"restaurant","name":"Ouzeri Agkyrovoli","lat":40.3816010668938,"lng":22.930017992829136,"url":"https://maps.app.goo.gl/5dazC7iQuRSBAe5g8?g_st=ipc","address":"Άγνωστη Οδός, Ποταμός Επανωμής 575 00","categoryIds":["fish-tavernas"],"categories":["Fish Tavernas"],"distanceKm":10.029355791638576},{"id":"coffeeBrunchRestaurants_f7db517498a0","slug":"beach-house-by-flamingo-f7db","kind":"restaurant","name":"Beach House by flamingo","lat":40.38155085132963,"lng":22.921580696023792,"url":"https://maps.app.goo.gl/YdqcocS9SrPhoykt5?g_st=ipc","address":"Ποταμός, Epanomi 575 00","categoryIds":["coffee-brunch"],"categories":["Coffee & Brunch Spots"],"distanceKm":10.73689132292107},{"id":"greekRestaurants_730ebf3d54bc","slug":"to-steki-steak-house-730e","kind":"restaurant","name":"ΤΟ ΣΤΕΚΙ Steak House","lat":40.468079577548984,"lng":22.97361442896107,"url":"https://maps.app.goo.gl/bcVGXZXajJU5Ehw39?g_st=ipc","address":"Π. Μελά 9, Τρίλοφος 575 00","categoryIds":["greek-restaurants"],"categories":["Greek Restaurants"],"distanceKm":12.652173282070764},{"id":"familyFriendly_594134dea180","slug":"tsoupra-5941","kind":"restaurant","name":"Tsoupra","lat":40.48659769840057,"lng":23.041299188559442,"url":"https://maps.app.goo.gl/7eqHoia3eNX5CcHv7?g_st=ipc","address":"ΤΘ293, Ag. Paraskevi 570 01","categoryIds":["family-friendly"],"categories":["Kid Friendly Locations"],"distanceKm":13.078039931340488},{"id":"coffeeBrunchRestaurants_0acfd74b52d1","slug":"bonobo-0acf","kind":"restaurant","name":"bonobo","lat":40.469049217975595,"lng":22.95592261642206,"url":"https://maps.app.goo.gl/2aoNej1nWQNAJniB7?g_st=ipc","address":"Miaouli 78, Plagiari 575 00","categoryIds":["coffee-brunch"],"categories":["Coffee & Brunch Spots"],"distanceKm":13.541862433924672},{"id":"wineriesVineyards_1453a2659012","slug":"gerovasileiou-estate-1453","kind":"restaurant","name":"Gerovasileiou Estate","lat":40.44938832129469,"lng":22.924743352052637,"url":"https://maps.app.goo.gl/C8APtFGMgaBwFMYcA?g_st=ipc","address":"ktima Gerovassiliou, Epanomi 575 00","categoryIds":["wineries-vineyards"],"categories":["Wineries & Vineyards"],"distanceKm":13.688420691732508},{"id":"fishTavernasRestaurants_fb9d66fac1f5","slug":"tavern-agnanti-fb9d","kind":"restaurant","name":"Tavern Agnanti","lat":40.41084248795629,"lng":22.891152463357457,"url":"https://maps.app.goo.gl/rCLbi5kVttqKQ5gH7?g_st=ipc","address":"Παραλία Επανομής 575 00","categoryIds":["fish-tavernas"],"categories":["Fish Tavernas"],"distanceKm":14.013659152602319},{"id":"familyFriendly_91485676f9ef","slug":"anemodoura-9148","kind":"restaurant","name":"Anemodoúra","lat":40.50002708370587,"lng":23.026843516964323,"url":"https://maps.app.goo.gl/99k4EGKtgjYSqeE99?g_st=ipc","address":"8η Οδός, Tagarades 570 01","categoryIds":["family-friendly"],"categories":["Kid Friendly Locations"],"distanceKm":14.663791530752402},{"id":"familyFriendly_7fb51600aa06","slug":"tavern-moustakas-7fb5","kind":"restaurant","name":"TAVERN 'MOUSTAKAS'","lat":40.48840354435027,"lng":23.133350169062904,"url":"https://maps.app.goo.gl/fKdiSDKLKGdGC5V28?g_st=ipc","address":"Βασιλικά Θεσσαλονίκης, Θεσσαλονίκη 570 06","categoryIds":["family-friendly","greek-restaurants"],"categories":["Kid Friendly Locations","Greek Restaurants"],"legacySlugs":["tavern-moustakas-abcf"],"distanceKm":15.138041007132045},{"id":"greekRestaurants_e4db76cd737a","slug":"taverna-giannis-e4db","kind":"restaurant","name":"Ταβέρνα Γιάννης","lat":40.30643313313829,"lng":23.20731900101629,"url":"https://maps.app.goo.gl/uEtZqrvbUfiysQHn8?g_st=ipc","address":"Αγίας Παρασκευής 401, Νέα Τρίγλια 630 79","categoryIds":["greek-restaurants"],"categories":["Greek Restaurants"],"distanceKm":15.24925696498266},{"id":"familyFriendly_0fecbfd6be0e","slug":"waterland-0fec","kind":"restaurant","name":"Waterland","lat":40.510653052442045,"lng":23.017626650911268,"url":"https://maps.app.goo.gl/NR3PEtkiCnf5Fkg89?g_st=ipc","address":"5i Odos, Tagarades 570 01","categoryIds":["family-friendly"],"categories":["Kid Friendly Locations"],"distanceKm":15.941694240653517},{"id":"dessertsRestaurants_162156adc1f2","slug":"nick-alexoudas-1621","kind":"restaurant","name":"NICK ALEXOUDAS","lat":40.50355208818679,"lng":22.970983268361184,"url":"https://maps.app.goo.gl/pdjwM7eD44CCVek79?g_st=ipc","address":"Θέρμη 570 01","categoryIds":["desserts"],"categories":["Dessert Shops"],"distanceKm":16.287694235657632},{"id":"dessertsRestaurants_ade0c81c0696","slug":"terkenlis-sa-ade0","kind":"restaurant","name":"Terkenlis SA","lat":40.53095135339602,"lng":23.040855842977592,"url":"https://maps.app.goo.gl/akE1bVgaSKcamD5a9?g_st=ipc","address":"EO Thessalonikis Poligirou, Thermi 570 01","categoryIds":["desserts"],"categories":["Dessert Shops"],"distanceKm":18.00835560384529},{"id":"dessertsRestaurants_2befb2db83ce","slug":"terkenlis-2bef","kind":"restaurant","name":"Terkenlis","lat":40.525256969361955,"lng":22.97500623617725,"url":"https://maps.app.goo.gl/NfxGujkvPGiZ6Nah7?g_st=ipc","address":"Macedonia, airport, Thessaloniki","categoryIds":["desserts"],"categories":["Dessert Shops"],"distanceKm":18.411985504526786},{"id":"greekRestaurants_0c835368c56b","slug":"anestis-chasapotaverna-0c83","kind":"restaurant","name":"Ανέστης Χασαποταβέρνα","lat":40.502483515629656,"lng":22.91579650811081,"url":"https://maps.app.goo.gl/t2wP5pPZ82MXqh6X7?g_st=ipc","address":"Λεωφ. Θεσσαλονίκης - Μηχανιώνας 78, Περαία 570 19","categoryIds":["greek-restaurants"],"categories":["Greek Restaurants"],"distanceKm":18.543856670866013},{"id":"fishTavernasRestaurants_ecaa83f4acfd","slug":"archipelagos-ecaa","kind":"restaurant","name":"Archipelagos","lat":40.51031154332882,"lng":22.92896116717673,"url":"https://maps.app.goo.gl/VsctpgJ15cGguUW59?g_st=ipc","address":"P. Kountouriotou 37, Perea 575 00","categoryIds":["fish-tavernas"],"categories":["Fish Tavernas"],"distanceKm":18.625058369493992},{"id":"cheapEatsRestaurants_ce1b9aa17757","slug":"gyrovolies-ce1b","kind":"restaurant","name":"GYROVOLIES","lat":40.50927064423355,"lng":22.925792825198258,"url":"https://maps.app.goo.gl/tcGBs6FexGiv7Ju47?g_st=ipc","address":"Eleytherias 1, Perea 570 19","categoryIds":["cheap-eats"],"categories":["Gyros & Cheap Eats"],"distanceKm":18.673868582229694},{"id":"greekRestaurants_820bfd5186cb","slug":"ta-mpinelikia-820b","kind":"restaurant","name":"Τα Μπινελίκια","lat":40.50703896441234,"lng":22.920737720394328,"url":"https://maps.app.goo.gl/oKvjS1FyjeCvcJy66?g_st=ipc","address":"Δημοκρατίας 104, Περαία 570 19","categoryIds":["greek-restaurants"],"categories":["Greek Restaurants"],"distanceKm":18.708842205218872},{"id":"burgersRestaurants_4060fc5be247","slug":"maestro-cantina-4060","kind":"restaurant","name":"Maestro Cantina","lat":40.539870288194706,"lng":23.0207573353921,"url":"https://maps.app.goo.gl/WJTaYcJdPxACzwkXA?g_st=ipc","address":"EO Thessalonikis Poligirou 32, Thermi 570 01","categoryIds":["burgers","cheap-eats"],"categories":["Burger Spots","Gyros & Cheap Eats"],"legacySlugs":["maestro-cantina-5ff9"],"distanceKm":19.123910444842018},{"id":"municipalities_7352788b60b5","slug":"mikra-7352","kind":"municipality","name":"Μίκρα","lat":40.543,"lng":23.03,"region":"Ανατολική Θεσσαλονίκη","name_en":"Mikra","region_en":"East Thessaloniki","distanceKm":19.395029033822244},{"id":"fishTavernasRestaurants_b57bdf3c8aed","slug":"retselis-restaurant-b57b","kind":"restaurant","name":"Retselis Restaurant","lat":40.46564721234731,"lng":22.856472838512083,"url":"https://maps.app.goo.gl/SQELaoZ53HgSaqhs6?g_st=ipc","address":"Politechniou 1, Nea Michaniona 570 04","categoryIds":["fish-tavernas"],"categories":["Fish Tavernas"],"distanceKm":19.396091964384976},{"id":"familyFriendly_9807fa41d38f","slug":"lemures-family-lifestyle-play-hub-9807","kind":"restaurant","name":"Lemures Family Lifestyle & Play Hub","lat":40.54355927563734,"lng":23.019251786146132,"url":"https://maps.app.goo.gl/Cv1bZomhT5nP8ZDp6?g_st=ic","address":"Vasilikis Tavaki 6, Thermi 570 01","categoryIds":["family-friendly"],"categories":["Kid Friendly Locations"],"distanceKm":19.54636570286754}],"sameRegion":[],"mentionedGuides":[],"canonicalSlug":"tsantali-6559","isCanonicalEntity":true,"enrichment":{"summary_en":"Tsantali is a curated restaurant in Greece in the Wineries & Vineyards collection. It is connected to 0 nearby Googlementor picks to help travelers build a stronger local route.","summary_el":"Tsantali είναι ένα επιλεγμένο σημείο φαγητού στην περιοχή Greece και ανήκει στη συλλογή Wineries & Vineyards. Συνδέεται με 0 κοντινές προτάσεις του Googlementor για πιο ολοκληρωμένη εμπειρία.","vibe_tags":["curated","wine-moment"],"best_for":["first-time visitors","food lovers"],"visit_moments":["lunch stop","dinner stop"],"practical_note":"Address and direct map link are available for easy turn-by-turn access.","nearby_walkable_count":0,"nearby_count_2km":0,"confidence":0.9},"areaContext":null,"intentContexts":[]},"__N_SSG":true}