{"pageProps":{"entity":{"id":"coffeeBrunchRestaurants_78ed4f7cb116","slug":"wanna-flirt-athens-78ed","kind":"restaurant","name":"Wanna Flirt Athens","lat":37.97798701722354,"lng":23.723877845804303,"url":"https://maps.app.goo.gl/thvA3YKydqCEyTJY6?g_st=ipc","address":"Μίκωνος 15, Αθήνα 105 54","categoryIds":["coffee-brunch"],"categories":["Coffee & Brunch Spots"]},"sameCategory":[{"id":"coffeeBrunchRestaurants_1ddb16fae75f","slug":"picky-brunch-specialty-coffee-1ddb","kind":"restaurant","name":"Picky Brunch & Specialty Coffee","lat":37.97805825269081,"lng":23.723335268192,"url":"https://maps.app.goo.gl/yvybgbadXBxDYdiG9?g_st=ipc","address":"Χριστοκοπίδου 14 &, Ναυάρχου Αποστόλη, Αθήνα 105 54","categoryIds":["coffee-brunch"],"categories":["Coffee & Brunch Spots"]},{"id":"coffeeBrunchRestaurants_06cd6550247a","slug":"to-koyloyri-toy-psyrri-06cd","kind":"restaurant","name":"Το Κουλούρι του Ψυρρή","lat":37.977887972011985,"lng":23.724432470303434,"url":"https://maps.app.goo.gl/mrSptKu5z8RBZP9j8?g_st=ipc","address":"Γεωργίου Καραϊσκάκη 23, Αθήνα 105 54","categoryIds":["coffee-brunch"],"categories":["Coffee & Brunch Spots"]},{"id":"coffeeBrunchRestaurants_8bc5f44d74ac","slug":"kalimeres-8bc5","kind":"restaurant","name":"Kalimeres","lat":37.978483021682415,"lng":23.72389713601111,"url":"https://maps.app.goo.gl/ZPnBqVvxDVsiGKHW9?g_st=ipc","address":"Τάκη 14, Αθήνα 105 54","categoryIds":["coffee-brunch"],"categories":["Coffee & Brunch Spots"]},{"id":"coffeeBrunchRestaurants_0cf84ce87995","slug":"tragos-monterno-kafeneio-0cf8","kind":"restaurant","name":"Τράγος - Μοντέρνο καφενείο","lat":37.978852815263814,"lng":23.723863790699163,"url":"https://maps.app.goo.gl/bBjGmrefeTQEp69R6?g_st=ipc","address":"Πλ. Αγίων Αναργύρων, Αθήνα 105 54","categoryIds":["coffee-brunch"],"categories":["Coffee & Brunch Spots"]},{"id":"coffeeBrunchRestaurants_26528fa68af9","slug":"the-brunchers-2652","kind":"restaurant","name":"The Brunchers","lat":37.97723167635048,"lng":23.724930062728706,"url":"https://maps.app.goo.gl/28Tan1nmqMaPBFMr7?g_st=ipc","address":"Αγ. Θέκλας 5, Αθήνα 105 54","categoryIds":["coffee-brunch","vegetarian"],"categories":["Coffee & Brunch Spots","Vegetarian Friendly Restaurants"],"legacySlugs":["the-brunchers-2110"]},{"id":"coffeeBrunchRestaurants_988f2cbbbd9c","slug":"liystor-988f","kind":"restaurant","name":"LIYSTOR","lat":37.97700032542266,"lng":23.724753676313323,"url":"https://maps.app.goo.gl/7douBXS6i4VTSVMM9?g_st=ipc","address":"Ερμού 92-94, Αθήνα 105 54","categoryIds":["coffee-brunch","rooftop-lounges"],"categories":["Coffee & Brunch Spots","Rooftop Lounges"],"legacySlugs":["liystor-484f"]},{"id":"coffeeBrunchRestaurants_042f902bce89","slug":"usurum-042f","kind":"restaurant","name":"Usurum","lat":37.97818787977545,"lng":23.72228180277763,"url":"https://maps.app.goo.gl/ySxc5dRDtaNkenof9?g_st=ipc","address":"Λεπενιώτου 19, Αθήνα 105 54","categoryIds":["coffee-brunch"],"categories":["Coffee & Brunch Spots"]},{"id":"coffeeBrunchRestaurants_37e37277bf11","slug":"zampano-37e3","kind":"restaurant","name":"Zampanó","lat":37.97950983062841,"lng":23.723099894539097,"url":"https://maps.app.goo.gl/mnTDWvpyMKKxYj9B8?g_st=ipc","address":"Σαρρή 18, Αθήνα 105 53","categoryIds":["coffee-brunch"],"categories":["Coffee & Brunch Spots"]},{"id":"coffeeBrunchRestaurants_10001909d6f1","slug":"attic-urban-rooftop-1000","kind":"restaurant","name":"Attic Urban Rooftop","lat":37.97687145726863,"lng":23.725410732994586,"url":"https://maps.app.goo.gl/9Zyy977FxxHx9dgc9?g_st=ipc","address":"Ερμού 86, Αθήνα 105 54","categoryIds":["coffee-brunch","rooftop-lounges"],"categories":["Coffee & Brunch Spots","Rooftop Lounges"],"legacySlugs":["attic-urban-rooftop-7332"]},{"id":"coffeeBrunchRestaurants_fb26a559a60b","slug":"fairytale-athens-cafe-suites-fb26","kind":"restaurant","name":"Fairytale Athens Café & Suites","lat":37.97805432206773,"lng":23.72175598680767,"url":"https://maps.app.goo.gl/4J2S3rbDjHuSFWW98?g_st=ipc","address":"Λεωκορίου 16, Αθήνα 105 54","categoryIds":["coffee-brunch","desserts"],"categories":["Coffee & Brunch Spots","Dessert Shops"],"legacySlugs":["fairytale-athens-cafe-suites-e14a"]},{"id":"coffeeBrunchRestaurants_8d3de33104cf","slug":"the-brunch-factory-8d3d","kind":"restaurant","name":"The Brunch Factory","lat":37.977341602927304,"lng":23.726205472467996,"url":"https://maps.app.goo.gl/CB8h73sPXUiPQmTu7?g_st=ipc","address":"Αθηνάς 11, Αθήνα 105 54","categoryIds":["coffee-brunch"],"categories":["Coffee & Brunch Spots"]},{"id":"coffeeBrunchRestaurants_2452f7594f0b","slug":"minu-2452","kind":"restaurant","name":"Minu","lat":37.97817591370217,"lng":23.721282309779998,"url":"https://maps.app.goo.gl/1aZiacmQUVysdZ976?g_st=ipc","address":"Σαρρή 50, Αθήνα 105 53","categoryIds":["coffee-brunch"],"categories":["Coffee & Brunch Spots"]}],"nearby":[{"id":"mustSeeAttractions_1d05d319a6bb","slug":"psyrri-1d05","kind":"restaurant","name":"Ψυρρή","lat":37.9780643555903,"lng":23.723930742700833,"url":"https://maps.app.goo.gl/JcpJbaRT1V7eBHEa9?g_st=ipc","address":"Αθήνα 105 54","categoryIds":["attractions"],"categories":["Must-See Attractions"],"distanceKm":0.009769829226374392},{"id":"greekRestaurants_0c30703c94b5","slug":"krasopoylio-toy-kokkora-0c30","kind":"restaurant","name":"Κρασοπουλιο του Κοκκορα","lat":37.97774968772063,"lng":23.724156040305374,"url":"https://maps.app.goo.gl/FdPM4DDLKYaXnaei6","address":"Αισώπου 4, Αθήνα 105 54","categoryIds":["greek-restaurants"],"categories":["Greek Restaurants"],"distanceKm":0.03593021383356603},{"id":"greekRestaurants_01412cd104e7","slug":"bandiera-0141","kind":"restaurant","name":"Bandiera","lat":37.978324295237165,"lng":23.723850317882693,"url":"https://maps.app.goo.gl/Qi3TiLypHkh8kAfv8","address":"Τάκη 19, Αθήνα 105 54","categoryIds":["greek-restaurants"],"categories":["Greek Restaurants"],"distanceKm":0.03758113723859643},{"id":"fishTavernasRestaurants_c043e36ec66a","slug":"nissos-seafood-tavern-c043","kind":"restaurant","name":"Nissos Seafood Tavern","lat":37.97768489940087,"lng":23.72367935167617,"url":"https://maps.app.goo.gl/zBgRFUhoxGYetbQc8?g_st=ipc","address":"Χριστοκοπίδου 1, Αθήνα 105 54","categoryIds":["fish-tavernas"],"categories":["Fish Tavernas"],"distanceKm":0.03783173942407212},{"id":"mexicanRestaurants_68ac307861c4","slug":"morenita-all-day-bar-restaurant-68ac","kind":"restaurant","name":"Morenita All Day Bar Restaurant","lat":37.978327591113846,"lng":23.724081018892964,"url":"https://maps.app.goo.gl/HF699YbZfp4NJUYi7?g_st=ipc","address":"Τάκη 13, Αθήνα 105 54","categoryIds":["mexican"],"categories":["Mexican Restaurants"],"distanceKm":0.04184811548317002},{"id":"dessertsRestaurants_31563f38c3c8","slug":"little-kook-3156","kind":"restaurant","name":"Little Kook","lat":37.977733085549225,"lng":23.724289592884226,"url":"https://maps.app.goo.gl/i8dJi89C6KdUv3Qy8?g_st=ipc","address":"Καραϊσκάκη, Αθήνα 105 54","categoryIds":["desserts"],"categories":["Dessert Shops"],"distanceKm":0.04582254788063328},{"id":"familyFriendly_e17e47d68ad1","slug":"little-kook-e17e","kind":"restaurant","name":"Little Kook","lat":37.9777197837275,"lng":23.724286649155946,"url":"https://maps.app.goo.gl/QNEYddbgdFKUSvNW9?g_st=ic","address":"Karaiskaki 17, Athina 105 54","categoryIds":["family-friendly"],"categories":["Kid Friendly Locations"],"distanceKm":0.046549590889538396},{"id":"coffeeBrunchRestaurants_1ddb16fae75f","slug":"picky-brunch-specialty-coffee-1ddb","kind":"restaurant","name":"Picky Brunch & Specialty Coffee","lat":37.97805825269081,"lng":23.723335268192,"url":"https://maps.app.goo.gl/yvybgbadXBxDYdiG9?g_st=ipc","address":"Χριστοκοπίδου 14 &, Ναυάρχου Αποστόλη, Αθήνα 105 54","categoryIds":["coffee-brunch"],"categories":["Coffee & Brunch Spots"],"distanceKm":0.04821156476801082},{"id":"coffeeBrunchRestaurants_06cd6550247a","slug":"to-koyloyri-toy-psyrri-06cd","kind":"restaurant","name":"Το Κουλούρι του Ψυρρή","lat":37.977887972011985,"lng":23.724432470303434,"url":"https://maps.app.goo.gl/mrSptKu5z8RBZP9j8?g_st=ipc","address":"Γεωργίου Καραϊσκάκη 23, Αθήνα 105 54","categoryIds":["coffee-brunch"],"categories":["Coffee & Brunch Spots"],"distanceKm":0.049844313330219145},{"id":"coffeeBrunchRestaurants_8bc5f44d74ac","slug":"kalimeres-8bc5","kind":"restaurant","name":"Kalimeres","lat":37.978483021682415,"lng":23.72389713601111,"url":"https://maps.app.goo.gl/ZPnBqVvxDVsiGKHW9?g_st=ipc","address":"Τάκη 14, Αθήνα 105 54","categoryIds":["coffee-brunch"],"categories":["Coffee & Brunch Spots"],"distanceKm":0.055179089164871055},{"id":"rooftopLoungesRestaurants_d2b2d3a1881c","slug":"luv-n-roll-house-tattoo-piercing-studio-athens-d2b2","kind":"restaurant","name":"LUV N ROLL HOUSE Tattoo & Piercing Studio | Athens","lat":37.977424235887426,"lng":23.72409772692034,"url":"https://maps.app.goo.gl/wef8tXnuzgY2o9iBA?g_st=ipc","address":"Καραϊσκάκη 14, Αθήνα 105 54","categoryIds":["rooftop-lounges"],"categories":["Rooftop Lounges"],"distanceKm":0.06547890743995233},{"id":"burgersRestaurants_09af19b27a7c","slug":"po-boys-bbq-09af","kind":"restaurant","name":"PO'BOYS BBQ","lat":37.97837875741083,"lng":23.723280392822467,"url":"https://maps.app.goo.gl/j39YQoSzREu8gQk77?g_st=ipc","address":"Agatharchou 12 &, Λεπενιώτου, Αθήνα 105 54","categoryIds":["burgers"],"categories":["Burger Spots"],"distanceKm":0.06811488406675897},{"id":"greekRestaurants_47e0fbf99993","slug":"nikitas-psyrri-47e0","kind":"restaurant","name":"Νικήτας Ψυρρή","lat":37.97869467804771,"lng":23.723980497190343,"url":"https://maps.app.goo.gl/cnKsmpXwbUi4ehMj9","address":"Αγ. Αναργύρων 19, Αθήνα 105 54","categoryIds":["greek-restaurants"],"categories":["Greek Restaurants"],"distanceKm":0.07920099851781737},{"id":"rooftopLoungesRestaurants_618102314dfe","slug":"momix-bar-athens-6181","kind":"restaurant","name":"MoMix Bar Athens","lat":37.97873103162127,"lng":23.723898549953017,"url":"https://maps.app.goo.gl/sokqQJABVgjaTNcT9?g_st=ipc","address":"Αγ. Αναργύρων 21, Αθήνα 105 54","categoryIds":["rooftop-lounges"],"categories":["Rooftop Lounges"],"distanceKm":0.08275052654298018},{"id":"greekRestaurants_63d3f13668e8","slug":"flint-athens-63d3","kind":"restaurant","name":"Flint Athens","lat":37.97865798885805,"lng":23.724488894508067,"url":"https://maps.app.goo.gl/Fj4mZsQhG6Dryz9HA","address":"Αγ. Αναργύρων 6, Αθήνα 105 54","categoryIds":["greek-restaurants"],"categories":["Greek Restaurants"],"distanceKm":0.09184153780237515},{"id":"dessertsRestaurants_d00ebd9aea63","slug":"to-sermpetospito-tis-nansys-d00e","kind":"restaurant","name":"Το Σερμπετόσπιτο της Νάνσυς","lat":37.97833603994479,"lng":23.724854486877806,"url":"https://maps.app.goo.gl/uH3RaY6mJ3jPCHMHA?g_st=ipc","address":"Πλ. Ηρώων 1, Αθήνα 105 54","categoryIds":["desserts"],"categories":["Dessert Shops"],"distanceKm":0.09398828958889717},{"id":"coffeeBrunchRestaurants_0cf84ce87995","slug":"tragos-monterno-kafeneio-0cf8","kind":"restaurant","name":"Τράγος - Μοντέρνο καφενείο","lat":37.978852815263814,"lng":23.723863790699163,"url":"https://maps.app.goo.gl/bBjGmrefeTQEp69R6?g_st=ipc","address":"Πλ. Αγίων Αναργύρων, Αθήνα 105 54","categoryIds":["coffee-brunch"],"categories":["Coffee & Brunch Spots"],"distanceKm":0.09628023107181118},{"id":"italianRestaurants_f99f052e2cb0","slug":"tartufo-cucina-italiana-f99f","kind":"restaurant","name":"Tartufo Cucina Italiana","lat":37.97745304334609,"lng":23.72475266844782,"url":"https://maps.app.goo.gl/VGYffngsR22p4GZ36?g_st=ipc","address":"Αγ. Θέκλας 9, Αθήνα 105 54","categoryIds":["italian"],"categories":["Italian Restaurants"],"distanceKm":0.09697876528900025},{"id":"fishTavernasRestaurants_a5c38664939e","slug":"atlantikos-a5c3","kind":"restaurant","name":"Ατλαντικός","lat":37.977418949870525,"lng":23.72294155796201,"url":"https://maps.app.goo.gl/1DKYSrvWDbxUg3YT6?g_st=ipc","address":"Αυλητών 7, Αθήνα 105 54","categoryIds":["fish-tavernas"],"categories":["Fish Tavernas"],"distanceKm":0.10355988643852161},{"id":"dessertsRestaurants_5f029576403e","slug":"mrsofty-5f02","kind":"restaurant","name":"MrSofty","lat":37.97794945664196,"lng":23.72507127899626,"url":"https://maps.app.goo.gl/qwbSWbdWTMN4EmVKA?g_st=ipc","address":"Miaouli 19, Athina 105 54","categoryIds":["desserts"],"categories":["Dessert Shops"],"distanceKm":0.10468670998603284},{"id":"mexicanRestaurants_78038d8f26a9","slug":"dos-gardenias-7803","kind":"restaurant","name":"Dos Gardenias","lat":37.977603557604816,"lng":23.722737599299293,"url":"https://maps.app.goo.gl/Gi4zf9TfzCfLeQPL6?g_st=ipc","address":"Ήβης 21 &, Ναυάρχου Αποστόλη 17, Αθήνα 105 54","categoryIds":["mexican"],"categories":["Mexican Restaurants"],"distanceKm":0.10865741683690511},{"id":"cheapEatsRestaurants_97e6c85445da","slug":"tsiken-the-van-97e6","kind":"restaurant","name":"ΤΣΙΚΕΝ The Van","lat":37.97797456722786,"lng":23.725133314287408,"url":"https://maps.app.goo.gl/QK18bYTh1b11fJt97?g_st=ipc","address":"Μιαούλη 19, Αθήνα 105 54","categoryIds":["cheap-eats"],"categories":["Gyros & Cheap Eats"],"distanceKm":0.11004939112890606},{"id":"vegetarianRestaurants_6e1c781427b5","slug":"ntao-vietnameziki-koyzina-6e1c","kind":"restaurant","name":"Ντάο Βιετναμέζικη Κουζίνα","lat":37.97853266592714,"lng":23.722814547226115,"url":"https://maps.app.goo.gl/MyM1aFjtySe38NKA9?g_st=ipc","address":"Λεπενιώτου 14, Αθήνα 105 54","categoryIds":["vegetarian"],"categories":["Vegetarian Friendly Restaurants"],"distanceKm":0.11120657743576853},{"id":"dessertsRestaurants_64c591cf617e","slug":"l-arte-del-gelato-64c5","kind":"restaurant","name":"L'Arte del Gelato","lat":37.97831483150659,"lng":23.72508265750619,"url":"https://maps.app.goo.gl/8FCA5DcN18fwe2916?g_st=ipc","address":"Μιαούλη 26, Αθήνα 105 54","categoryIds":["desserts"],"categories":["Dessert Shops"],"distanceKm":0.11171456623912637}],"sameRegion":[],"mentionedGuides":[{"slug":"tap-water-safe-greece-el","title":"Είναι Ασφαλές να Πίνετε Νερό Βρύσης στην Ελλάδα;"},{"slug":"tap-water-safe-greece","title":"Is Tap Water Safe to Drink in Greece?"},{"slug":"traveling-to-greece-on-a-budget-el","title":"Ταξιδι στην Ελλαδα με μικρο budget"},{"slug":"traveling-to-greece-on-a-budget","title":"Traveling to Greece on a Budget"}],"canonicalSlug":"wanna-flirt-athens-78ed","isCanonicalEntity":true,"enrichment":{"summary_en":"Wanna Flirt Athens is a curated restaurant in Αθήνα 105 54 in the Coffee & Brunch Spots collection. It is connected to 266 nearby Googlementor picks to help travelers build a stronger local route.","summary_el":"Wanna Flirt Athens είναι ένα επιλεγμένο σημείο φαγητού στην περιοχή Αθήνα 105 54 και ανήκει στη συλλογή Coffee & Brunch Spots. Συνδέεται με 266 κοντινές προτάσεις του Googlementor για πιο ολοκληρωμένη εμπειρία.","vibe_tags":["curated","daytime-favorite"],"best_for":["first-time visitors","food lovers"],"visit_moments":["early morning","late brunch"],"practical_note":"Address and direct map link are available for easy turn-by-turn access.","nearby_walkable_count":266,"nearby_count_2km":611,"confidence":0.98},"areaContext":{"slug":"psyrri","name":"Psyrri"},"intentContexts":[{"href":"/brunch/psyrri","label":"Coffee & Brunch Spots in Psyrri","categorySlug":"brunch","categoryName":"Coffee & Brunch Spots","areaSlug":"psyrri","areaName":"Psyrri"}]},"__N_SSG":true}