{"pageProps":{"entity":{"id":"asianRestaurants_5a81fb6b9192","slug":"zuzuto-ramen-5a81","kind":"restaurant","name":"Zuzuto Ramen","lat":37.98563972505005,"lng":23.764296512977037,"url":"https://maps.app.goo.gl/ryow8NsFhZuQLDhK7?g_st=ipc","address":"Χαλκηδόνος 66, Αθήνα 115 27","categoryIds":["asian"],"categories":["Asian Restaurants"]},"sameCategory":[{"id":"asianRestaurants_01d2fd8409bc","slug":"siam-thai-food-01d2","kind":"restaurant","name":"Siam Thai Food","lat":37.98765776292927,"lng":23.75850606152562,"url":"https://maps.app.goo.gl/V19mHCb8LHh8jNgz6?g_st=ipc","address":"Βατοπεδίου 6, Αθήνα 115 23","categoryIds":["asian"],"categories":["Asian Restaurants"]},{"id":"asianRestaurants_473a72132f5a","slug":"noodle-bar-zografou-473a","kind":"restaurant","name":"Noodle Bar Zografou","lat":37.98033900085368,"lng":23.7645797480279,"url":"https://maps.app.goo.gl/mX2bUrDUmSpXcEdF7","address":"Geor. Papandreou 31, Zografou 157 73","categoryIds":["asian"],"categories":["Asian Restaurants"]},{"id":"asianRestaurants_11e9b056b89d","slug":"bulacan-halo-halo-11e9","kind":"restaurant","name":"Bulacan Halo-Halo","lat":37.98164028909841,"lng":23.759642721567413,"url":"https://maps.app.goo.gl/XM8Buphrtabi3YYC9?g_st=ipc","address":"Μιχαλακοπούλου 105, Αθήνα 115 27","categoryIds":["asian"],"categories":["Asian Restaurants"]},{"id":"asianRestaurants_6980a2c0f36c","slug":"rawbata-6980","kind":"restaurant","name":"RawBata","lat":37.991621984562435,"lng":23.76287776299424,"url":"https://maps.app.goo.gl/j57HrF6nf6youYLV8","address":"Lakonias 33, Athina 115 23","categoryIds":["asian"],"categories":["Asian Restaurants"]},{"id":"asianRestaurants_315dc41692bd","slug":"sakura-sushi-and-steak-house-315d","kind":"restaurant","name":"Sakura Sushi and Steak House","lat":37.992808848594535,"lng":23.76520165923385,"url":"https://maps.app.goo.gl/qjninjaDQmMf2fNU7","address":"Doukissis Plakentias 73, Athina 115 23","categoryIds":["asian"],"categories":["Asian Restaurants"]},{"id":"asianRestaurants_4bddf7fbcbe7","slug":"street-wok-4bdd","kind":"restaurant","name":"Street Wok","lat":37.99333429542986,"lng":23.76565696133404,"url":"https://maps.app.goo.gl/xgYqVodevf1ae8hY7?g_st=ipc","address":"Ampelokipi Menemeni, Πανόρμου 115Ζ, Αθήνα 115 24","categoryIds":["asian","cheap-eats"],"categories":["Asian Restaurants","Gyros & Cheap Eats"],"legacySlugs":["street-wok-3ae9"]},{"id":"asianRestaurants_49017a334068","slug":"the-sushi-bar-4901","kind":"restaurant","name":"The Sushi Bar","lat":37.99837454773829,"lng":23.77552075939677,"url":"https://maps.app.goo.gl/US8MP4C24AbbzMtL9","address":"Geor. Vlachou 38, Athina 115 25","categoryIds":["asian"],"categories":["Asian Restaurants"]},{"id":"asianRestaurants_7aa0cb0c0f53","slug":"sister-7aa0","kind":"restaurant","name":"Sister","lat":38.003216085112086,"lng":23.7757633660399,"url":"https://maps.app.goo.gl/kRDH6Sdii2eyeoRw9?g_st=ipc","address":"Περικλέους 11, Νέο Ψυχικό 154 51","categoryIds":["asian"],"categories":["Asian Restaurants"]},{"id":"asianRestaurants_de634fe107b8","slug":"sushi-j-de63","kind":"restaurant","name":"SUSHI J","lat":37.967626679750225,"lng":23.75054798444388,"url":"https://maps.app.goo.gl/5moDtNiYaQjm8UsX9?g_st=ipc","address":"Υμηττού 101, Αθήνα 116 33","categoryIds":["asian"],"categories":["Asian Restaurants"]},{"id":"asianRestaurants_ec91ac928fa7","slug":"nakama-sushi-bar-ec91","kind":"restaurant","name":"Nakama Sushi Bar","lat":37.98166443323037,"lng":23.7366555719328,"url":"https://maps.app.goo.gl/uHeeoqNeizUhJTXy6?g_st=ipc","address":"Μασσαλίας 5, Αθήνα 106 80","categoryIds":["asian"],"categories":["Asian Restaurants"]},{"id":"asianRestaurants_01f6cf956e90","slug":"hachiko-sushi-tales-cocktails-psychiko-01f6","kind":"restaurant","name":"Hachikō Sushi Tales & Cocktails Psychiko","lat":38.0061489322681,"lng":23.777100959451648,"url":"https://maps.app.goo.gl/zRs2QPwRWoXnA8cn9","address":"Olimpionikon 280, Neo Psichiko 154 51","categoryIds":["asian"],"categories":["Asian Restaurants"]},{"id":"asianRestaurants_e45a00190680","slug":"nyx-japanese-rooftop-gastrobar-e45a","kind":"restaurant","name":"NYX Japanese Rooftop Gastrobar","lat":37.979692107976724,"lng":23.736124325689694,"url":"https://maps.app.goo.gl/Tg5ncVYwYwG98YZBA?g_st=ipc","address":"Ομήρου 19, Αθήνα 106 19","categoryIds":["asian","luxury-dining","rooftop-lounges"],"categories":["Asian Restaurants","Luxury Dining","Rooftop Lounges"],"legacySlugs":["nyx-japanese-rooftop-gastrobar-3e6e","nyx-japanese-rooftop-gastrobar-f14e"]}],"nearby":[{"id":"coffeeBrunchRestaurants_e05f85a7bf8b","slug":"gaby-e05f","kind":"restaurant","name":"Gaby","lat":37.986676810313035,"lng":23.76468460968007,"url":"https://maps.app.goo.gl/i3aZZJMDZs8yiYD88?g_st=ipc","address":"Λεωφ. Μεσογείων 33-37, Αθήνα 115 26","categoryIds":["coffee-brunch"],"categories":["Coffee & Brunch Spots"],"distanceKm":0.12022993262664163},{"id":"municipalities_b643a309d451","slug":"goydi-b643","kind":"municipality","name":"Γουδί","lat":37.9833,"lng":23.765,"aliases":["Goudi","Gudi"],"region":"Κέντρο Αθήνας","name_en":"Goudi","region_en":"Athens Center","distanceKm":0.26737127752318157},{"id":"greekRestaurants_f3fc125c2d89","slug":"psistaria-to-agrinio-f3fc","kind":"restaurant","name":"Ψησταριά Το Αγρίνιο","lat":37.98365341957495,"lng":23.761708124944604,"url":"https://maps.app.goo.gl/C245RwiHHTqtJUfs8","address":"Σινώπης 18, Αθήνα 115 27","categoryIds":["greek-restaurants"],"categories":["Greek Restaurants"],"distanceKm":0.3166115386229832},{"id":"cheapEatsRestaurants_d31bf93dd3fb","slug":"prunas-d31b","kind":"restaurant","name":"Prunas","lat":37.98295319401702,"lng":23.765808326891843,"url":"https://maps.app.goo.gl/TvHy3uq6zYjv7y1f9?g_st=ipc","address":"Δημ. Γουλιάμου 58, Αθήνα 115 27","categoryIds":["cheap-eats"],"categories":["Gyros & Cheap Eats"],"distanceKm":0.32679418074599736},{"id":"municipalities_986a9c2ee700","slug":"zografoy-986a","kind":"municipality","name":"Ζωγράφου","lat":37.9833,"lng":23.7667,"aliases":["Zografou","Zographou"],"region":"Κέντρο Αθήνας","name_en":"Zografou","region_en":"Athens Center","distanceKm":0.33474971010078347},{"id":"vegetarianRestaurants_8d2c7b9eb78e","slug":"naanstop-indian-cuisine-8d2c","kind":"restaurant","name":"NaanStop Indian Cuisine","lat":37.98689020299092,"lng":23.76047169895521,"url":"https://maps.app.goo.gl/FunBo9MHcx5NDxcQ7?g_st=ipc","address":"Λεωφ. Αλεξάνδρας 223, Αθήνα 115 23","categoryIds":["vegetarian"],"categories":["Vegetarian Friendly Restaurants"],"distanceKm":0.3628987609626263},{"id":"coffeeBrunchRestaurants_778f1a8f2b27","slug":"noemi-athens-778f","kind":"restaurant","name":"Noemi Athens","lat":37.98261642912539,"lng":23.76682899259837,"url":"https://maps.app.goo.gl/CUvMnKb1Hruhtibb8?g_st=ipc","address":"Παπαδιαμαντοπούλου 138, Αθήνα 157 73","categoryIds":["coffee-brunch"],"categories":["Coffee & Brunch Spots"],"distanceKm":0.40283492416691},{"id":"coffeeBrunchRestaurants_015dc365632d","slug":"bless-hopes-drinks-015d","kind":"restaurant","name":"Bless Hopes & Drinks","lat":37.98177476738277,"lng":23.764992470497013,"url":"https://maps.app.goo.gl/bMheYFALtaZQt2eg9?g_st=ipc","address":"Παπαδιαμαντοπούλου 118, Ζωγράφου 157 73","categoryIds":["coffee-brunch"],"categories":["Coffee & Brunch Spots"],"distanceKm":0.4340705586042302},{"id":"dessertsRestaurants_33a56f7d2cf2","slug":"andrias-33a5","kind":"restaurant","name":"Ανδριάς","lat":37.98955326408805,"lng":23.76607876362105,"url":"https://maps.app.goo.gl/dtVWFaCoXcBCwpmEA?g_st=ipc","address":"Σεβαστουπόλεως 64, Αθήνα 115 26","categoryIds":["desserts"],"categories":["Dessert Shops"],"distanceKm":0.46234746348294053},{"id":"mexicanRestaurants_7f0e3c29626a","slug":"o-mexikanos-7f0e","kind":"restaurant","name":"Ο Μεξικανός","lat":37.98186119461787,"lng":23.768203133980027,"url":"https://maps.app.goo.gl/bgqno3epSEAwFEp1A?g_st=ipc","address":"157 73, Γεωρ. Παπανδρέου 47, Ζωγράφου 157 73","categoryIds":["mexican"],"categories":["Mexican Restaurants"],"distanceKm":0.5419929052672149},{"id":"dessertsRestaurants_b83e09929158","slug":"zacharoplasteia-konstantinidis-b83e","kind":"restaurant","name":"ΖΑΧΑΡΟΠΛΑΣΤΕΙΑ ΚΩΝΣΤΑΝΤΙΝΙΔΗΣ","lat":37.989007700389564,"lng":23.768816133618305,"url":"https://maps.app.goo.gl/kiKCSDG9JX1cLwVf9?g_st=ipc","address":"Λεωφ. Μεσογείων 86, Αθήνα 115 27","categoryIds":["desserts"],"categories":["Dessert Shops"],"distanceKm":0.5451046346326145},{"id":"asianRestaurants_01d2fd8409bc","slug":"siam-thai-food-01d2","kind":"restaurant","name":"Siam Thai Food","lat":37.98765776292927,"lng":23.75850606152562,"url":"https://maps.app.goo.gl/V19mHCb8LHh8jNgz6?g_st=ipc","address":"Βατοπεδίου 6, Αθήνα 115 23","categoryIds":["asian"],"categories":["Asian Restaurants"],"distanceKm":0.5548667034893375},{"id":"asianRestaurants_473a72132f5a","slug":"noodle-bar-zografou-473a","kind":"restaurant","name":"Noodle Bar Zografou","lat":37.98033900085368,"lng":23.7645797480279,"url":"https://maps.app.goo.gl/mX2bUrDUmSpXcEdF7","address":"Geor. Papandreou 31, Zografou 157 73","categoryIds":["asian"],"categories":["Asian Restaurants"],"distanceKm":0.5899361390401953},{"id":"asianRestaurants_11e9b056b89d","slug":"bulacan-halo-halo-11e9","kind":"restaurant","name":"Bulacan Halo-Halo","lat":37.98164028909841,"lng":23.759642721567413,"url":"https://maps.app.goo.gl/XM8Buphrtabi3YYC9?g_st=ipc","address":"Μιχαλακοπούλου 105, Αθήνα 115 27","categoryIds":["asian"],"categories":["Asian Restaurants"],"distanceKm":0.603432236473878},{"id":"burgersRestaurants_2cfc1007d530","slug":"criminal-taste-smash-burger-2cfc","kind":"restaurant","name":"Criminal Taste - Smash Burger","lat":37.98830387219437,"lng":23.758246415299563,"url":"https://maps.app.goo.gl/bjsnq9fK7qPHgAum7?g_st=ipc","address":"Πανόρμου 10, Αθήνα 115 23","categoryIds":["burgers"],"categories":["Burger Spots"],"distanceKm":0.6073646898883744},{"id":"cheapEatsRestaurants_51e57b41d79c","slug":"chrysanthos-51e5","kind":"restaurant","name":"Χρύσανθος","lat":37.980767151919686,"lng":23.76756797039495,"url":"https://maps.app.goo.gl/cG4RSw44nHayWytd9?g_st=ipc","address":"Γεωρ. Παπανδρέου 50, Ζωγράφου 157 73","categoryIds":["cheap-eats"],"categories":["Gyros & Cheap Eats"],"distanceKm":0.6129938026863192},{"id":"cheapEatsRestaurants_f3cf5026ad57","slug":"peinirli-ionias-f3cf","kind":"restaurant","name":"Πεϊνιρλί Ιωνίας","lat":37.98758471065417,"lng":23.75770179070527,"url":"https://maps.app.goo.gl/SXittnYdkLPeQRb17?g_st=ipc","address":"Πανόρμου 3, Αθήνα 115 22","categoryIds":["cheap-eats"],"categories":["Gyros & Cheap Eats"],"distanceKm":0.6170932225451295},{"id":"greekRestaurants_b1c00c9474af","slug":"agora-b1c0","kind":"restaurant","name":"AGORA","lat":37.98712790409338,"lng":23.757368207050618,"url":"https://maps.app.goo.gl/UKN5PTfDAJ43RhcT7","address":"31, Χρήστου Βουρνάζου str, Αθήνα 115 21","categoryIds":["greek-restaurants"],"categories":["Greek Restaurants"],"distanceKm":0.6293353270771167},{"id":"vegetarianRestaurants_d960699f9346","slug":"vegan-carousel-d960","kind":"restaurant","name":"VEGAN CAROUSEL","lat":37.99118694073678,"lng":23.766617711776497,"url":"https://maps.app.goo.gl/17ei25wSbsQBZTsP6?g_st=ipc","address":"Σοφίας Σλήμαν 6, Αθήνα 115 26","categoryIds":["vegetarian"],"categories":["Vegetarian Friendly Restaurants"],"distanceKm":0.6494999718815783},{"id":"asianRestaurants_6980a2c0f36c","slug":"rawbata-6980","kind":"restaurant","name":"RawBata","lat":37.991621984562435,"lng":23.76287776299424,"url":"https://maps.app.goo.gl/j57HrF6nf6youYLV8","address":"Lakonias 33, Athina 115 23","categoryIds":["asian"],"categories":["Asian Restaurants"],"distanceKm":0.6767169996322687},{"id":"cheapEatsRestaurants_4873355e0fc6","slug":"delicious-pitta-queen-4873","kind":"restaurant","name":"Delicious Pitta Queen","lat":37.99092416121966,"lng":23.759496408597567,"url":"https://maps.app.goo.gl/1JBJ1wwqkW21Ww447?g_st=ipc","address":"Πανόρμου 36, Αθήνα 115 23","categoryIds":["cheap-eats"],"categories":["Gyros & Cheap Eats"],"distanceKm":0.722659243135175},{"id":"coffeeBrunchRestaurants_8adec72ceea5","slug":"o-vrazilianos-8ade","kind":"restaurant","name":"Ο Βραζιλιάνος","lat":37.97904208015633,"lng":23.766074567747406,"url":"https://maps.app.goo.gl/5D1SdokXMKCgvPB27?g_st=ipc","address":"Παπάγου 37, Ζωγράφου 157 73","categoryIds":["coffee-brunch"],"categories":["Coffee & Brunch Spots"],"distanceKm":0.7499932398483825},{"id":"dessertsRestaurants_82392100ef3d","slug":"galaktopoleio-stamoy-8239","kind":"restaurant","name":"Γαλακτοπωλείο ΣΤΑΜΟΥ","lat":37.99247877904618,"lng":23.761668631710492,"url":"https://maps.app.goo.gl/118TMc1zY2E2HRzEA?g_st=ipc","address":"Πανόρμου 62, Αθήνα 115 23","categoryIds":["desserts"],"categories":["Dessert Shops"],"distanceKm":0.7945742839057559},{"id":"cheapEatsRestaurants_2d35d62e4881","slug":"kantina-mavili-2d35","kind":"restaurant","name":"Καντίνα Μαβίλη","lat":37.98253879036559,"lng":23.7560791108495,"url":"https://maps.app.goo.gl/tXjW7wXH83v15nHX8?g_st=ipc","address":"Δημ. Σούτσου 3, Αθήνα 115 21","categoryIds":["cheap-eats"],"categories":["Gyros & Cheap Eats"],"distanceKm":0.7984756659435055}],"sameRegion":[],"mentionedGuides":[],"canonicalSlug":"zuzuto-ramen-5a81","isCanonicalEntity":true,"enrichment":{"summary_en":"Zuzuto Ramen is a curated restaurant in Αθήνα 115 27 in the Asian Restaurants collection. It is connected to 24 nearby Googlementor picks to help travelers build a stronger local route.","summary_el":"Zuzuto Ramen είναι ένα επιλεγμένο σημείο φαγητού στην περιοχή Αθήνα 115 27 και ανήκει στη συλλογή Asian Restaurants. Συνδέεται με 24 κοντινές προτάσεις του Googlementor για πιο ολοκληρωμένη εμπειρία.","vibe_tags":["curated"],"best_for":["first-time visitors","food lovers"],"visit_moments":["lunch stop","dinner stop"],"practical_note":"Address and direct map link are available for easy turn-by-turn access.","nearby_walkable_count":24,"nearby_count_2km":97,"confidence":0.98},"areaContext":{"slug":"goydi","name":"Goudi"},"intentContexts":[{"href":"/asian-restaurants/goydi","label":"Asian Restaurants in Goudi","categorySlug":"asian-restaurants","categoryName":"Asian Restaurants","areaSlug":"goydi","areaName":"Goudi"}]},"__N_SSG":true}