{"pageProps":{"entity":{"id":"cheapEatsRestaurants_949277637a55","slug":"grill-105-street-9492","kind":"restaurant","name":"Grill 105 Street","lat":40.63849961526695,"lng":22.950253004997894,"url":"https://maps.app.goo.gl/ZgMdxKzTjuAureyV8?g_st=ic","address":"Kassandrou 105, Thessaloniki 546 33","categoryIds":["cheap-eats"],"categories":["Gyros & Cheap Eats"]},"sameCategory":[{"id":"cheapEatsRestaurants_6f8bdca7e315","slug":"aigli-24h-crepe-toast-coffee-bougatsa-6f8b","kind":"restaurant","name":"\"AIGLI\" 24h CREPE-toast-coffee-BOUGATSA","lat":40.638115571761915,"lng":22.948717629555613,"url":"https://maps.app.goo.gl/LWSzARXmcX6GhcQdA?g_st=ipc","address":"Ag. Dimitriou 89, Thessaloniki 546 33","categoryIds":["cheap-eats"],"categories":["Gyros & Cheap Eats"]},{"id":"cheapEatsRestaurants_963344db5c1c","slug":"mimis-9633","kind":"restaurant","name":"Mimis","lat":40.63706330748784,"lng":22.950306559309492,"url":"https://maps.app.goo.gl/m8WS13tHpdvSyxE99?g_st=ipc","address":"Ag. Dimitriou 126, Thessaloniki 546 35","categoryIds":["cheap-eats"],"categories":["Gyros & Cheap Eats"]},{"id":"cheapEatsRestaurants_f0f66d3f1d3f","slug":"hot-dog-land-f0f6","kind":"restaurant","name":"HOT DOG Land","lat":40.63820917018459,"lng":22.947895316027907,"url":"https://maps.app.goo.gl/Y7VQCwH5JjChrXDb9?g_st=ipc","address":"Ag. Dimitriou 100, Thessaloniki 546 31","categoryIds":["cheap-eats"],"categories":["Gyros & Cheap Eats"]},{"id":"cheapEatsRestaurants_c01da58dabd8","slug":"pizza-romea-c01d","kind":"restaurant","name":"Pizza Romea","lat":40.636170436374,"lng":22.952743400099628,"url":"https://maps.app.goo.gl/jsFLzjxU7rbpCatGA?g_st=ipc","address":"Ag. Dimitriou 135, Thessaloniki 546 35","categoryIds":["cheap-eats"],"categories":["Gyros & Cheap Eats"]},{"id":"burgersRestaurants_c3d0c3efec16","slug":"ohmami-street-food-thessaloniki-c3d0","kind":"restaurant","name":"Ohmami - Street Food / Thessaloniki","lat":40.63556199320903,"lng":22.947562092920837,"url":"https://maps.app.goo.gl/NzN9wf8WYr2rjWbd7","address":"Patriarchoi Dionisii E 1, Thessaloniki 546 31","categoryIds":["burgers","cheap-eats"],"categories":["Burger Spots","Gyros & Cheap Eats"],"legacySlugs":["ohmami-street-food-thessaloniki-b6d7"]},{"id":"cheapEatsRestaurants_aa2a8e3577a2","slug":"liga-ke-kala-aa2a","kind":"restaurant","name":"Liga ke kala","lat":40.63627784998205,"lng":22.954179728027064,"url":"https://maps.app.goo.gl/KNAkyJUgnkqkuPQs9?g_st=ipc","address":"Kassandrou 132, Thessaloniki 546 34","categoryIds":["cheap-eats"],"categories":["Gyros & Cheap Eats"]},{"id":"cheapEatsRestaurants_8af2c5ab8db1","slug":"paperbag-street-food-8af2","kind":"restaurant","name":"PAPERBAG || street food","lat":40.634629758562504,"lng":22.948314502108076,"url":"https://maps.app.goo.gl/EppjR6X5bpodm5MR7?g_st=ipc","address":"Achiropiitou 2, Thessaloniki 546 35","categoryIds":["cheap-eats"],"categories":["Gyros & Cheap Eats"]},{"id":"cheapEatsRestaurants_5cdb8c7a5460","slug":"favela-bit-bazar-5cdb","kind":"restaurant","name":"FAVELA Bit Bazar","lat":40.63897345242983,"lng":22.94448760793796,"url":"https://maps.app.goo.gl/Pr2NGoHPa59C1JPVA?g_st=ipc","address":"Olympou 72, Thessaloniki 546 31","categoryIds":["cheap-eats"],"categories":["Gyros & Cheap Eats"]},{"id":"cheapEatsRestaurants_7ae963e72327","slug":"last-bite-7ae9","kind":"restaurant","name":"LAST BITE","lat":40.63432876296427,"lng":22.95290522955353,"url":"https://maps.app.goo.gl/qLtPEtu7Ux91nEnP8?g_st=ipc","address":"Kiriakou Manolaki 1, Thessaloniki 546 35","categoryIds":["cheap-eats","desserts"],"categories":["Gyros & Cheap Eats","Dessert Shops"],"legacySlugs":["last-bite-cc54"]},{"id":"cheapEatsRestaurants_3a84f1e5b6b2","slug":"pizza-chris-3a84","kind":"restaurant","name":"Pizza Chris","lat":40.634238789767664,"lng":22.952894059300746,"url":"https://maps.app.goo.gl/rMq3J3GrNZNoRMpZ9?g_st=ipc","address":"Armenopoulou 17, Thessaloniki 546 35","categoryIds":["cheap-eats"],"categories":["Gyros & Cheap Eats"]},{"id":"cheapEatsRestaurants_9e348b58c806","slug":"plateia-bit-pazar-9e34","kind":"restaurant","name":"Plateia Bit pazar","lat":40.63891956491642,"lng":22.94393646377273,"url":"https://maps.app.goo.gl/HfoTaA81WJgTcqWp6?g_st=ipc","address":"Προσφυγική Αγορά 16 Β, Thessaloniki 546 31","categoryIds":["cheap-eats"],"categories":["Gyros & Cheap Eats"]},{"id":"cheapEatsRestaurants_e80e8a708de9","slug":"salento-wood-fired-street-food-e80e","kind":"restaurant","name":"Salento Wood Fired Street Food","lat":40.639269734572295,"lng":22.943990430297482,"url":"https://maps.app.goo.gl/6mWAWHUbEwXuAb589?g_st=ipc","address":"El. Venizelou 76, Thessaloniki 546 31","categoryIds":["cheap-eats","italian"],"categories":["Gyros & Cheap Eats","Italian Restaurants"],"legacySlugs":["salento-wood-fired-street-food-39b7"]}],"nearby":[{"id":"greekRestaurants_0c9a78977f40","slug":"nea-folia-0c9a","kind":"restaurant","name":"Νέα Φωλιά","lat":40.63831468853848,"lng":22.95095515507328,"url":"https://maps.app.goo.gl/RoPE5F5QLpWFB4rcA?g_st=ipc","address":"Αριστομένους 4, Θεσσαλονίκη 546 34","categoryIds":["greek-restaurants"],"categories":["Greek Restaurants"],"distanceKm":0.0627134228396503},{"id":"dessertsRestaurants_eb88db21bc35","slug":"dorkada-eb88","kind":"restaurant","name":"Dorkada","lat":40.63877718781837,"lng":22.949276397393735,"url":"https://maps.app.goo.gl/56EQSujX5a55tWkk6?g_st=ipc","address":"Kassandrou 66, Thessaloniki 546 33","categoryIds":["desserts"],"categories":["Dessert Shops"],"distanceKm":0.08799503919611217},{"id":"cheapEatsRestaurants_6f8bdca7e315","slug":"aigli-24h-crepe-toast-coffee-bougatsa-6f8b","kind":"restaurant","name":"\"AIGLI\" 24h CREPE-toast-coffee-BOUGATSA","lat":40.638115571761915,"lng":22.948717629555613,"url":"https://maps.app.goo.gl/LWSzARXmcX6GhcQdA?g_st=ipc","address":"Ag. Dimitriou 89, Thessaloniki 546 33","categoryIds":["cheap-eats"],"categories":["Gyros & Cheap Eats"],"distanceKm":0.13640963136537948},{"id":"greekRestaurants_f55cb9debc6f","slug":"iliopetra-f55c","kind":"restaurant","name":"Ηλιόπετρα","lat":40.637407844896174,"lng":22.95118029752211,"url":"https://maps.app.goo.gl/twTSSnJJWA1rop578?g_st=ipc","address":"Αισχύλου 5, Θεσσαλονίκη 546 34","categoryIds":["greek-restaurants"],"categories":["Greek Restaurants"],"distanceKm":0.14442972791849573},{"id":"cheapEatsRestaurants_963344db5c1c","slug":"mimis-9633","kind":"restaurant","name":"Mimis","lat":40.63706330748784,"lng":22.950306559309492,"url":"https://maps.app.goo.gl/m8WS13tHpdvSyxE99?g_st=ipc","address":"Ag. Dimitriou 126, Thessaloniki 546 35","categoryIds":["cheap-eats"],"categories":["Gyros & Cheap Eats"],"distanceKm":0.15977405451983479},{"id":"cheapEatsRestaurants_f0f66d3f1d3f","slug":"hot-dog-land-f0f6","kind":"restaurant","name":"HOT DOG Land","lat":40.63820917018459,"lng":22.947895316027907,"url":"https://maps.app.goo.gl/Y7VQCwH5JjChrXDb9?g_st=ipc","address":"Ag. Dimitriou 100, Thessaloniki 546 31","categoryIds":["cheap-eats"],"categories":["Gyros & Cheap Eats"],"distanceKm":0.2015430770187519},{"id":"dessertsRestaurants_e8be0b820869","slug":"sarantis-bakery-patisserie-e8be","kind":"restaurant","name":"Σαράντης Bakery Patisserie","lat":40.63827380747778,"lng":22.947664759270584,"url":"https://maps.app.goo.gl/RefSjsyuU49WN5f89?g_st=ipc","address":"Ag. Dimitriou 98, Thessaloniki 546 31","categoryIds":["desserts"],"categories":["Dessert Shops"],"distanceKm":0.21983123419303788},{"id":"greekRestaurants_429218289710","slug":"ta-mikra-kalyvia-4292","kind":"restaurant","name":"Τα μικρά Καλύβια","lat":40.63664047814548,"lng":22.951162513295422,"url":"https://maps.app.goo.gl/Z39MqbdKvPEFnvnK6?g_st=ipc","address":"Ἁγ. Δημητρίου 136, Θεσσαλονίκη 546 35","categoryIds":["greek-restaurants"],"categories":["Greek Restaurants"],"distanceKm":0.22051198128248503},{"id":"mustSeeAttractions_7edc1e3f8f0e","slug":"holy-church-of-saint-demetrius-7edc","kind":"restaurant","name":"Holy Church of Saint Demetrius","lat":40.638898161361496,"lng":22.947614216085658,"url":"https://maps.app.goo.gl/f1z5P772ZL438rrB9?g_st=ipc","address":"Ag. Dimitriou 81-83, Thessaloniki 546 33","categoryIds":["attractions"],"categories":["Must-See Attractions"],"distanceKm":0.22702372296877052},{"id":"greekRestaurants_6297c85e5b73","slug":"to-limeri-6297","kind":"restaurant","name":"Το λημέρι","lat":40.63585070853852,"lng":22.950530015801274,"url":"https://maps.app.goo.gl/WWLkDZFBAptyzgH88?g_st=ipc","address":"Ολύμπου 116, Θεσσαλονίκη 546 35","categoryIds":["greek-restaurants"],"categories":["Greek Restaurants"],"distanceKm":0.29547098770405156},{"id":"cheapEatsRestaurants_c01da58dabd8","slug":"pizza-romea-c01d","kind":"restaurant","name":"Pizza Romea","lat":40.636170436374,"lng":22.952743400099628,"url":"https://maps.app.goo.gl/jsFLzjxU7rbpCatGA?g_st=ipc","address":"Ag. Dimitriou 135, Thessaloniki 546 35","categoryIds":["cheap-eats"],"categories":["Gyros & Cheap Eats"],"distanceKm":0.33352043342474835},{"id":"greekRestaurants_5762dafe8770","slug":"giannoyla-5762","kind":"restaurant","name":"Γιαννούλα","lat":40.640039548951144,"lng":22.946778249418276,"url":"https://maps.app.goo.gl/bG2X8oAd5FzPwzKJ9?g_st=ipc","address":"Κασσάνδρου 50, Θεσσαλονίκη 546 33","categoryIds":["greek-restaurants"],"categories":["Greek Restaurants"],"distanceKm":0.3395316656951871},{"id":"fishTavernasRestaurants_ec7fddf4df43","slug":"mourga-ec7f","kind":"restaurant","name":"Mourga","lat":40.635412338789585,"lng":22.94963013274726,"url":"https://maps.app.goo.gl/u7q8zzuEjPhJ53mR7?g_st=ipc","address":"Christopoulou 12, Thessaloniki 546 35","categoryIds":["fish-tavernas"],"categories":["Fish Tavernas"],"distanceKm":0.3472895551734483},{"id":"coffeeBrunchRestaurants_e22044bf3986","slug":"hue-roastery-e220","kind":"restaurant","name":"Hue Roastery","lat":40.63626725764962,"lng":22.94719442659408,"url":"https://maps.app.goo.gl/PGp8KLsttADm6bE79?g_st=ipc","address":"Filippou 38, Thessaloniki 546 31","categoryIds":["coffee-brunch"],"categories":["Coffee & Brunch Spots"],"distanceKm":0.3580825866718187},{"id":"dessertsRestaurants_f577f5bbd8fd","slug":"nick-alexoudas-f577","kind":"restaurant","name":"NICK ALEXOUDAS","lat":40.640152390023324,"lng":22.946508561358726,"url":"https://maps.app.goo.gl/mqxpWWxFf4unYCA89?g_st=ipc","address":"Kassandrou 48, Thessaloniki 546 33","categoryIds":["desserts"],"categories":["Dessert Shops"],"distanceKm":0.36550972672297216},{"id":"coffeeBrunchRestaurants_1ba6faa5ef16","slug":"naked-1ba6","kind":"restaurant","name":"NAKED","lat":40.6351156138034,"lng":22.949358819047884,"url":"https://maps.app.goo.gl/tVt4qfxaTjfyP7oG8?g_st=ipc","address":"Filippou 62, Thessaloniki 546 35","categoryIds":["coffee-brunch"],"categories":["Coffee & Brunch Spots"],"distanceKm":0.3837740117070295},{"id":"mustSeeAttractions_c746cf030037","slug":"roman-forum-of-thessaloniki-c746","kind":"restaurant","name":"Roman Forum of Thessaloniki","lat":40.637858913960656,"lng":22.945675325840927,"url":"https://maps.app.goo.gl/YxX1f2JEnRyib5KP8?g_st=ipc","address":"Olympou 75, Thessaloniki 546 31","categoryIds":["attractions"],"categories":["Must-See Attractions"],"distanceKm":0.3927745920135005},{"id":"burgersRestaurants_c3d0c3efec16","slug":"ohmami-street-food-thessaloniki-c3d0","kind":"restaurant","name":"Ohmami - Street Food / Thessaloniki","lat":40.63556199320903,"lng":22.947562092920837,"url":"https://maps.app.goo.gl/NzN9wf8WYr2rjWbd7","address":"Patriarchoi Dionisii E 1, Thessaloniki 546 31","categoryIds":["burgers","cheap-eats"],"categories":["Burger Spots","Gyros & Cheap Eats"],"legacySlugs":["ohmami-street-food-thessaloniki-b6d7"],"distanceKm":0.3978135494174903},{"id":"vegetarianRestaurants_8b165a3d11ad","slug":"tarantoula-8b16","kind":"restaurant","name":"Tarantoúla","lat":40.635244984518486,"lng":22.952246319112277,"url":"https://maps.app.goo.gl/8ipQFrqJVpwS17GS7?g_st=ipc","address":"Olympou 127, Thessaloniki 546 35","categoryIds":["vegetarian"],"categories":["Vegetarian Friendly Restaurants"],"distanceKm":0.39907476765905736},{"id":"coffeeBrunchRestaurants_3e6cfb10198f","slug":"shed-3e6c","kind":"restaurant","name":"shed","lat":40.63516182787635,"lng":22.9483681936243,"url":"https://maps.app.goo.gl/bczd7kAPu1ihwt9fA?g_st=ipc","address":"Patriarchoi Dionisii E 11, Thessaloniki 546 35","categoryIds":["coffee-brunch"],"categories":["Coffee & Brunch Spots"],"distanceKm":0.4037856145538121},{"id":"greekRestaurants_13c994d14935","slug":"taverna-oyzeri-kosmas-13c9","kind":"restaurant","name":"Ταβέρνα - Ουζερί Κοσμάς","lat":40.635727203567235,"lng":22.94715477968318,"url":"https://maps.app.goo.gl/9edjcaLLqs3ZFkL47?g_st=ipc","address":"Πλάτωνος 15, Θεσσαλονίκη 546 31","categoryIds":["greek-restaurants"],"categories":["Greek Restaurants"],"distanceKm":0.40420353094588635},{"id":"cheapEatsRestaurants_aa2a8e3577a2","slug":"liga-ke-kala-aa2a","kind":"restaurant","name":"Liga ke kala","lat":40.63627784998205,"lng":22.954179728027064,"url":"https://maps.app.goo.gl/KNAkyJUgnkqkuPQs9?g_st=ipc","address":"Kassandrou 132, Thessaloniki 546 34","categoryIds":["cheap-eats"],"categories":["Gyros & Cheap Eats"],"distanceKm":0.41330018171442},{"id":"municipalities_63befeea2643","slug":"valaoritoy-63be","kind":"municipality","name":"Βαλαωρίτου","lat":40.6406,"lng":22.9462,"region":"Θεσσαλονίκη","name_en":"Valaritou","region_en":"Thessaloniki","distanceKm":0.4141226860120393},{"id":"greekRestaurants_468e8ef769c7","slug":"i-kanoyla-468e","kind":"restaurant","name":"Η Κάνουλα","lat":40.63902723791725,"lng":22.945280279447754,"url":"https://maps.app.goo.gl/1wLZCLzQxy3PPNvc7?g_st=ipc","address":"Τάσκου Παπαγεωργίου 4, Θεσσαλονίκη 546 31","categoryIds":["greek-restaurants"],"categories":["Greek Restaurants"],"distanceKm":0.42367116881424394}],"sameRegion":[],"mentionedGuides":[],"canonicalSlug":"grill-105-street-9492","enrichment":{"summary_en":"Grill 105 Street is a curated restaurant in Thessaloniki 546 33 in the Gyros & Cheap Eats collection. It is connected to 87 nearby Googlementor picks to help travelers build a stronger local route.","summary_el":"Grill 105 Street είναι ένα επιλεγμένο σημείο φαγητού στην περιοχή Thessaloniki 546 33 και ανήκει στη συλλογή Gyros & Cheap Eats. Συνδέεται με 87 κοντινές προτάσεις του Googlementor για πιο ολοκληρωμένη εμπειρία.","vibe_tags":["curated","budget-friendly"],"best_for":["first-time visitors","food lovers","budget travelers"],"visit_moments":["lunch stop","dinner stop"],"practical_note":"Address and direct map link are available for easy turn-by-turn access.","nearby_walkable_count":87,"nearby_count_2km":265,"confidence":0.98},"areaContext":{"slug":"valaoritoy","name":"Valaritou","nameEl":"Βαλαωρίτου"},"intentContexts":[{"href":"/cheap-eats/valaoritoy","label":"Gyros & Cheap Eats in Valaritou","categorySlug":"cheap-eats","categoryName":"Gyros & Cheap Eats","areaSlug":"valaoritoy","areaName":"Valaritou","areaNameEl":"Βαλαωρίτου"}]},"__N_SSG":true}