{"pageProps":{"entity":{"id":"greekRestaurants_028889ec4c7c","slug":"kafeneion-giasemi-0288","kind":"restaurant","name":"Καφενείον Γιασεμί","lat":40.62700271205112,"lng":22.950250188903894,"url":"https://maps.app.goo.gl/igCkYjicpsFhyKi79?g_st=ipc","address":"Τσόπελα 4, Θεσσαλονίκη 546 21","categoryIds":["greek-restaurants"],"categories":["Greek Restaurants"]},"sameCategory":[{"id":"greekRestaurants_96300d908e41","slug":"massalia-9630","kind":"restaurant","name":"Μασσαλία","lat":40.62879227637267,"lng":22.950820456091158,"url":"https://maps.app.goo.gl/Woet67mPUQvmRPAY6?g_st=ipc","address":"Μανουσογιαννάκη 6, Θεσσαλονίκη 546 21","categoryIds":["greek-restaurants"],"categories":["Greek Restaurants"]},{"id":"greekRestaurants_bc2682007b45","slug":"canteen-all-day-bar-restaurant-bc26","kind":"restaurant","name":"Canteen All day Bar Restaurant","lat":40.628045759253304,"lng":22.94769823250704,"url":"https://maps.app.goo.gl/4PvAxWQTpkBWbzxZ6?g_st=ipc","address":"Δημ. Γούναρη 7, Θεσσαλονίκη 546 22","categoryIds":["greek-restaurants"],"categories":["Greek Restaurants"]},{"id":"greekRestaurants_9ca9bccdb731","slug":"diagonios-1977-9ca9","kind":"restaurant","name":"Διαγώνιος 1977","lat":40.628424051093205,"lng":22.94777702854618,"url":"https://maps.app.goo.gl/NGT8FMWUaiPpBxYGA?g_st=ipc","address":"Πλ. Φαναριωτῶν 2, Θεσσαλονίκη 546 22","categoryIds":["greek-restaurants"],"categories":["Greek Restaurants"]},{"id":"greekRestaurants_5db983812e0a","slug":"to-elliniko-5db9","kind":"restaurant","name":"Το Ελληνικό","lat":40.62835209292357,"lng":22.947350658434885,"url":"https://maps.app.goo.gl/xnCJBuGfhotgXpup6?g_st=ipc","address":"Στρ. Καλλάρη 9, Θεσσαλονίκη 546 22","categoryIds":["greek-restaurants"],"categories":["Greek Restaurants"]},{"id":"greekRestaurants_e2d4737d2e6a","slug":"deka-trapezia-e2d4","kind":"restaurant","name":"Δέκα Τραπέζια","lat":40.62814201457264,"lng":22.946897711090458,"url":"https://maps.app.goo.gl/rmRGahPcj5NACQVp9?g_st=ipc","address":"Στρ. Καλλάρη 4, Θεσσαλονίκη 546 22","categoryIds":["greek-restaurants"],"categories":["Greek Restaurants"]},{"id":"greekRestaurants_8e1d134cbe5a","slug":"diavasi-8e1d","kind":"restaurant","name":"Διάβαση","lat":40.629392533313,"lng":22.947707172796427,"url":"https://maps.app.goo.gl/MvYkV7ZoB8ykDseV7?g_st=ipc","address":"Π. Μελά 13, Θεσσαλονίκη 546 22","categoryIds":["greek-restaurants"],"categories":["Greek Restaurants"]},{"id":"greekRestaurants_a1a2ecf01b90","slug":"neos-galerios-a1a2","kind":"restaurant","name":"Νέος Γαλέριος","lat":40.63104870965081,"lng":22.94936321160579,"url":"https://maps.app.goo.gl/x4M4LyYumCxPakjo7?g_st=ipc","address":"Απελλού 3, Θεσσαλονίκη 546 22","categoryIds":["greek-restaurants"],"categories":["Greek Restaurants"]},{"id":"greekRestaurants_6540c06dfef8","slug":"argofageio-6540","kind":"restaurant","name":"Αργοφαγείο","lat":40.631130013359666,"lng":22.94963377057043,"url":"https://maps.app.goo.gl/Xdu7zZ8Wq5MhAe6R6?g_st=ipc","address":"Απελλού 6, Θεσσαλονίκη 546 22","categoryIds":["greek-restaurants"],"categories":["Greek Restaurants"]},{"id":"greekRestaurants_90c55ea6b27c","slug":"rogkoti-1928-90c5","kind":"restaurant","name":"Ρογκότη 1928","lat":40.63063704521069,"lng":22.947121329539414,"url":"https://maps.app.goo.gl/oYN4BameZGmdPwsE8?g_st=ipc","address":"Grigoriou Palama 8, Thessaloniki 546 22","categoryIds":["greek-restaurants"],"categories":["Greek Restaurants"]},{"id":"greekRestaurants_dd92d680950f","slug":"local-thessaloniki-dd92","kind":"restaurant","name":"LOCAL Thessaloniki","lat":40.631447319193505,"lng":22.946995352889463,"url":"https://maps.app.goo.gl/iMk8Tx82t81vQe5y5?g_st=ipc","address":"Παλαιών Πατρών Γερμανού 17, Θεσσαλονίκη 546 22","categoryIds":["greek-restaurants"],"categories":["Greek Restaurants"]},{"id":"greekRestaurants_3e3bf2271718","slug":"tiganies-schares-meat-restaurant-3e3b","kind":"restaurant","name":"Τηγανιές & Σχάρες Meat Restaurant","lat":40.62182611021091,"lng":22.95622107562596,"url":"https://maps.app.goo.gl/LQSzg3m51jKr2wvR7?g_st=ipc","address":"Λυσιμάχου Καυταντζόγλου 12, Θεσσαλονίκη 546 40","categoryIds":["greek-restaurants"],"categories":["Greek Restaurants"]},{"id":"greekRestaurants_64b68d7e42ed","slug":"oinohoos-64b6","kind":"restaurant","name":"Oinohoos","lat":40.63481540848585,"lng":22.95364872951098,"url":"https://maps.app.goo.gl/roxmt796zNAdVec76?g_st=ipc","address":"Kon/nou Melenikou 39, Thessaloniki 546 35","categoryIds":["greek-restaurants"],"categories":["Greek Restaurants"]}],"nearby":[{"id":"coffeeBrunchRestaurants_553ce2fa7675","slug":"plateia-theatroy-kafe-mpar-estiatorio-553c","kind":"restaurant","name":"Πλατεία Θεάτρου, Καφέ / Μπαρ/Εστιατόριο","lat":40.62692292313497,"lng":22.94981349501023,"url":"https://maps.app.goo.gl/bFpP1KB6naw1VbYr7?g_st=ipc","address":"Eth. Aminis 4, Thessaloniki 546 21","categoryIds":["coffee-brunch"],"categories":["Coffee & Brunch Spots"],"distanceKm":0.037906817877973877},{"id":"vegetarianRestaurants_40634af2ec79","slug":"falafel-taste-middle-east-4063","kind":"restaurant","name":"Falafel Taste Middle East","lat":40.62785484140031,"lng":22.949330420414434,"url":"https://maps.app.goo.gl/bHy6BTfdp9RBhdBt6?g_st=ipc","address":"Mitropoleos 106 &, Romanou, Thessaloniki 546 21","categoryIds":["vegetarian"],"categories":["Vegetarian Friendly Restaurants"],"distanceKm":0.12248726803231219},{"id":"coffeeBrunchRestaurants_535d5a114e1a","slug":"titania-535d","kind":"restaurant","name":"ΤΙΤΑΝΙΑ","lat":40.62745635041655,"lng":22.95172436992036,"url":"https://maps.app.goo.gl/6d8e2D2YLjsqGz9H8?g_st=ipc","address":"Tsimiski 139, Thessaloniki 546 21","categoryIds":["coffee-brunch"],"categories":["Coffee & Brunch Spots"],"distanceKm":0.1342471885279668},{"id":"cheapEatsRestaurants_4326011ed54c","slug":"to-etsi-4326","kind":"restaurant","name":"Το Έτση","lat":40.627697688934035,"lng":22.94868143840882,"url":"https://maps.app.goo.gl/82yxHEuuzhZ7bD1T9?g_st=ipc","address":"Nikiforou Foka 2, Thessaloniki 546 21","categoryIds":["cheap-eats"],"categories":["Gyros & Cheap Eats"],"distanceKm":0.1532945500827304},{"id":"cheapEatsRestaurants_f03e4dc68c8d","slug":"feyrouz-skg-f03e","kind":"restaurant","name":"Feyrouz SKG","lat":40.62813032194449,"lng":22.94911089919006,"url":"https://maps.app.goo.gl/pedu5yTx6WHSFd5MA?g_st=ipc","address":"Mitropoleos 125, Nikiforou Foka 8, Thessaloniki 546 21","categoryIds":["cheap-eats"],"categories":["Gyros & Cheap Eats"],"distanceKm":0.15800496899639963},{"id":"asianRestaurants_4ecd6c075c4e","slug":"huang-4ecd","kind":"restaurant","name":"Huang","lat":40.62746881479162,"lng":22.95210600219236,"url":"https://maps.app.goo.gl/GNVEYmU2FT2611vx5?g_st=ipc","address":"Geor. Theotoka 1, Thessaloniki 546 21","categoryIds":["asian"],"categories":["Asian Restaurants"],"distanceKm":0.164969962226066},{"id":"dessertsRestaurants_d6293efcb0d5","slug":"sugarela-d629","kind":"restaurant","name":"Sugarela","lat":40.628286349246984,"lng":22.94919276720608,"url":"https://maps.app.goo.gl/BWRmuMRqDoq6N7MH8?g_st=ipc","address":"Nikiforou Foka 12, Thessaloniki 546 21","categoryIds":["desserts"],"categories":["Dessert Shops"],"distanceKm":0.1683342618042713},{"id":"mustSeeAttractions_43897b8cc3d5","slug":"white-tower-of-thessaloniki-4389","kind":"restaurant","name":"White Tower of Thessaloniki","lat":40.62644387532891,"lng":22.948379384273697,"url":"https://maps.app.goo.gl/Rpx9LHfqRzCfvkCh8?g_st=ipc","address":"Thessaloniki 546 21","categoryIds":["attractions"],"categories":["Must-See Attractions"],"distanceKm":0.16967189000744703},{"id":"cheapEatsRestaurants_88cea0f97a36","slug":"mantri-ae-88ce","kind":"restaurant","name":"ΜΑΝΤΡΙ ΑΕ","lat":40.62840905411716,"lng":22.95104812955137,"url":"https://maps.app.goo.gl/fo4Tf9Q9F4pnn1rn9?g_st=ipc","address":"Eth. Aminis 18, Thessaloniki 546 21","categoryIds":["cheap-eats"],"categories":["Gyros & Cheap Eats"],"distanceKm":0.17026089722048568},{"id":"dessertsRestaurants_509c5344d793","slug":"armenonville-509c","kind":"restaurant","name":"Armenonville","lat":40.62813210913547,"lng":22.94876500137915,"url":"https://maps.app.goo.gl/3MMykvcTvkcMNqrA6?g_st=ipc","address":"Mitropoleos 102, Thessaloniki 546 21","categoryIds":["desserts"],"categories":["Dessert Shops"],"distanceKm":0.17742845176158353},{"id":"cheapEatsRestaurants_360afa6ead29","slug":"salu-deli-bar-360a","kind":"restaurant","name":"Salu Deli Bar","lat":40.62815289802217,"lng":22.952006929781376,"url":"https://maps.app.goo.gl/Mew4X3m69PgK4Y2TA?g_st=ipc","address":"Manousagiannaki 20, Thessaloniki 546 21","categoryIds":["cheap-eats","coffee-brunch"],"categories":["Gyros & Cheap Eats","Coffee & Brunch Spots"],"legacySlugs":["salu-deli-bar-e516"],"distanceKm":0.19579771246252903},{"id":"greekRestaurants_96300d908e41","slug":"massalia-9630","kind":"restaurant","name":"Μασσαλία","lat":40.62879227637267,"lng":22.950820456091158,"url":"https://maps.app.goo.gl/Woet67mPUQvmRPAY6?g_st=ipc","address":"Μανουσογιαννάκη 6, Θεσσαλονίκη 546 21","categoryIds":["greek-restaurants"],"categories":["Greek Restaurants"],"distanceKm":0.20472740988413404},{"id":"burgersRestaurants_83b3a5ac6b77","slug":"parco-83b3","kind":"restaurant","name":"Parco","lat":40.62746957872299,"lng":22.95260526619064,"url":"https://maps.app.goo.gl/XvoKi6u2LSYH1F6o7?g_st=ipc","address":"D' Esperey 1, Thessaloniki 546 21","categoryIds":["burgers","coffee-brunch"],"categories":["Burger Spots","Coffee & Brunch Spots"],"legacySlugs":["parco-b30e"],"distanceKm":0.20541928150406524},{"id":"coffeeBrunchRestaurants_9305c93ce682","slug":"canteen-all-day-bar-restaurant-9305","kind":"restaurant","name":"Canteen All day Bar Restaurant","lat":40.62803673619556,"lng":22.94769963358214,"url":"https://maps.app.goo.gl/M7potW66EBLTEfRx7?g_st=ipc","address":"Dim. Gounari 7, Thessaloniki 546 22","categoryIds":["coffee-brunch"],"categories":["Coffee & Brunch Spots"],"distanceKm":0.24403159920455064},{"id":"greekRestaurants_bc2682007b45","slug":"canteen-all-day-bar-restaurant-bc26","kind":"restaurant","name":"Canteen All day Bar Restaurant","lat":40.628045759253304,"lng":22.94769823250704,"url":"https://maps.app.goo.gl/4PvAxWQTpkBWbzxZ6?g_st=ipc","address":"Δημ. Γούναρη 7, Θεσσαλονίκη 546 22","categoryIds":["greek-restaurants"],"categories":["Greek Restaurants"],"distanceKm":0.2446100100285901},{"id":"cheapEatsRestaurants_09ba201c7611","slug":"yum-tree-09ba","kind":"restaurant","name":"Yum Tree","lat":40.62786595411914,"lng":22.947554429551257,"url":"https://maps.app.goo.gl/8t8Wb8QaYGPzQ1F76?g_st=ipc","address":"Dim. Gounari 5, Thessaloniki 546 22","categoryIds":["cheap-eats","desserts"],"categories":["Gyros & Cheap Eats","Dessert Shops"],"legacySlugs":["yum-tree-9cb3"],"distanceKm":0.2469226067539995},{"id":"vegetarianRestaurants_b82222e81ca2","slug":"merry-berry-health-bar-b822","kind":"restaurant","name":"Merry Berry Health Bar","lat":40.62787788837935,"lng":22.947534537868144,"url":"https://maps.app.goo.gl/9NhW77pMY2C6xJxq8?g_st=ipc","address":"Dim. Gounari 5, Thessaloniki 546 22","categoryIds":["vegetarian"],"categories":["Vegetarian Friendly Restaurants"],"distanceKm":0.24898578193056362},{"id":"dessertsRestaurants_28a0c1dca6b8","slug":"trigona-elenidi-28a0","kind":"restaurant","name":"Trigona Elenidi","lat":40.62886737433407,"lng":22.948457330769024,"url":"https://maps.app.goo.gl/CrarZvo5GUHnGW4C7?g_st=ipc","address":"Dim. Gounari 13, Thessaloniki 546 22","categoryIds":["desserts"],"categories":["Dessert Shops"],"distanceKm":0.25667635789157806},{"id":"greekRestaurants_9ca9bccdb731","slug":"diagonios-1977-9ca9","kind":"restaurant","name":"Διαγώνιος 1977","lat":40.628424051093205,"lng":22.94777702854618,"url":"https://maps.app.goo.gl/NGT8FMWUaiPpBxYGA?g_st=ipc","address":"Πλ. Φαναριωτῶν 2, Θεσσαλονίκη 546 22","categoryIds":["greek-restaurants"],"categories":["Greek Restaurants"],"distanceKm":0.26180236807224133},{"id":"fishTavernasRestaurants_d45de4d8396f","slug":"marea-sea-spirit-d45d","kind":"restaurant","name":"MAREA sea spirit","lat":40.628341964657956,"lng":22.947576121389986,"url":"https://maps.app.goo.gl/Ck1Kd1PfuHwFhziJ6?g_st=ipc","address":"Margariti Lori 13, Thessaloniki 546 22","categoryIds":["fish-tavernas"],"categories":["Fish Tavernas"],"distanceKm":0.27037695228714803},{"id":"coffeeBrunchRestaurants_459993a6b6f4","slug":"join-juice-bars-4599","kind":"restaurant","name":"JOIN juice bars","lat":40.62769069211422,"lng":22.947117280367095,"url":"https://maps.app.goo.gl/7fKny43wd3q96T1s5?g_st=ipc","address":"Leof. Nikis 73, Thessaloniki 546 22","categoryIds":["coffee-brunch","vegetarian"],"categories":["Coffee & Brunch Spots","Vegetarian Friendly Restaurants"],"legacySlugs":["join-juice-bars-c6f3"],"distanceKm":0.2752390371988127},{"id":"coffeeBrunchRestaurants_47c3c430cfa2","slug":"in-house-project-47c3","kind":"restaurant","name":"In House Project","lat":40.62870471135404,"lng":22.947776924849798,"url":"https://maps.app.goo.gl/9KxXxviA2D5JhcSW7?g_st=ipc","address":"Mitropoleos 96, Thessaloniki 546 22","categoryIds":["coffee-brunch"],"categories":["Coffee & Brunch Spots"],"distanceKm":0.2817489448136973},{"id":"greekRestaurants_5db983812e0a","slug":"to-elliniko-5db9","kind":"restaurant","name":"Το Ελληνικό","lat":40.62835209292357,"lng":22.947350658434885,"url":"https://maps.app.goo.gl/xnCJBuGfhotgXpup6?g_st=ipc","address":"Στρ. Καλλάρη 9, Θεσσαλονίκη 546 22","categoryIds":["greek-restaurants"],"categories":["Greek Restaurants"],"distanceKm":0.2870369611648768},{"id":"greekRestaurants_e2d4737d2e6a","slug":"deka-trapezia-e2d4","kind":"restaurant","name":"Δέκα Τραπέζια","lat":40.62814201457264,"lng":22.946897711090458,"url":"https://maps.app.goo.gl/rmRGahPcj5NACQVp9?g_st=ipc","address":"Στρ. Καλλάρη 4, Θεσσαλονίκη 546 22","categoryIds":["greek-restaurants"],"categories":["Greek Restaurants"],"distanceKm":0.3099912498813207}],"sameRegion":[],"mentionedGuides":[],"canonicalSlug":"kafeneion-giasemi-0288","enrichment":{"summary_en":"Καφενείον Γιασεμί is a curated restaurant in Θεσσαλονίκη 546 21 in the Greek Restaurants collection. It is connected to 102 nearby Googlementor picks to help travelers build a stronger local route.","summary_el":"Καφενείον Γιασεμί είναι ένα επιλεγμένο σημείο φαγητού στην περιοχή Θεσσαλονίκη 546 21 και ανήκει στη συλλογή Greek Restaurants. Συνδέεται με 102 κοντινές προτάσεις του Googlementor για πιο ολοκληρωμένη εμπειρία.","vibe_tags":["curated"],"best_for":["first-time visitors","food lovers"],"visit_moments":["lunch stop","dinner stop"],"practical_note":"Address and direct map link are available for easy turn-by-turn access.","nearby_walkable_count":102,"nearby_count_2km":271,"confidence":0.98},"areaContext":{"slug":"triandria","name":"Triandria","nameEl":"Τριανδρία"},"intentContexts":[{"href":"/greek-restaurants/triandria","label":"Greek Restaurants in Triandria","categorySlug":"greek-restaurants","categoryName":"Greek Restaurants","areaSlug":"triandria","areaName":"Triandria","areaNameEl":"Τριανδρία"}]},"__N_SSG":true}