{"pageProps":{"entity":{"id":"familyFriendly_81e1faa2d7f2","slug":"kafe-nuestro-sueno-81e1","kind":"restaurant","name":"καφέ Nuestro sueno","lat":37.996802341238464,"lng":23.81194934538021,"url":"https://maps.app.goo.gl/VTAxttodcrh81J5E9?g_st=ipc","address":"Καραολή και Δημητρίου, Χολαργός 153 41","categoryIds":["family-friendly"],"categories":["Kid Friendly Locations"]},"sameCategory":[{"id":"coffeeBrunchRestaurants_f3a3be0d750a","slug":"alsos-cholargou-alsos-cholargoy-f3a3","kind":"restaurant","name":"Alsos Cholargou / Άλσος Χολαργού","lat":37.99731205193856,"lng":23.801346586633024,"url":"https://maps.app.goo.gl/9NgrgwXAtnAhzyQM7?g_st=ipc","address":"Ευριπίδου 1, Χολαργός 155 62","categoryIds":["coffee-brunch","family-friendly"],"categories":["Coffee & Brunch Spots","Kid Friendly Locations"],"legacySlugs":["alsos-cholargou-alsos-cholargoy-af91"]},{"id":"familyFriendly_7679184c0c6a","slug":"alsos-papagoy-7679","kind":"restaurant","name":"Άλσος Παπάγου","lat":37.99340202683861,"lng":23.794076076253262,"url":"https://maps.app.goo.gl/rJbRGPSSoVw8phSo6?g_st=ipc","address":"Κορυτσάς 31, Παπάγου 156 69","categoryIds":["family-friendly"],"categories":["Kid Friendly Locations"]},{"id":"coffeeBrunchRestaurants_273a7e7d2a9d","slug":"piu-verde-273a","kind":"restaurant","name":"Piu Verde","lat":37.993592134048,"lng":23.792630644928746,"url":"https://maps.app.goo.gl/uttCEc9rHvmfUF3c7?g_st=ipc","address":"Στρατ, Αλ. Παπάγου, Παπάγου 156 69","categoryIds":["coffee-brunch","family-friendly"],"categories":["Coffee & Brunch Spots","Kid Friendly Locations"],"legacySlugs":["piu-verde-840f"]},{"id":"familyFriendly_3a0b8382227c","slug":"kidtopia-3a0b","kind":"restaurant","name":"KIDTOPIA","lat":38.01289484430431,"lng":23.811355038875934,"url":"https://maps.app.goo.gl/hbL95STxeVAMj8X58?g_st=ic","address":"Erifilis 31, Chalandri 152 32","categoryIds":["family-friendly"],"categories":["Kid Friendly Locations"]},{"id":"familyFriendly_c4b368df83c1","slug":"oikogeneiako-parko-perivallontikis-eyaisthitopoiisis-c4b3","kind":"restaurant","name":"Οικογενειακό Πάρκο Περιβαλλοντικής Ευαισθητοποίησης","lat":37.99329104933058,"lng":23.791786076511723,"url":"https://maps.app.goo.gl/ah7MLHXrkbxTWacS8?g_st=ipc","address":"Λεωφ. Παπάγου, Παπάγου 156 69","categoryIds":["family-friendly"],"categories":["Kid Friendly Locations"]},{"id":"familyFriendly_006b710ec86a","slug":"ktima-aristi-006b","kind":"restaurant","name":"ΚΤΗΜΑ ΑΡΙΣΤΗ","lat":38.01987728596246,"lng":23.81566062458868,"url":"https://maps.app.goo.gl/82avq8dPqN3VZq7W7?g_st=ipc","address":"Πλουτάρχου 10, Χαλάνδρι 152 34","categoryIds":["family-friendly"],"categories":["Kid Friendly Locations"]},{"id":"familyFriendly_8c5536516bb1","slug":"theatraki-8c55","kind":"restaurant","name":"Theatraki","lat":38.02225032968998,"lng":23.814351171164784,"url":"https://maps.app.goo.gl/jauuVyHDGdr1MR746?g_st=ic","address":"Iraklidon 31, Chalandri 152 34","categoryIds":["family-friendly"],"categories":["Kid Friendly Locations"]},{"id":"familyFriendly_3f48a5ea582b","slug":"gymboree-play-music-neo-psychiko-3f48","kind":"restaurant","name":"Gymboree Play & Music ΝΕΟ Ψυχικό","lat":38.00040956605857,"lng":23.77746842451767,"url":"https://maps.app.goo.gl/YhbenTKqVr5zHZrSA?g_st=ipc","address":"Γρ. Ξενόπουλου 3Α, Νέο Ψυχικό 154 51","categoryIds":["family-friendly"],"categories":["Kid Friendly Locations"]},{"id":"familyFriendly_b5558184750b","slug":"metalinou-playground-b555","kind":"restaurant","name":"Metalinou Playground","lat":38.011973755180826,"lng":23.77490238579276,"url":"https://maps.app.goo.gl/g4fD4H23t9pWgjgeA?g_st=ic","address":"Al. Papanastasiou 51, Psichiko 154 52","categoryIds":["family-friendly"],"categories":["Kid Friendly Locations"]},{"id":"familyFriendly_bdbc58481ced","slug":"enydreio-xplore-oceans-bdbc","kind":"restaurant","name":"Ενυδρείο XPLORE Oceans","lat":38.03457407087024,"lng":23.791982125171685,"url":"https://maps.app.goo.gl/qibAD4W4gNvVSf698?g_st=ipc","address":"Αγησιλάου, Μαρούσι 151 23","categoryIds":["family-friendly"],"categories":["Kid Friendly Locations"]},{"id":"familyFriendly_714cd57583c7","slug":"xplore-714c","kind":"restaurant","name":"XPLORE","lat":38.034636437257035,"lng":23.79103363842638,"url":"https://maps.app.goo.gl/TKKhEa5LN1Dy53v36?g_st=ipc","address":"Λεωφ. Κηφισίας 37Α, Μαρούσι 151 23","categoryIds":["family-friendly"],"categories":["Kid Friendly Locations"]},{"id":"familyFriendly_cd77fb44ab16","slug":"parko-makedonias-cd77","kind":"restaurant","name":"Πάρκο Μακεδονίας","lat":38.028321368571035,"lng":23.775138311849886,"url":"https://maps.app.goo.gl/XSK7TXJhDYgZz5qh7?g_st=ic","address":"Μακεδονίας, Louki Akrita &, Filothei 152 37","categoryIds":["family-friendly"],"categories":["Kid Friendly Locations"]}],"nearby":[{"id":"cheapEatsRestaurants_4972a0c1f005","slug":"o-fotis-4972","kind":"restaurant","name":"Ο ΦΩΤΗΣ","lat":37.997971184116544,"lng":23.807075270455382,"url":"https://maps.app.goo.gl/AtknvuaCHijVG2ha8?g_st=ipc","address":"17ης Νοεμβρίου 122, Χολαργός 155 62","categoryIds":["cheap-eats"],"categories":["Gyros & Cheap Eats"],"distanceKm":0.4464330185663349},{"id":"greekRestaurants_d99e659b75b8","slug":"melydron-d99e","kind":"restaurant","name":"ΜΕΛΥΔΡΟΝ","lat":37.99974475346684,"lng":23.816882406708455,"url":"https://maps.app.goo.gl/5M5MsFCweGzbhN1y7?g_st=ipc","address":"Πατριάρχου Γρηγορίου Ε 32, Αγ. Παρασκευή 153 41","categoryIds":["greek-restaurants"],"categories":["Greek Restaurants"],"distanceKm":0.5421211036692442},{"id":"greekRestaurants_7b449c4e0fce","slug":"ta-platania-7b44","kind":"restaurant","name":"Τα Πλατάνια","lat":38.00304382571398,"lng":23.81401749329889,"url":"https://maps.app.goo.gl/7XNFATTa6teFNs8r9?g_st=ipc","address":"Μπουμπουλίνας 31, Αγ. Παρασκευή 153 41","categoryIds":["greek-restaurants"],"categories":["Greek Restaurants"],"distanceKm":0.7172902840377757},{"id":"coffeeBrunchRestaurants_f3a3be0d750a","slug":"alsos-cholargou-alsos-cholargoy-f3a3","kind":"restaurant","name":"Alsos Cholargou / Άλσος Χολαργού","lat":37.99731205193856,"lng":23.801346586633024,"url":"https://maps.app.goo.gl/9NgrgwXAtnAhzyQM7?g_st=ipc","address":"Ευριπίδου 1, Χολαργός 155 62","categoryIds":["coffee-brunch","family-friendly"],"categories":["Coffee & Brunch Spots","Kid Friendly Locations"],"legacySlugs":["alsos-cholargou-alsos-cholargoy-af91"],"distanceKm":0.9308078182592647},{"id":"greekRestaurants_444a91b0d47e","slug":"palia-istoria-444a","kind":"restaurant","name":"Palia Istoria","lat":38.00382710735469,"lng":23.80429280671415,"url":"https://maps.app.goo.gl/B17edct7kP9fC5KM6?g_st=ipc","address":"Αμφίσσης 34, Χολαργός 155 62","categoryIds":["greek-restaurants"],"categories":["Greek Restaurants"],"distanceKm":1.0296755993679987},{"id":"coffeeBrunchRestaurants_1fbd5adec6bb","slug":"olivia-s-brother-1fbd","kind":"restaurant","name":"Olivia’s Brother","lat":37.99842910582675,"lng":23.799666763449746,"url":"https://maps.app.goo.gl/j4jHouWVFDNbqaBK6?g_st=ipc","address":"Leof. Perikleous, Κεραμεικού 4, Χολαργός 155 61","categoryIds":["coffee-brunch"],"categories":["Coffee & Brunch Spots"],"distanceKm":1.091364197938976},{"id":"municipalities_261961302eff","slug":"papagoy-cholargos-2619","kind":"municipality","name":"Παπάγου - Χολαργός","lat":38,"lng":23.8,"region":"Βόρεια Προάστια","name_en":"Papagou - Cholargos","region_en":"Northern Suburbs","distanceKm":1.1057828008216102},{"id":"dessertsRestaurants_a4d470fd6efd","slug":"dix-sept-a4d4","kind":"restaurant","name":"Dix Sept","lat":37.99369642530963,"lng":23.799524104459625,"url":"https://maps.app.goo.gl/UywSucCQ3HFw2LJ1A?g_st=ipc","address":"25is Martiou 17, Cholargos 155 61","categoryIds":["desserts"],"categories":["Dessert Shops"],"distanceKm":1.1422657659888522},{"id":"cheapEatsRestaurants_33f4e7b2d02a","slug":"dix-sept-33f4","kind":"restaurant","name":"Dix Sept","lat":37.99369686292994,"lng":23.79952330912713,"url":"https://maps.app.goo.gl/LQP8izqcwdktGcwX6?g_st=ipc","address":"25ης Μαρτίου 17, Χολαργός 155 61","categoryIds":["cheap-eats"],"categories":["Gyros & Cheap Eats"],"distanceKm":1.142317484197754},{"id":"cheapEatsRestaurants_9a8ccf003ba5","slug":"spitiki-koyzina-cholargos-9a8c","kind":"restaurant","name":"Σπιτική Κουζίνα - Χολαργός","lat":37.99895841021995,"lng":23.798536677313294,"url":"https://maps.app.goo.gl/KtAC7AzUgjd3Jmuk8?g_st=ipc","address":"Λεωφ. Περικλέους 50, Χολαργός 155 61","categoryIds":["cheap-eats"],"categories":["Gyros & Cheap Eats"],"distanceKm":1.1994925979749287},{"id":"cheapEatsRestaurants_69bbfb44507d","slug":"papigko-69bb","kind":"restaurant","name":"Πάπιγκο","lat":37.9930301423727,"lng":23.798961270934143,"url":"https://maps.app.goo.gl/7eU14tbuLV6n9imX7?g_st=ipc","address":"25ης Μαρτίου 9, Χολαργός 155 61","categoryIds":["cheap-eats"],"categories":["Gyros & Cheap Eats"],"distanceKm":1.212962645565709},{"id":"burgersRestaurants_2779a1763d04","slug":"juicy-grill-athens-2779","kind":"restaurant","name":"Juicy Grill Athens","lat":37.999820550809126,"lng":23.797970198704302,"url":"https://maps.app.goo.gl/KoWkVLRYW6WDrfte9?g_st=ipc","address":"Λεωφ. Περικλέους 37, Χολαργός 155 61","categoryIds":["burgers"],"categories":["Burger Spots"],"distanceKm":1.270064235271349},{"id":"coffeeBrunchRestaurants_9c4fad0bdb87","slug":"opus-coffee-and-more-9c4f","kind":"restaurant","name":"Opus coffee and more","lat":38.001260916187285,"lng":23.825716095768566,"url":"https://maps.app.goo.gl/ZsSXep3FZfHkFyPYA?g_st=ipc","address":"Αιγαίου Πελάγους, Γραβιάς και, Αγ. Παρασκευή 153 42","categoryIds":["coffee-brunch"],"categories":["Coffee & Brunch Spots"],"distanceKm":1.3042014901672354},{"id":"coffeeBrunchRestaurants_8ebbeeadfb00","slug":"jerry-s-8ebb","kind":"restaurant","name":"JERRY’S","lat":37.99081436071943,"lng":23.798622930452883,"url":"https://maps.app.goo.gl/s7TjtfQj1q9s9Tnk8?g_st=ipc","address":"Εθ. Αμύνης 27, Παπάγου 156 69","categoryIds":["coffee-brunch","vegetarian"],"categories":["Coffee & Brunch Spots","Vegetarian Friendly Restaurants"],"legacySlugs":["jerry-s-4010"],"distanceKm":1.3442774828585458},{"id":"cheapEatsRestaurants_b8837f726b0e","slug":"avraam-cholargos-b883","kind":"restaurant","name":"Αβραάμ Χολαργός","lat":37.99365661341766,"lng":23.796975079778093,"url":"https://maps.app.goo.gl/njaacvURe6u87qaX6?g_st=ipc","address":"Αναστάσεως 111, Χολαργός 155 61","categoryIds":["cheap-eats"],"categories":["Gyros & Cheap Eats"],"distanceKm":1.3579943745052987},{"id":"italianRestaurants_9e93d0527186","slug":"casareccio-trattoria-pizzeria-9e93","kind":"restaurant","name":"Casareccio trattoria pizzeria","lat":37.995258640416544,"lng":23.796024502616564,"url":"https://maps.app.goo.gl/f357srheHFN2PfBk6?g_st=ipc","address":"Ξανθίππου 84, Χολαργός 155 61","categoryIds":["italian"],"categories":["Italian Restaurants"],"distanceKm":1.4059724094185022},{"id":"greekRestaurants_f89c37a413b6","slug":"taverna-o-morias-f89c","kind":"restaurant","name":"Ταβέρνα Ο ΜΩΡΙΑΣ","lat":38.00860400302697,"lng":23.81934480669425,"url":"https://maps.app.goo.gl/bRVKBMdQ27pSumbD9?g_st=ipc","address":"Ειρήνης 56, Αγ. Παρασκευή 153 41","categoryIds":["greek-restaurants"],"categories":["Greek Restaurants"],"distanceKm":1.463550140464709},{"id":"coffeeBrunchRestaurants_3e3ae547e829","slug":"hidden-cholargos-3e3a","kind":"restaurant","name":"Hidden Χολαργός","lat":38.00530967929583,"lng":23.799191777899182,"url":"https://maps.app.goo.gl/NV3sFCcDPqZUeRzWA?g_st=ipc","address":"Πυθαγόρα, Χίου 6, Χολαργός 155 62","categoryIds":["coffee-brunch"],"categories":["Coffee & Brunch Spots"],"distanceKm":1.4643857498760058},{"id":"greekRestaurants_8e94a0e9697c","slug":"to-steki-tis-tompra-8e94","kind":"restaurant","name":"Το στέκι της Τόμπρα","lat":38.01114194965107,"lng":23.812150664429954,"url":"https://maps.app.goo.gl/nzMoaK1cxHPd4BAQA?g_st=ipc","address":"Ηπείρου 5-7, Αγ. Παρασκευή 153 41","categoryIds":["greek-restaurants"],"categories":["Greek Restaurants"],"distanceKm":1.5945892699504804},{"id":"familyFriendly_7679184c0c6a","slug":"alsos-papagoy-7679","kind":"restaurant","name":"Άλσος Παπάγου","lat":37.99340202683861,"lng":23.794076076253262,"url":"https://maps.app.goo.gl/rJbRGPSSoVw8phSo6?g_st=ipc","address":"Κορυτσάς 31, Παπάγου 156 69","categoryIds":["family-friendly"],"categories":["Kid Friendly Locations"],"distanceKm":1.6112023481447193},{"id":"greekRestaurants_8119dfa50c2c","slug":"koykoynari-8119","kind":"restaurant","name":"Κουκουνάρι","lat":38.00642992366494,"lng":23.79814620669878,"url":"https://maps.app.goo.gl/BiMbFyaSNWwLRETTA?g_st=ipc","address":"Λεωφ. Μεσογείων 262, Χολαργός 155 62","categoryIds":["greek-restaurants"],"categories":["Greek Restaurants"],"distanceKm":1.6151794331495772},{"id":"greekRestaurants_8c8e269305b0","slug":"nison-gi-8c8e","kind":"restaurant","name":"Νήσων Γη","lat":38.011331255497275,"lng":23.81122856443911,"url":"https://maps.app.goo.gl/wmEbsZ59WvGe41oB6?g_st=ipc","address":"Λεωφ. Μεσογείων 356, Αγ. Παρασκευή 153 41","categoryIds":["greek-restaurants"],"categories":["Greek Restaurants"],"distanceKm":1.6167754516353008},{"id":"mexicanRestaurants_5d84c532c46f","slug":"chilangos-5d84","kind":"restaurant","name":"Chilangos","lat":38.00604580624182,"lng":23.797688301604907,"url":"https://maps.app.goo.gl/fUBeVjsmrzYg9wt59?g_st=ipc","address":"Λεωφ. Μεσογείων 258, Χολαργός 155 61","categoryIds":["mexican"],"categories":["Mexican Restaurants"],"distanceKm":1.6179765255836358},{"id":"italianRestaurants_cc723f5b71ae","slug":"aperio-cucina-vino-cc72","kind":"restaurant","name":"Aperio cucina & vino","lat":38.00607265187326,"lng":23.797703238142986,"url":"https://maps.app.goo.gl/GkHg15eafgAV4fou5?g_st=ipc","address":"Μεσογείων 258, Χολαργός 155 61","categoryIds":["italian"],"categories":["Italian Restaurants"],"distanceKm":1.6188649283137546}],"sameRegion":[],"mentionedGuides":[],"canonicalSlug":"kafe-nuestro-sueno-81e1","enrichment":{"summary_en":"καφέ Nuestro sueno is a curated restaurant in Χολαργός 153 41 in the Kid Friendly Locations collection. It is connected to 3 nearby Googlementor picks to help travelers build a stronger local route.","summary_el":"καφέ Nuestro sueno είναι ένα επιλεγμένο σημείο φαγητού στην περιοχή Χολαργός 153 41 και ανήκει στη συλλογή Kid Friendly Locations. Συνδέεται με 3 κοντινές προτάσεις του Googlementor για πιο ολοκληρωμένη εμπειρία.","vibe_tags":["curated","family-ready"],"best_for":["first-time visitors","food lovers","families"],"visit_moments":["lunch stop","dinner stop"],"practical_note":"Address and direct map link are available for easy turn-by-turn access.","nearby_walkable_count":3,"nearby_count_2km":48,"confidence":0.9},"areaContext":{"slug":"papagoy-cholargos","name":"Papagou - Cholargos","nameEl":"Παπάγου - Χολαργός"},"intentContexts":[{"href":"/family-friendly/papagoy-cholargos","label":"Kid Friendly Locations in Papagou - Cholargos","categorySlug":"family-friendly","categoryName":"Kid Friendly Locations","areaSlug":"papagoy-cholargos","areaName":"Papagou - Cholargos","areaNameEl":"Παπάγου - Χολαργός"}]},"__N_SSG":true}