{"pageProps":{"entity":{"id":"mustSeeAttractions_31e331c60661","slug":"kerameikos-archaeological-site-31e3","kind":"restaurant","name":"Kerameikos Archaeological Site","lat":37.97803082106626,"lng":23.717271800112048,"url":"https://maps.app.goo.gl/21oaLw9mApwFReVy7?g_st=ipc","address":"Ermou 148, Athina 105 53","categoryIds":["attractions"],"categories":["Must-See Attractions"]},"sameCategory":[{"id":"mustSeeAttractions_6f694258a5ea","slug":"thiseio-6f69","kind":"restaurant","name":"Θησείο","lat":37.97501242037082,"lng":23.717080869886306,"url":"https://maps.app.goo.gl/i7GUzZ6ceEZCukDC6?g_st=ipc","address":"Αθήνα 118 51","categoryIds":["attractions"],"categories":["Must-See Attractions"]},{"id":"mustSeeAttractions_f836a18a6282","slug":"naos-toy-ifaistoy-f836","kind":"restaurant","name":"Ναός του Ηφαίστου","lat":37.9755941105574,"lng":23.721451459878914,"url":"https://maps.app.goo.gl/auHh3GwXgN8RTikx6?g_st=ipc","address":"Αθήνα 105 55","categoryIds":["attractions"],"categories":["Must-See Attractions"]},{"id":"mustSeeAttractions_fa2e6a808026","slug":"archaia-agora-athinon-fa2e","kind":"restaurant","name":"Αρχαία Αγορά Αθηνών","lat":37.97489898202124,"lng":23.722093444133804,"url":"https://maps.app.goo.gl/ofAbPpuVbSmGyHGy7?g_st=ipc","address":"Αθήνα 105 55","categoryIds":["attractions"],"categories":["Must-See Attractions"]},{"id":"mustSeeAttractions_1d05d319a6bb","slug":"psyrri-1d05","kind":"restaurant","name":"Ψυρρή","lat":37.9780643555903,"lng":23.723930742700833,"url":"https://maps.app.goo.gl/JcpJbaRT1V7eBHEa9?g_st=ipc","address":"Αθήνα 105 54","categoryIds":["attractions"],"categories":["Must-See Attractions"]},{"id":"familyFriendly_a550b3686c2d","slug":"ethniko-asteroskopeio-athinon-kentro-episkepton-thiseioy-a550","kind":"restaurant","name":"Εθνικό Αστεροσκοπείο Αθηνών - Κέντρο Επισκεπτών Θησείου","lat":37.97274718818258,"lng":23.717946612728728,"url":"https://maps.app.goo.gl/hbZeHeJkN4GXh5tc6?g_st=ipc","address":"Λόφος Νυμφών Θησείο, ΤΘ 20048, Αθήνα 118 10","categoryIds":["family-friendly","attractions"],"categories":["Kid Friendly Locations","Must-See Attractions"],"legacySlugs":["ethniko-asteroskopeio-athinon-kentro-episkepton-thiseioy-26d3"]},{"id":"mustSeeAttractions_b999049b5fec","slug":"roman-basilica-b999","kind":"restaurant","name":"Roman Basilica","lat":37.97583750461877,"lng":23.723867490000497,"url":"https://maps.app.goo.gl/ij6x92mGVau3FvST9?g_st=ipc","address":"Αδριανού 27, Αθήνα 105 55","categoryIds":["attractions"],"categories":["Must-See Attractions"]},{"id":"mustSeeAttractions_241beda98c80","slug":"plateia-monastirakioy-241b","kind":"restaurant","name":"Πλατεία Μοναστηρακίου","lat":37.97640816584317,"lng":23.725886410870196,"url":"https://maps.app.goo.gl/BWatUxUvLvu5LHMP9?g_st=ipc","address":"Απόλλωνος 21, Αθήνα 105 57","categoryIds":["attractions"],"categories":["Must-See Attractions"]},{"id":"mustSeeAttractions_4878dd7452cc","slug":"vivliothiki-toy-adrianoy-4878","kind":"restaurant","name":"Βιβλιοθήκη του Αδριανού","lat":37.975502314737916,"lng":23.726030220996723,"url":"https://maps.app.goo.gl/Mr5MTi9dXGy4Y8Gt5?g_st=ipc","address":"Κ, Άρεως 3, Τ, Αθήνα 105 55","categoryIds":["attractions"],"categories":["Must-See Attractions"]},{"id":"mustSeeAttractions_4e551e61d3d7","slug":"gate-of-athena-archegetis-4e55","kind":"restaurant","name":"Gate of Athena Archegetis","lat":37.974568649716346,"lng":23.725518029561396,"url":"https://maps.app.goo.gl/DQtGJPqpneygKtHk7?g_st=ipc","address":"Διοσκούρων, Epaminonda &, Athina 105 55","categoryIds":["attractions"],"categories":["Must-See Attractions"]},{"id":"mustSeeAttractions_c2101de8cfd4","slug":"romaiki-agora-athinon-c210","kind":"restaurant","name":"Ρωμαϊκή Αγορά Αθηνών","lat":37.974304073145795,"lng":23.72610046442621,"url":"https://maps.app.goo.gl/ix2gNhhwsMZiBHES8?g_st=ipc","address":"Πολυγνώτου 3, Αθήνα 105 55","categoryIds":["attractions"],"categories":["Must-See Attractions"]},{"id":"mustSeeAttractions_2a618ba12cb4","slug":"aerides-2a61","kind":"restaurant","name":"Αέρηδες","lat":37.97449623338425,"lng":23.727043202053398,"url":"https://maps.app.goo.gl/djGFTxoDCCB83eyN6?g_st=ipc","address":"Αθήνα 105 55","categoryIds":["attractions"],"categories":["Must-See Attractions"]},{"id":"mustSeeAttractions_bf865dc1bff4","slug":"prison-of-socrates-bf86","kind":"restaurant","name":"Prison of Socrates","lat":37.96945283540711,"lng":23.72099752982901,"url":"https://maps.app.goo.gl/431NuRe11zxrUqR89?g_st=ipc","address":"43, Rovertou Galli 39, Athina 117 41","categoryIds":["attractions"],"categories":["Must-See Attractions"]}],"nearby":[{"id":"greekRestaurants_e9caa161f872","slug":"to-steki-toy-ilia-e9ca","kind":"restaurant","name":"Το Στέκι του Ηλία","lat":37.977110249497095,"lng":23.715901670048872,"url":"https://maps.app.goo.gl/wSbCCiegqHvWj8KcA","address":"Θεσσαλονίκης 7, Αθήνα 118 51","categoryIds":["greek-restaurants"],"categories":["Greek Restaurants"],"distanceKm":0.15779762533070965},{"id":"greekRestaurants_7a0990462c96","slug":"to-steki-toy-ilia-7a09","kind":"restaurant","name":"Το Στέκι Του Ηλία","lat":37.97686050854808,"lng":23.718458701649066,"url":"https://maps.app.goo.gl/1XoTtwx2q6EitZZi8","address":"Επταχάλκου 5, Αθήνα 118 51","categoryIds":["greek-restaurants"],"categories":["Greek Restaurants"],"distanceKm":0.16660469819624796},{"id":"municipalities_af1f7d07cb18","slug":"gkazi-af1f","kind":"municipality","name":"Γκάζι","lat":37.9785,"lng":23.7144,"aliases":["Gkazi"],"region":"Κέντρο Αθήνας","name_en":"Gazi","region_en":"Athens Center","distanceKm":0.25705938123848665},{"id":"cheapEatsRestaurants_9273dc402e3b","slug":"piccola-9273","kind":"restaurant","name":"Piccola","lat":37.980127892484575,"lng":23.715865229557284,"url":"https://maps.app.goo.gl/MuZFA3dXT4LnZFtL7?g_st=ipc","address":"Keramikou 111, Athina 104 35","categoryIds":["cheap-eats"],"categories":["Gyros & Cheap Eats"],"distanceKm":0.26376748768927366},{"id":"burgersRestaurants_6bb98587ed95","slug":"four-hands-6bb9","kind":"restaurant","name":"Four Hands","lat":37.98010264048048,"lng":23.71572330295299,"url":"https://maps.app.goo.gl/ppbxAjV7hVEDbZiV7?g_st=ipc","address":"Κεραμεικού 111, Αθήνα 104 35","categoryIds":["burgers"],"categories":["Burger Spots"],"distanceKm":0.26738282645755984},{"id":"greekRestaurants_79d853816a19","slug":"rakor-79d8","kind":"restaurant","name":"Rakor","lat":37.98047740550758,"lng":23.717062587155947,"url":"https://maps.app.goo.gl/eVrzxTMuCzQvAE596","address":"Πλαταιών 10, Αθήνα 104 35","categoryIds":["greek-restaurants"],"categories":["Greek Restaurants"],"distanceKm":0.27266506769703935},{"id":"luxuryDiningRestaurants_a27bfcd50aac","slug":"ctc-urban-gastronomy-a27b","kind":"restaurant","name":"CTC Urban Gastronomy","lat":37.98049469537203,"lng":23.71689046945663,"url":"https://maps.app.goo.gl/GpnAhWfdMHLu7ZMPA?g_st=ipc","address":"Πλαταιών 15, Αθήνα 104 35","categoryIds":["luxury-dining"],"categories":["Luxury Dining"],"distanceKm":0.2760014763272765},{"id":"vegetarianRestaurants_92b90dbde5a4","slug":"veganistan-92b9","kind":"restaurant","name":"Veganistan","lat":37.980551028763045,"lng":23.716428370276027,"url":"https://maps.app.goo.gl/hviT1v1LXcBDpknS6?g_st=ipc","address":"Κεραμεικού 101, Αθήνα 104 35","categoryIds":["vegetarian"],"categories":["Vegetarian Friendly Restaurants"],"distanceKm":0.28982081897733347},{"id":"burgersRestaurants_cc99e8bcfb01","slug":"ortsag-nextgen-street-resto-cc99","kind":"restaurant","name":"ORTSAG - NextGen Street Resto","lat":37.980720186478266,"lng":23.716880146435926,"url":"https://maps.app.goo.gl/Ty754KFyBeh5iYD99?g_st=ipc","address":"Κεραμεικού 93-95, Αθήνα 104 35","categoryIds":["burgers"],"categories":["Burger Spots"],"distanceKm":0.3010075768243942},{"id":"mustSeeAttractions_6f694258a5ea","slug":"thiseio-6f69","kind":"restaurant","name":"Θησείο","lat":37.97501242037082,"lng":23.717080869886306,"url":"https://maps.app.goo.gl/i7GUzZ6ceEZCukDC6?g_st=ipc","address":"Αθήνα 118 51","categoryIds":["attractions"],"categories":["Must-See Attractions"],"distanceKm":0.33604780931714656},{"id":"coffeeBrunchRestaurants_427065b8cb6b","slug":"okupa-kitchen-listening-bar-4270","kind":"restaurant","name":"Okupa Kitchen & Listening Bar","lat":37.979629344397615,"lng":23.720723846557707,"url":"https://maps.app.goo.gl/qmz7mBRbaa6QhTDd8?g_st=ipc","address":"Σαμουήλ Καλογήρου 3, Αθήνα 105 53","categoryIds":["coffee-brunch"],"categories":["Coffee & Brunch Spots"],"distanceKm":0.3509130644639485},{"id":"coffeeBrunchRestaurants_2452f7594f0b","slug":"minu-2452","kind":"restaurant","name":"Minu","lat":37.97817591370217,"lng":23.721282309779998,"url":"https://maps.app.goo.gl/1aZiacmQUVysdZ976?g_st=ipc","address":"Σαρρή 50, Αθήνα 105 53","categoryIds":["coffee-brunch"],"categories":["Coffee & Brunch Spots"],"distanceKm":0.3518870242469256},{"id":"greekRestaurants_1b0710fd0635","slug":"loyis-kafeneio-1b07","kind":"restaurant","name":"Λούης καφενείο","lat":37.98085946462118,"lng":23.71532632472864,"url":"https://maps.app.goo.gl/HykcqWbVLkwR9HqJ7","address":"Λεωνίδου 87, Αθήνα 104 35","categoryIds":["greek-restaurants"],"categories":["Greek Restaurants"],"distanceKm":0.3577782249652283},{"id":"luxuryDiningRestaurants_c1adda39b182","slug":"sta-kala-kathoymena-c1ad","kind":"restaurant","name":"Στα Καλά Καθούμενα","lat":37.97981343858823,"lng":23.713855292153,"url":"https://maps.app.goo.gl/kdwd63rguvb581o36?g_st=ipc","address":"Ιερά Οδός 25-27-29, Ιερά Οδός 29, Αθήνα 118 54","categoryIds":["luxury-dining"],"categories":["Luxury Dining"],"distanceKm":0.35911097598126035},{"id":"greekRestaurants_ab98629e5118","slug":"cinapos-ab98","kind":"restaurant","name":"Cinapos","lat":37.975037080566636,"lng":23.71898004749624,"url":"https://maps.app.goo.gl/Ryj3tMNNp7RWvUcs6","address":"Ηρακλειδών 10, Αθήνα 118 51","categoryIds":["greek-restaurants"],"categories":["Greek Restaurants"],"distanceKm":0.3650120356160625},{"id":"cheapEatsRestaurants_9ef22bd13da7","slug":"gyristroyla-9ef2","kind":"restaurant","name":"Γυριστρούλα","lat":37.97711548768267,"lng":23.72128560665997,"url":"https://maps.app.goo.gl/rUqbZBRjNZ4twFu59?g_st=ipc","address":"Square (across from \"Thissio\" ISAP station, Αγίων Ασωμάτων 9, Αθήνα 105 54","categoryIds":["cheap-eats"],"categories":["Gyros & Cheap Eats"],"distanceKm":0.36623553576511964},{"id":"coffeeBrunchRestaurants_7d6f8bb1e944","slug":"cat-cafe-athens-7-pers-allowed-age-14-7d6f","kind":"restaurant","name":"Cat Cafe Athens (7€/pers, Allowed Age 14+)","lat":37.97535368517015,"lng":23.71475955469486,"url":"https://maps.app.goo.gl/QcdxYRurM98VpWWX7?g_st=ipc","address":"Νηλέως 54, Αθήνα 118 51","categoryIds":["coffee-brunch"],"categories":["Coffee & Brunch Spots"],"distanceKm":0.37027520222848054},{"id":"asianRestaurants_f31c7fe7455a","slug":"168-bar-f31c","kind":"restaurant","name":"168 Bar","lat":37.97952828529781,"lng":23.72107861467235,"url":"https://maps.app.goo.gl/kfZE6p7Ddwomz7Zd9?g_st=ipc","address":"Διπύλου 6, Αθήνα 105 53","categoryIds":["asian"],"categories":["Asian Restaurants"],"distanceKm":0.37290062759459514},{"id":"coffeeBrunchRestaurants_97adfd0567d5","slug":"the-underdog-flagship-store-thissio-97ad","kind":"restaurant","name":"The Underdog® Flagship Store Thissio","lat":37.97497137545366,"lng":23.719135012325086,"url":"https://maps.app.goo.gl/LEHRwEwwo2yTd8KD9?g_st=ipc","address":"Ηρακλειδών 8, Αθήνα 118 51","categoryIds":["coffee-brunch"],"categories":["Coffee & Brunch Spots"],"distanceKm":0.3773637324590307},{"id":"vegetarianRestaurants_e12f835ae279","slug":"fairytale-athens-cafe-suites-e12f","kind":"restaurant","name":"Fairytale Athens Café & Suites","lat":37.97804693538564,"lng":23.721754929553363,"url":"https://maps.app.goo.gl/JXiyguWxrWe1Wgrf9?g_st=ipc","address":"Leokoriou 16, Athina 105 54","categoryIds":["vegetarian"],"categories":["Vegetarian Friendly Restaurants"],"distanceKm":0.3929460376411937},{"id":"coffeeBrunchRestaurants_fb26a559a60b","slug":"fairytale-athens-cafe-suites-fb26","kind":"restaurant","name":"Fairytale Athens Café & Suites","lat":37.97805432206773,"lng":23.72175598680767,"url":"https://maps.app.goo.gl/4J2S3rbDjHuSFWW98?g_st=ipc","address":"Λεωκορίου 16, Αθήνα 105 54","categoryIds":["coffee-brunch","desserts"],"categories":["Coffee & Brunch Spots","Dessert Shops"],"legacySlugs":["fairytale-athens-cafe-suites-e14a"],"distanceKm":0.3930432869366887},{"id":"vegetarianRestaurants_5038de25697a","slug":"los-v-vegan-vegetarian-restaurant-5038","kind":"restaurant","name":"Los V - Vegan & Vegetarian Restaurant","lat":37.98154957793841,"lng":23.71604712211994,"url":"https://maps.app.goo.gl/ZWkqdkixRwwqeKq8A?g_st=ipc","address":"Πλαταιών 37, Αθήνα 104 35","categoryIds":["vegetarian"],"categories":["Vegetarian Friendly Restaurants"],"distanceKm":0.40572441359656697},{"id":"rooftopLoungesRestaurants_a05f7e0fe4fe","slug":"mira-me-athens-a05f","kind":"restaurant","name":"Mira Me Athens","lat":37.977359535612116,"lng":23.72186806927444,"url":"https://maps.app.goo.gl/yeJpvac8bRksiNEV9?g_st=ipc","address":"Ερμού 118, Αθήνα 105 54","categoryIds":["rooftop-lounges"],"categories":["Rooftop Lounges"],"distanceKm":0.4097171954375102},{"id":"coffeeBrunchRestaurants_d3ad015b2f14","slug":"candycat-d3ad","kind":"restaurant","name":"CandyCat","lat":37.9775897353217,"lng":23.712604313955598,"url":"https://maps.app.goo.gl/bi9guRdYDSpWYmxn9?g_st=ipc","address":"Περσεφόνης 23, Αθήνα 118 54","categoryIds":["coffee-brunch","desserts"],"categories":["Coffee & Brunch Spots","Dessert Shops"],"legacySlugs":["candycat-50a1"],"distanceKm":0.41203147315868865}],"sameRegion":[],"mentionedGuides":[],"canonicalSlug":"kerameikos-archaeological-site-31e3","enrichment":{"summary_en":"Kerameikos Archaeological Site is a curated restaurant in Athina 105 53 in the Must-See Attractions collection. It is connected to 132 nearby Googlementor picks to help travelers build a stronger local route.","summary_el":"Kerameikos Archaeological Site είναι ένα επιλεγμένο σημείο φαγητού στην περιοχή Athina 105 53 και ανήκει στη συλλογή Must-See Attractions. Συνδέεται με 132 κοντινές προτάσεις του Googlementor για πιο ολοκληρωμένη εμπειρία.","vibe_tags":["curated"],"best_for":["first-time visitors","food lovers"],"visit_moments":["lunch stop","dinner stop"],"practical_note":"Address and direct map link are available for easy turn-by-turn access.","nearby_walkable_count":132,"nearby_count_2km":548,"confidence":0.98},"areaContext":{"slug":"gkazi","name":"Gazi","nameEl":"Γκάζι"},"intentContexts":[{"href":"/attractions/gkazi","label":"Must-See Attractions in Gazi","categorySlug":"attractions","categoryName":"Must-See Attractions","areaSlug":"gkazi","areaName":"Gazi","areaNameEl":"Γκάζι"}]},"__N_SSG":true}