{"pageProps":{"entity":{"id":"greekRestaurants_e3992a60261a","slug":"kritikos-e399","kind":"restaurant","name":"Κρητικός","lat":37.94303304147985,"lng":23.704084169584778,"url":"https://maps.app.goo.gl/QgBcqGt9addfXPwL6","address":"Ραιδεστού 36, Νέα Σμύρνη 171 22","categoryIds":["greek-restaurants"],"categories":["Greek Restaurants"]},"sameCategory":[{"id":"greekRestaurants_8f822e8ac2ff","slug":"koytoyki-kalypso-8f82","kind":"restaurant","name":"Κουτούκι Καλυψώ","lat":37.94264199335833,"lng":23.700097006546933,"url":"https://maps.app.goo.gl/rZqTMGc8sQwmZ4zq9","address":"Πεντέλης 41-43, Παλαιό Φάληρο 175 64","categoryIds":["greek-restaurants"],"categories":["Greek Restaurants"]},{"id":"greekRestaurants_80e12cc840c6","slug":"arsenis-80e1","kind":"restaurant","name":"Arsenis","lat":37.93975062587842,"lng":23.699103162428067,"url":"https://maps.app.goo.gl/gyD8tEfz4zabut3VA","address":"Ζησιμοπούλου 19, Παλαιό Φάληρο 175 64","categoryIds":["greek-restaurants"],"categories":["Greek Restaurants"]},{"id":"greekRestaurants_ef1588581bbb","slug":"myrtia-ef15","kind":"restaurant","name":"Μυρτιά","lat":37.940920844377125,"lng":23.712738244892858,"url":"https://maps.app.goo.gl/QHjMpbFEFgtWLbA57","address":"Αϊδινίου 55, Νέα Σμύρνη 171 22","categoryIds":["greek-restaurants"],"categories":["Greek Restaurants"]},{"id":"greekRestaurants_eecb2ebbfdc2","slug":"gitema-eecb","kind":"restaurant","name":"Γήτεμα","lat":37.94107986247284,"lng":23.713131731866255,"url":"https://maps.app.goo.gl/S3ph9mpPrmbS64x3A","address":"Λεωφ. Ελ. Βενιζέλου 88, Νέα Σμύρνη 171 22","categoryIds":["greek-restaurants"],"categories":["Greek Restaurants"]},{"id":"greekRestaurants_842cd50fd946","slug":"mpampis-taverna-842c","kind":"restaurant","name":"Μπάμπης Ταβέρνα","lat":37.93493015100239,"lng":23.70154955498321,"url":"https://maps.app.goo.gl/SyFUZSdaS3SB5Mm48","address":"Λεωφ. Αμφιθέας 73, Παλαιό Φάληρο 175 64","categoryIds":["greek-restaurants"],"categories":["Greek Restaurants"]},{"id":"greekRestaurants_30ac8464e0c3","slug":"kyr-aristos-30ac","kind":"restaurant","name":"Κυρ Αρίστος","lat":37.932597935183146,"lng":23.699203294233197,"url":"https://maps.app.goo.gl/EQaiuBpPZq633dxa7?g_st=ipc","address":"Zisimopoulou 96, Paleo Faliro 175 64","categoryIds":["greek-restaurants"],"categories":["Greek Restaurants"]},{"id":"greekRestaurants_9776b2d601ec","slug":"ladokolla-9776","kind":"restaurant","name":"Λαδόκολλα","lat":37.9520147160471,"lng":23.6947618008044,"url":"https://maps.app.goo.gl/R6yszu5SCxsZfVoCA","address":"Λεωφ. Ελ. Βενιζέλου 243, Καλλιθέα 176 73","categoryIds":["greek-restaurants"],"categories":["Greek Restaurants"]},{"id":"greekRestaurants_d2cc3fcfc069","slug":"ramona-taverna-kallithea-d2cc","kind":"restaurant","name":"Ραμόνα Ταβέρνα Καλλιθέα","lat":37.9556758154796,"lng":23.70860659191753,"url":"https://maps.app.goo.gl/RDXvdLT2Zy9wH87X9","address":"Μίνωος 11-13, Καλλιθέα 176 72","categoryIds":["greek-restaurants"],"categories":["Greek Restaurants"]},{"id":"greekRestaurants_9f70b553963a","slug":"mezeklikia-9f70","kind":"restaurant","name":"Μεζεκλίκια","lat":37.956254016920724,"lng":23.6929814615304,"url":"https://maps.app.goo.gl/SnbVYFRKtMTWopt79","address":"Π. Τσαλδάρη 277, Καλλιθέα 176 75","categoryIds":["greek-restaurants"],"categories":["Greek Restaurants"]},{"id":"greekRestaurants_316cf3a477d7","slug":"taverna-o-notos-316c","kind":"restaurant","name":"Ταβέρνα ο Νότος","lat":37.93527346472632,"lng":23.722390326717125,"url":"https://maps.app.goo.gl/TEReWJLojKZEkJL38","address":"Μεταμορφώσεως 2, Αγ. Δημήτριος Αττικής 173 41","categoryIds":["greek-restaurants"],"categories":["Greek Restaurants"]},{"id":"greekRestaurants_6497d4b8be55","slug":"o-mitos-kritiko-rakadiko-mezedopoleio-6497","kind":"restaurant","name":"Ο Μίτος (Κρητικό Ρακάδικο-Μεζεδοπωλείο)","lat":37.95902391394004,"lng":23.710171017106486,"url":"https://maps.app.goo.gl/fWEdbaEvd9cA8Enr9","address":"Αριστείδου 62, Καλλιθέα 176 71","categoryIds":["greek-restaurants"],"categories":["Greek Restaurants"]},{"id":"greekRestaurants_aa39dbadb1cc","slug":"mparmpa-mitsos-agios-dimitrios-aa39","kind":"restaurant","name":"Μπάρμπα-Μήτσος - Άγιος Δημήτριος","lat":37.92988893217819,"lng":23.71912670552918,"url":"https://maps.app.goo.gl/BYxu5opm4HvR37SN9","address":"Ιουστινιανού 11, Αγ. Δημήτριος Αττικής 173 41","categoryIds":["greek-restaurants"],"categories":["Greek Restaurants"]}],"nearby":[{"id":"greekRestaurants_8f822e8ac2ff","slug":"koytoyki-kalypso-8f82","kind":"restaurant","name":"Κουτούκι Καλυψώ","lat":37.94264199335833,"lng":23.700097006546933,"url":"https://maps.app.goo.gl/rZqTMGc8sQwmZ4zq9","address":"Πεντέλης 41-43, Παλαιό Φάληρο 175 64","categoryIds":["greek-restaurants"],"categories":["Greek Restaurants"],"distanceKm":0.3523319930797501},{"id":"cheapEatsRestaurants_ae7b67ea9782","slug":"psitopoleio-o-lampros-ae7b","kind":"restaurant","name":"Ψητοπωλείο \"ο Λάμπρος\"","lat":37.93861571899796,"lng":23.703296381437085,"url":"https://maps.app.goo.gl/ufBXQHiqa3CEJ7PJ7?g_st=ipc","address":"Νέστορος 21, Παλαιό Φάληρο 175 61","categoryIds":["cheap-eats"],"categories":["Gyros & Cheap Eats"],"distanceKm":0.4960183003213703},{"id":"fishTavernasRestaurants_a7fb3513622e","slug":"liogerma-tis-athinas-a7fb","kind":"restaurant","name":"Λιόγερμα της Αθήνας","lat":37.938563581924875,"lng":23.703200039765804,"url":"https://maps.app.goo.gl/uLKm2p4zN326i9gP8?g_st=ipc","address":"Νέστορος 21, Παλαιό Φάληρο 175 61","categoryIds":["fish-tavernas"],"categories":["Fish Tavernas"],"distanceKm":0.502992661491265},{"id":"greekRestaurants_80e12cc840c6","slug":"arsenis-80e1","kind":"restaurant","name":"Arsenis","lat":37.93975062587842,"lng":23.699103162428067,"url":"https://maps.app.goo.gl/gyD8tEfz4zabut3VA","address":"Ζησιμοπούλου 19, Παλαιό Φάληρο 175 64","categoryIds":["greek-restaurants"],"categories":["Greek Restaurants"],"distanceKm":0.5692178999073235},{"id":"coffeeBrunchRestaurants_0aaa1d7425c8","slug":"o-nikos-0aaa","kind":"restaurant","name":"\"ο Νίκος\"","lat":37.94446727754758,"lng":23.71036042368455,"url":"https://maps.app.goo.gl/Hjscsj6jJP8Ehtjz8?g_st=ipc","address":"Κων/νου Παλαιολόγου 36, Νέα Σμύρνη 171 22","categoryIds":["coffee-brunch"],"categories":["Coffee & Brunch Spots"],"distanceKm":0.5730051306220261},{"id":"coffeeBrunchRestaurants_2673b2efe834","slug":"fred-2673","kind":"restaurant","name":"Fred","lat":37.94562369764514,"lng":23.71066649818301,"url":"https://maps.app.goo.gl/HMmCPXK9BhvDtR538?g_st=ipc","address":"Κων/νου Παλαιολόγου 24, Νέα Σμύρνη 171 21","categoryIds":["coffee-brunch"],"categories":["Coffee & Brunch Spots"],"distanceKm":0.6450910555058946},{"id":"vegetarianRestaurants_de7324c496a6","slug":"fakafel-de73","kind":"restaurant","name":"Φakafel","lat":37.945977379116876,"lng":23.71063148252821,"url":"https://maps.app.goo.gl/r5AXr2ToKxBqZpAv9?g_st=ipc","address":"Φakafel","categoryIds":["vegetarian"],"categories":["Vegetarian Friendly Restaurants"],"distanceKm":0.6609163442765585},{"id":"luxuryDiningRestaurants_8af90b11228b","slug":"e-o-pan-asian-restaurant-athens-8af9","kind":"restaurant","name":"e&o Pan-Asian Restaurant Athens","lat":37.94077150497406,"lng":23.696879786243304,"url":"https://maps.app.goo.gl/nAwF6RqCeQF6rY2P9?g_st=ipc","address":"Λεωφ. Ανδρέα Συγγρού 385, Παλαιό Φάληρο 175 64","categoryIds":["luxury-dining"],"categories":["Luxury Dining"],"distanceKm":0.6799769627660581},{"id":"cheapEatsRestaurants_59ab2f655733","slug":"rosiko-pantopoleio-astana-59ab","kind":"restaurant","name":"Ρώσικο παντοπωλείο «Αστάνα»","lat":37.94852960059528,"lng":23.699447152301282,"url":"https://maps.app.goo.gl/Wayix2624vmNqYTT7?g_st=ipc","address":"Δημοσθένους 207, Καλλιθέα 176 73","categoryIds":["cheap-eats"],"categories":["Gyros & Cheap Eats"],"distanceKm":0.734086627282427},{"id":"familyFriendly_afbd73fa31fe","slug":"neo-psifiako-planitario-idrymatos-eygenidoy-afbd","kind":"restaurant","name":"Νέο Ψηφιακό Πλανητάριο Ιδρύματος Ευγενίδου","lat":37.939924135926155,"lng":23.69664152972377,"url":"https://maps.app.goo.gl/6jTSzr4LUutvW78x6?g_st=ipc","address":"387 Syggrou Ave. (entrance 11, Πεντέλης st, Αθήνα 175 64","categoryIds":["family-friendly"],"categories":["Kid Friendly Locations"],"distanceKm":0.7385636770264007},{"id":"mexicanRestaurants_e022afb77fe2","slug":"amigos-e022","kind":"restaurant","name":"Amigos","lat":37.94499454255761,"lng":23.71221746209658,"url":"https://maps.app.goo.gl/BHdiVv9h7dD8bkiu6?g_st=ipc","address":"Μεγ. Αλεξάνδρου 70, Νέα Σμύρνη 171 22","categoryIds":["mexican","vegetarian"],"categories":["Mexican Restaurants","Vegetarian Friendly Restaurants"],"legacySlugs":["amigos-83a2"],"distanceKm":0.7458107735759334},{"id":"italianRestaurants_47773e592b01","slug":"vitello-trattoria-romana-4777","kind":"restaurant","name":"Vitello Trattoria Romana","lat":37.93748817614671,"lng":23.699162197380616,"url":"https://maps.app.goo.gl/QapvvUw9jwdJSAM69?g_st=ipc","address":"Ζησιμοπούλου 41, Παλαιό Φάληρο 175 64","categoryIds":["italian"],"categories":["Italian Restaurants"],"distanceKm":0.7526288061951502},{"id":"asianRestaurants_6469a1c3e3f9","slug":"seoul-house-restaurant-6469","kind":"restaurant","name":"Seoul House Restaurant","lat":37.93747372174057,"lng":23.69891697936759,"url":"https://maps.app.goo.gl/ibEXR2ZExidRVduY6?g_st=ipc","address":"Ζησιμοπούλου 40, Παλαιό Φάληρο 175 64","categoryIds":["asian"],"categories":["Asian Restaurants"],"distanceKm":0.7664598694515383},{"id":"greekRestaurants_ef1588581bbb","slug":"myrtia-ef15","kind":"restaurant","name":"Μυρτιά","lat":37.940920844377125,"lng":23.712738244892858,"url":"https://maps.app.goo.gl/QHjMpbFEFgtWLbA57","address":"Αϊδινίου 55, Νέα Σμύρνη 171 22","categoryIds":["greek-restaurants"],"categories":["Greek Restaurants"],"distanceKm":0.7944065412744868},{"id":"coffeeBrunchRestaurants_01d039eed44f","slug":"flaked-croissanterie-nea-smyrni-01d0","kind":"restaurant","name":"Flaked Croissanterie Nea Smyrni","lat":37.94664941791958,"lng":23.71226377005945,"url":"https://maps.app.goo.gl/XhDMxWuwRuMVcghH9?g_st=ipc","address":"2ας Μαΐου 10, Νέα Σμύρνη 171 21","categoryIds":["coffee-brunch"],"categories":["Coffee & Brunch Spots"],"distanceKm":0.8222907249189427},{"id":"greekRestaurants_eecb2ebbfdc2","slug":"gitema-eecb","kind":"restaurant","name":"Γήτεμα","lat":37.94107986247284,"lng":23.713131731866255,"url":"https://maps.app.goo.gl/S3ph9mpPrmbS64x3A","address":"Λεωφ. Ελ. Βενιζέλου 88, Νέα Σμύρνη 171 22","categoryIds":["greek-restaurants"],"categories":["Greek Restaurants"],"distanceKm":0.8225875102641972},{"id":"dessertsRestaurants_90551d221579","slug":"zuccherino-9055","kind":"restaurant","name":"Zuccherino","lat":37.94670677191045,"lng":23.712370393556583,"url":"https://maps.app.goo.gl/AvtpV9edEhsRgr9r5?g_st=ipc","address":"2ας Μαΐου 12, Νέα Σμύρνη 171 21","categoryIds":["desserts"],"categories":["Dessert Shops"],"distanceKm":0.833565248836929},{"id":"cheapEatsRestaurants_fb98feb8ab24","slug":"soyvlakia-o-leyteris-fb98","kind":"restaurant","name":"Σουβλάκια ο Λευτέρης","lat":37.947152588163014,"lng":23.712051232496496,"url":"https://maps.app.goo.gl/MTQDk9is4pkL1vPt9?g_st=ipc","address":"Ειρήνης 2, Νέα Σμύρνη 171 21","categoryIds":["cheap-eats"],"categories":["Gyros & Cheap Eats"],"distanceKm":0.8354033007494271},{"id":"dessertsRestaurants_8de488078304","slug":"crepa-crepa-8de4","kind":"restaurant","name":"Crepa crepa","lat":37.94728978565515,"lng":23.712096506964457,"url":"https://maps.app.goo.gl/vmeSVgQbRFAe8fe19?g_st=ipc","address":"Ειρήνης 2, Νέα Σμύρνη 171 21","categoryIds":["desserts"],"categories":["Dessert Shops"],"distanceKm":0.8471539120590397},{"id":"burgersRestaurants_b47d84823c91","slug":"the-burger-joint-b47d","kind":"restaurant","name":"The Burger Joint","lat":37.942262724437896,"lng":23.71398429679752,"url":"https://maps.app.goo.gl/4gyyrfZJhxvHeHNj8?g_st=ipc","address":"Λεωφ. Ελ. Βενιζέλου 93, Νέα Σμύρνη 171 22","categoryIds":["burgers"],"categories":["Burger Spots"],"distanceKm":0.872370126926993},{"id":"italianRestaurants_da11e2c73563","slug":"cavaliere-ristorante-concettuale-da11","kind":"restaurant","name":"Cavaliere Ristorante Concettuale","lat":37.944619471140975,"lng":23.71414682617668,"url":"https://maps.app.goo.gl/WcUWRBUhr7SBrvaw8?g_st=ipc","address":"Λεωφ. Ελ. Βενιζέλου 42, Νέα Σμύρνη 171 22","categoryIds":["italian"],"categories":["Italian Restaurants"],"distanceKm":0.8998530706791852},{"id":"greekRestaurants_842cd50fd946","slug":"mpampis-taverna-842c","kind":"restaurant","name":"Μπάμπης Ταβέρνα","lat":37.93493015100239,"lng":23.70154955498321,"url":"https://maps.app.goo.gl/SyFUZSdaS3SB5Mm48","address":"Λεωφ. Αμφιθέας 73, Παλαιό Φάληρο 175 64","categoryIds":["greek-restaurants"],"categories":["Greek Restaurants"],"distanceKm":0.9280127147364743},{"id":"municipalities_093f8da9eef7","slug":"nea-smyrni-093f","kind":"municipality","name":"Νέα Σμύρνη","lat":37.9456,"lng":23.7142,"aliases":["Nea Smyrni","Nea Smirni","Νεα Σμυρνη","Nea Smyrne"],"region":"Νότια Προάστια","name_en":"Nea Smyrni","region_en":"Southern Suburbs","distanceKm":0.9318420012627008},{"id":"familyFriendly_2be04a6b1d81","slug":"parko-stayros-niarchos-2be0","kind":"restaurant","name":"Πάρκο Σταύρος Νιάρχος","lat":37.942200854453496,"lng":23.69345667519833,"url":"https://maps.app.goo.gl/8s92kLGvmU1yA3fe8?g_st=ipc","address":"Λεωφ. Ανδρέα Συγγρού 364, Καλλιθέα 176 74","categoryIds":["family-friendly"],"categories":["Kid Friendly Locations"],"distanceKm":0.9365217432020552}],"sameRegion":[],"mentionedGuides":[],"canonicalSlug":"kritikos-e399","enrichment":{"summary_en":"Κρητικός is a curated restaurant in Νέα Σμύρνη 171 22 in the Greek Restaurants collection. It is connected to 14 nearby Googlementor picks to help travelers build a stronger local route.","summary_el":"Κρητικός είναι ένα επιλεγμένο σημείο φαγητού στην περιοχή Νέα Σμύρνη 171 22 και ανήκει στη συλλογή Greek Restaurants. Συνδέεται με 14 κοντινές προτάσεις του Googlementor για πιο ολοκληρωμένη εμπειρία.","vibe_tags":["curated"],"best_for":["first-time visitors","food lovers"],"visit_moments":["lunch stop","dinner stop"],"practical_note":"Address and direct map link are available for easy turn-by-turn access.","nearby_walkable_count":14,"nearby_count_2km":81,"confidence":0.98},"areaContext":{"slug":"nea-smyrni","name":"Nea Smyrni","nameEl":"Νέα Σμύρνη"},"intentContexts":[{"href":"/greek-restaurants/nea-smyrni","label":"Greek Restaurants in Nea Smyrni","categorySlug":"greek-restaurants","categoryName":"Greek Restaurants","areaSlug":"nea-smyrni","areaName":"Nea Smyrni","areaNameEl":"Νέα Σμύρνη"}]},"__N_SSG":true}