{"pageProps":{"entity":{"id":"familyFriendly_dda24e69f0c9","slug":"ktima-chaideytos-dda2","kind":"restaurant","name":"Κτήμα Χαϊδευτός","lat":40.70742578041207,"lng":23.04278762334095,"url":"https://maps.app.goo.gl/4acWduunHuC2yzqCA?g_st=ipc","address":"Kavallari 572 00","categoryIds":["family-friendly"],"categories":["Kid Friendly Locations"]},"sameCategory":[{"id":"familyFriendly_681712a05721","slug":"ichnilatis-oneiron-ktima-klimentini-6817","kind":"restaurant","name":"Ιχνηλάτης Ονείρων - Κτήμα Κλημεντινη","lat":40.67362926471837,"lng":23.088737171472587,"url":"https://maps.app.goo.gl/zejLUTjQA5bbDHBb6?g_st=ipc","address":"EO Thessalonikis Kavalas, Volvi 572 00","categoryIds":["family-friendly"],"categories":["Kid Friendly Locations"]},{"id":"familyFriendly_4e467d7db3ce","slug":"perivallontiko-parko-dervenioy-4e46","kind":"restaurant","name":"Περιβαλλοντικό Πάρκο Δερβενίου","lat":40.7144477049586,"lng":22.966013369993284,"url":"https://maps.app.goo.gl/12YHRaQcoWEy1dcC6?g_st=ipc","address":"Mygdonia 545 00","categoryIds":["family-friendly"],"categories":["Kid Friendly Locations"]},{"id":"familyFriendly_fddc2b47a16c","slug":"family-sports-club-fddc","kind":"restaurant","name":"Family Sports Club","lat":40.655661119206584,"lng":22.9951268038431,"url":"https://maps.app.goo.gl/P3RfiqzgWLJwu2HN6?g_st=ipc","address":"Tositsa 18, Thessaloniki 570 10","categoryIds":["family-friendly"],"categories":["Kid Friendly Locations"]},{"id":"familyFriendly_bde356affb96","slug":"pony-park-bde3","kind":"restaurant","name":"Pony park","lat":40.771648089590926,"lng":22.997360084589175,"url":"https://maps.app.goo.gl/g2acMrTmNxKzTfi17?g_st=ic","address":"14χλμ ΠΕΟ, EO Thessalonikis Serron, Oreokastro 572 00","categoryIds":["family-friendly"],"categories":["Kid Friendly Locations"]},{"id":"familyFriendly_318b4f24e07f","slug":"parko-deinosayron-318b","kind":"restaurant","name":"ΠΑΡΚΟ ΔΕΙΝΟΣΑΥΡΩΝ","lat":40.701527729460004,"lng":22.939792993737786,"url":"https://maps.app.goo.gl/jZyLiRLATZktk5dG7?g_st=ipc","address":"Thessaloniki 7ο χλμ, Oreokastro 570 13","categoryIds":["family-friendly"],"categories":["Kid Friendly Locations"]},{"id":"familyFriendly_91fdc1b07999","slug":"parko-tzeni-karezi-91fd","kind":"restaurant","name":"Πάρκο Τζένη Καρέζη","lat":40.65858356268694,"lng":22.948886429553223,"url":"https://maps.app.goo.gl/GLfxf6LcGPn5DhUJA?g_st=ipc","address":"Polichni 565 32","categoryIds":["family-friendly"],"categories":["Kid Friendly Locations"]},{"id":"familyFriendly_87307641acf6","slug":"r-mote-8730","kind":"restaurant","name":"R'MOTE","lat":40.68581196268978,"lng":22.922356233082034,"url":"https://maps.app.goo.gl/y5U3WvSQGqnkW6KY7?g_st=ipc","address":"Palaiokomis 22, Evosmos 562 24","categoryIds":["family-friendly"],"categories":["Kid Friendly Locations"]},{"id":"familyFriendly_d1a47ca0dedf","slug":"freedom-interactive-playzone-d1a4","kind":"restaurant","name":"Freedom Interactive Playzone","lat":40.70867369830318,"lng":22.911054983573504,"url":"https://maps.app.goo.gl/GummsjTvyttusdP46?g_st=ipc","address":"Μακεδονικού Αγώνα, Zappa &, Oreokastro 570 13","categoryIds":["family-friendly"],"categories":["Kid Friendly Locations"]},{"id":"familyFriendly_e11e3c30b5f9","slug":"trees-trees-e11e","kind":"restaurant","name":"Trees Trees","lat":40.60274841786202,"lng":23.00941473830645,"url":"https://maps.app.goo.gl/NStAQS6bJYjXPSMi8?g_st=ipc","address":"Ανατολής, Elaionon και, Pilea 555 35","categoryIds":["family-friendly"],"categories":["Kid Friendly Locations"]},{"id":"familyFriendly_a5c1b620864c","slug":"pedion-areos-a5c1","kind":"restaurant","name":"Pedion Areos","lat":40.62247582832067,"lng":22.955391871168274,"url":"https://maps.app.goo.gl/hVHTxMywZzbL2Rr26?g_st=ic","address":"Eth. Aminis 28, Thessaloniki 546 21","categoryIds":["family-friendly"],"categories":["Kid Friendly Locations"]},{"id":"familyFriendly_06e3b0e7591a","slug":"hado-arena-toumpa-06e3","kind":"restaurant","name":"HADO ARENA TOUMPA","lat":40.61298475023653,"lng":22.966163361832432,"url":"https://maps.app.goo.gl/Y3M4X3SLfpUBctf88?g_st=ipc","address":"Kleanthous 25, Thessaloniki 544 53","categoryIds":["family-friendly"],"categories":["Kid Friendly Locations"]},{"id":"familyFriendly_b986941160fd","slug":"elaiorema-b986","kind":"restaurant","name":"Elaiorema","lat":40.60429462558645,"lng":22.984614393067023,"url":"https://maps.app.goo.gl/2QyvxSuh6SKLNY7X8?g_st=ic","address":"Pylaia 555 35","categoryIds":["family-friendly"],"categories":["Kid Friendly Locations"]}],"nearby":[{"id":"greekRestaurants_613ab2641dd9","slug":"taverna-5fi-613a","kind":"restaurant","name":"Ταβέρνα 5φί","lat":40.74907903716035,"lng":23.066364932799573,"url":"https://maps.app.goo.gl/3qh7CW8XVMvCgUAy9?g_st=ipc","address":"Σεραφειμ Τσακμάνη 35, Λαγκαδάς 572 00","categoryIds":["greek-restaurants"],"categories":["Greek Restaurants"],"distanceKm":5.03975598845988},{"id":"municipalities_e6545e4b650e","slug":"lagkadas-e654","kind":"municipality","name":"Λαγκαδάς","lat":40.75,"lng":23.0667,"region":"Περιαστική Ζώνη","name_en":"Lagadás","region_en":"Suburban Zone","distanceKm":5.145014535352664},{"id":"familyFriendly_681712a05721","slug":"ichnilatis-oneiron-ktima-klimentini-6817","kind":"restaurant","name":"Ιχνηλάτης Ονείρων - Κτήμα Κλημεντινη","lat":40.67362926471837,"lng":23.088737171472587,"url":"https://maps.app.goo.gl/zejLUTjQA5bbDHBb6?g_st=ipc","address":"EO Thessalonikis Kavalas, Volvi 572 00","categoryIds":["family-friendly"],"categories":["Kid Friendly Locations"],"distanceKm":5.397355800040578},{"id":"familyFriendly_4e467d7db3ce","slug":"perivallontiko-parko-dervenioy-4e46","kind":"restaurant","name":"Περιβαλλοντικό Πάρκο Δερβενίου","lat":40.7144477049586,"lng":22.966013369993284,"url":"https://maps.app.goo.gl/12YHRaQcoWEy1dcC6?g_st=ipc","address":"Mygdonia 545 00","categoryIds":["family-friendly"],"categories":["Kid Friendly Locations"],"distanceKm":6.517995568817128},{"id":"municipalities_773b45e35a7d","slug":"peyka-773b","kind":"municipality","name":"Πεύκα","lat":40.663,"lng":22.985,"region":"Ανατολική Θεσσαλονίκη","name_en":"Pefka","region_en":"East Thessaloniki","distanceKm":6.9386759375915235},{"id":"familyFriendly_fddc2b47a16c","slug":"family-sports-club-fddc","kind":"restaurant","name":"Family Sports Club","lat":40.655661119206584,"lng":22.9951268038431,"url":"https://maps.app.goo.gl/P3RfiqzgWLJwu2HN6?g_st=ipc","address":"Tositsa 18, Thessaloniki 570 10","categoryIds":["family-friendly"],"categories":["Kid Friendly Locations"],"distanceKm":7.020195454840642},{"id":"greekRestaurants_a67af598b2d1","slug":"to-loukoumi-a67a","kind":"restaurant","name":"To Loukoumi","lat":40.65097171601764,"lng":22.998975430300302,"url":"https://maps.app.goo.gl/T4aEjoreJoEqYGcE7?g_st=ipc","address":"Leof. Papanikolaou 150, Pefka 570 10","categoryIds":["greek-restaurants"],"categories":["Greek Restaurants"],"distanceKm":7.2839224207528765},{"id":"fishTavernasRestaurants_5a1acfab0629","slug":"tsouknida-5a1a","kind":"restaurant","name":"Tsouknída","lat":40.64197017301936,"lng":23.01608188028885,"url":"https://maps.app.goo.gl/xAJUBaZ5Hv4Rggaw9","address":"28is Oktovriou 0, Asvestochori 570 10","categoryIds":["fish-tavernas"],"categories":["Fish Tavernas"],"distanceKm":7.618816552839083},{"id":"familyFriendly_bde356affb96","slug":"pony-park-bde3","kind":"restaurant","name":"Pony park","lat":40.771648089590926,"lng":22.997360084589175,"url":"https://maps.app.goo.gl/g2acMrTmNxKzTfi17?g_st=ic","address":"14χλμ ΠΕΟ, EO Thessalonikis Serron, Oreokastro 572 00","categoryIds":["family-friendly"],"categories":["Kid Friendly Locations"],"distanceKm":8.102152685586084},{"id":"familyFriendly_318b4f24e07f","slug":"parko-deinosayron-318b","kind":"restaurant","name":"ΠΑΡΚΟ ΔΕΙΝΟΣΑΥΡΩΝ","lat":40.701527729460004,"lng":22.939792993737786,"url":"https://maps.app.goo.gl/jZyLiRLATZktk5dG7?g_st=ipc","address":"Thessaloniki 7ο χλμ, Oreokastro 570 13","categoryIds":["family-friendly"],"categories":["Kid Friendly Locations"],"distanceKm":8.706670073620302},{"id":"greekRestaurants_94eb03121644","slug":"taverna-samlis-94eb","kind":"restaurant","name":"Ταβέρνα Σαμλής","lat":40.756202298461545,"lng":23.127784841351406,"url":"https://maps.app.goo.gl/cevX5dogkFtBYM156?g_st=ipc","address":"Μαρκ. Μπότσαρη 4, Kolchiko 572 00","categoryIds":["greek-restaurants"],"categories":["Greek Restaurants"],"distanceKm":8.983838195301113},{"id":"municipalities_96e3494c5454","slug":"polichni-96e3","kind":"municipality","name":"Πολίχνη","lat":40.6694,"lng":22.9481,"region":"Δυτική Θεσσαλονίκη","name_en":"Polichni","region_en":"West Thessaloniki","distanceKm":9.034184098991371},{"id":"italianRestaurants_753fa8defec2","slug":"raffaele-pizza-pasta-753f","kind":"restaurant","name":"Raffaele Pizza & Pasta","lat":40.66556499607672,"lng":22.94711551769067,"url":"https://maps.app.goo.gl/EpFwtHWFaS5GMZ8C9?g_st=ipc","address":"40.6655613219397, 22.94711932792721","categoryIds":["italian"],"categories":["Italian Restaurants"],"distanceKm":9.31345818813965},{"id":"fishTavernasRestaurants_bc4a7296f096","slug":"ouzo-jordan-bc4a","kind":"restaurant","name":"Ouzo Jordan","lat":40.66214244715697,"lng":22.949433655289134,"url":"https://maps.app.goo.gl/sSPrTBB7crBhtfLs6?g_st=ipc","address":"Stadiou 6, Thessaloniki 565 33","categoryIds":["fish-tavernas"],"categories":["Fish Tavernas"],"distanceKm":9.344308813123169},{"id":"municipalities_52e9dfbeced3","slug":"neapoli-sykies-52e9","kind":"municipality","name":"Νεάπολη - Συκιές","lat":40.653,"lng":22.958,"region":"Δυτική Θεσσαλονίκη","name_en":"Neapoli - Sykies","region_en":"West Thessaloniki","distanceKm":9.367200691788046},{"id":"asianRestaurants_4caa87d6e139","slug":"sushaki-greek-sushi-experience-4caa","kind":"restaurant","name":"Sushaki | Greek Sushi Experience","lat":40.650072445284856,"lng":22.958835229549017,"url":"https://maps.app.goo.gl/5vFVT9HMbgmQ6Erc6","address":"Eptapirgiou 75, Sikies 566 26","categoryIds":["asian"],"categories":["Asian Restaurants"],"distanceKm":9.528408234251497},{"id":"familyFriendly_91fdc1b07999","slug":"parko-tzeni-karezi-91fd","kind":"restaurant","name":"Πάρκο Τζένη Καρέζη","lat":40.65858356268694,"lng":22.948886429553223,"url":"https://maps.app.goo.gl/GLfxf6LcGPn5DhUJA?g_st=ipc","address":"Polichni 565 32","categoryIds":["family-friendly"],"categories":["Kid Friendly Locations"],"distanceKm":9.601553353702776},{"id":"cheapEatsRestaurants_d40ad575edd7","slug":"michelangelo-skg-d40a","kind":"restaurant","name":"Michelangelo.skg","lat":40.65053808833563,"lng":22.95671243903333,"url":"https://maps.app.goo.gl/nAwyYBALch1ybbQSA?g_st=ipc","address":"Riga Feraiou 162, Sikies 566 26","categoryIds":["cheap-eats","italian"],"categories":["Gyros & Cheap Eats","Italian Restaurants"],"legacySlugs":["michelangelo-skg-4e92"],"distanceKm":9.628037869720773},{"id":"fishTavernasRestaurants_bd9876636f9e","slug":"to-steki-tou-psara-bd98","kind":"restaurant","name":"To steki tou psara","lat":40.66006472959922,"lng":22.944806880091097,"url":"https://maps.app.goo.gl/7KH5KmXVrcaeNEh36","address":"Agnostou Stratiotou 33, Polichni 565 33","categoryIds":["fish-tavernas"],"categories":["Fish Tavernas"],"distanceKm":9.797566624137202},{"id":"mustSeeAttractions_d05b087a8840","slug":"heptapyrgion-of-thessaloniki-d05b","kind":"restaurant","name":"Heptapyrgion of Thessaloniki","lat":40.64405781477335,"lng":22.96178016442897,"url":"https://maps.app.goo.gl/1s8aj4cc3MbpvaGq9?g_st=ipc","address":"Επταπύργιο, Eptapirgiou 40, Thessaloniki 546 34","categoryIds":["attractions"],"categories":["Must-See Attractions"],"distanceKm":9.814166359762343},{"id":"mustSeeAttractions_72fd08699c11","slug":"thessaloniki-acropolis-72fd","kind":"restaurant","name":"Thessaloniki Acropolis","lat":40.644004048967396,"lng":22.961770870557544,"url":"https://maps.app.goo.gl/Pj3FuXA7LeypGUARA?g_st=ipc","address":"Eptapirgiou 130, Thessaloniki 546 34","categoryIds":["attractions"],"categories":["Must-See Attractions"],"distanceKm":9.819006823484196},{"id":"municipalities_ee3779c3af5f","slug":"ano-poli-ee37","kind":"municipality","name":"Άνω Πόλη","lat":40.6436,"lng":22.959,"region":"Θεσσαλονίκη","name_en":"Ano Poli","region_en":"Thessaloniki","distanceKm":10.014814361722598},{"id":"greekRestaurants_a2bd75aa1df9","slug":"faidimos-a2bd","kind":"restaurant","name":"Φαίδιμος","lat":40.72205390492354,"lng":22.92535107333131,"url":"https://maps.app.goo.gl/zYo3CVk2Wm5dkqA19?g_st=ipc","address":"Κονταξοπούλου, & Θεσσαλονίκης 98, Ωραιόκαστρο 570 13","categoryIds":["greek-restaurants"],"categories":["Greek Restaurants"],"distanceKm":10.03055331233036},{"id":"cheapEatsRestaurants_07b527cd1a8e","slug":"dia-xoiros-polixni-07b5","kind":"restaurant","name":"Dia Xoiros Polixni","lat":40.658685525095265,"lng":22.942609620515523,"url":"https://maps.app.goo.gl/4YvZLZyRTdLs8Tpz7?g_st=ipc","address":"Agnostou Stratiotou 13, Polichni 565 33","categoryIds":["cheap-eats"],"categories":["Gyros & Cheap Eats"],"distanceKm":10.036352141347177}],"sameRegion":[],"mentionedGuides":[],"canonicalSlug":"ktima-chaideytos-dda2","enrichment":{"summary_en":"Κτήμα Χαϊδευτός is a curated restaurant in Greece in the Kid Friendly Locations collection. It is connected to 0 nearby Googlementor picks to help travelers build a stronger local route.","summary_el":"Κτήμα Χαϊδευτός είναι ένα επιλεγμένο σημείο φαγητού στην περιοχή Greece και ανήκει στη συλλογή Kid Friendly Locations. Συνδέεται με 0 κοντινές προτάσεις του Googlementor για πιο ολοκληρωμένη εμπειρία.","vibe_tags":["curated","family-ready"],"best_for":["first-time visitors","food lovers","families"],"visit_moments":["lunch stop","dinner stop"],"practical_note":"Address and direct map link are available for easy turn-by-turn access.","nearby_walkable_count":0,"nearby_count_2km":0,"confidence":0.9},"areaContext":null,"intentContexts":[]},"__N_SSG":true}