{"pageProps":{"entity":{"id":"municipalities_23828bbce235","slug":"patisia-2382","kind":"municipality","name":"Πατήσια","lat":38.0167,"lng":23.7333,"aliases":["Πατησια","Patissia"],"region":"Κέντρο Αθήνας","name_en":"Patisia","region_en":"Athens Center"},"sameCategory":[],"nearby":[{"id":"dessertsRestaurants_b21d96062bcb","slug":"pap-liber-patisia-b21d","kind":"restaurant","name":"Pap-Liber (Πατήσια)","lat":38.01877416845803,"lng":23.734552478722144,"url":"https://maps.app.goo.gl/fgNMoYsGZV8mdkn37?g_st=ipc","address":"Ιακωβίδου 10 &, Τσίλλερ, Αθήνα 111 44","categoryIds":["desserts"],"categories":["Dessert Shops"],"distanceKm":0.25540501196483156},{"id":"greekRestaurants_2f6996caca4e","slug":"spyros-antonis-2f69","kind":"restaurant","name":"Σπύρος-Αντώνης","lat":38.01866922800358,"lng":23.738404062129728,"url":"https://maps.app.goo.gl/9kB2f5FdE7NhgyEF7","address":"Γαβριηλίδου 24, Αθήνα 111 41","categoryIds":["greek-restaurants"],"categories":["Greek Restaurants"],"distanceKm":0.4978626587023386},{"id":"dessertsRestaurants_f22485b9778b","slug":"chara-f224","kind":"restaurant","name":"Χαρά","lat":38.02112078219093,"lng":23.735510538796248,"url":"https://maps.app.goo.gl/xbCzjtuywVhjf9c59?g_st=ipc","address":"Πατησίων 339, Αθήνα 111 44","categoryIds":["desserts"],"categories":["Dessert Shops"],"distanceKm":0.5283346468274254},{"id":"cheapEatsRestaurants_a39f2b17c80c","slug":"i-vasiliki-psitopoleio-soyvlakopoleio-a39f","kind":"restaurant","name":"Η Βασιλική - Ψητοπωλείο Σουβλακοπωλείο","lat":38.01712717421362,"lng":23.740908436131292,"url":"https://maps.app.goo.gl/5zkEPJhoVXLaVYeF7?g_st=ipc","address":"Μαρκορά 25, Αθήνα 111 41","categoryIds":["cheap-eats"],"categories":["Gyros & Cheap Eats"],"distanceKm":0.6682090669196864},{"id":"cheapEatsRestaurants_d184e5cf8bc9","slug":"psitopoleio-o-spyros-soyvlakia-d184","kind":"restaurant","name":"Ψητοπωλείο ο Σπύρος Σουβλάκια","lat":38.01699116177091,"lng":23.725453216560837,"url":"https://maps.app.goo.gl/jiHHELBpUtGUfeV87?g_st=ipc","address":"Βικέλα 33, Αθήνα 111 45","categoryIds":["cheap-eats"],"categories":["Gyros & Cheap Eats"],"distanceKm":0.6881611606504776},{"id":"cheapEatsRestaurants_204d68c7c535","slug":"to-ariston-204d","kind":"restaurant","name":"ΤΟ ΑΡΙΣΤΟΝ","lat":38.022955608499146,"lng":23.735820169983455,"url":"https://maps.app.goo.gl/TRT4ewxJ6pQL8ffBA?g_st=ipc","address":"Πατησίων 349, Αθήνα 111 44","categoryIds":["cheap-eats"],"categories":["Gyros & Cheap Eats"],"distanceKm":0.7297843181847126},{"id":"luxuryDiningRestaurants_fc72bbd8d95c","slug":"thanasis-1948-fc72","kind":"restaurant","name":"Θανάσης 1948","lat":38.01944995786154,"lng":23.725569046206015,"url":"https://maps.app.goo.gl/Dz6PnDZaCe8Db55q7?g_st=ipc","address":"Κων/νου Καβάφη 48, Αθήνα 111 43","categoryIds":["luxury-dining"],"categories":["Luxury Dining"],"distanceKm":0.7430729119664109},{"id":"greekRestaurants_7e2e5838aa91","slug":"arolithos-7e2e","kind":"restaurant","name":"Αρόλιθος","lat":38.022714668636375,"lng":23.738679463378304,"url":"https://maps.app.goo.gl/kNua9KhyTtnEhKVV9","address":"Αγίας Λαύρας 70, Αθήνα 111 41","categoryIds":["greek-restaurants"],"categories":["Greek Restaurants"],"distanceKm":0.8181433504558903},{"id":"monasteriesChurches_7d585aed6cfa","slug":"ieros-naos-koimiseos-tis-theotokoy-panagitsa-7d58","kind":"restaurant","name":"Ιερός Ναός Κοιμήσεως της Θεοτόκου (Παναγίτσα)","lat":38.01727711784317,"lng":23.744778782538283,"url":"https://maps.app.goo.gl/RDMFUG49GBgqceAu8?g_st=ipc","address":"Ανδρεόπουλου 2, Αθήνα 111 41","categoryIds":["monasteries-churches"],"categories":["Monasteries & Spiritual Sites"],"distanceKm":1.0076155714492272},{"id":"familyFriendly_acd0cfc71ead","slug":"o-lofos-toy-paidioy-acd0","kind":"restaurant","name":"Ο Λόφος του παιδιού","lat":38.01260579188783,"lng":23.744735148228322,"url":"https://maps.app.goo.gl/FRgTyn4QAqJnFsYb8?g_st=ic","address":"Δρίσκου, Passov &, Galatsi 111 46","categoryIds":["family-friendly"],"categories":["Kid Friendly Locations"],"distanceKm":1.1003723592967785},{"id":"greekRestaurants_cf4d36c85e78","slug":"paradosiaki-taverna-o-spanos-cf4d","kind":"restaurant","name":"Παραδοσιακή Ταβέρνα ο Σπανός","lat":38.01128559769368,"lng":23.722291820236695,"url":"https://maps.app.goo.gl/M1LDEQBwqFbK8g7Y6","address":"Αριστείδου Οικονόμου 12, Αθήνα 104 45","categoryIds":["greek-restaurants"],"categories":["Greek Restaurants"],"distanceKm":1.1368836839302436},{"id":"greekRestaurants_0c72524c082e","slug":"gia-des-gkarnten-0c72","kind":"restaurant","name":"Για Δες Γκάρντεν","lat":38.02025659339306,"lng":23.745905469042288,"url":"https://maps.app.goo.gl/aLm6k1HqkUoU9PxE8","address":"Χαλεπά 68, Αθήνα 111 41","categoryIds":["greek-restaurants"],"categories":["Greek Restaurants"],"distanceKm":1.1729298592112247},{"id":"dessertsRestaurants_27cc6726185a","slug":"zacharoplasteia-kosmikon-ag-nikolaos-27cc","kind":"restaurant","name":"ΖΑΧΑΡΟΠΛΑΣΤΕΙΑ ΚΟΣΜΙΚΟΝ ΑΓ.ΝΙΚΟΛΑΟΣ","lat":38.00667700680062,"lng":23.72782119868635,"url":"https://maps.app.goo.gl/qDYpfn8xkLTr164U7?g_st=ipc","address":"Λεωφ. Ιωνίας 104, Αθήνα 104 46","categoryIds":["desserts"],"categories":["Dessert Shops"],"distanceKm":1.2134724257790197},{"id":"dessertsRestaurants_903707df6326","slug":"papliber-9037","kind":"restaurant","name":"PapLiber","lat":38.021403205203185,"lng":23.74592719548837,"url":"https://maps.app.goo.gl/3KG3eWHdUB7oyaGD7?g_st=ipc","address":"Γεωργούλια Αγησιλάου 10, Αθήνα 111 42","categoryIds":["desserts"],"categories":["Dessert Shops"],"distanceKm":1.2235407497688673},{"id":"greekRestaurants_7620f2ece9a6","slug":"mpompyras-7620","kind":"restaurant","name":"Μπόμπυρας","lat":38.00484148971816,"lng":23.732856919000913,"url":"https://maps.app.goo.gl/9Ay3zpP2cfdFbPpw8","address":"Ευπαλίνου 21, Αθήνα 112 53","categoryIds":["greek-restaurants"],"categories":["Greek Restaurants"],"distanceKm":1.319177440777525},{"id":"cheapEatsRestaurants_3855239555fb","slug":"oi-meraklides-3855","kind":"restaurant","name":"Οι Μερακλήδες","lat":38.005421507151304,"lng":23.738069532004765,"url":"https://maps.app.goo.gl/cQBiuhmvhu6SiSrp9?g_st=ipc","address":"Αγίας Ζώνης 60, Αθήνα 112 56","categoryIds":["cheap-eats"],"categories":["Gyros & Cheap Eats"],"distanceKm":1.3218922359158072},{"id":"cheapEatsRestaurants_cbf0a0d9c1b3","slug":"lamprinaki-cbf0","kind":"restaurant","name":"Λαμπρινάκι","lat":38.0224148920344,"lng":23.747555518536878,"url":"https://maps.app.goo.gl/M5T9Z6KajRqpaNBA7?g_st=ipc","address":"Τράλλεων 67, Αθήνα 111 42","categoryIds":["cheap-eats"],"categories":["Gyros & Cheap Eats"],"distanceKm":1.4011630431133042},{"id":"greekRestaurants_c66e14e23e12","slug":"stoy-lagoydaki-c66e","kind":"restaurant","name":"Στου Λαγουδάκη","lat":38.02939885957541,"lng":23.734627277985574,"url":"https://maps.app.goo.gl/4j67R3hXxbhm8zc98","address":"Λεωφ. Δεκελείας 36, Νέα Χαλκηδόνα 143 43","categoryIds":["greek-restaurants"],"categories":["Greek Restaurants"],"distanceKm":1.4168270326198487},{"id":"municipalities_5c4c490c8c5a","slug":"galatsi-5c4c","kind":"municipality","name":"Γαλάτσι","lat":38.0167,"lng":23.75,"aliases":["Galatsi","Galatsia","Γαλατσι","Galatsion"],"region":"Βόρεια Προάστια","name_en":"Galatsi","region_en":"Northern Suburbs","distanceKm":1.4629674367636438},{"id":"greekRestaurants_3fdb385cf32e","slug":"dylan-3fdb","kind":"restaurant","name":"Dylan","lat":38.004029735437285,"lng":23.737919535339657,"url":"https://maps.app.goo.gl/BnADd9od1HHo98uB7?g_st=ipc","address":"Agias Zonis 38, Athina 113 64","categoryIds":["greek-restaurants"],"categories":["Greek Restaurants"],"distanceKm":1.4658478901766596},{"id":"dessertsRestaurants_9a1aa3339c46","slug":"eva-9a1a","kind":"restaurant","name":"Eva","lat":38.015131929032286,"lng":23.750456340002337,"url":"https://maps.app.goo.gl/GBYXZRmRKUPq81F8A?g_st=ic","address":"Karaiskaki 16, Galatsi 111 46","categoryIds":["desserts"],"categories":["Dessert Shops"],"distanceKm":1.5130404131932345},{"id":"greekRestaurants_fa7cc6bab7be","slug":"lefkes-on-the-side-fa7c","kind":"restaurant","name":"Lefkes on the Side","lat":38.013850196604025,"lng":23.75041166079297,"url":"https://maps.app.goo.gl/bBjijsL8Z595BXhZ7","address":"Λεωφ. Γαλατσίου 98, Γαλάτσι 111 46","categoryIds":["greek-restaurants"],"categories":["Greek Restaurants"],"distanceKm":1.5321859723690932},{"id":"greekRestaurants_24b930305a8e","slug":"leykes-24b9","kind":"restaurant","name":"Λεύκες","lat":38.01369593012145,"lng":23.750720348183243,"url":"https://maps.app.goo.gl/f11Mf8a6b4eezgj29","address":"Λεωφ. Γαλατσίου 100, Γαλάτσι 111 46","categoryIds":["greek-restaurants"],"categories":["Greek Restaurants"],"distanceKm":1.5622330465631347},{"id":"coffeeBrunchRestaurants_8eea389a06d0","slug":"santo-belto-8eea","kind":"restaurant","name":"Santo Belto","lat":38.00295539657206,"lng":23.737407823969118,"url":"https://maps.app.goo.gl/ZWa6fMfeNKbHNQGB7?g_st=ipc","address":"Αγίας Ζώνης 21, Αθήνα 113 61","categoryIds":["coffee-brunch","desserts"],"categories":["Coffee & Brunch Spots","Dessert Shops"],"legacySlugs":["santo-belto-1567"],"distanceKm":1.570131996465924}],"sameRegion":[{"id":"municipalities_0889636ab7df","slug":"petralona-0889","kind":"municipality","name":"Πετράλωνα","lat":37.9656,"lng":23.7108,"region":"Κέντρο Αθήνας","name_en":"Petralona","region_en":"Athens Center"},{"id":"municipalities_0cae2c00b932","slug":"kolonaki-0cae","kind":"municipality","name":"Κολωνάκι","lat":37.9769,"lng":23.7436,"aliases":["Kolonaki"],"region":"Κέντρο Αθήνας","name_en":"Kolonaki","region_en":"Athens Center"},{"id":"municipalities_0eb5ad956816","slug":"neos-kosmos-0eb5","kind":"municipality","name":"Νέος Κόσμος","lat":37.9563,"lng":23.7289,"region":"Κέντρο Αθήνας","name_en":"Neos Kosmos","region_en":"Athens Center"},{"id":"municipalities_0fd1d03201a0","slug":"mets-0fd1","kind":"municipality","name":"Μετς","lat":37.9685,"lng":23.7453,"region":"Κέντρο Αθήνας","name_en":"Mets","region_en":"Athens Center"},{"id":"municipalities_1760d194c086","slug":"ampelokipoi-1760","kind":"municipality","name":"Αμπελόκηποι","lat":38.002,"lng":23.753,"aliases":["Ampelopoi","Ampelokipoi","Ampelokipi","Αμπελοκηποι","Αμπελοκηπι"],"region":"Κέντρο Αθήνας","name_en":"Ambelokipi","region_en":"Athens Center"},{"id":"municipalities_2bcfcb8b899f","slug":"psyrri-2bcf","kind":"municipality","name":"Ψυρρή","lat":37.9761,"lng":23.7246,"aliases":["Psirri","Psyrri"],"region":"Κέντρο Αθήνας","name_en":"Psyrri","region_en":"Athens Center"},{"id":"municipalities_2dbf77b73060","slug":"royf-2dbf","kind":"municipality","name":"Ρουφ","lat":37.9767,"lng":23.7074,"region":"Κέντρο Αθήνας","name_en":"Rouf","region_en":"Athens Center"},{"id":"municipalities_2f324ee27306","slug":"exarcheia-2f32","kind":"municipality","name":"Εξάρχεια","lat":37.984,"lng":23.7365,"aliases":["Exarchia","Eksarheia","Εξαρχεια","Εξαρχειά","Exarxia","Eksarchia"],"region":"Κέντρο Αθήνας","name_en":"Exarcheia","region_en":"Athens Center"},{"id":"municipalities_2ffafd41aa54","slug":"votanikos-2ffa","kind":"municipality","name":"Βοτανικός","lat":37.9813,"lng":23.6984,"region":"Κέντρο Αθήνας","name_en":"Votanikos","region_en":"Athens Center"},{"id":"municipalities_4149fa79e27b","slug":"akropoli-4149","kind":"municipality","name":"Ακρόπολη","lat":37.9715,"lng":23.7257,"region":"Κέντρο Αθήνας","name_en":"Acropolis","region_en":"Athens Center"},{"id":"municipalities_5bc013791cf8","slug":"plaka-5bc0","kind":"municipality","name":"Πλάκα","lat":37.9726,"lng":23.7297,"region":"Κέντρο Αθήνας","name_en":"Plaka","region_en":"Athens Center"},{"id":"municipalities_616efd2a0d9b","slug":"koykaki-616e","kind":"municipality","name":"Κουκάκι","lat":37.9647,"lng":23.7264,"aliases":["Kukaki"],"region":"Κέντρο Αθήνας","name_en":"Koukaki","region_en":"Athens Center"},{"id":"municipalities_61eaea5bd3d9","slug":"ilisia-61ea","kind":"municipality","name":"Ιλίσια","lat":37.9789,"lng":23.7572,"region":"Κέντρο Αθήνας","name_en":"Ilisia","region_en":"Athens Center"},{"id":"municipalities_75ddb64a42fd","slug":"gyzi-75dd","kind":"municipality","name":"Γύζη","lat":37.9933,"lng":23.7439,"aliases":["Γυζη","Gizi"],"region":"Κέντρο Αθήνας","name_en":"Gyzi","region_en":"Athens Center"},{"id":"municipalities_7e1691d5f08d","slug":"metaxoyrgeio-7e16","kind":"municipality","name":"Μεταξουργείο","lat":37.9843,"lng":23.7219,"region":"Κέντρο Αθήνας","name_en":"Metaxourgeio","region_en":"Athens Center"},{"id":"municipalities_80c55a9453fa","slug":"ano-petralona-80c5","kind":"municipality","name":"Άνω Πετράλωνα","lat":37.9689,"lng":23.7139,"aliases":["Ανω Πετραλωνα"],"region":"Κέντρο Αθήνας","name_en":"Ano Petralona","region_en":"Athens Center"}],"mentionedGuides":[],"canonicalSlug":"patisia-2382","enrichment":{"summary_en":"Πατήσια is a curated neighborhood area in Κέντρο Αθήνας. It is connected to 7 nearby Googlementor picks to help travelers build a stronger local route.","summary_el":"Πατήσια είναι ένα επιλεγμένο σημείο ενδιαφέροντος στην περιοχή Κέντρο Αθήνας. Συνδέεται με 7 κοντινές προτάσεις του Googlementor για πιο ολοκληρωμένη εμπειρία.","vibe_tags":["local-neighborhood","base-for-exploring"],"best_for":["first-time visitors","walk-and-explore days","return visitors"],"visit_moments":["late morning walks","sunset exploration"],"practical_note":"7 curated places are within walkable distance from this area center.","nearby_walkable_count":7,"nearby_count_2km":55,"confidence":0.6},"areaContext":{"slug":"patisia","name":"Patisia","nameEl":"Πατήσια"},"intentContexts":[]},"__N_SSG":true}