{"pageProps":{"entity":{"id":"greekRestaurants_aef3c7ab6fff","slug":"raya-restaurant-aef3","kind":"restaurant","name":"Raya Restaurant","lat":37.447203705932054,"lng":25.32781079619138,"url":"https://maps.app.goo.gl/o2CmGDpmsR1Y7FaG8?g_st=ipc","address":"Akti Kampani, Mykonos,Kyklades, Greece, Mikonos","categoryIds":["greek-restaurants"],"categories":["Greek Restaurants"]},"sameCategory":[{"id":"greekRestaurants_e3103759958a","slug":"amades-mykonos-e310","kind":"restaurant","name":"Αμάδες Μύκονος","lat":37.44719522572323,"lng":25.32858432213716,"url":"https://maps.app.goo.gl/cASBbZQCjQukNFg88?g_st=ipc","address":"Καμπάνη 2, Μύκονος 846 00","categoryIds":["greek-restaurants"],"categories":["Greek Restaurants"]},{"id":"greekRestaurants_72c19d32a8b6","slug":"local-bbq-souvlaki-mykonos-delivery-72c1","kind":"restaurant","name":"Local BBQ & Souvlaki Mykonos - Delivery","lat":37.44672138479704,"lng":25.33835911787914,"url":"https://maps.app.goo.gl/smobAtRLSyc56rHg8?g_st=ipc","address":"Argyraina, Επαρ.Οδ. Μυκόνου-'Ανω Μεριάς 1422, Μύκονος 846 00","categoryIds":["greek-restaurants"],"categories":["Greek Restaurants"]},{"id":"greekRestaurants_e4bc58632d82","slug":"i-mortissa-e4bc","kind":"restaurant","name":"Η Μόρτισσα","lat":37.445499840376385,"lng":25.33915107946274,"url":"https://maps.app.goo.gl/N1vfxuYLu3Ld3pfT6?g_st=ipc","address":"Αγιου Γεωργίου Αργύραινα, Μύκονος 846 00","categoryIds":["greek-restaurants"],"categories":["Greek Restaurants"]},{"id":"greekRestaurants_d1b39b4f3e00","slug":"amethystos-mykonos-d1b3","kind":"restaurant","name":"Amethystos Mykonos","lat":37.43458136770975,"lng":25.342119704198275,"url":"https://maps.app.goo.gl/AKNrBroi1VZKtHvZ7?g_st=ipc","address":"Μύκονος 846 00","categoryIds":["greek-restaurants"],"categories":["Greek Restaurants"]},{"id":"greekRestaurants_4f8fc805eb7d","slug":"to-karteri-4f8f","kind":"restaurant","name":"Το καρτερι","lat":37.432738323612284,"lng":25.341244801500245,"url":"https://maps.app.goo.gl/ZPLYvNbeUn9uhSA56?g_st=ipc","address":"Προς Παρανταις, Μύκονος 846 00","categoryIds":["greek-restaurants"],"categories":["Greek Restaurants"]},{"id":"greekRestaurants_d2f8ae2f57fa","slug":"lounda-pikantiki-gwnia-d2f8","kind":"restaurant","name":"Lounda Pikantiki Gwnia","lat":37.42680560196533,"lng":25.33370246443575,"url":"https://maps.app.goo.gl/QdG8cnBoWYdPGKcT8?g_st=ipc","address":"Unnamed Rd, Ψαρρού 846 00","categoryIds":["greek-restaurants"],"categories":["Greek Restaurants"]},{"id":"greekRestaurants_5401b7812885","slug":"xarathymio-5401","kind":"restaurant","name":"Ξαραθυμιο","lat":37.43064695338044,"lng":25.34483466442765,"url":"https://maps.app.goo.gl/k93muyVGMB9vZMRS6?g_st=ipc","address":"Skalado 846 00","categoryIds":["greek-restaurants"],"categories":["Greek Restaurants"]},{"id":"greekRestaurants_566686612459","slug":"to-apomero-5666","kind":"restaurant","name":"To Apomero","lat":37.42477406853952,"lng":25.32149373228756,"url":"https://maps.app.goo.gl/4yepbmXBXgqmqxi48?g_st=ipc","address":"Ορνός 846 00","categoryIds":["greek-restaurants"],"categories":["Greek Restaurants"]},{"id":"greekRestaurants_fd2d9ae97a1c","slug":"taverna-limnios-fd2d","kind":"restaurant","name":"Ταβέρνα Λημνιός","lat":37.470033111393306,"lng":25.320588998237778,"url":"https://maps.app.goo.gl/LoJPibjGdzyxuBco6?g_st=ipc","address":"Άγιος Στέφανος 0, Αγ. Στέφανος 846 00","categoryIds":["greek-restaurants"],"categories":["Greek Restaurants"]},{"id":"greekRestaurants_65a0b2970a3d","slug":"apaggio-restaurant-65a0","kind":"restaurant","name":"Apaggio Restaurant","lat":37.420283656696064,"lng":25.32646761589959,"url":"https://maps.app.goo.gl/UwjfqnkpvGWAV4zJ7?g_st=ipc","address":"Beach, BEFORE SANTA MARINA ENTRANCE, Ορνός 846 00","categoryIds":["greek-restaurants"],"categories":["Greek Restaurants"]},{"id":"greekRestaurants_b8d7854bf51f","slug":"nikos-gallop-restaurant-b8d7","kind":"restaurant","name":"Nikos Gallop Restaurant","lat":37.416901979165324,"lng":25.339315264425487,"url":"https://maps.app.goo.gl/naifPWfQpWokWye89?g_st=ipc","address":"Just between Platis Gialos and Psarou beaches On the way to Platys Gialos, Ψαρρού 846 00","categoryIds":["greek-restaurants"],"categories":["Greek Restaurants"]},{"id":"greekRestaurants_2b565e597e47","slug":"ayli-toy-thodori-2b56","kind":"restaurant","name":"Αυλή του Θοδωρή","lat":37.414288033794946,"lng":25.342693930138903,"url":"https://maps.app.goo.gl/XiVRj8K4Pw27o6cv7?g_st=ipc","address":"Πλατύς Γιαλός 846 00","categoryIds":["greek-restaurants"],"categories":["Greek Restaurants"]}],"nearby":[{"id":"fishTavernasRestaurants_27b9fb6e85c7","slug":"captain-s-food-for-sharing-27b9","kind":"restaurant","name":"Captain's - Food for Sharing","lat":37.44729761897664,"lng":25.32716222892849,"url":"https://maps.app.goo.gl/cVYzE7woRBCoPvRG9?g_st=ipc","address":"Mykonos Waterfront, Mikonos 846 00","categoryIds":["fish-tavernas"],"categories":["Fish Tavernas"],"distanceKm":0.05819948587757695},{"id":"fishTavernasRestaurants_f9baec1ee464","slug":"kounelas-fish-tavern-f9ba","kind":"restaurant","name":"Kounelas Fish Tavern","lat":37.447078731895196,"lng":25.327109291093613,"url":"https://maps.app.goo.gl/zGu4QC3RAJ8qwFzE6?g_st=ipc","address":"ODOS SVORONOU, Mikonos 846 00","categoryIds":["fish-tavernas"],"categories":["Fish Tavernas"],"distanceKm":0.06346837278221562},{"id":"greekRestaurants_e3103759958a","slug":"amades-mykonos-e310","kind":"restaurant","name":"Αμάδες Μύκονος","lat":37.44719522572323,"lng":25.32858432213716,"url":"https://maps.app.goo.gl/cASBbZQCjQukNFg88?g_st=ipc","address":"Καμπάνη 2, Μύκονος 846 00","categoryIds":["greek-restaurants"],"categories":["Greek Restaurants"],"distanceKm":0.06829276918013895},{"id":"luxuryDiningRestaurants_cc0b0cabfb61","slug":"drakoulis-dry-raw-mykonos-cc0b","kind":"restaurant","name":"Drakoulis Dry & Raw Mykonos","lat":37.447121066093636,"lng":25.329034852890235,"url":"https://maps.app.goo.gl/K5Lrunurc26by6vJ6?g_st=ipc","address":"Mykonos 846 00","categoryIds":["luxury-dining"],"categories":["Luxury Dining"],"distanceKm":0.10844882105949984},{"id":"municipalities_094e7414e11a","slug":"mykonos-094e","kind":"municipality","name":"Μύκονος","lat":37.4467,"lng":25.3289,"aliases":["Mikonos","Μύκονα","Μυκονος","Mykonos","Myconos"],"region":"Κυκλάδες","name_en":"Mykonos","region_en":"Cyclades","distanceKm":0.11127772361687145},{"id":"fishTavernasRestaurants_08df03bfa4f6","slug":"to-maereio-08df","kind":"restaurant","name":"To Maereio","lat":37.44594592016657,"lng":25.32865488584039,"url":"https://maps.app.goo.gl/FeCit9aZLtZzL7DP8?g_st=ipc","address":"Ν, Kalogera 16, Mikonos 846 00","categoryIds":["fish-tavernas"],"categories":["Fish Tavernas"],"distanceKm":0.15847180523252205},{"id":"italianRestaurants_3ea0826fab26","slug":"casa-di-giorgio-mykonos-3ea0","kind":"restaurant","name":"Casa di Giorgio Mykonos","lat":37.44560651190884,"lng":25.326934720051547,"url":"https://maps.app.goo.gl/Cf4S8nv5DHQYNzkR7?g_st=ipc","address":"Mitropoleos 1, Hora 846 00","categoryIds":["italian"],"categories":["Italian Restaurants"],"distanceKm":0.1937090869120889},{"id":"luxuryDiningRestaurants_dad780fcff6d","slug":"interni-restaurant-dad7","kind":"restaurant","name":"Interni Restaurant","lat":37.44559204956145,"lng":25.328710304133274,"url":"https://maps.app.goo.gl/x3D3HYwjgPTE7gGp6?g_st=ipc","address":"Matogianni, Mikonos 846 00","categoryIds":["luxury-dining"],"categories":["Luxury Dining"],"distanceKm":0.1960134007762539},{"id":"dessertsRestaurants_fbeaff5bdac1","slug":"dopio-gelato-mykonos-fbea","kind":"restaurant","name":"Dopio Gelato Mykonos","lat":37.44519875814453,"lng":25.327173016826194,"url":"https://maps.app.goo.gl/Sp8BxDU518brNxns5?g_st=ipc","address":"Dopio Gelato Mykonos","categoryIds":["desserts"],"categories":["Dessert Shops"],"distanceKm":0.2299398342712073},{"id":"luxuryDiningRestaurants_acb4788667d5","slug":"noema-acb4","kind":"restaurant","name":"Noema","lat":37.44557471142449,"lng":25.32948165492457,"url":"https://maps.app.goo.gl/Zjd8gVv5zkQ4UZxa9?g_st=ipc","address":"Panachra, Mikonos 846 00","categoryIds":["luxury-dining"],"categories":["Luxury Dining"],"distanceKm":0.23359700437790584},{"id":"luxuryDiningRestaurants_864249c0b1ea","slug":"lio-mykonos-8642","kind":"restaurant","name":"Lío Mykonos","lat":37.44500603308255,"lng":25.32823624391178,"url":"https://maps.app.goo.gl/hS1c8JjDNAyUufSc6?g_st=ipc","address":"Enoplon Dinameon 6, Mikonos 846 00","categoryIds":["luxury-dining"],"categories":["Luxury Dining"],"distanceKm":0.24723954079792856},{"id":"italianRestaurants_abc3cc5c720d","slug":"d-angelo-abc3","kind":"restaurant","name":"D'Angelo","lat":37.44362332101064,"lng":25.32719398144958,"url":"https://maps.app.goo.gl/AvAZtykcYFB85kTp6?g_st=ipc","address":"Axioti, Mikonos 846 00","categoryIds":["italian"],"categories":["Italian Restaurants"],"distanceKm":0.4018273209482501},{"id":"asianRestaurants_db50748440dc","slug":"bambao-mykonos-db50","kind":"restaurant","name":"Bambao Mykonos","lat":37.44323173271624,"lng":25.328446119011353,"url":"https://maps.app.goo.gl/5qdrvDCYUmZRn2Jf6?g_st=ipc","address":"Fabrika, Mikonos 846 00","categoryIds":["asian"],"categories":["Asian Restaurants"],"distanceKm":0.44521031836386554},{"id":"coffeeBrunchRestaurants_7d7ce290df83","slug":"dalu-7d7c","kind":"restaurant","name":"Dalu","lat":37.44946196330255,"lng":25.332037598705416,"url":"https://maps.app.goo.gl/qaooHUUn5SotjYdJA?g_st=ipc","address":"Dalu, Mikonos 846 00","categoryIds":["coffee-brunch"],"categories":["Coffee & Brunch Spots"],"distanceKm":0.44975875721096403},{"id":"dessertsRestaurants_0d1a14ec5981","slug":"i-scream-homemade-ice-cream-cafe-0d1a","kind":"restaurant","name":"I SCREAM homemade ice cream-cafe","lat":37.443153733966156,"lng":25.32768461351495,"url":"https://maps.app.goo.gl/figeZhjJhW1w1WGh6?g_st=ipc","address":"20 Street Fabrica Sq, Xenias, Mikonos 846 00","categoryIds":["desserts"],"categories":["Dessert Shops"],"distanceKm":0.45047409035113245},{"id":"luxuryDiningRestaurants_ed9cd1741842","slug":"matsuhisa-mykonos-ed9c","kind":"restaurant","name":"Matsuhisa Mykonos","lat":37.44329085125445,"lng":25.330097754352987,"url":"https://maps.app.goo.gl/WTcgX6M9Jp2R7YGdA?g_st=ipc","address":"Belvedere Hotel School of Fine Arts District, Agiou Ioannou 1, Mikonos 846 00","categoryIds":["luxury-dining"],"categories":["Luxury Dining"],"distanceKm":0.47965091072999605},{"id":"mexicanRestaurants_c15838bdee62","slug":"azul-condesa-mykonos-c158","kind":"restaurant","name":"Azul Condesa Mykonos","lat":37.445318743092045,"lng":25.33424731325651,"url":"https://maps.app.goo.gl/PtCSKGqYbgCdSXyz5?g_st=ipc","address":"Πετειναρος, Μύκονος 846 00","categoryIds":["mexican"],"categories":["Mexican Restaurants"],"distanceKm":0.6056425314962912},{"id":"dessertsRestaurants_84cc29a238aa","slug":"kyklamino-patisserie-84cc","kind":"restaurant","name":"Kyklamino Patisserie","lat":37.44220457179905,"lng":25.335568445326103,"url":"https://maps.app.goo.gl/dBRJbrtLhCesFwGn6?g_st=ic","address":"Mykonos 846 00","categoryIds":["desserts"],"categories":["Dessert Shops"],"distanceKm":0.8820638672472814},{"id":"coffeeBrunchRestaurants_f9e9f62cb460","slug":"el-burro-mykonos-f9e9","kind":"restaurant","name":"El Burro Mykonos","lat":37.44164494565894,"lng":25.3350374340187,"url":"https://maps.app.goo.gl/mFrsGY4rfvzHZgy28?g_st=ipc","address":"37°26'30.4\"N 25°20'06.2\"E, Mikonos 846 00","categoryIds":["coffee-brunch"],"categories":["Coffee & Brunch Spots"],"distanceKm":0.8883020318303815},{"id":"coffeeBrunchRestaurants_ccfcae3739b1","slug":"the-liberty-breakfast-room-ccfc","kind":"restaurant","name":"The Liberty Breakfast Room","lat":37.44002249548534,"lng":25.33319976309242,"url":"https://maps.app.goo.gl/ytWHokwwmW4y1Baq5?g_st=ipc","address":"the liberty breakfast room, Mikonos 846 00","categoryIds":["coffee-brunch"],"categories":["Coffee & Brunch Spots"],"distanceKm":0.9294994160589061},{"id":"greekRestaurants_72c19d32a8b6","slug":"local-bbq-souvlaki-mykonos-delivery-72c1","kind":"restaurant","name":"Local BBQ & Souvlaki Mykonos - Delivery","lat":37.44672138479704,"lng":25.33835911787914,"url":"https://maps.app.goo.gl/smobAtRLSyc56rHg8?g_st=ipc","address":"Argyraina, Επαρ.Οδ. Μυκόνου-'Ανω Μεριάς 1422, Μύκονος 846 00","categoryIds":["greek-restaurants"],"categories":["Greek Restaurants"],"distanceKm":0.9327436025041036},{"id":"greekRestaurants_e4bc58632d82","slug":"i-mortissa-e4bc","kind":"restaurant","name":"Η Μόρτισσα","lat":37.445499840376385,"lng":25.33915107946274,"url":"https://maps.app.goo.gl/N1vfxuYLu3Ld3pfT6?g_st=ipc","address":"Αγιου Γεωργίου Αργύραινα, Μύκονος 846 00","categoryIds":["greek-restaurants"],"categories":["Greek Restaurants"],"distanceKm":1.018892524372085},{"id":"mexicanRestaurants_9cdc9098224f","slug":"el-dorado-9cdc","kind":"restaurant","name":"El Dorado","lat":37.4384356377363,"lng":25.332482232008008,"url":"https://maps.app.goo.gl/Z4qdJprni1KMQm3YA?g_st=ipc","address":"Epar.Od. Mikonou, Mikonos 846 00","categoryIds":["mexican"],"categories":["Mexican Restaurants"],"distanceKm":1.0586038608032835},{"id":"luxuryDiningRestaurants_137cd7d1e18b","slug":"yevo-by-bill-coo-mykonos-137c","kind":"restaurant","name":"YĒVO By Bill&Coo Mykonos","lat":37.43758072227673,"lng":25.32795511521471,"url":"https://maps.app.goo.gl/dgiE2BaNVt8Jhb1F6?g_st=ipc","address":"Μεγάλη Άμμος, Mikonos 846 00","categoryIds":["luxury-dining"],"categories":["Luxury Dining"],"distanceKm":1.0701028158725383}],"sameRegion":[],"mentionedGuides":[],"canonicalSlug":"raya-restaurant-aef3","enrichment":{"summary_en":"Raya Restaurant is a curated restaurant in Mikonos in the Greek Restaurants collection. It is connected to 17 nearby Googlementor picks to help travelers build a stronger local route.","summary_el":"Raya Restaurant είναι ένα επιλεγμένο σημείο φαγητού στην περιοχή Mikonos και ανήκει στη συλλογή Greek Restaurants. Συνδέεται με 17 κοντινές προτάσεις του Googlementor για πιο ολοκληρωμένη εμπειρία.","vibe_tags":["curated"],"best_for":["first-time visitors","food lovers"],"visit_moments":["lunch stop","dinner stop"],"practical_note":"Address and direct map link are available for easy turn-by-turn access.","nearby_walkable_count":17,"nearby_count_2km":33,"confidence":0.98},"areaContext":{"slug":"mykonos","name":"Mykonos","nameEl":"Μύκονος"},"intentContexts":[{"href":"/greek-restaurants/mykonos","label":"Greek Restaurants in Mykonos","categorySlug":"greek-restaurants","categoryName":"Greek Restaurants","areaSlug":"mykonos","areaName":"Mykonos","areaNameEl":"Μύκονος"}]},"__N_SSG":true}