[
  {
    "url": "https://maps.app.goo.gl/AtknvuaCHijVG2ha8?g_st=ipc",
    "name": "Ο ΦΩΤΗΣ",
    "address": "17ης Νοεμβρίου 122, Χολαργός 155 62",
    "lat": "37.997971184116544",
    "lng": "23.807075270455382"
  },
  {
    "url": "https://maps.app.goo.gl/ixb3zjYZ1Wg65gYq8?g_st=ipc",
    "name": "Jackaroo",
    "address": "Ηρ. Πολυτεχνείου 8, Αγ. Παρασκευή 153 43",
    "lat": "38.012488048135104",
    "lng": "23.81953806352836"
  },
  {
    "url": "https://maps.app.goo.gl/dizAr5MBZxwBUbmGA?g_st=ipc",
    "name": "Πίτα Παν",
    "address": "Ευεργέτου Γιαβάση 1, Αγ. Παρασκευή 153 42",
    "lat": "38.012724500083856",
    "lng": "23.82116799472927"
  },
  {
    "url": "https://maps.app.goo.gl/KtAC7AzUgjd3Jmuk8?g_st=ipc",
    "name": "Σπιτική Κουζίνα - Χολαργός",
    "address": "Λεωφ. Περικλέους 50, Χολαργός 155 61",
    "lat": "37.99895841021995",
    "lng": "23.798536677313294"
  },
  {
    "url": "https://maps.app.goo.gl/uKWqbt6RdiChRPZi8?g_st=ipc",
    "name": "Cocofino Η Νέα Γεύση Στο Κοτόπουλο",
    "address": "Φανερωμένης 1α, Χολαργός 155 61",
    "lat": "38.005115910403084",
    "lng": "23.79578002602544"
  },
  {
    "url": "https://maps.app.goo.gl/LQP8izqcwdktGcwX6?g_st=ipc",
    "name": "Dix Sept",
    "address": "25ης Μαρτίου 17, Χολαργός 155 61",
    "lat": "37.99369686292994",
    "lng": "23.79952330912713"
  },
  {
    "url": "https://maps.app.goo.gl/NVZiDeS8yd6auwo78?g_st=ipc",
    "name": "Γευσηδρόμιο",
    "address": "Ασπασίας 63, Χολαργός 155 61",
    "lat": "38.00041852140095",
    "lng": "23.792910266059533"
  },
  {
    "url": "https://maps.app.goo.gl/mqGbLZnM6T5sQ3YF9?g_st=ipc",
    "name": "Πλάτανος Κεμπάπ-Σουβλάκι",
    "address": "Βουτσινά 66, Χολαργός 155 61",
    "lat": "38.00070110906074",
    "lng": "23.792623402226006"
  },
  {
    "url": "https://maps.app.goo.gl/3g2yxFrBJ6V2KPZm7?g_st=ipc",
    "name": "Ο ΕΛΛΗΝΑΡΑΣ",
    "address": "Παλαιολόγου 63, Χαλάνδρι 152 32",
    "lat": "38.017568546798636",
    "lng": "23.799181700850475"
  },
  {
    "url": "https://maps.app.goo.gl/7eU14tbuLV6n9imX7?g_st=ipc",
    "name": "Πάπιγκο",
    "address": "25ης Μαρτίου 9, Χολαργός 155 61",
    "lat": "37.9930301423727",
    "lng": "23.798961270934143"
  },
  {
    "url": "https://maps.app.goo.gl/njaacvURe6u87qaX6?g_st=ipc",
    "name": "Αβραάμ Χολαργός",
    "address": "Αναστάσεως 111, Χολαργός 155 61",
    "lat": "37.99365661341766",
    "lng": "23.796975079778093"
  },
  {
    "url": "https://maps.app.goo.gl/Qngg6pY64nb2i3sX9?g_st=ipc",
    "name": "Σουβλακοχωριό",
    "address": "25ης Μαρτίου 33, Χαλάνδρι 152 32",
    "lat": "38.019021009797974",
    "lng": "23.79620669265203"
  },
  {
    "url": "https://maps.app.goo.gl/dD7x8SrXxBd8mmDX7?g_st=ipc",
    "name": "Holy Pasta Chalandri",
    "address": "Ηρακλείου 3, Χαλάνδρι 152 32",
    "lat": "38.02090646389776",
    "lng": "23.799055964157045"
  },
  {
    "url": "https://maps.app.goo.gl/jvDmvkwHFZFAd18e6?g_st=ipc",
    "name": "Το Σουβλάκι του Χαλανδρίου «Express»",
    "address": "Κολοκοτρώνη 26, Χαλάνδρι 152 33",
    "lat": "38.02210047029897",
    "lng": "23.79733270387276"
  },
  {
    "url": "https://maps.app.goo.gl/z58YmxhSwvtKJai57?g_st=ipc",
    "name": "Curry Express & Indian Chef",
    "address": "Γρ. Γυφτοπούλου 7, Χαλάνδρι 152 33",
    "lat": "38.02245552538877",
    "lng": "23.798012966612305"
  },
  {
    "url": "https://maps.app.goo.gl/f47SevFfDgNbNtWk7?g_st=ipc",
    "name": "Taco Bell",
    "address": "Κολοκοτρώνη 13, Χαλάνδρι 152 33",
    "lat": "38.0228052820458",
    "lng": "23.79853818143159"
  },
  {
    "url": "https://maps.app.goo.gl/47M2HP8TwbyX2Zp37?g_st=ipc",
    "name": "Τα Σουβλάκια της Λίλας",
    "address": "25ης Μαρτίου 41, Νέο Ψυχικό 154 51",
    "lat": "38.005272385766645",
    "lng": "23.785280918308118"
  },
  {
    "url": "https://maps.app.goo.gl/LeEZCDs2GRC6YKuT7?g_st=ipc",
    "name": "Μπαρμπαλιάς",
    "address": "Λεωφ. Βασιλέως Γεωργίου B 6, Χαλάνδρι 152 33",
    "lat": "38.022224299572",
    "lng": "23.79656538042495"
  },
  {
    "url": "https://maps.app.goo.gl/9r8QWiSRkMH7dPqZA?g_st=ipc",
    "name": "Καντίνα - Billy",
    "address": "Λεωφ. Πεντέλης 68, Χαλάνδρι 152 34",
    "lat": "38.02609394796825",
    "lng": "23.81064307512727"
  },
  {
    "url": "https://maps.app.goo.gl/pxJjypQCU2pCdj2c9?g_st=ipc",
    "name": "Καυτερός",
    "address": "Αγρινίου 5, Χαλάνδρι 152 32",
    "lat": "38.01875295817606",
    "lng": "23.790041802148505"
  },
  {
    "url": "https://maps.app.goo.gl/ZXh8jCZFq67QiKQq7?g_st=ipc",
    "name": "Πίτα Παν Ψυχικό",
    "address": "Αγγέλου Σικελιανού 28, Νέο Ψυχικό 154 51",
    "lat": "38.000864793942334",
    "lng": "23.776520342405362"
  },
  {
    "url": "https://maps.app.goo.gl/f1Pk44iqYYgPwZeK9?g_st=ipc",
    "name": "umami",
    "address": "Λεωφ. Πεντέλης 7A, Βριλήσσια 152 35",
    "lat": "38.03544459297975",
    "lng": "23.82429599041442"
  },
  {
    "url": "https://maps.app.goo.gl/CSqgCp2SZrPwcWdC6?g_st=ipc",
    "name": "ΚΡΕΠΗΛΑΤΕΙΟΝ",
    "address": "Λεωφ. Κηφισίας 59, Μαρούσι 151 25",
    "lat": "38.037837677741585",
    "lng": "23.799467140725334"
  },
  {
    "url": "https://maps.app.goo.gl/Krey285b8JEL9p1P8?g_st=ipc",
    "name": "Street Wok",
    "address": "Ampelokipi Menemeni, Πανόρμου 115Ζ, Αθήνα 115 24",
    "lat": "37.993336241687885",
    "lng": "23.765654609990445"
  },
  {
    "url": "https://maps.app.goo.gl/K9azEutYtVeRFeTB9?g_st=ipc",
    "name": "Τα σουβλάκια της γιαγιάς",
    "address": "Κυπρίων Αγωνιστών 50, Μαρούσι 151 26",
    "lat": "38.04199101993577",
    "lng": "23.824597588199378"
  },
  {
    "url": "https://maps.app.goo.gl/VnT5HzaYL2NjnGd27?g_st=ipc",
    "name": "Jackaroo",
    "address": "Πανόρμου 109, Αθήνα 115 24",
    "lat": "37.99342271258061",
    "lng": "23.764131211857187"
  },
  {
    "url": "https://maps.app.goo.gl/xGhyT1vrgFSKodic9?g_st=ipc",
    "name": "ΚΟΥΤΡΟΥΛΗΣ",
    "address": "Βαρνακιώτη 4, Αθήνα 115 24",
    "lat": "37.99585400563359",
    "lng": "23.762177083127305"
  },
  {
    "url": "https://maps.app.goo.gl/99Gr2Rnp3uGrkmWWA?g_st=ipc",
    "name": "Πιάτσα Τυλιχτό",
    "address": "Λαρίσης 33, Αθήνα 115 23",
    "lat": "37.992812158549924",
    "lng": "23.762955305614238"
  },
  {
    "url": "https://maps.app.goo.gl/TvHy3uq6zYjv7y1f9?g_st=ipc",
    "name": "Prunas",
    "address": "Δημ. Γουλιάμου 58, Αθήνα 115 27",
    "lat": "37.98295319401702",
    "lng": "23.765808326891843"
  },
  {
    "url": "https://maps.app.goo.gl/cG4RSw44nHayWytd9?g_st=ipc",
    "name": "Χρύσανθος",
    "address": "Γεωρ. Παπανδρέου 50, Ζωγράφου 157 73",
    "lat": "37.980767151919686",
    "lng": "23.76756797039495"
  },
  {
    "url": "https://maps.app.goo.gl/RXpLLpBphHc6FhZD9?g_st=ipc",
    "name": "Κλασσικόν",
    "address": "Μητροπέτροβα 32, Αθήνα 114 76",
    "lat": "37.99808496466343",
    "lng": "23.757900577588526"
  },
  {
    "url": "https://maps.app.goo.gl/1JBJ1wwqkW21Ww447?g_st=ipc",
    "name": "Delicious Pitta Queen",
    "address": "Πανόρμου 36, Αθήνα 115 23",
    "lat": "37.99092416121966",
    "lng": "23.759496408597567"
  },
  {
    "url": "https://maps.app.goo.gl/SXittnYdkLPeQRb17?g_st=ipc",
    "name": "Πεϊνιρλί Ιωνίας",
    "address": "Πανόρμου 3, Αθήνα 115 22",
    "lat": "37.98758471065417",
    "lng": "23.75770179070527"
  },
  {
    "url": "https://maps.app.goo.gl/PPUd3JeoTmqcayFz5?g_st=ipc",
    "name": "Κεμπάπ Παραδοσιακό",
    "address": "Αμμοχώστου 4, Ζωγράφου 157 71",
    "lat": "37.97476714198204",
    "lng": "23.766791010773026"
  },
  {
    "url": "https://maps.app.goo.gl/4oCtgVQEesHACQsu8?g_st=ipc",
    "name": "Καντίνα \"ο Αλεκος\"",
    "address": "Μαρίνου Αντύπα 47, Ηράκλειο 141 21",
    "lat": "38.04208740467577",
    "lng": "23.77486464859004"
  },
  {
    "url": "https://maps.app.goo.gl/CVaNeQjy77ZiLrEv9?g_st=ipc",
    "name": "Ήπειρος",
    "address": "Μπαταριά 23, Αθήνα 114 76",
    "lat": "37.99468309231883",
    "lng": "23.753514780729763"
  },
  {
    "url": "https://maps.app.goo.gl/Kxmp13A9x2etHv317?g_st=ipc",
    "name": "Τα ψητά της παρέας",
    "address": "Ούλωφ Πάλμε 25, Ζωγράφου 157 71",
    "lat": "37.97804935076976",
    "lng": "23.76224805570561"
  },
  {
    "url": "https://maps.app.goo.gl/LCrvDRPpRco2nVuF9?g_st=ipc",
    "name": "ΥΠΟΥΡΓΕΙΟ ΓΕΥΣΕΩΝ-Σουβλάκι,Ψητά",
    "address": "Φιλοθέης 67, Ηράκλειο 141 21",
    "lat": "38.04303394507047",
    "lng": "23.771779772357615"
  },
  {
    "url": "https://maps.app.goo.gl/tXjW7wXH83v15nHX8?g_st=ipc",
    "name": "Καντίνα Μαβίλη",
    "address": "Δημ. Σούτσου 3, Αθήνα 115 21",
    "lat": "37.98253879036559",
    "lng": "23.7560791108495"
  },
  {
    "url": "https://maps.app.goo.gl/cmE54PPQGsdzvzgz5?g_st=ipc",
    "name": "Νίκος ο Καλαβρυτινός",
    "address": "Εκάβης 63, Γαλάτσι 111 46",
    "lat": "38.024001161887576",
    "lng": "23.75301292455858"
  },
  {
    "url": "https://maps.app.goo.gl/Q2YtxKh8LosNGyHJ6?g_st=ipc",
    "name": "SOUZI TROS street food",
    "address": "Σπύρου Λέκκα 9, Μαρούσι 151 24",
    "lat": "38.0550996125921",
    "lng": "23.804743752516742"
  },
  {
    "url": "https://maps.app.goo.gl/uXenfuTid9hYf6He9?g_st=ipc",
    "name": "Πλάτανος Κεμπάπ-Σουβλάκι",
    "address": "Leof. Dimokratias 69, Melissia 151 27",
    "lat": "38.05130210276415",
    "lng": "23.835854870928635"
  },
  {
    "url": "https://maps.app.goo.gl/GjgUbFCMPcughxPW6?g_st=ipc",
    "name": "Το Ελληνικό Σουβλάκι",
    "address": "Διονύσου 19, Μαρούσι 151 24",
    "lat": "38.055611201936195",
    "lng": "23.805858315965597"
  },
  {
    "url": "https://maps.app.goo.gl/DZ65AFNyxzrNRbqm9?g_st=ipc",
    "name": "Godgilla umami street food",
    "address": "Γεωρ. Κοτζιά 2, Μαρούσι 151 26",
    "lat": "38.05657303145754",
    "lng": "23.81400951461543"
  },
  {
    "url": "https://maps.app.goo.gl/wXj4gGBY4uF6K2yW8?g_st=ipc",
    "name": "ΠΕΙΡΑΣΜΟΣ",
    "address": "Βελβενδού 20, Αθήνα 113 63",
    "lat": "38.00274661999109",
    "lng": "23.744683791776005"
  },
  {
    "url": "https://maps.app.goo.gl/M5T9Z6KajRqpaNBA7?g_st=ipc",
    "name": "Λαμπρινάκι",
    "address": "Τράλλεων 67, Αθήνα 111 42",
    "lat": "38.0224148920344",
    "lng": "23.747555518536878"
  },
  {
    "url": "https://maps.app.goo.gl/uhi56PKbCSVGMvqf8?g_st=ipc",
    "name": "Δραμινός",
    "address": "Σινώπης 62, Νέα Ιωνία 142 33",
    "lat": "38.03491475648599",
    "lng": "23.754928540856955"
  },
  {
    "url": "https://maps.app.goo.gl/FjiCt1o7yoa331UN8?g_st=ipc",
    "name": "ΤΡΙΓΩΝΟ ΜΕΛΙΣΣΙΩΝ",
    "address": "Π. Τσαλδάρη 21, Μελίσσια 151 27",
    "lat": "38.05317998498453",
    "lng": "23.84087862675326"
  },
  {
    "url": "https://maps.app.goo.gl/TceiwQJnedx4muqW7?g_st=ipc",
    "name": "I Love Souvlaki",
    "address": "Λεωφ. Μαραθώνος 72, Παλλήνη 153 51",
    "lat": "38.00365767820438",
    "lng": "23.880036032400344"
  },
  {
    "url": "https://maps.app.goo.gl/KtBirzLenbmGoPCW9?g_st=ipc",
    "name": "Cook And Grill Παλλήνης",
    "address": "Λεωφ. Μαραθώνος 76, Παλλήνη 153 51",
    "lat": "38.00364715720239",
    "lng": "23.880433616458955"
  },
  {
    "url": "https://maps.app.goo.gl/Jtpipww8tzt83Z1fA?g_st=ipc",
    "name": "5Φ",
    "address": "Diocharous 31 &, Κλεισούρας, Αθήνα 161 21",
    "lat": "37.97277642269308",
    "lng": "23.753966804299914"
  },
  {
    "url": "https://maps.app.goo.gl/5zkEPJhoVXLaVYeF7?g_st=ipc",
    "name": "Η Βασιλική - Ψητοπωλείο Σουβλακοπωλείο",
    "address": "Μαρκορά 25, Αθήνα 111 41",
    "lat": "38.01712717421362",
    "lng": "23.740908436131292"
  },
  {
    "url": "https://maps.app.goo.gl/WYXA6LyZWmcPcu219?g_st=ipc",
    "name": "Πίτα Παν",
    "address": "Ιοφώντος 33, Αθήνα 116 34",
    "lat": "37.973982654052946",
    "lng": "23.750253307976614"
  },
  {
    "url": "https://maps.app.goo.gl/oqmBo1caT2qX5wtB9?g_st=ipc",
    "name": "Ταβέρνα - Ψησταριά Μανδράκης",
    "address": "Λεωφ. Εθ. Αντιστάσεως 11, Καισαριανή 161 21",
    "lat": "37.96926409248282",
    "lng": "23.754508850206804"
  },
  {
    "url": "https://maps.app.goo.gl/zmZ9p1KuXBfmeQTP9?g_st=ipc",
    "name": "Κάπρους",
    "address": "Σπετσών 49, Αθήνα 113 62",
    "lat": "37.997892215729216",
    "lng": "23.738708713405035"
  },
  {
    "url": "https://maps.app.goo.gl/cQBiuhmvhu6SiSrp9?g_st=ipc",
    "name": "Οι Μερακλήδες",
    "address": "Αγίας Ζώνης 60, Αθήνα 112 56",
    "lat": "38.005421507151304",
    "lng": "23.738069532004765"
  },
  {
    "url": "https://maps.app.goo.gl/sC6f9QqoMvhYZn9L6?g_st=ipc",
    "name": "Cantina Alexandras",
    "address": "Λεωφ. Αλεξάνδρας 31, Αθήνα 114 73",
    "lat": "37.990601219280784",
    "lng": "23.740100216268857"
  },
  {
    "url": "https://maps.app.goo.gl/YHJtEHPvQRVXwD3F7?g_st=ipc",
    "name": "Hobos Street Grill",
    "address": "Λεωφ. Ηρακλείου 254, Νέα Ιωνία 142 31",
    "lat": "38.04249747641086",
    "lng": "23.753515339761147"
  },
  {
    "url": "https://maps.app.goo.gl/P6rYV5DBevfNLik18?g_st=ipc",
    "name": "Η Θράκα",
    "address": "Υμηττού 58, Αθήνα 116 34",
    "lat": "37.96908730439045",
    "lng": "23.752466160817594"
  },
  {
    "url": "https://maps.app.goo.gl/bKD82egRLvDN81sG9?g_st=ipc",
    "name": "Jackaroo",
    "address": "Φωκίωνος Νέγρη 18, Αθήνα 112 57",
    "lat": "38.00066185886443",
    "lng": "23.735523749834027"
  },
  {
    "url": "https://maps.app.goo.gl/fCW1TYPSHgUdCft78?g_st=ipc",
    "name": "Σουβλακοπωλείον Ρίγανη",
    "address": "Φωκίωνος Νέγρη 15, Αθήνα 112 57",
    "lat": "38.00099448703569",
    "lng": "23.73511231778499"
  },
  {
    "url": "https://maps.app.goo.gl/Q3YXwLTyLfeVdVYX6?g_st=ipc",
    "name": "Το Τέλειον",
    "address": "Λεωφ. Πλαπούτα 20, Ηράκλειο 141 22",
    "lat": "38.05891347949006",
    "lng": "23.77665689156842"
  },
  {
    "url": "https://maps.app.goo.gl/mqY78SsShBqeen4Q9?g_st=ipc",
    "name": "Hayat",
    "address": "Ιπποκράτους 78, Αθήνα 106 80",
    "lat": "37.98451943968109",
    "lng": "23.73920441819002"
  },
  {
    "url": "https://maps.app.goo.gl/f7GyH9GtFQKGQmmS9?g_st=ipc",
    "name": "Διόνυσος",
    "address": "Ιθάκης 12 12, Αθήνα 112 57",
    "lat": "37.99776607364749",
    "lng": "23.735031186199688"
  },
  {
    "url": "https://maps.app.goo.gl/4yeaKT2EdHHJPxdj7?g_st=ipc",
    "name": "Taliban Street Food",
    "address": "Λεωφ. Αμαρουσίου 29, Λυκόβρυση 141 23",
    "lat": "38.06195061055415",
    "lng": "23.783033784917546"
  },
  {
    "url": "https://maps.app.goo.gl/kBQE51oPhVR5sCDu5?g_st=ipc",
    "name": "Αλεξανδρινό Κεμπάπ - Παγκράτι",
    "address": "Υμηττού 90 &, Ιφικράτους, Αθήνα 116 34",
    "lat": "37.9678577883098",
    "lng": "23.74996983153058"
  },
  {
    "url": "https://maps.app.goo.gl/GvWt9fy2W45TxTRs8?g_st=ipc",
    "name": "Ψητοπωλείο ο Θανάσης",
    "address": "Αγ. Τριάδος 42, Παιανία 190 02",
    "lat": "37.95535052108935",
    "lng": "23.854531337453796"
  },
  {
    "url": "https://maps.app.goo.gl/cPZpCzgEKX45Ej6G8?g_st=ipc",
    "name": "Piggy - Πόπουλο",
    "address": "Αρχελάου 16, Αθήνα 116 35",
    "lat": "37.97132961125026",
    "lng": "23.74642727932896"
  },
  {
    "url": "https://maps.app.goo.gl/4TKpFuTdcwscVBCg8?g_st=ipc",
    "name": "Mikra Asia kebap Pagrati",
    "address": "Πλ. Μεσολογγίου 2-4, Αθήνα 116 34",
    "lat": "37.96824148094212",
    "lng": "23.7487971975962"
  },
  {
    "url": "https://maps.app.goo.gl/Nd77xxazm6AtfQmU8?g_st=ipc",
    "name": "Chicken Queen",
    "address": "Ευτυχίδου 47, Αθήνα 116 34",
    "lat": "37.967645038147204",
    "lng": "23.749273032780096"
  },
  {
    "url": "https://maps.app.goo.gl/TRT4ewxJ6pQL8ffBA?g_st=ipc",
    "name": "ΤΟ ΑΡΙΣΤΟΝ",
    "address": "Πατησίων 349, Αθήνα 111 44",
    "lat": "38.022955608499146",
    "lng": "23.735820169983455"
  },
  {
    "url": "https://maps.app.goo.gl/s2djMEVxUXSybams9?g_st=ipc",
    "name": "Το Πικάντικο",
    "address": "Ευτυχίδου 23, Αθήνα 116 34",
    "lat": "37.967862602711925",
    "lng": "23.74738582728181"
  },
  {
    "url": "https://maps.app.goo.gl/nBaQ33jw6JEZQp7X9?g_st=ipc",
    "name": "Λόρδα",
    "address": "Σπύρου Τρικούπη 3, Αθήνα 106 83",
    "lat": "37.986574816164286",
    "lng": "23.734456878858524"
  },
  {
    "url": "https://maps.app.goo.gl/TiMP26dpbHXJx6pS9?g_st=ipc",
    "name": "Καλοψημένο",
    "address": "Ιπποκράτους 37, Αθήνα 106 80",
    "lat": "37.98304777386895",
    "lng": "23.735997970914198"
  },
  {
    "url": "https://maps.app.goo.gl/fZ3o2N67Ya2WA1aQA?g_st=ipc",
    "name": "Mangal",
    "address": "Σολωμού 12, Αθήνα 106 83",
    "lat": "37.98648075392058",
    "lng": "23.733903117356245"
  },
  {
    "url": "https://maps.app.goo.gl/in5jozRVDDW97jJc8?g_st=ipc",
    "name": "Lacantina streetfood",
    "address": "Ζωοδόχου Πηγής 24, Αθήνα 106 81",
    "lat": "37.98418112510836",
    "lng": "23.734735469259256"
  },
  {
    "url": "https://maps.app.goo.gl/v9CtcwcCChGuLbxQ7?g_st=ipc",
    "name": "Πρiγκιπας",
    "address": "Χαρ. Τρικούπη 23, Αθήνα 106 81",
    "lat": "37.98367685276512",
    "lng": "23.73451397788728"
  },
  {
    "url": "https://maps.app.goo.gl/oALQiKiSKqqQt7VE8?g_st=ipc",
    "name": "Ευριπίδης 1955",
    "address": "Λεωφ. Δεκελείας 83, Νέα Φιλαδέλφεια Αττικής 143 41",
    "lat": "38.03354736852586",
    "lng": "23.737489018536408"
  },
  {
    "url": "https://maps.app.goo.gl/jYKrRJuSFDD632N47?g_st=ipc",
    "name": "Ψητοπωλείον Γιώργος - Μάνος",
    "address": "Θεμιστοκλέους 39, Αθήνα 106 77",
    "lat": "37.9855993281782",
    "lng": "23.733208439532696"
  },
  {
    "url": "https://maps.app.goo.gl/AdKg349ahnUtzxXt9?g_st=ipc",
    "name": "Το Πέτρινο Του Σταμάτη (Καπράλος Σταμάτιος Θ.)",
    "address": "Βασ. Γεωργίου Β 10, Πεντέλη 152 36",
    "lat": "38.049806163763144",
    "lng": "23.869838485555228"
  },
  {
    "url": "https://maps.app.goo.gl/2Mpgb24E2Bp7GYMDA?g_st=ipc",
    "name": "Street wok",
    "address": "Βρυούλων 4, Νέα Φιλαδέλφεια Αττικής 143 41",
    "lat": "38.03415581458627",
    "lng": "23.737421868861436"
  },
  {
    "url": "https://maps.app.goo.gl/SfprcJNzr7drSK6A6?g_st=ipc",
    "name": "Koutsi Katsika Street Food Νέα Φιλαδέλφεια",
    "address": "Λεωφ. Δεκελείας 109, Νέα Φιλαδέλφεια Αττικής 143 41",
    "lat": "38.036295969328165",
    "lng": "23.73867352816236"
  },
  {
    "url": "https://maps.app.goo.gl/eKw6YctPXBvBSifU7?g_st=ipc",
    "name": "Γύρος σουβλάκι Βικτώρια ΤΥΛΙΞΕ ΤΟ",
    "address": "Πλ. Βικτώριας 6, Αθήνα 104 34",
    "lat": "37.99350120718295",
    "lng": "23.729835255916253"
  },
  {
    "url": "https://maps.app.goo.gl/umPfqHULRVG9njbt5?g_st=ipc",
    "name": "Ελβις Σουβλακια",
    "address": "Αρχιμήδους 1-5, Αθήνα 116 35",
    "lat": "37.96785045064934",
    "lng": "23.7436306831368"
  },
  {
    "url": "https://maps.app.goo.gl/K2QVLnm9vHS1E3cF9?g_st=ipc",
    "name": "Guerilla Chef Burgers",
    "address": "37.98671993993366, 23.731787435580728",
    "lat": "37.98671993993366",
    "lng": "23.731787435580728"
  },
  {
    "url": "https://maps.app.goo.gl/Q23dgN65gryr9fpi7?g_st=ipc",
    "name": "Η Βρωμιάρα - The Gourmet Street Food - Νεα Φιλαδέλφεια",
    "address": "Βρυούλων 5, Νέα Φιλαδέλφεια Αττικής 143 41",
    "lat": "38.03438911435279",
    "lng": "23.73692338806855"
  },
  {
    "url": "https://maps.app.goo.gl/1eSEWa3g6EhnDAvb6?g_st=ipc",
    "name": "Μπάρμπα Μήτσος Βύρωνας",
    "address": "Επταλόφου 88, Βύρωνας 162 33",
    "lat": "37.95390974598432",
    "lng": "23.759679171308928"
  },
  {
    "url": "https://maps.app.goo.gl/GBuJz25j2wAhPUrr6?g_st=ipc",
    "name": "Meat n Roses Kolonaki",
    "address": "Αμερικής 7, Αθήνα 106 72",
    "lat": "37.978279031472866",
    "lng": "23.735087026551565"
  },
  {
    "url": "https://maps.app.goo.gl/m2fyvmtGXXiGevuC6?g_st=ipc",
    "name": "Slum it",
    "address": "Βρυούλων 15, Νέα Φιλαδέλφεια Αττικής 143 41",
    "lat": "38.034971479219536",
    "lng": "23.73628101866516"
  },
  {
    "url": "https://maps.app.goo.gl/sz7bawT1imNu9L696?g_st=ipc",
    "name": "Cocoretsi",
    "address": "Ακαδημίας 95, Αθήνα 106 77",
    "lat": "37.984933091622935",
    "lng": "23.73142125517845"
  },
  {
    "url": "https://maps.app.goo.gl/DMoZEUMYCkZLa2k59?g_st=ipc",
    "name": "Σουβλάκι Η Λειβαδιά",
    "address": "Κάνιγγος 2-4, Αθήνα 106 77",
    "lat": "37.984552486382015",
    "lng": "23.7305119942548"
  },
  {
    "url": "https://maps.app.goo.gl/EeFjaZknqeTjfN8V6?g_st=ipc",
    "name": "Η καντίνα της Καραγιώργη Σερβίας (Ο Κρητικός)",
    "address": "Καραγιώργη Σερβίας 2, Αθήνα 105 62",
    "lat": "37.97642356412653",
    "lng": "23.734100321342698"
  },
  {
    "url": "https://maps.app.goo.gl/sAGKAGj6UyDLWwiq7?g_st=ipc",
    "name": "Η ΠΙΤΑ ΤΟΥ ΚΑΡΑΦΛΑ",
    "address": "Φιλολάου 142, Αθήνα 116 32",
    "lat": "37.96232693388551",
    "lng": "23.744677303486494"
  },
  {
    "url": "https://maps.app.goo.gl/73hetj8YZUmHBV4M7?g_st=ipc",
    "name": "Ο Χρηστάρας",
    "address": "κ, Δεξαμενής, Θεοτοκοπούλου και, Μεταμόρφωση 144 52",
    "lat": "38.06513658858884",
    "lng": "23.770452923606605"
  },
  {
    "url": "https://maps.app.goo.gl/sNkqRi8WyMgYec9D6?g_st=ipc",
    "name": "\"Ο Θωμάς\"",
    "address": "Αχαρνών 33, Αθήνα 104 39",
    "lat": "37.990509282943826",
    "lng": "23.72671200338313"
  },
  {
    "url": "https://maps.app.goo.gl/FGrKA3NWxxuCNCKSA?g_st=ipc",
    "name": "Σουβλάκι Ο Κώστας 1950 συνταγμα",
    "address": "Φιλελλήνων 7, Αθήνα 105 57",
    "lat": "37.97431166724141",
    "lng": "23.734074792444165"
  },
  {
    "url": "https://maps.app.goo.gl/jiHHELBpUtGUfeV87?g_st=ipc",
    "name": "Ψητοπωλείο ο Σπύρος Σουβλάκια",
    "address": "Βικέλα 33, Αθήνα 111 45",
    "lat": "38.01699116177091",
    "lng": "23.725453216560837"
  },
  {
    "url": "https://maps.app.goo.gl/4ThbHca8EWSeyv4f9?g_st=ipc",
    "name": "Harry's Kitchen",
    "address": "Αθανασίου Αξαρλιάν 2, Αθήνα 105 63",
    "lat": "37.97623023407263",
    "lng": "23.732424722550896"
  },
  {
    "url": "https://maps.app.goo.gl/vVmR4bTFHYKewmjK9?g_st=ipc",
    "name": "FUDDY DUDDY",
    "address": "Λέκκα 32, Αθήνα 105 62",
    "lat": "37.97744212384706",
    "lng": "23.73144118284602"
  },
  {
    "url": "https://maps.app.goo.gl/ChqL23bz9HeKVK9L8?g_st=ipc",
    "name": "Λευτέρης ο Πολίτης (Απ'το 1951)",
    "address": "Σατωβριάνδου 20, Αθήνα 104 32",
    "lat": "37.98519549438972",
    "lng": "23.72733221380902"
  },
  {
    "url": "https://maps.app.goo.gl/tAkTZ6x1vZQez7uq5?g_st=ipc",
    "name": "Green Kebab",
    "address": "Ιουλιανού 81, Αθήνα 104 39",
    "lat": "37.99197488379709",
    "lng": "23.725139444636163"
  },
  {
    "url": "https://maps.app.goo.gl/cJGp1CcZqq5tUPco9?g_st=ipc",
    "name": "Photis Deli Sandwiches",
    "address": "Πραξιτέλους 20, Αθήνα 105 61",
    "lat": "37.97857197779405",
    "lng": "23.73022657557408"
  },
  {
    "url": "https://maps.app.goo.gl/2RdBMYynhYxYXVUJ7?g_st=ipc",
    "name": "Falafel Al Sharq",
    "address": "Λιοσίων 1, Αθήνα 104 38",
    "lat": "37.98752255014304",
    "lng": "23.726184432262915"
  },
  {
    "url": "https://maps.app.goo.gl/GnCnbQadKKWk2pSs5?g_st=ipc",
    "name": "Κάψα",
    "address": "Σκουλενίου 4, Αθήνα 105 61",
    "lat": "37.9791128198558",
    "lng": "23.729644254058044"
  },
  {
    "url": "https://maps.app.goo.gl/zskFwnAEHYv2rZ486?g_st=ipc",
    "name": "ILIADA",
    "address": "Κυδαθηναίων 1 - 3, Αθήνα 105 57",
    "lat": "37.97276950938018",
    "lng": "23.73338516103142"
  },
  {
    "url": "https://maps.app.goo.gl/o9F3U32hpw226uAK9?g_st=ipc",
    "name": "Street Souvlaki",
    "address": "Κολοκοτρώνη 30, Αθήνα 105 62",
    "lat": "37.97767884115099",
    "lng": "23.73029552357521"
  },
  {
    "url": "https://maps.app.goo.gl/J66TMj5XKXHHYhD97?g_st=ipc",
    "name": "Curry Express Indian Food",
    "address": "Κολοκοτρώνη 37, Αθήνα 105 62",
    "lat": "37.9776157519804",
    "lng": "23.73032710822111"
  },
  {
    "url": "https://maps.app.goo.gl/ULZUzVZRtCP5wbNN7?g_st=ipc",
    "name": "Delicious Souvlaki",
    "address": "Π. Τσαλδάρη 4, Αθήνα 104 31",
    "lat": "37.98375720535008",
    "lng": "23.72706851408364"
  },
  {
    "url": "https://maps.app.goo.gl/4GCcGcuQpLTaTXZf8?g_st=ipc",
    "name": "Meat the Greek",
    "address": "Φωκίωνος 2-4, Αθήνα 105 63",
    "lat": "37.97583452449836",
    "lng": "23.730527268129777"
  },
  {
    "url": "https://maps.app.goo.gl/1Z8wuAKBZ1px7oFG6?g_st=ipc",
    "name": "Focacceria Napul’e",
    "address": "Πετράκη 30, Αθήνα 105 63",
    "lat": "37.97562561163699",
    "lng": "23.730612422068372"
  },
  {
    "url": "https://maps.app.goo.gl/x2HbvpDyfiYLua7z6?g_st=ipc",
    "name": "Η Βόλβη",
    "address": "Ευριπίδου 24-26, Αθήνα 105 51",
    "lat": "37.97981742118138",
    "lng": "23.72787228689906"
  },
  {
    "url": "https://maps.app.goo.gl/tiAdgVLPy9vMcbLd6?g_st=ipc",
    "name": "Food Str",
    "address": "Καλαμιώτου 14, Αθήνα 105 60",
    "lat": "37.977285336004456",
    "lng": "23.72911901973204"
  },
  {
    "url": "https://maps.app.goo.gl/bFq352ScX4ijnYoH8?g_st=ipc",
    "name": "Groovy Ham",
    "address": "Μιλτιάδου 22, Αθήνα 105 60",
    "lat": "37.978434992498535",
    "lng": "23.728303604469694"
  },
  {
    "url": "https://maps.app.goo.gl/K4gKpgJyy7hobcQQ6?g_st=ipc",
    "name": "La Pizzetta",
    "address": "Αιόλου 56, Αθήνα 105 60",
    "lat": "37.97847520528142",
    "lng": "23.728112025622647"
  },
  {
    "url": "https://maps.app.goo.gl/eUePB41Ppi2PT7NL7?g_st=ipc",
    "name": "Bouloukos Kebab",
    "address": "Αθηνάς 53, Αθήνα 105 52",
    "lat": "37.980172161906935",
    "lng": "23.72690266572384"
  },
  {
    "url": "https://maps.app.goo.gl/vF2fcE6pnayp7atp8?g_st=ipc",
    "name": "Feyrouz_Athens",
    "address": "Καρόρη 23 και, Αγάθωνος 1, Αθήνα 105 51",
    "lat": "37.97815189918129",
    "lng": "23.727647148068286"
  },
  {
    "url": "https://maps.app.goo.gl/Hxj6uVgcEgiQuTDv8?g_st=ipc",
    "name": "Kosta Souvlaki",
    "address": "Πλ. Αγίας Ειρήνης 2, Αθήνα 105 60",
    "lat": "37.97741645492704",
    "lng": "23.72799295408667"
  },
  {
    "url": "https://maps.app.goo.gl/gP2JFL8Nk8hDVyEZ6?g_st=ipc",
    "name": "Hoocut",
    "address": "Πλ. Αγίας Ειρήνης 9, Αθήνα 105 63",
    "lat": "37.976849062316084",
    "lng": "23.72809711402173"
  },
  {
    "url": "https://maps.app.goo.gl/szXw2A8e1LoKnCFc6?g_st=ipc",
    "name": "Ψητοπωλείο Ο Μερακλής",
    "address": "Αγ. Μελετίου 183, Αθήνα 104 43",
    "lat": "38.00168245244077",
    "lng": "23.720330195200393"
  },
  {
    "url": "https://maps.app.goo.gl/ttsNgvAmT6HK6Umz7?g_st=ipc",
    "name": "StreetWok",
    "address": "Αιόλου 21, Αθήνα 105 63",
    "lat": "37.976894650216366",
    "lng": "23.727593295730628"
  },
  {
    "url": "https://maps.app.goo.gl/s8G17xLU1a1prvZq8?g_st=ipc",
    "name": "TYLIXTO MONASTIRAKI",
    "address": "Aiolou 19 TYLIXTO, Αιόλου 19, Αθήνα 105 51",
    "lat": "37.976859135543",
    "lng": "23.727597993730694"
  },
  {
    "url": "https://maps.app.goo.gl/DxnAjbtDdfK3oFbr9?g_st=ipc",
    "name": "TsiknaBoom",
    "address": "Παλλάδος 2-4, Αθήνα 105 54",
    "lat": "37.97906604032225",
    "lng": "23.726418827071747"
  },
  {
    "url": "https://maps.app.goo.gl/hyeDVXAzDsSq1RQz5?g_st=ipc",
    "name": "Just Pita",
    "address": "Αθηνάς 18, Αθήνα 105 51",
    "lat": "37.97840949020096",
    "lng": "23.726739666799467"
  },
  {
    "url": "https://maps.app.goo.gl/1dqXX7TB1pvVovcv8?g_st=ipc",
    "name": "Ο Θανάσης κεμπάπ Μοναστηράκι",
    "address": "Μητροπόλεως 69, Αθήνα 105 55",
    "lat": "37.976291478347854",
    "lng": "23.726486093222853"
  },
  {
    "url": "https://maps.app.goo.gl/EvDBZN3YG2DfzNcdA?g_st=ipc",
    "name": "RINGO Kalamaki Pub",
    "address": "Πρωτογένους 8, Αθήνα 105 54",
    "lat": "37.978249435688795",
    "lng": "23.72590325237898"
  },
  {
    "url": "https://maps.app.goo.gl/viHqpygtkwkePK7KA?g_st=ipc",
    "name": "Καντίνα Χρήστος",
    "address": "Θεοδ. Δηλιγιάννη, Αθήνα 104 39",
    "lat": "37.99124414586088",
    "lng": "23.720512677134217"
  },
  {
    "url": "https://maps.app.goo.gl/U7fwr2D5HgEHTzhH6?g_st=ipc",
    "name": "The Doc's Burger Bar",
    "address": "Ανδρέα Μιαούλη 10, Αθήνα 105 54",
    "lat": "37.97742334199844",
    "lng": "23.725636669246807"
  },
  {
    "url": "https://maps.app.goo.gl/QK18bYTh1b11fJt97?g_st=ipc",
    "name": "ΤΣΙΚΕΝ The Van",
    "address": "Μιαούλη 19, Αθήνα 105 54",
    "lat": "37.97797456722786",
    "lng": "23.725133314287408"
  },
  {
    "url": "https://maps.app.goo.gl/bMFjRtNN6Ztw4H43A?g_st=ipc",
    "name": "ο γύρος που γυρεύεις",
    "address": "Αθανασίου Διάκου 1 Ακρόπολη, Αθήνα 117 42",
    "lat": "37.968706021561665",
    "lng": "23.729791439377735"
  },
  {
    "url": "https://maps.app.goo.gl/FPtnwFuAA6xGZThWA?g_st=ipc",
    "name": "Μπάμπης (Σουβλατζίδικο)",
    "address": "Γεωρ. Λύρα 5, Κηφισιά 145 64",
    "lat": "38.07798891290964",
    "lng": "23.794191207475013"
  },
  {
    "url": "https://maps.app.goo.gl/7oETcHQJwsjd3Q6S9?g_st=ipc",
    "name": "Potato King",
    "address": "Αγίου Φιλίππου 7, Αθήνα 105 55",
    "lat": "37.97675298586362",
    "lng": "23.723457601026865"
  },
  {
    "url": "https://maps.app.goo.gl/QAxCvjDtdvgbPe3b7?g_st=ipc",
    "name": "AXI - 阿锡早点",
    "address": "Athens, Greece, Akadimou, 104 36",
    "lat": "37.98134764148285",
    "lng": "23.721168322095103"
  },
  {
    "url": "https://maps.app.goo.gl/4dueoYmWEmQ4i8jF8?g_st=ipc",
    "name": "το σουβλάκι της σαρρή",
    "address": "Σαρρή 36, Αθήνα 105 53",
    "lat": "37.978860476586924",
    "lng": "23.722082836375154"
  },
  {
    "url": "https://maps.app.goo.gl/FJ47hNfgCop393VD9?g_st=ipc",
    "name": "Έλβις Καλαμάκια",
    "address": "Ερμού 112, Αθήνα 105 63",
    "lat": "37.977219822169786",
    "lng": "23.722815670884195"
  },
  {
    "url": "https://maps.app.goo.gl/sFPUNxMQJRmui3Sh7?g_st=ipc",
    "name": "Αρμένικο Κεμπάπ Το Ρόδι - The pomegranate Armenian kebab",
    "address": "Κρέοντος 163, Αθήνα 104 43",
    "lat": "38.00448088015914",
    "lng": "23.715736478884928"
  },
  {
    "url": "https://maps.app.goo.gl/WkvoPR33PQyg4HdDA?g_st=ipc",
    "name": "Γαλιάντρα",
    "address": "Γιατράκου 4, Αθήνα 104 36",
    "lat": "37.982766279881204",
    "lng": "23.72018754800204"
  },
  {
    "url": "https://maps.app.goo.gl/LaZcss8aznDJpxm89?g_st=ipc",
    "name": "Dirty Manh",
    "address": "Νικ. Δημητρακοπούλου 5, Αθήνα 117 42",
    "lat": "37.96689597541608",
    "lng": "23.728371721835774"
  },
  {
    "url": "https://maps.app.goo.gl/Uog41UVXEyuZaDfdA?g_st=ipc",
    "name": "Ο ΣΤΕΦΑΝΟΣ ΣΟΥΒΛΑΚΙΑ",
    "address": "Δεληγιάννη 71, Άγιοι Ανάργυροι 135 62",
    "lat": "38.045163297484955",
    "lng": "23.729228755056532"
  },
  {
    "url": "https://maps.app.goo.gl/JSTFEbHbfetiYWWd6?g_st=ipc",
    "name": "No mama's boy",
    "address": "Λεωφ. Δημοκρατίας 60, Άγιοι Ανάργυροι 135 61",
    "lat": "38.02704131964815",
    "lng": "23.71833984165418"
  },
  {
    "url": "https://maps.app.goo.gl/rUqbZBRjNZ4twFu59?g_st=ipc",
    "name": "Γυριστρούλα",
    "address": "Square (across from \"Thissio\" ISAP station, Αγίων Ασωμάτων 9, Αθήνα 105 54",
    "lat": "37.97711548768267",
    "lng": "23.72128560665997"
  },
  {
    "url": "https://maps.app.goo.gl/wJbToSNnsHXBEELJ7?g_st=ipc",
    "name": "Τα ΣΟΥΒΛΆΚΙΑ της Πετμεζά souvlakia petmeza",
    "address": "Πετμεζά 2, Αθήνα 117 42",
    "lat": "37.96653318144558",
    "lng": "23.72792783847805"
  },
  {
    "url": "https://maps.app.goo.gl/SrhYjUikLgP2R2HT7?g_st=ipc",
    "name": "Ο Αχιλλέας (χειροποίητος γύρος)",
    "address": "Σπινθάρου 18, Αθήνα 117 43",
    "lat": "37.95973976836696",
    "lng": "23.733064950731986"
  },
  {
    "url": "https://maps.app.goo.gl/8n9ne3gHR6APgQwh6?g_st=ipc",
    "name": "Ψητοπωλείο Ο Κώστας",
    "address": "Ηλιουπόλεως 157, Υμηττός 172 36",
    "lat": "37.94774148940973",
    "lng": "23.74608370924349"
  },
  {
    "url": "https://maps.app.goo.gl/kpwhPwcxrACr1psm9?g_st=ipc",
    "name": "Ψητοπωλείο Το Έμπειρο",
    "address": "Ηρακλέους 28, Αθήνα 117 43",
    "lat": "37.96275771902048",
    "lng": "23.72923609945131"
  },
  {
    "url": "https://maps.app.goo.gl/4RTN9WGd3FCHQamG6?g_st=ipc",
    "name": "Robin Belgian streetfood",
    "address": "Θεοδώρητου Βρεσθένης 31, Αθήνα 117 43",
    "lat": "37.96249493210435",
    "lng": "23.729203293671816"
  },
  {
    "url": "https://maps.app.goo.gl/4FqJYg2raYZvXHja7?g_st=ipc",
    "name": "falafel bar ΤΟ ΡΕΒΙΘΙ",
    "address": "Παρθενώνος 1, Αθήνα 117 42",
    "lat": "37.96631483519238",
    "lng": "23.7261110398094"
  },
  {
    "url": "https://maps.app.goo.gl/k43yGuJ8dK72yJAh8?g_st=ipc",
    "name": "Guarantee",
    "address": "Βεΐκου 41, Αθήνα 117 42",
    "lat": "37.96613348579953",
    "lng": "23.726193428667294"
  },
  {
    "url": "https://maps.app.goo.gl/bZNApSKDTgmvuiXB7?g_st=ipc",
    "name": "Señor Picante",
    "address": "Φαλήρου 40, Αθήνα 117 42",
    "lat": "37.965308606012925",
    "lng": "23.726477821309263"
  },
  {
    "url": "https://maps.app.goo.gl/X5ofrEqzBi24eigT6?g_st=ipc",
    "name": "Armando Pizzeria Cafeteria",
    "address": "Σαλαμίνος 43, Αθήνα 104 35",
    "lat": "37.98213236236815",
    "lng": "23.71647213293712"
  },
  {
    "url": "https://maps.app.goo.gl/vMhM3YojNKaURqwX8?g_st=ipc",
    "name": "Kalamaki Bar",
    "address": "Δημητρακοπούλου και, Δράκου 15, Αθήνα 117 42",
    "lat": "37.9654765831714",
    "lng": "23.725752010856876"
  },
  {
    "url": "https://maps.app.goo.gl/SzCvMEeUoY15EeqY8?g_st=ipc",
    "name": "«Ο Μερακλής» Χειροποίητος Γύρος",
    "address": "Πλάτωνος 50-52, Αθήνα 104 41",
    "lat": "37.987612206644826",
    "lng": "23.712852337967995"
  },
  {
    "url": "https://maps.app.goo.gl/mBFJVYTZsF1kBbtk7?g_st=ipc",
    "name": "ΖΑΜΠΕΛΗΣ Σουβλάκι",
    "address": "Λεωφ. Μαρίνου Αντύπα 42, Ηλιούπολη 163 46",
    "lat": "37.942278449963005",
    "lng": "23.7489165228981"
  },
  {
    "url": "https://maps.app.goo.gl/Rbxz8a7b6mXRVXtX9?g_st=ipc",
    "name": "Ο Γιατρός της Πείνας",
    "address": "Ηλία Ηλιού 59, Αθήνα 117 44",
    "lat": "37.9576250215062",
    "lng": "23.729472460111847"
  },
  {
    "url": "https://maps.app.goo.gl/obvLVFRy5Vbt8DPS6?g_st=ipc",
    "name": "Jackaroo",
    "address": "Καλλιρρόης 73, Αθήνα 117 45",
    "lat": "37.96222285381352",
    "lng": "23.7252636942005"
  },
  {
    "url": "https://maps.app.goo.gl/jevMqjqUqMVWPizM7?g_st=ipc",
    "name": "ΨΗΤΟΠΩΛΕΙΟ Ο ΥΜΗΤΤΟΣ",
    "address": "Λεωφ. Ειρήνης 12, Ηλιούπολη 163 45",
    "lat": "37.9376577150226",
    "lng": "23.756325000053742"
  },
  {
    "url": "https://maps.app.goo.gl/gtmBLN9nUzctuFYM8?g_st=ipc",
    "name": "Το Στέκι του Κώστα",
    "address": "Αγίας Βαρβάρας 59, Δάφνη Αττικής 172 35",
    "lat": "37.95121107984788",
    "lng": "23.735124045238276"
  },
  {
    "url": "https://maps.app.goo.gl/6gyRh1g3eUYCXoVV9?g_st=ipc",
    "name": "Ο ΠΕΙΝΑΛΕΟΣ -O Peinaleos",
    "address": "Προφήτου Δανιήλ 35, Αθήνα 104 47",
    "lat": "37.984683017890625",
    "lng": "23.71166951732043"
  },
  {
    "url": "https://maps.app.goo.gl/WroCvakHc4brPbjt7?g_st=ipc",
    "name": "Wolfie’s Iera Odos",
    "address": "Ιερά Οδός 37, Αθήνα 118 54",
    "lat": "37.98005072086818",
    "lng": "23.713098576163578"
  },
  {
    "url": "https://maps.app.goo.gl/crPg8bmbS6pB7CL9A?g_st=ipc",
    "name": "Ψυχιατρείο",
    "address": "Αγίου Κωνσταντίνου 16, Ηλιούπολη 163 46",
    "lat": "37.941456168126024",
    "lng": "23.74643601644418"
  },
  {
    "url": "https://maps.app.goo.gl/tfkKpGgKP9PAqPWX9?g_st=ipc",
    "name": "Καλύβας οικογενειακό ψητοπωλείο",
    "address": "Dimitrakopoulou 91-93, G Olymbiou 10, Athina 117 41",
    "lat": "37.962881286635515",
    "lng": "23.721970322127277"
  },
  {
    "url": "https://maps.app.goo.gl/Z2KVCzShcPWHHgiq5?g_st=ipc",
    "name": "Τρύφωνας Κεμπαπτζίδικoν - Hamburgerie",
    "address": "Παρασκευοπούλου 51, Περιστέρι 121 34",
    "lat": "38.01255321629899",
    "lng": "23.70608688945728"
  },
  {
    "url": "https://maps.app.goo.gl/ZqCBHjCxGwZEYy9u8?g_st=ipc",
    "name": "Streetwok",
    "address": "Χαρ. Τρικούπη 144, Νέα Ερυθραία 146 71",
    "lat": "38.088268046558134",
    "lng": "23.817029295891828"
  },
  {
    "url": "https://maps.app.goo.gl/B8R43v1kbWhoCBdJ9?g_st=ipc",
    "name": "ΤΟΜΑΣ ΜΑΡΙΟΣ ΟΒΕΛΙΣΤΗΡΙΟ",
    "address": "Μήτρου Σαρκουδίνου 49, Αθήνα 117 44",
    "lat": "37.95740701533671",
    "lng": "23.72476747255489"
  },
  {
    "url": "https://maps.app.goo.gl/ZVfeByxQrS6SFYyH6?g_st=ipc",
    "name": "Jackaroo",
    "address": "Παρασκευοπούλου 45, Περιστέρι 121 35",
    "lat": "38.0124039916799",
    "lng": "23.705649430022987"
  },
  {
    "url": "https://maps.app.goo.gl/rT5pzNjpc9bM7HzT9?g_st=ipc",
    "name": "mirlo kebabs",
    "address": "Ελασιδών 5A, Αθήνα 118 54",
    "lat": "37.976362795934286",
    "lng": "23.71060804281136"
  },
  {
    "url": "https://maps.app.goo.gl/Up1hU92hpZRnvgdJ8?g_st=ipc",
    "name": "Ρίγανη θυμάρι",
    "address": "Αγίας Άννης 37, Αχαρνές 136 75",
    "lat": "38.06157357464134",
    "lng": "23.72960229805207"
  },
  {
    "url": "https://maps.app.goo.gl/kQSFCYCMduFPwVhw9?g_st=ipc",
    "name": "Billy's sandwich Peristeri (Billy’s Kantina)",
    "address": "Π. Μελά 11, Περιστέρι 121 31",
    "lat": "38.00300791270127",
    "lng": "23.702770148654015"
  },
  {
    "url": "https://maps.app.goo.gl/E91HSqNkPsC6UtWw7?g_st=ipc",
    "name": "Πανερυθραικος",
    "address": "Αναξαγόρα 11, Νέα Ερυθραία 146 71",
    "lat": "38.09029256559895",
    "lng": "23.818809766039287"
  },
  {
    "url": "https://maps.app.goo.gl/ZHk6UviE5DhKfmAcA?g_st=ipc",
    "name": "Ο Γιώργος (Ηλιούπολη)",
    "address": "Πλ. Εθ. Αντιστάσεως 8, Ηλιούπολη 163 42",
    "lat": "37.93157343086467",
    "lng": "23.756713794378285"
  },
  {
    "url": "https://maps.app.goo.gl/WUCUWAGV3GyPBumi7?g_st=ipc",
    "name": "Johnie Hot Dog Συγγρού",
    "address": "Λεωφ. Ανδρέα Συγγρού 136, Καλλιθέα 176 71",
    "lat": "37.959239923680194",
    "lng": "23.71954717101243"
  },
  {
    "url": "https://maps.app.goo.gl/pgrPE8JqcHDwR95q6?g_st=ipc",
    "name": "Δεκαπενταλεπτο",
    "address": "Πάριδος 90, Ίλιον 131 22",
    "lat": "38.0332432504206",
    "lng": "23.708153853689517"
  },
  {
    "url": "https://maps.app.goo.gl/uCpkqt4dsAjh6LfU7?g_st=ipc",
    "name": "Ο ΝΤΕΛΛΟΣ",
    "address": "Ελ. Βενιζέλου 139, Νέα Ερυθραία 146 71",
    "lat": "38.09071592781455",
    "lng": "23.82013374189109"
  },
  {
    "url": "https://maps.app.goo.gl/QzPB3fhcnsDGCLfk8?g_st=ipc",
    "name": "Pita Status",
    "address": "Καλλισθένους 82, Αθήνα 118 52",
    "lat": "37.96762299813557",
    "lng": "23.71283351407897"
  },
  {
    "url": "https://maps.app.goo.gl/ub6T2bWkrrx9QZt69?g_st=ipc",
    "name": "Pita Pan",
    "address": "Παρ. Λεωφ. Βουλιαγμένης 276, Αγ. Δημήτριος Αττικής 173 43",
    "lat": "37.93966105014638",
    "lng": "23.74003701406881"
  },
  {
    "url": "https://maps.app.goo.gl/Us2VxvnWiFa4zh7E6?g_st=ipc",
    "name": "Κρέπες Gorillas",
    "address": "Παρασκευοπούλου 14, Περιστέρι 121 32",
    "lat": "38.011039639297316",
    "lng": "23.701212318200714"
  },
  {
    "url": "https://maps.app.goo.gl/4u4xPrqXGjRF9V9cA?g_st=ipc",
    "name": "Cocorico",
    "address": "Ιφιγένειας 31, Ίλιον 131 22",
    "lat": "38.03523380190847",
    "lng": "23.705868008544936"
  },
  {
    "url": "https://maps.app.goo.gl/kLQRksA1KxobJdFA6?g_st=ipc",
    "name": "Μαυροπίπερο",
    "address": "Στρατάρχου Αλεξάνδρου Παπάγου 41, Αγ. Δημήτριος Αττικής 173 43",
    "lat": "37.939871957691295",
    "lng": "23.73599315534295"
  },
  {
    "url": "https://maps.app.goo.gl/cMeAjTZUY1MyiZmPA?g_st=ipc",
    "name": "Σουβλάκια Γκούμας",
    "address": "Μαυρομιχάλη 3, Ίλιον 131 21",
    "lat": "38.023248902145305",
    "lng": "23.69985643748309"
  },
  {
    "url": "https://maps.app.goo.gl/rw8Py2VR6j9NeDLn6?g_st=ipc",
    "name": "Ο Μπάρμπας Χωριάτικη Καντίνα",
    "address": "Αγίου Νικολάου 2, Ίλιον 131 23",
    "lat": "38.03834405515059",
    "lng": "23.705313931462435"
  },
  {
    "url": "https://maps.app.goo.gl/zuoR5Z99oiyHXZs26?g_st=ipc",
    "name": "Η Βρωμιάρα - The Gourmet Street Food Περιστέρι",
    "address": "Λεωφ. Παναγή Τσαλδάρη 16, Περιστέρι 121 34",
    "lat": "38.0121286185235",
    "lng": "23.696851045660715"
  },
  {
    "url": "https://maps.app.goo.gl/DzK7LaFGANeLebDQ7?g_st=ipc",
    "name": "Καράφλας",
    "address": "Φιλαδέλφειας 56-58, Αχαρνές 136 71",
    "lat": "38.07655628972639",
    "lng": "23.739456286868005"
  },
  {
    "url": "https://maps.app.goo.gl/otFTTi2nsTTPYaYKA?g_st=ipc",
    "name": "DONER.TZORTZ",
    "address": "Βιζυηνού 2, Νέα Σμύρνη 171 21",
    "lat": "37.95300238294556",
    "lng": "23.716665931248773"
  },
  {
    "url": "https://maps.app.goo.gl/kwZdwHs4BAKbQ5T69?g_st=ipc",
    "name": "Best Taste",
    "address": "Αθηνοδώρου 23, Αθήνα 118 53",
    "lat": "37.96738306337228",
    "lng": "23.70591216193093"
  },
  {
    "url": "https://maps.app.goo.gl/FvTc2tgDrzPX1PFX7?g_st=ipc",
    "name": "Ο Σάλτσας",
    "address": "Σοφοκλή Βενιζέλου 50, Περιστέρι 121 34",
    "lat": "38.00504433316188",
    "lng": "23.6944140076251"
  },
  {
    "url": "https://maps.app.goo.gl/Rh99dawd3iLza1Vz7?g_st=ipc",
    "name": "Το Σουβλάκι Της Χαροκόπου",
    "address": "Χαροκόπου 46, Καλλιθέα 176 71",
    "lat": "37.95770921844376",
    "lng": "23.710571236714188"
  },
  {
    "url": "https://maps.app.goo.gl/WBopamZ7xeysedvt5?g_st=ipc",
    "name": "Μαύρο Αλάτι",
    "address": "Αιμιλίου Βεάκη 44, Περιστέρι 121 34",
    "lat": "38.011756038342455",
    "lng": "23.693312637532987"
  },
  {
    "url": "https://maps.app.goo.gl/wSd2i93DKt8GM9aEA?g_st=ipc",
    "name": "Σουβλακια καλαμάκια πανοστιμο",
    "address": "Δοϊράνης 35, Καλλιθέα 176 72",
    "lat": "37.95437724216138",
    "lng": "23.71201791711626"
  },
  {
    "url": "https://maps.app.goo.gl/8q5LESzz3ctiGx4S6?g_st=ipc",
    "name": "Βάγγελης Το Γνήσιο 1965",
    "address": "Λεωφ. Αγίου Δημητρίου 163, Αγ. Δημήτριος Αττικής 173 43",
    "lat": "37.93578922990488",
    "lng": "23.72968201403695"
  },
  {
    "url": "https://maps.app.goo.gl/AdbA3EtRXtuwNQxM9?g_st=ipc",
    "name": "StreetWok",
    "address": "Λεωφ. Ελ. Βενιζέλου 37, Νέα Σμύρνη 171 23",
    "lat": "37.946624662039575",
    "lng": "23.715316548626998"
  },
  {
    "url": "https://maps.app.goo.gl/CHy9bu3k15qybj71A?g_st=ipc",
    "name": "Καντίνα Μπίλης",
    "address": "Πελασγίας 7, Περιστέρι 121 31",
    "lat": "38.01164780075542",
    "lng": "23.6884871707283"
  },
  {
    "url": "https://maps.app.goo.gl/FkX4m8b5w9RxDkZP6?g_st=ipc",
    "name": "Ψητοπωλείο Ο Κώστας",
    "address": "Αχαΐας 8, Περιστέρι 121 35",
    "lat": "38.022231500145956",
    "lng": "23.689859003426026"
  },
  {
    "url": "https://maps.app.goo.gl/MTNygxiVF9e3viYE9?g_st=ipc",
    "name": "Ο ΩΡΑΙΟΣ ΤΗΣ ΓΕΙΤΟΝΙΑΣ ΟΒΕΛΙΣΤΗΡΙΟ",
    "address": "Θηβών 119, Περιστέρι 121 36",
    "lat": "38.01006375373495",
    "lng": "23.6881134895059"
  },
  {
    "url": "https://maps.app.goo.gl/kKDBtgyh24ez28CR7?g_st=ipc",
    "name": "ΑΙΓΥΠΤΙΟΣ",
    "address": "Θράκης 58, Ηλιούπολη 163 41",
    "lat": "37.919220373285064",
    "lng": "23.75457772556386"
  },
  {
    "url": "https://maps.app.goo.gl/MTQDk9is4pkL1vPt9?g_st=ipc",
    "name": "Σουβλάκια ο Λευτέρης",
    "address": "Ειρήνης 2, Νέα Σμύρνη 171 21",
    "lat": "37.947152588163014",
    "lng": "23.712051232496496"
  },
  {
    "url": "https://maps.app.goo.gl/FLdq6c6WUqhHtMqK9?g_st=ipc",
    "name": "Ανδρέας",
    "address": "Χρυσοστόμου Σμύρνης 52, Ταύρος Αττικής 177 78",
    "lat": "37.96513210122869",
    "lng": "23.697946357808643"
  },
  {
    "url": "https://maps.app.goo.gl/cpKq1vTipGxLPNCu7?g_st=ipc",
    "name": "Το Μαγκάλι (Περιστέρι)",
    "address": "Δωδεκανήσου 24, Πελοπίδα 48, Περιστέρι 121 34",
    "lat": "38.01338073065152",
    "lng": "23.686862336191798"
  },
  {
    "url": "https://maps.app.goo.gl/TuyE1q1NNNhTr3Vo6?g_st=ipc",
    "name": "ΨΗΤΟΠΩΛΕΙΟ ΠΕΛΟΠΟΝΝΗΣΟΣ (ΨΗΤΑ ΣΟΥΒΛΑΣ ΘΗΒΩΝ)",
    "address": "Θηβών 531, Αιγάλεω 122 43",
    "lat": "38.00117940953343",
    "lng": "23.684942285189337"
  },
  {
    "url": "https://maps.app.goo.gl/Ebo7K4NsszKopesC7?g_st=ipc",
    "name": "Οι ρωσίδες Σουβλάκι-Πιροσκί",
    "address": "Αναγνωσταρά 16, Καλλιθέα 176 73",
    "lat": "37.95374548604023",
    "lng": "23.701395628014694"
  },
  {
    "url": "https://maps.app.goo.gl/9DM3hLLcVtKfPYJg8?g_st=ipc",
    "name": "corner grill",
    "address": "Λεωφ. Ιωνίας 47, Άλιμος 174 56",
    "lat": "37.92177506928485",
    "lng": "23.73847692927626"
  },
  {
    "url": "https://maps.app.goo.gl/bLUgt75SSMUYsoXCA?g_st=ipc",
    "name": "Crepa Holic Kallithea",
    "address": "Λεωφ. Ελ. Βενιζέλου 185, Καλλιθέα 176 73",
    "lat": "37.95367992559356",
    "lng": "23.699030666898533"
  },
  {
    "url": "https://maps.app.goo.gl/uDT8aKPKixRUsUYz7?g_st=ipc",
    "name": "ΤΑ ΑΔΕΛΦΙΑ",
    "address": "Ολυμπίας 52, Αργυρούπολη 164 51",
    "lat": "37.91448793009678",
    "lng": "23.75034852466272"
  },
  {
    "url": "https://maps.app.goo.gl/M4mxfLaTjiY1TWnn6?g_st=ipc",
    "name": "NeSta",
    "address": "Αγίου Ιεροθέου 97, Περιστέρι 121 35",
    "lat": "38.025350500036026",
    "lng": "23.68251901127124"
  },
  {
    "url": "https://maps.app.goo.gl/Wayix2624vmNqYTT7?g_st=ipc",
    "name": "Ρώσικο παντοπωλείο «Αστάνα»",
    "address": "Δημοσθένους 207, Καλλιθέα 176 73",
    "lat": "37.94852960059528",
    "lng": "23.699447152301282"
  },
  {
    "url": "https://maps.app.goo.gl/qwnqmZVR9fGMGk1GA?g_st=ipc",
    "name": "Story Streat",
    "address": "Θηβών 395, Αιγάλεω 122 42",
    "lat": "37.99310908999883",
    "lng": "23.678421408504626"
  },
  {
    "url": "https://maps.app.goo.gl/YPqbR69SY4YBXH98A?g_st=ipc",
    "name": "KUKE feel conocido",
    "address": "Μαρκ. Μπότσαρη 12, Αιγάλεω 122 41",
    "lat": "37.991254650701244",
    "lng": "23.678569756355024"
  },
  {
    "url": "https://maps.app.goo.gl/b9xJL1JcpT29iJ776?g_st=ipc",
    "name": "Κεμπαπτζίδικον ο Μπότσαρης Κρεατοφαγείον",
    "address": "25ης Μαρτίου 75, Πετρούπολη 132 31",
    "lat": "38.04278396237398",
    "lng": "23.683368051113483"
  },
  {
    "url": "https://maps.app.goo.gl/4wk6CtNQgSCn9j33A?g_st=ipc",
    "name": "Ψητοπωλείο «ο Βαγγέλης το χειροποίητο»",
    "address": "Χαλκίδος 26, Αγ. Δημήτριος Αττικής 173 41",
    "lat": "37.928620979940305",
    "lng": "23.71576237841132"
  },
  {
    "url": "https://maps.app.goo.gl/52UR7h68kqnaDZDr7?g_st=ipc",
    "name": "Φ.Γ.Κ. Φαγητό Για Κολλημένους",
    "address": "25ης Μαρτίου 66, Πετρούπολη 132 31",
    "lat": "38.042711505406885",
    "lng": "23.682873455447876"
  },
  {
    "url": "https://maps.app.goo.gl/ufBXQHiqa3CEJ7PJ7?g_st=ipc",
    "name": "Ψητοπωλείο \"ο Λάμπρος\"",
    "address": "Νέστορος 21, Παλαιό Φάληρο 175 61",
    "lat": "37.93861571899796",
    "lng": "23.703296381437085"
  },
  {
    "url": "https://maps.app.goo.gl/81gG3aHCeD1heo749?g_st=ipc",
    "name": "Το μπιφτέκι της Σοφίας",
    "address": "Μαρίνου Γερουλάνου 42, Αργυρούπολη 164 52",
    "lat": "37.90862324079437",
    "lng": "23.747616716476674"
  },
  {
    "url": "https://maps.app.goo.gl/kKDkkSTXoQK8Uh328?g_st=ipc",
    "name": "ZAHOULIS ARGYROUPOLI Σουβλάκι",
    "address": "Μαρίνου Γερουλάνου 54, Αργυρούπολη 164 52",
    "lat": "37.90791549793596",
    "lng": "23.748232505140976"
  },
  {
    "url": "https://maps.app.goo.gl/hUJucEmJmMyQKCdo7?g_st=ipc",
    "name": "Ψησταριά ΜΠΑΡΜΠΑ-Q",
    "address": "Ηρακλείτου 68, Αιγάλεω 122 43",
    "lat": "38.00370912884522",
    "lng": "23.671659527057734"
  },
  {
    "url": "https://maps.app.goo.gl/aSgB8uZ7Vn2JHks67?g_st=ipc",
    "name": "Κεμπατζίδικο ο Νίκος",
    "address": "Πλ. Δαβάκη 2, Αιγάλεω 122 44",
    "lat": "37.99463818746986",
    "lng": "23.672052339400672"
  },
  {
    "url": "https://maps.app.goo.gl/5VP4Qk8ng1M1pARWA?g_st=ipc",
    "name": "Montagu",
    "address": "Παρ. Λεωφ. Βουλιαγμένης 66, Αργυρούπολη 164 52",
    "lat": "37.90768059040179",
    "lng": "23.745954563287732"
  },
  {
    "url": "https://maps.app.goo.gl/LT4SpnfnfY3JNg1K7?g_st=ipc",
    "name": "Οι Πίτες του Ντένη",
    "address": "Μαρίνου Γερουλάνου 81, Αργυρούπολη 164 52",
    "lat": "37.90525389875436",
    "lng": "23.75051113822582"
  },
  {
    "url": "https://maps.app.goo.gl/ZYkxvzMHun71tMk86?g_st=ipc",
    "name": "Σουβλάκια Ο Λευτέρης",
    "address": "Ξενοφώντος 146, Καλλιθέα 176 74",
    "lat": "37.9462875556964",
    "lng": "23.690611255358668"
  },
  {
    "url": "https://maps.app.goo.gl/xe2rY6uCMrsoqN6Z6?g_st=ipc",
    "name": "Καντίνα Μπούλης",
    "address": "Δελφών 1, Αιγάλεω 122 43",
    "lat": "37.99687794724643",
    "lng": "23.669076776828845"
  },
  {
    "url": "https://maps.app.goo.gl/qgszesYeGs45UoHG6?g_st=ipc",
    "name": "Το Καλαμάκι του Αγγέλου",
    "address": "Πόντου 16, Αργυρούπολη 164 52",
    "lat": "37.90324456071206",
    "lng": "23.748792260475668"
  },
  {
    "url": "https://maps.app.goo.gl/dWSfhPqcebsnfQNf9?g_st=ipc",
    "name": "Νοστιμιές",
    "address": "Γεωργίου Καραϊσκάκη 73 & Σάμου, Χαϊδάρι 124 61",
    "lat": "38.006695342963845",
    "lng": "23.664393083804136"
  },
  {
    "url": "https://maps.app.goo.gl/7nLwDeMLLVCCJGGAA?g_st=ipc",
    "name": "Virtuoso_enjoyment",
    "address": "Μαρίνου Γερουλάνου 126, Αργυρούπολη 164 52",
    "lat": "37.90017783194547",
    "lng": "23.749997183633212"
  },
  {
    "url": "https://maps.app.goo.gl/2gazVN316J2yH7Wu7?g_st=ipc",
    "name": "ΑΜΑΜ - ΕΣΤΙΑΤΟΡΙΟ - ΓΛΥΦΑΔΑ",
    "address": "Γεωρ. Γεννηματά 11, Γλυφάδα 165 62",
    "lat": "37.89588121968674",
    "lng": "23.761096554642833"
  },
  {
    "url": "https://maps.app.goo.gl/jm56NTQ4kCuysLqy9?g_st=ipc",
    "name": "K Grill",
    "address": "Λεωφ. Ελ. Βενιζέλου 330, Καλλιθέα 176 75",
    "lat": "37.94385577895444",
    "lng": "23.685146441261658"
  },
  {
    "url": "https://maps.app.goo.gl/dt9dXWs5vWdhfFah6?g_st=ipc",
    "name": "Ο Μήτσος",
    "address": "Στρ. Μακρυγιάννη 92, Μοσχάτο 183 45",
    "lat": "37.951501915719206",
    "lng": "23.678968163051703"
  },
  {
    "url": "https://maps.app.goo.gl/qc79j4xVCW7hJv396?g_st=ipc",
    "name": "Hashtag#Burger",
    "address": "Γεωρ. Γεννηματά 26, Γλυφάδα 165 62",
    "lat": "37.89370791965242",
    "lng": "23.763218653107806"
  },
  {
    "url": "https://maps.app.goo.gl/3hxTvGyB8jtFJcXXA?g_st=ipc",
    "name": "Ο Σοφράς Της Σμύρνης",
    "address": "Αγίου Αλεξάνδρου 60, Παλαιό Φάληρο 175 61",
    "lat": "37.93008545622269",
    "lng": "23.69511056440978"
  },
  {
    "url": "https://maps.app.goo.gl/29w8wVCTHrf1eEoi7?g_st=ipc",
    "name": "Αλεξανδρινό",
    "address": "143, Λεωφ. Μεγ. Αλεξάνδρου 141, Αγ. Βαρβάρα 123 51",
    "lat": "37.988352964195414",
    "lng": "23.66083903239818"
  },
  {
    "url": "https://maps.app.goo.gl/nwzgkAPXAUQ2k7tQ7?g_st=ipc",
    "name": "ο Πρόεδρος (Άλιμος)",
    "address": "Άλιμος, Λεωφ. Καλαμακίου 26, Αθήνα 174 55",
    "lat": "37.912881112573395",
    "lng": "23.714106306735346"
  },
  {
    "url": "https://maps.app.goo.gl/GywP2se78BN7JkRc8?g_st=ipc",
    "name": "ΣΟΥΒΛΑΤΖΙΔΙΚΟ ΜΑΚΕΔΟΝΑΣ",
    "address": "Γ. Γεννηματα 52, Αγ. Βαρβάρα 123 51",
    "lat": "37.98418614658137",
    "lng": "23.66055565137486"
  },
  {
    "url": "https://maps.app.goo.gl/B9kA2bDqRddMECB19?g_st=ipc",
    "name": "Ο ΠΑΡΗΣ",
    "address": "Θουκυδίδου 38, Άλιμος 174 55",
    "lat": "37.91316923922901",
    "lng": "23.71168356971965"
  },
  {
    "url": "https://maps.app.goo.gl/vR5rdW1p8psGAbRc7?g_st=ipc",
    "name": "Αριστοφάνης Γεύσεις | Εστιατόρια | Ψητοπωλεία Άνω Γλυφάδα",
    "address": "Δημ. Γούναρη 46, Ελληνικό 167 77",
    "lat": "37.890796486374335",
    "lng": "23.76076987782631"
  },
  {
    "url": "https://maps.app.goo.gl/17t7fwK6X8WCDXvC6?g_st=ipc",
    "name": "PIRI PIRI",
    "address": "Π. Τσαλδάρη 13, Άλιμος 174 55",
    "lat": "37.912346556684334",
    "lng": "23.711975122237995"
  },
  {
    "url": "https://maps.app.goo.gl/5G7Zm7z9NT4rMbC6A?g_st=ipc",
    "name": "Μητσος",
    "address": "Λεωφ. Δροσιάς Σταματάς 4, Δροσιά 145 75",
    "lat": "38.120677354658696",
    "lng": "23.859244908556484"
  },
  {
    "url": "https://maps.app.goo.gl/UpknKH1CFKmC87ij6?g_st=ipc",
    "name": "Ο ΑΡΗΣ",
    "address": "Π. Μελά 14, Αγ. Ιωάννης Ρέντης 182 33",
    "lat": "37.95672934899719",
    "lng": "23.669396304305284"
  },
  {
    "url": "https://maps.app.goo.gl/RAbojGiNVh4trirv7?g_st=ipc",
    "name": "Ελληνικό Σουβλάκι (απ'το1990)",
    "address": "Λεωφ. Ιασωνίδου 40, Ελληνικό 167 77",
    "lat": "37.892191582868755",
    "lng": "23.75361437896675"
  },
  {
    "url": "https://maps.app.goo.gl/cGoUBmVXHRpFeeeR6?g_st=ipc",
    "name": "ΠΑΝΑΓΙΩΤΗΣ από το 1970",
    "address": "Γρ. Λαμπράκη 104, Κορυδαλλός 181 21",
    "lat": "37.979572870802095",
    "lng": "23.658766060140504"
  },
  {
    "url": "https://maps.app.goo.gl/NoNkrUm2DjN83eAw7?g_st=ipc",
    "name": "Του... Σαββίδη",
    "address": "Λεωφ. Ελ. Βενιζέλου 158, Αγ. Βαρβάρα 123 51",
    "lat": "37.98532436234628",
    "lng": "23.65728485284073"
  },
  {
    "url": "https://maps.app.goo.gl/eNiYkaAyndviywoc9?g_st=ipc",
    "name": "Αγανάκτηση",
    "address": "Σερρών 44 &, Ταξιαρχών, Κορυδαλλός 181 20",
    "lat": "37.978045238767244",
    "lng": "23.651711441065746"
  },
  {
    "url": "https://maps.app.goo.gl/dW3a2SovSeGnxXCRA?g_st=ipc",
    "name": "ΤΟ ΚΟΧΥΛΙ (Αφοί Ρέκκα)",
    "address": "Κορυδαλλός 181 20",
    "lat": "37.97958803504725",
    "lng": "23.650262049500654"
  },
  {
    "url": "https://maps.app.goo.gl/g55ZF34fH7dzCpi29?g_st=ipc",
    "name": "Σουβλάκια ο Σέρκος",
    "address": "Ίωνος Δραγούμη 39-41, Πειραιάς 185 42",
    "lat": "37.96321249323642",
    "lng": "23.6546161405587"
  },
  {
    "url": "https://maps.app.goo.gl/6hPX1uNfh9QEYJND7?g_st=ipc",
    "name": "Dealers Real Street Food",
    "address": "Ταξιαρχών 18, Κορυδαλλός 181 20",
    "lat": "37.97630275309409",
    "lng": "23.649623466165345"
  },
  {
    "url": "https://maps.app.goo.gl/4zqMC4Phrwrov3rL6?g_st=ipc",
    "name": "Το Άριστον",
    "address": "Σοφίας Βέμπο 22, Γλυφάδα 166 75",
    "lat": "37.88039754118748",
    "lng": "23.75713413104173"
  },
  {
    "url": "https://maps.app.goo.gl/TJbtwJ75EUsRPcRt8?g_st=ipc",
    "name": "ΕΝΤΥ",
    "address": "Δημ. Καρακουλουξή 4, Νίκαια 184 54",
    "lat": "37.96700050503918",
    "lng": "23.65031239624474"
  },
  {
    "url": "https://maps.app.goo.gl/BFkQxfbJJTqb7Qp87?g_st=ipc",
    "name": "Η Λειβαδιά",
    "address": "Ανδρέα Παπανδρέου 126, Γλυφάδα 165 61",
    "lat": "37.87979270265205",
    "lng": "23.758582732685436"
  },
  {
    "url": "https://maps.app.goo.gl/1jU1MDHhWUfkjuNTA?g_st=ipc",
    "name": "KEBAB HUB",
    "address": "Εφέσου 49, Νίκαια 184 50",
    "lat": "37.96544893408382",
    "lng": "23.64762675898248"
  },
  {
    "url": "https://maps.app.goo.gl/pWZio4wYos7hfNkq6?g_st=ipc",
    "name": "Σουβλάκια \"ο ΜΠΙΛΗΣ\"",
    "address": "Προύσης 22, Νίκαια 184 53",
    "lat": "37.97112327966262",
    "lng": "23.64443348855245"
  },
  {
    "url": "https://maps.app.goo.gl/qS5CXA1L9CMHWtaN7?g_st=ipc",
    "name": "Ψητοπωλείο «Το Πυρνάρι»",
    "address": "Ανθέων 33, Γλυφάδα 166 74",
    "lat": "37.874394232840224",
    "lng": "23.766043784078654"
  },
  {
    "url": "https://maps.app.goo.gl/43quDvAwPQhkbk6t5?g_st=ipc",
    "name": "\"Μάκης\" Ψητοπωλείο-Σουβλατζίδικο",
    "address": "Π. Τσαλδάρη 262, Νίκαια 184 53",
    "lat": "37.97402598918491",
    "lng": "23.643093504500488"
  },
  {
    "url": "https://maps.app.goo.gl/DkaV9CriKcsiVg296?g_st=ipc",
    "name": "Συστηματικό Σουβλατζίδικο Ο Καράμπελας",
    "address": "Πύλης 53, Πειραιάς 185 34",
    "lat": "37.94518871094833",
    "lng": "23.654274337068934"
  },
  {
    "url": "https://maps.app.goo.gl/v85fF9CDnUXK4e4e6?g_st=ipc",
    "name": "Κεμπαπτζίδικον Αϊβαλί Νίκαια",
    "address": "Ελλησπόντου 43, Νίκαια 184 51",
    "lat": "37.97771284812105",
    "lng": "23.63690051700111"
  },
  {
    "url": "https://maps.app.goo.gl/9bVUq8xDuxLwaLim9?g_st=ipc",
    "name": "Η Βρωμιαρα - The Gourmet Street Food Piraeus",
    "address": "Σωτήρος Διός 47, Πειραιάς 185 34",
    "lat": "37.94005665661438",
    "lng": "23.649946814929663"
  },
  {
    "url": "https://maps.app.goo.gl/7CALFJPovo6YskzUA?g_st=ipc",
    "name": "JACKAROO",
    "address": "Σωτήρος Διός 45, Πειραιάς 185 34",
    "lat": "37.94026416396424",
    "lng": "23.649684152709604"
  },
  {
    "url": "https://maps.app.goo.gl/41PfRyTP8uJ6c3uy9?g_st=ipc",
    "name": "Ο Γιώργος",
    "address": "Γούναρη 18 και, Νικήτα, Πειραιάς 185 31",
    "lat": "37.94626514113319",
    "lng": "23.644321784628165"
  },
  {
    "url": "https://maps.app.goo.gl/5Uc5sfiitWqftH1u6?g_st=ipc",
    "name": "Καλή Πίτα",
    "address": "Ακτή Μουτσοπούλου 10, Πειραιάς 185 35",
    "lat": "37.93904235716474",
    "lng": "23.647494180172405"
  },
  {
    "url": "https://maps.app.goo.gl/QjFk2WWeE9jasgmR8?g_st=ipc",
    "name": "Jackaroo",
    "address": "Κολοκοτρώνη 126, Πειραιάς 185 35",
    "lat": "37.940156634414215",
    "lng": "23.643183475106575"
  },
  {
    "url": "https://maps.app.goo.gl/hykabQee4Gtqnvuk9?g_st=ipc",
    "name": "ο Πολύβιος",
    "address": "Αγίου Δημητρίου 28, Πειραιάς 185 45",
    "lat": "37.94989609662676",
    "lng": "23.635292950073545"
  },
  {
    "url": "https://maps.app.goo.gl/mDh3F8ASwiDrm4yK9?g_st=ipc",
    "name": "ZAHOULIS GLYFADA",
    "address": "Γεωρ. Κονδύλη 7, Γλυφάδα 166 75",
    "lat": "37.86453214322605",
    "lng": "23.747876477019613"
  },
  {
    "url": "https://maps.app.goo.gl/EXsQn9E1PkJeJjZU9?g_st=ipc",
    "name": "Story Streat",
    "address": "301 Ακτή Μιαούλη, Enanti Agiou Nikolaou, Πειραιάς 185 35",
    "lat": "37.93927555121359",
    "lng": "23.639905760009334"
  },
  {
    "url": "https://maps.app.goo.gl/Ajs6FhmvDN7iM7dV7?g_st=ipc",
    "name": "Μπαρ Μπεε Κιου - Φρεαττύδα",
    "address": "Λεωφ. Φρεάττυδος 13, Πειραιάς 185 37",
    "lat": "37.93450545499558",
    "lng": "23.64268595079312"
  },
  {
    "url": "https://maps.app.goo.gl/8bfdGPL68FsznR1SA?g_st=ipc",
    "name": "Street Food Park",
    "address": "Παρ. Λεωφ. Βουλιαγμένης 153, Γλυφάδα 166 74",
    "lat": "37.85905594962557",
    "lng": "23.764660793565383"
  },
  {
    "url": "https://maps.app.goo.gl/C4Pcs9AmY91g2TWr8?g_st=ipc",
    "name": "Bella Vista",
    "address": "Κωνσταντινουπόλεως 65, Κερατσίνι 187 56",
    "lat": "37.96390003095981",
    "lng": "23.626189441266973"
  },
  {
    "url": "https://maps.app.goo.gl/HayshPj5xRxQu9pK7?g_st=ipc",
    "name": "GODGILLA ΚΕΡΑΤΣΙΝΙ",
    "address": "Θεόφραστου 54, Κερατσίνι 187 56",
    "lat": "37.958965369510814",
    "lng": "23.62512410531841"
  },
  {
    "url": "https://maps.app.goo.gl/U5qLZ6nCR7tW5r3u7?g_st=ipc",
    "name": "Εστιατόριο Ψησταριά Σωτήρης",
    "address": "Μυριννουντος 10, Μαρκόπουλο Μεσογαίας 190 03",
    "lat": "37.87939587296456",
    "lng": "23.933984566615596"
  },
  {
    "url": "https://maps.app.goo.gl/xQ5Aqm4jpK3KEQLx8?g_st=ipc",
    "name": "ΠΙΤΤΑ FAN grill",
    "address": "Λεωφ. Ευελπίδων 364, Κίτσι 194 00",
    "lat": "37.84574550115403",
    "lng": "23.82243212849934"
  },
  {
    "url": "https://maps.app.goo.gl/vsiCvaNeFCuC7Dfv8?g_st=ipc",
    "name": "ILIADIS COFFEE AND FOOD",
    "address": "Λεωφ. Δημοκρατίας 67, Ασπρόπυργος 193 00",
    "lat": "38.04539961819888",
    "lng": "23.58539496057634"
  },
  {
    "url": "https://maps.app.goo.gl/jR5vQVFM7HLTQP8n9?g_st=ipc",
    "name": "ΣΟΥΒΛΑΚΙΑ \"Ο ΠΙΝΗΣ\"",
    "address": "Σαλαμίνος 39, Ασπρόπυργος 193 00",
    "lat": "38.059665035702054",
    "lng": "23.588228176039767"
  },
  {
    "url": "https://maps.app.goo.gl/DsP5tZnJxShfNf3H9?g_st=ipc",
    "name": "Ζάχος",
    "address": "Βασ. Κωνσταντίνου 94, Βάρη 166 72",
    "lat": "37.821251970598816",
    "lng": "23.80344271241433"
  },
  {
    "url": "https://maps.app.goo.gl/t3CWta3mHexys9Gs7?g_st=ipc",
    "name": "Το Στέκι του Μανώλη",
    "address": "Λεωφ. Ειρήνης 179, Πέραμα 188 63",
    "lat": "37.963705294377505",
    "lng": "23.57363615954898"
  },
  {
    "url": "https://maps.app.goo.gl/6kV5zXHh5EwZ8Cy57?g_st=ipc",
    "name": "Σωτήρης",
    "address": "ΑΘ.ΔΙΑΚΟΥ &, Σολωμού 6, Πέραμα 188 63",
    "lat": "37.96420811591891",
    "lng": "23.572955787134685"
  },
  {
    "url": "https://maps.app.goo.gl/bEtWEwaW2PfwcEhW9?g_st=ipc",
    "name": "Ζάχος Γκριλ",
    "address": "Ερμού 1, Βουλιαγμένη 166 71",
    "lat": "37.81320496162539",
    "lng": "23.782770964184124"
  },
  {
    "url": "https://maps.app.goo.gl/gnVwTeJ7a9GqoCGQ9?g_st=ipc",
    "name": "Πίτα Λαγονήσι",
    "address": "Λεωφ. Καλυβίων 4, Σαρωνικός 190 10",
    "lat": "37.787769077925994",
    "lng": "23.886240321695578"
  },
  {
    "url": "https://maps.app.goo.gl/aT8YqVdyM8ijeioo7?g_st=ipc",
    "name": "Ο Γύρος Της Πόλης",
    "address": "Τέρμα Αφών, Afon Kipreou, Ελευσίνα 190 18",
    "lat": "38.066483272222705",
    "lng": "23.529477178860592"
  },
  {
    "url": "https://maps.app.goo.gl/cDRv243YonNg2qnB6?g_st=ipc",
    "name": "Άρωμα Ελλάδας",
    "address": "Ευεργέτη Κωνσταντίνου Πρίφτη 57, Κερατέα 190 01",
    "lat": "37.80578649121729",
    "lng": "23.9833913286695"
  },
  {
    "url": "https://maps.app.goo.gl/YMXgj9Wj4KVHBdms9?g_st=ipc",
    "name": "Pita Tom",
    "address": "Αγ. Μαρίνα 180 10",
    "lat": "37.74366491916778",
    "lng": "23.535568140347873"
  },
  {
    "url": "https://maps.app.goo.gl/Kg9SVim1DWH8Lytb6?g_st=ipc",
    "name": "Γυραδικο \"Ο Χρήστος\"",
    "address": "Λεωφ. Σουνίου 6, Λαύριο 195 00",
    "lat": "37.7173396733135",
    "lng": "24.054314949086613"
  },
  {
    "url": "https://maps.app.goo.gl/xrxu9zu1wwgoXRKH8?g_st=ipc",
    "name": "Ο Γύρος της Αίγινας",
    "address": "Π. Αιγινήτου 31, Αίγινα 180 10",
    "lat": "37.74389384596183",
    "lng": "23.430224050202156"
  },
  {
    "url": "https://maps.app.goo.gl/xoTkQyq8YGQpxjaU8?g_st=ipc",
    "name": "Φυταμπανης Γ. Ψητοπωλειο - Σουβλατζιδικο",
    "address": "ΕΟ Ισθμού Αρχαίας Επιδαύρου 21, Ίσθμια 200 10",
    "lat": "37.92024228635265",
    "lng": "22.99364053559187"
  },
  {
    "url": "https://maps.app.goo.gl/9EusCQot9r26ZXTs5?g_st=ipc",
    "name": "Trendy Grill Λιμάνι Ναυπλίου",
    "address": "Μπουμπουλίνας 41, Ναύπλιο 211 00",
    "lat": "37.56727361524451",
    "lng": "22.801083825814366"
  },
  {
    "url": "https://maps.app.goo.gl/iaJ7WLVkfAWX8uMY7?g_st=ipc",
    "name": "Stavropoulos Meat & Grill Nafplio",
    "address": "Μπουμπουλίνας 43, Ναύπλιο 211 00",
    "lat": "37.56729472413989",
    "lng": "22.801012947686594"
  },
  {
    "url": "https://maps.app.goo.gl/5vu438KzmoWTk1dRA?g_st=ipc",
    "name": "Souvlakia KARGAS",
    "address": "Naousa 844 01",
    "lat": "37.124561868830334",
    "lng": "25.238091044543676"
  },
  {
    "url": "https://maps.app.goo.gl/5xzuz9k7GPVzTJnDA?g_st=ipc",
    "name": "Shoreditch Burgers & Sandwiches",
    "address": "Dimitriados 186, Volos 382 21",
    "lat": "39.358292162660355",
    "lng": "22.950837613452617"
  },
  {
    "url": "https://maps.app.goo.gl/c4a3sw59T33zdhDU8?g_st=ipc",
    "name": "R The Original fast food",
    "address": "Iasonos 118, Volos 382 21",
    "lat": "39.35863953139754",
    "lng": "22.949097785508563"
  },
  {
    "url": "https://maps.app.goo.gl/RfPoKrLrjoUUEA32A?g_st=ipc",
    "name": "Rainbow",
    "address": "Iasonos 135, Volos 382 21",
    "lat": "39.358716294857",
    "lng": "22.949235444566693"
  },
  {
    "url": "https://maps.app.goo.gl/Dd1J2caUfwteeWVJA?g_st=ipc",
    "name": "Makis",
    "address": "Dimitriados 126, Volos 382 21",
    "lat": "39.35994931747672",
    "lng": "22.947511340680645"
  },
  {
    "url": "https://maps.app.goo.gl/i3EkwXq8bXbY5rfm8?g_st=ipc",
    "name": "To souvlaki tis Alexandras",
    "address": "El. Venizelou 3, Volos 383 33",
    "lat": "39.360700263391244",
    "lng": "22.945330534308695"
  },
  {
    "url": "https://maps.app.goo.gl/B6fuRTJ3jQNZCZMJ8?g_st=ipc",
    "name": "Yasouvlaki!",
    "address": "Naxos 843 00",
    "lat": "37.104045402591176",
    "lng": "25.37553445494035"
  },
  {
    "url": "https://maps.app.goo.gl/poWZpbGwDcXD9udJ6?g_st=ipc",
    "name": "Sweet and Salty",
    "address": "Καναβού και Κλεονίκου, Nafpaktos 303 00",
    "lat": "38.3929233936639",
    "lng": "21.828605110521075"
  },
  {
    "url": "https://maps.app.goo.gl/tVknNoCtf1VeNxVy7?g_st=ipc",
    "name": "FBI Food Truck",
    "address": "X9JQ+3J, Naxos 843 02",
    "lat": "36.98018032275085",
    "lng": "25.38911877245444"
  },
  {
    "url": "https://maps.app.goo.gl/p9VptZqYVY3ELr9j8?g_st=ipc",
    "name": "Rigas",
    "address": "Αγίου Ανδρέου κ, Zaimi, Patra 262 23",
    "lat": "38.250839822865835",
    "lng": "21.737567051131727"
  },
  {
    "url": "https://maps.app.goo.gl/kQo4C3a3QHbyJMpq6?g_st=ipc",
    "name": "Χοιροποίητο Σουβλακοποιείο",
    "address": "Riga Fereou 139, Patra 262 21",
    "lat": "38.2456567707955",
    "lng": "21.73248119818369"
  },
  {
    "url": "https://maps.app.goo.gl/VEjvVPTR3XkkoZxW8?g_st=ipc",
    "name": "Souvlakia o Tzimis",
    "address": "Mpenaki 1, Kalamata 241 00",
    "lat": "37.04342911583992",
    "lng": "22.113254908943482"
  },
  {
    "url": "https://maps.app.goo.gl/r2Vfu2hZFXLEjrmk8?g_st=ipc",
    "name": "Kalotaritissa Beach canteen",
    "address": "Καλοταρίτισσα 840 08",
    "lat": "36.79366881646542",
    "lng": "25.743376582113193"
  },
  {
    "url": "https://maps.app.goo.gl/Xyq1DhyUhw2mJaPq9?g_st=ipc",
    "name": "Pitogyros Traditional Grill House - Gyros, souvlaki, kebab.",
    "address": "Oia 847 02",
    "lat": "36.462570266691884",
    "lng": "25.37797515114607"
  },
  {
    "url": "https://maps.app.goo.gl/AswmP29i78TmQa9F9?g_st=ipc",
    "name": "Garry's",
    "address": "plateia, Chaniotis 630 85",
    "lat": "40.000628811076744",
    "lng": "23.573772244228277"
  },
  {
    "url": "https://maps.app.goo.gl/JYSXRpKjkMx7aNHS7?g_st=ipc",
    "name": "Bloom Brothers canteen",
    "address": "Λιμάνι, Lagada 840 08",
    "lat": "36.90173482477818",
    "lng": "25.977068594760553"
  },
  {
    "url": "https://maps.app.goo.gl/L8R286xrXF2isCzv6?g_st=ipc",
    "name": "Andoni's Gyros Feed",
    "address": "Καλλιθέα 630 77",
    "lat": "40.07464288630586",
    "lng": "23.448992983256165"
  },
  {
    "url": "https://maps.app.goo.gl/tK8o5vXTSUBvD7U3A?g_st=ipc",
    "name": "Ο Γύρος της Νικήτης",
    "address": "Egialou, Nikiti 630 88",
    "lat": "40.21635208465205",
    "lng": "23.666421853120887"
  },
  {
    "url": "https://maps.app.goo.gl/UfCwCDqjCiAuobpi9?g_st=ipc",
    "name": "Delish Food Streat Story",
    "address": "Tsouderon 69, Chania 731 32",
    "lat": "35.515029891736845",
    "lng": "24.02042482402925"
  },
  {
    "url": "https://maps.app.goo.gl/cmq1VkqB1tUYSWUX9?g_st=ipc",
    "name": "Oasis",
    "address": "Voloudaki 4, Chania 731 34",
    "lat": "35.51332964693983",
    "lng": "24.021015604554556"
  },
  {
    "url": "https://maps.app.goo.gl/BCA2nTq76iJ2grhB7?g_st=ipc",
    "name": "Chicktok",
    "address": "Papanastasiou 2, Chania 731 34",
    "lat": "35.509944678509925",
    "lng": "24.031396796267106"
  },
  {
    "url": "https://maps.app.goo.gl/tcGBs6FexGiv7Ju47?g_st=ipc",
    "name": "GYROVOLIES",
    "address": "Eleytherias 1, Perea 570 19",
    "lat": "40.50927064423355",
    "lng": "22.925792825198258"
  },
  {
    "url": "https://maps.app.goo.gl/BCe5MC2HVtopgoEH7?g_st=ipc",
    "name": "Maestro Cantina",
    "address": "EO Thessalonikis Poligirou 32, Thermi 570 01",
    "lat": "40.539866600210786",
    "lng": "23.020757982919235"
  },
  {
    "url": "https://maps.app.goo.gl/3FBZX7roU6fjgkTS6?g_st=ipc",
    "name": "Lordon",
    "address": "Πλατεία Παραμάνα 18, Thermi 570 01",
    "lat": "40.546997157219394",
    "lng": "23.020384247436283"
  },
  {
    "url": "https://maps.app.goo.gl/uCq2bBxGLbG7MnvB6?g_st=ipc",
    "name": "ΓΡΝ Θέρμη",
    "address": "Agiou Nikolaou 30, Thermi 570 01",
    "lat": "40.54741782851475",
    "lng": "23.01948092443365"
  },
  {
    "url": "https://maps.app.goo.gl/KSYp7smPeLPMNF7y6?g_st=ipc",
    "name": "Οψάριον fish bar",
    "address": "Drakopoulou 2, Argostoli 281 00",
    "lat": "38.17459374377572",
    "lng": "20.491243945671638"
  },
  {
    "url": "https://maps.app.goo.gl/ZucBkKNWduhhUbyv9?g_st=ipc",
    "name": "Hot Pot Pasteria",
    "address": "Mediterranean Cosmos, Thessaloniki",
    "lat": "40.555245602641975",
    "lng": "22.992913714606928"
  },
  {
    "url": "https://maps.app.goo.gl/ivkmYsPpBSwDCJHG7?g_st=ipc",
    "name": "Theologos Fast Food",
    "address": "18, Aidiniou 14, Kalamaria 551 32",
    "lat": "40.56936513403147",
    "lng": "22.960477178944696"
  },
  {
    "url": "https://maps.app.goo.gl/cae1kAh8s933Ed8E6?g_st=ipc",
    "name": "Sinners Smash Burgers",
    "address": "Στέλιου Καζαντζίδη 31, Pilea 555 35",
    "lat": "40.576087681457956",
    "lng": "22.989359058851456"
  },
  {
    "url": "https://maps.app.goo.gl/HnPEQCvY87w7EXK28?g_st=ipc",
    "name": "MAVERICK Handmade Street Food",
    "address": "Eth. Antistaseos 179, Kalamaria 551 34",
    "lat": "40.57336217336095",
    "lng": "22.971758064415795"
  },
  {
    "url": "https://maps.app.goo.gl/UxFcV7SWYu9feyef9?g_st=ipc",
    "name": "Thess...Gyro",
    "address": "Smirnis 14, Kalamaria 551 32",
    "lat": "40.57305742887387",
    "lng": "22.955729191150056"
  },
  {
    "url": "https://maps.app.goo.gl/feYupefB1V32NxiX7?g_st=ipc",
    "name": "Jacaranda",
    "address": "Στέλιου Καζαντζίδη 24, Pilea 555 35",
    "lat": "40.583004580048126",
    "lng": "22.98255759646119"
  },
  {
    "url": "https://maps.app.goo.gl/zwY1QQTAGPf4oH7s8?g_st=ipc",
    "name": "Food Plaza",
    "address": "Skra 16, Kalamaria 551 32",
    "lat": "40.57666918251193",
    "lng": "22.94927301198073"
  },
  {
    "url": "https://maps.app.goo.gl/eUYE4q3etTD9FkZs6?g_st=ipc",
    "name": "Fina Kota kai Souvlaki",
    "address": "Al. Papanastasiou 164, Thessaloniki 542 49",
    "lat": "40.59910110403599",
    "lng": "22.970582136003614"
  },
  {
    "url": "https://maps.app.goo.gl/dfbEJidizuzLLALq8?g_st=ipc",
    "name": "O Giros Tis Ellados",
    "address": "Leof. Vasilissis Olgas 176, Thessaloniki 546 46",
    "lat": "40.59770145420411",
    "lng": "22.9555911779157"
  },
  {
    "url": "https://maps.app.goo.gl/AezkPnQB7kKjE1Cr5?g_st=ipc",
    "name": "Paul’s Burger",
    "address": "Geor. Papandreou 38, Thessaloniki 546 46",
    "lat": "40.59788238085435",
    "lng": "22.952162245113325"
  },
  {
    "url": "https://maps.app.goo.gl/LhdTXdShbHy87PAv9?g_st=ipc",
    "name": "Devido",
    "address": "Nik. Plastira 2, Thessaloniki 542 50",
    "lat": "40.6015548155933",
    "lng": "22.97004729221759"
  },
  {
    "url": "https://maps.app.goo.gl/hJJxUbRut66xbMFs5?g_st=ipc",
    "name": "subito",
    "address": "Delfon 145, Thessaloniki 542 48",
    "lat": "40.6000123876882",
    "lng": "22.959807900547272"
  },
  {
    "url": "https://maps.app.goo.gl/2EFX2fMBPiwhmmAv5?g_st=ipc",
    "name": "Devido",
    "address": "25is Martiou 17, Thessaloniki 546 45",
    "lat": "40.599230791467505",
    "lng": "22.95314409507896"
  },
  {
    "url": "https://maps.app.goo.gl/osKm1rqFwwfzqdrLA?g_st=ipc",
    "name": "Thanasis & Sons",
    "address": "Al. Papanastasiou 133, Thessaloniki 542 50",
    "lat": "40.60379888554604",
    "lng": "22.969062086462387"
  },
  {
    "url": "https://maps.app.goo.gl/vkLu33M5Ct15FeXa6?g_st=ipc",
    "name": "Steakhouse Costas",
    "address": "Emmanouil Fili 15, Pilea 555 34",
    "lat": "40.607757700164754",
    "lng": "22.984167654560377"
  },
  {
    "url": "https://maps.app.goo.gl/hfoXLoQmnjaHwpUB7?g_st=ipc",
    "name": "Food Truck Park SKG",
    "address": "Kapetan Ntogra 31, Pilea 555 35",
    "lat": "40.609281906480575",
    "lng": "22.989500884434833"
  },
  {
    "url": "https://maps.app.goo.gl/xNHbtpHz8gpf4vYR6?g_st=ipc",
    "name": "ΓΡΝ Τούμπα",
    "address": "Michail Chourmouzi 41, Thessaloniki 544 53",
    "lat": "40.606092536657584",
    "lng": "22.971298180015925"
  },
  {
    "url": "https://maps.app.goo.gl/8hPpQdZA8iNRAksd7?g_st=ipc",
    "name": "Souvlaki Street",
    "address": "Geor. Drosini 14, Thessaloniki 546 44",
    "lat": "40.60499215993171",
    "lng": "22.95914208357667"
  },
  {
    "url": "https://maps.app.goo.gl/bUnuC1Vh9ysa2VhL6?g_st=ipc",
    "name": "Kostas",
    "address": "Mark. Mpotsari 120, Thessaloniki 546 43",
    "lat": "40.608571752720515",
    "lng": "22.967969048628863"
  },
  {
    "url": "https://maps.app.goo.gl/EWmSLiCCxYM2N33x6?g_st=ipc",
    "name": "Giotis",
    "address": "Mark. Mpotsari 150, Thessaloniki 544 53",
    "lat": "40.60922266804071",
    "lng": "22.97064673048183"
  },
  {
    "url": "https://maps.app.goo.gl/cajfpJVBkeREe7FNA?g_st=ipc",
    "name": "Prassas",
    "address": "Mark. Mpotsari 89, Thessaloniki 546 44",
    "lat": "40.60822104515919",
    "lng": "22.96538292733955"
  },
  {
    "url": "https://maps.app.goo.gl/qmEdiZfcHrQAp8pU7?g_st=ipc",
    "name": "Petridis And Sons - Grill House",
    "address": "Grigoriou Lampraki 206, Thessaloniki 555 34",
    "lat": "40.61189681851916",
    "lng": "22.984212166296615"
  },
  {
    "url": "https://maps.app.goo.gl/KNA3DuGAxNV9SYMs8?g_st=ipc",
    "name": "ΤΟ ΚΟΚΟΡΑΚΙ",
    "address": "Mark. Mpotsari 105, Thessaloniki 544 53",
    "lat": "40.6088349903696",
    "lng": "22.967918512345722"
  },
  {
    "url": "https://maps.app.goo.gl/6Bmdb1UVvVyTyyNdA?g_st=ipc",
    "name": "Gyradiko",
    "address": "Grigoriou Lampraki 125, Thessaloniki 543 51",
    "lat": "40.615031188130764",
    "lng": "22.97695657295727"
  },
  {
    "url": "https://maps.app.goo.gl/9AT6QmGaM1pLwsRb9?g_st=ipc",
    "name": "Tost Spesial",
    "address": "Paraskevopoulou 12, Thessaloniki 546 40",
    "lat": "40.616314670176166",
    "lng": "22.955059124656405"
  },
  {
    "url": "https://maps.app.goo.gl/u5NXam3TJPXTBEGQ6?g_st=ipc",
    "name": "Το Μυρμήγκι - HOT-DOG - Βραστά Λουκάνικα",
    "address": "Konstantinoupoleos 8, Thessaloniki 546 40",
    "lat": "40.61789526919397",
    "lng": "22.95852389027651"
  },
  {
    "url": "https://maps.app.goo.gl/taG7ENcMfbyzazQX7?g_st=ipc",
    "name": "Pizza Sakis",
    "address": "Leof. Stratou 26, Thessaloniki 546 40",
    "lat": "40.6189040866906",
    "lng": "22.958041870578818"
  },
  {
    "url": "https://maps.app.goo.gl/82yxHEuuzhZ7bD1T9?g_st=ipc",
    "name": "Το Έτση",
    "address": "Nikiforou Foka 2, Thessaloniki 546 21",
    "lat": "40.627697688934035",
    "lng": "22.94868143840882"
  },
  {
    "url": "https://maps.app.goo.gl/pedu5yTx6WHSFd5MA?g_st=ipc",
    "name": "Feyrouz SKG",
    "address": "Mitropoleos 125, Nikiforou Foka 8, Thessaloniki 546 21",
    "lat": "40.62813032194449",
    "lng": "22.94911089919006"
  },
  {
    "url": "https://maps.app.goo.gl/1CjK5eGEVn2bdjxz8?g_st=ipc",
    "name": "Giok Balik",
    "address": "Eth. Aminis 34, Thessaloniki 546 21",
    "lat": "40.62972191102995",
    "lng": "22.952456612586893"
  },
  {
    "url": "https://maps.app.goo.gl/ZU1we2eajmmkHarSA?g_st=ipc",
    "name": "SUN DO EACH",
    "address": "Pl. Ippodromiou 12, Thessaloniki 546 21",
    "lat": "40.629855288469905",
    "lng": "22.95097907140209"
  },
  {
    "url": "https://maps.app.goo.gl/F867e4fDb8YFQcHN9?g_st=ipc",
    "name": "Because Bagel",
    "address": "Al. Svolou 41, Thessaloniki 546 21",
    "lat": "40.63057520882739",
    "lng": "22.951254328665513"
  },
  {
    "url": "https://maps.app.goo.gl/NQPjMfCoN4AKJD3m8?g_st=ipc",
    "name": "Christos",
    "address": "Egnatia 150, Thessaloniki 546 21",
    "lat": "40.63147006963023",
    "lng": "22.952399705195514"
  },
  {
    "url": "https://maps.app.goo.gl/hi9XxDarzuTKvZmD8?g_st=ipc",
    "name": "Argophageío",
    "address": "Apellou 6, Thessaloniki 546 22",
    "lat": "40.631121382402085",
    "lng": "22.94963262184118"
  },
  {
    "url": "https://maps.app.goo.gl/VGaiUJdvDDnid5Kk9?g_st=ipc",
    "name": "Hot Pot Pasteria City Center",
    "address": "Paleon Patron Germanou 12, Thessaloniki 546 22",
    "lat": "40.63116120039778",
    "lng": "22.946781922089382"
  },
  {
    "url": "https://maps.app.goo.gl/zE2aLejbpEyQpDvq8?g_st=ipc",
    "name": "Taco Mazama (Californian Style Mexican Street Food)",
    "address": "Paleon Patron Germanou 28, Thessaloniki 546 22",
    "lat": "40.63149354851285",
    "lng": "22.94839774432504"
  },
  {
    "url": "https://maps.app.goo.gl/nooaQmgbY9VX2WGv7?g_st=ipc",
    "name": "Derlicatesen all Souvlaki",
    "address": "John Kouskoura 3, Thessaloniki 546 22",
    "lat": "40.630948535574674",
    "lng": "22.944881639476645"
  },
  {
    "url": "https://maps.app.goo.gl/oFPYJzUU4rgqitwB7?g_st=ipc",
    "name": "Balboa Thessaloniki",
    "address": "P. Mela 42, Thessaloniki 546 22",
    "lat": "40.631903473697065",
    "lng": "22.947513989325277"
  },
  {
    "url": "https://maps.app.goo.gl/cRpaEqK3F7inKXVy5?g_st=ipc",
    "name": "Jackaroo",
    "address": "Mitropoleos 67, Thessaloniki 546 22",
    "lat": "40.631343527256554",
    "lng": "22.944174715835555"
  },
  {
    "url": "https://maps.app.goo.gl/rccueDiq6UHSWjB86?g_st=ipc",
    "name": "Dakee spot",
    "address": "P. Mela 48, Thessaloniki 546 22",
    "lat": "40.6322179094533",
    "lng": "22.947351485022043"
  },
  {
    "url": "https://maps.app.goo.gl/fczSwQFG8SAVzjsu7?g_st=ipc",
    "name": "Life And Chicken",
    "address": "Κέντρο, Θεσσαλονίκη, Patriarchou Ioakim 26, Thessaloniki 546 35",
    "lat": "40.63311964993022",
    "lng": "22.951739765062324"
  },
  {
    "url": "https://maps.app.goo.gl/gyhw2UWMtxWKgMui6?g_st=ipc",
    "name": "Cong | Vietasian Street Food",
    "address": "Proxenou Koromila 9, Thessaloniki 546 23",
    "lat": "40.63147206727124",
    "lng": "22.942501320363125"
  },
  {
    "url": "https://maps.app.goo.gl/iyZQfPWo4E2pskqX8?g_st=ipc",
    "name": "The Last Slice",
    "address": "Proxenou Koromila 1, Thessaloniki 546 23",
    "lat": "40.63188753569458",
    "lng": "22.94190837965703"
  },
  {
    "url": "https://maps.app.goo.gl/dAaaqBN4npr7HBBU7?g_st=ipc",
    "name": "22 Σουβλάκια",
    "address": "Aristotelous Sq 8, Thessaloniki 546 23",
    "lat": "40.632325575157445",
    "lng": "22.941533229878075"
  },
  {
    "url": "https://maps.app.goo.gl/KNAkyJUgnkqkuPQs9?g_st=ipc",
    "name": "Liga ke kala",
    "address": "Kassandrou 132, Thessaloniki 546 34",
    "lat": "40.63627784998205",
    "lng": "22.954179728027064"
  },
  {
    "url": "https://maps.app.goo.gl/eQJvB2FMkUEghr9y7?g_st=ipc",
    "name": "Thess Bao",
    "address": "Kalapothaki 3, Thessaloniki 546 45",
    "lat": "40.633724315611715",
    "lng": "22.93899137586201"
  },
  {
    "url": "https://maps.app.goo.gl/a5enHSGzpNb2rYAJ7?g_st=ipc",
    "name": "Bombídia - Bombs",
    "address": "Vasileos Irakleiou 35, 37, Thessaloniki 546 24",
    "lat": "40.63441434318281",
    "lng": "22.94206825187552"
  },
  {
    "url": "https://maps.app.goo.gl/SWEWMLbzJrveMUjT7?g_st=ipc",
    "name": "Ohmami - Street Food / Thessaloniki",
    "address": "Patriarchoi Dionisii E 1, Thessaloniki 546 31",
    "lat": "40.63556315760708",
    "lng": "22.947563243318125"
  },
  {
    "url": "https://maps.app.goo.gl/dBrKhYFMn7bdAAyAA?g_st=ipc",
    "name": "Κύριος Μπαμπάτσικος",
    "address": "Vasileos Irakleiou 33, Thessaloniki 546 24",
    "lat": "40.63461122232153",
    "lng": "22.941727966275263"
  },
  {
    "url": "https://maps.app.goo.gl/j8pVp1d58tFR3FKR6?g_st=ipc",
    "name": "Ο Γύρος της Αριστοτέλους",
    "address": "Aristotélous 24, Thessaloniki 546 23",
    "lat": "40.63507047582695",
    "lng": "22.94368729541851"
  },
  {
    "url": "https://maps.app.goo.gl/B68oxS5kPucvmKVy7?g_st=ipc",
    "name": "Ochsenkopf German Delicatessen",
    "address": "Αγορά Μοδιανο, Thessaloniki 546 24",
    "lat": "40.634945471087235",
    "lng": "22.941783687986916"
  },
  {
    "url": "https://maps.app.goo.gl/831RBk3hM78pZN1a8?g_st=ipc",
    "name": "SESOULA Street Food",
    "address": "Mitropoleos 6, Thessaloniki 546 25",
    "lat": "40.63477422793839",
    "lng": "22.937577409662797"
  },
  {
    "url": "https://maps.app.goo.gl/jXzXhjGZbZTLHvnd9?g_st=ipc",
    "name": "Laikon",
    "address": "Politechniou 24, Thessaloniki 546 25",
    "lat": "40.63567516803373",
    "lng": "22.93753817677912"
  },
  {
    "url": "https://maps.app.goo.gl/gUdJfgvKc5M5F6TR7?g_st=ipc",
    "name": "Raw Street Burger - Thessaloniki",
    "address": "Politechniou 53, Thessaloniki 546 25",
    "lat": "40.63602099868007",
    "lng": "22.937352405537926"
  },
  {
    "url": "https://maps.app.goo.gl/D5vAgy9G1TNsAAyJ9?g_st=ipc",
    "name": "Cantina Manara",
    "address": "Στοά, Ermou 1, Thessaloniki 546 25",
    "lat": "40.637111408911565",
    "lng": "22.9392252159668"
  },
  {
    "url": "https://maps.app.goo.gl/Z7BYjUBJYcnFTaEm9?g_st=ipc",
    "name": "Η Βρωμιάρα - The Gourmet Street Food | Θεσσαλονικη",
    "address": "Siggrou 7, Thessaloniki 546 25",
    "lat": "40.63730784042486",
    "lng": "22.939114096509012"
  },
  {
    "url": "https://maps.app.goo.gl/msSh5RZw3k81mKHWA?g_st=ipc",
    "name": "Pízza Poselli",
    "address": "Vilara 2, Thessaloniki 546 25",
    "lat": "40.63738632422352",
    "lng": "22.938994583377827"
  },
  {
    "url": "https://maps.app.goo.gl/Pr2NGoHPa59C1JPVA?g_st=ipc",
    "name": "FAVELA Bit Bazar",
    "address": "Olympou 72, Thessaloniki 546 31",
    "lat": "40.63897345242983",
    "lng": "22.94448760793796"
  },
  {
    "url": "https://maps.app.goo.gl/HfoTaA81WJgTcqWp6?g_st=ipc",
    "name": "Plateia Bit pazar",
    "address": "Προσφυγική Αγορά 16 Β, Thessaloniki 546 31",
    "lat": "40.63891956491642",
    "lng": "22.94393646377273"
  },
  {
    "url": "https://maps.app.goo.gl/6mWAWHUbEwXuAb589?g_st=ipc",
    "name": "Salento Wood Fired Street Food",
    "address": "El. Venizelou 76, Thessaloniki 546 31",
    "lat": "40.639269734572295",
    "lng": "22.943990430297482"
  },
  {
    "url": "https://maps.app.goo.gl/ck9L5Pz4C9MGKVbV7?g_st=ipc",
    "name": "Crats Fried Chicken Egnatia",
    "address": "Egnatia 27, Thessaloniki 546 30",
    "lat": "40.63898844732417",
    "lng": "22.938638631354078"
  },
  {
    "url": "https://maps.app.goo.gl/GvH8vhGT4BrR9x9WA?g_st=ipc",
    "name": "PORKITTO - ΓΥΡΑΔΙΚΟ - ΣΟΥΒΛΑΚΙ - ΣΤΕΦΑΝΟΥ ΠΑΡΘΕΝΑ - ΘΕΣΣΑΛΟΝΙΚΗ",
    "address": "Καραολή και Δημητρίου 52, Thessaloniki 546 30",
    "lat": "40.64044750261407",
    "lng": "22.942776573082938"
  },
  {
    "url": "https://maps.app.goo.gl/p1mkurFCqsY7XC3w5?g_st=ipc",
    "name": "Το Πρυτανείο",
    "address": "Alexandras Papadopoulou 72, Thessaloniki 546 33",
    "lat": "40.64303995879506",
    "lng": "22.947630622213342"
  },
  {
    "url": "https://maps.app.goo.gl/huQUwoVx5eZ9dY357?g_st=ipc",
    "name": "Μαμά Τερέζα",
    "address": "26is Oktovriou 15, Thessaloniki 546 27",
    "lat": "40.64077907495011",
    "lng": "22.91819947384191"
  },
  {
    "url": "https://maps.app.goo.gl/nAwyYBALch1ybbQSA?g_st=ipc",
    "name": "Michelangelo.skg",
    "address": "Riga Feraiou 162, Sikies 566 26",
    "lat": "40.65053808833563",
    "lng": "22.95671243903333"
  },
  {
    "url": "https://maps.app.goo.gl/gB9jG1sW8aaCssEs7?g_st=ipc",
    "name": "Ta Babatsika Giro",
    "address": "Αγίων Πάντων 28, Thessaloniki 561 23",
    "lat": "40.647745410832044",
    "lng": "22.928067747195957"
  },
  {
    "url": "https://maps.app.goo.gl/L84rScHZkgehJUri7?g_st=ipc",
    "name": "Crats Mexican",
    "address": "Giannitson 61, Thessaloniki 546 27",
    "lat": "40.646440943227944",
    "lng": "22.920915607467233"
  },
  {
    "url": "https://maps.app.goo.gl/HehrRz31yKnDYNa49?g_st=ipc",
    "name": "Karbouniáriko",
    "address": "Nik. Plastira 11, Ampelokipi 561 23",
    "lat": "40.65687885553669",
    "lng": "22.9247874320993"
  },
  {
    "url": "https://maps.app.goo.gl/zrQxzEjiyGHcJGXt5?g_st=ipc",
    "name": "Κοτόπουλα Δέρας",
    "address": "Karaoli ke Dimitriou 154, Evosmos 562 24",
    "lat": "40.6664983188531",
    "lng": "22.919495227155743"
  },
  {
    "url": "https://maps.app.goo.gl/BYpMVurWN1yMNmFh8?g_st=ipc",
    "name": "Crats Fried Chicken Ευόσμου",
    "address": "Aristotélous 67, Evosmos 562 24",
    "lat": "40.66578126903803",
    "lng": "22.911725635585793"
  },
  {
    "url": "https://maps.app.goo.gl/ghxqsvRTJj4mWN988?g_st=ipc",
    "name": "Devido",
    "address": "Karaoli ke Dimitriou 89, Evosmos 562 24",
    "lat": "40.66696798830783",
    "lng": "22.91206522121093"
  },
  {
    "url": "https://maps.app.goo.gl/Keom9mTvrZ5H3Nat7?g_st=ipc",
    "name": "ΨΗΤΟΠΩΛΕΙΑ ΕΥΟΣΜΟΣ- ΑΝΩ ΚΑΤΩ",
    "address": "Tzavella 2, Evosmos 562 24",
    "lat": "40.66706897454817",
    "lng": "22.912010033587894"
  },
  {
    "url": "https://maps.app.goo.gl/h5xQF5VfomnJ621E6?g_st=ipc",
    "name": "Rookie.skg",
    "address": "P. Mela 28, Evosmos 562 24",
    "lat": "40.66725409679953",
    "lng": "22.911543036523838"
  },
  {
    "url": "https://maps.app.goo.gl/aaKTJZJokUXTmmru9?g_st=ipc",
    "name": "STIVOS BURGER & STEAK",
    "address": "Ευαγγελισμού της Θεοτόκου 43, Evosmos 562 24",
    "lat": "40.66959322745075",
    "lng": "22.911385519403897"
  },
  {
    "url": "https://maps.app.goo.gl/qCiHQcXfuVPpbvs5A?g_st=ipc",
    "name": "Η Βρωμιάρα - The Gourmet Street Food",
    "address": "Averof 60, Ioannina 452 21",
    "lat": "39.6691471152778",
    "lng": "20.85696993484649"
  },
  {
    "url": "https://maps.app.goo.gl/p8LFpYc2vTdDWnYp6?g_st=ipc",
    "name": "Filia Giannari",
    "address": "kavpevtan Mavnoli Mpantouva 65, Iraklio 713 07",
    "lat": "35.33111188005716",
    "lng": "25.144727327039348"
  },
  {
    "url": "https://maps.app.goo.gl/3RSn2LjzUnKrQc289?g_st=ipc",
    "name": "Holy Smoke BBQ Streetfood",
    "address": "Eth. Antistaseos 136, Alexandroupoli 681 00",
    "lat": "40.846113407445806",
    "lng": "25.871107111584706"
  },
  {
    "url": "https://maps.app.goo.gl/YaQiwsqM5G144MKZ8?g_st=ipc",
    "name": "King Food",
    "address": "Kilkis 12-14, Komotini 691 00",
    "lat": "41.119343380363595",
    "lng": "25.40306406826728"
  },
  {
    "url": "https://maps.app.goo.gl/bBz55JsBTZudAbHR9?g_st=ipc",
    "name": "Di Santo Premium Sandwiches",
    "address": "Evgeniou Voulgareos 3, Kerkira 491 00",
    "lat": "39.6237687550092",
    "lng": "19.923112693259046"
  },
  {
    "url": "https://maps.app.goo.gl/3x2uABEYb4yf4U9ZA?g_st=ipc",
    "name": "Pitta pappou",
    "address": "ΑΓΙΩΝ ΠΑΝΤΩΝ 12, agion panton 12, Kerkira 491 00",
    "lat": "39.62391916981706",
    "lng": "19.9227027256586"
  },
  {
    "url": "https://maps.app.goo.gl/Zz9LDsNcF9KHLgfX6?g_st=ipc",
    "name": "Vlassis",
    "address": "Vasileos Georgiou, Soufli 684 00",
    "lat": "41.1944139413849",
    "lng": "26.305196580284058"
  },
  {
    "url": "https://maps.app.goo.gl/HQkLX39r1Ru88dxq8?g_st=ipc",
    "name": "Mr.G's - Ψητοπωλείο - Greek Street Food",
    "address": "Geor. Papanikolaou 8, Rodos 851 00",
    "lat": "36.45328895287043",
    "lng": "28.221248936648102"
  }
]
