[
  {
    "url": "https://maps.app.goo.gl/NV3sFCcDPqZUeRzWA?g_st=ipc",
    "name": "Hidden Χολαργός",
    "address": "Πυθαγόρα, Χίου 6, Χολαργός 155 62",
    "lat": "38.00530967929583",
    "lng": "23.799191777899182"
  },
  {
    "url": "https://maps.app.goo.gl/1oTiFbFAjGwZTcXq9?g_st=ipc",
    "name": "Alto Corto Cafe",
    "address": "Λεωφόρος Μεσογείων 400 και, Αἰγαίου Πελάγους, Αγ. Παρασκευή 153 42",
    "lat": "38.012694707387",
    "lng": "23.81807168304755"
  },
  {
    "url": "https://maps.app.goo.gl/9NgrgwXAtnAhzyQM7?g_st=ipc",
    "name": "Alsos Cholargou / Άλσος Χολαργού",
    "address": "Ευριπίδου 1, Χολαργός 155 62",
    "lat": "37.99731205193856",
    "lng": "23.801346586633024"
  },
  {
    "url": "https://maps.app.goo.gl/j4jHouWVFDNbqaBK6?g_st=ipc",
    "name": "Olivia’s Brother",
    "address": "Leof. Perikleous, Κεραμεικού 4, Χολαργός 155 61",
    "lat": "37.99842910582675",
    "lng": "23.799666763449746"
  },
  {
    "url": "https://maps.app.goo.gl/mBES32gA39m1YfEdA?g_st=ipc",
    "name": "WallStreet Athens",
    "address": "Ελπίδος, Δημ. Γούναρη 2-4, Αγ. Παρασκευή 153 43",
    "lat": "38.01470612030241",
    "lng": "23.8212081874615"
  },
  {
    "url": "https://maps.app.goo.gl/ZsSXep3FZfHkFyPYA?g_st=ipc",
    "name": "Opus coffee and more",
    "address": "Αιγαίου Πελάγους, Γραβιάς και, Αγ. Παρασκευή 153 42",
    "lat": "38.001260916187285",
    "lng": "23.825716095768566"
  },
  {
    "url": "https://maps.app.goo.gl/36ShHJ9gS1j7CesG9?g_st=ipc",
    "name": "bookAli",
    "address": "Λεωφ. Μεσογείων 236, Χολαργός 155 61",
    "lat": "38.00429979988101",
    "lng": "23.794394502333493"
  },
  {
    "url": "https://maps.app.goo.gl/sjLV2JRan1wDF2hM6?g_st=ipc",
    "name": "Piccadilly Cafe - Bar",
    "address": "Eleftherias, Αγίου Ιωάννου 63, Αγ. Παρασκευή 153 42",
    "lat": "38.00719392579973",
    "lng": "23.82715472856948"
  },
  {
    "url": "https://maps.app.goo.gl/xKV3uQ5sHdPxcNpR6?g_st=ipc",
    "name": "Big Spoon",
    "address": "Αγίου Ιωάννου 65, Αγ. Παρασκευή 153 42",
    "lat": "38.00695313454604",
    "lng": "23.827222163103215"
  },
  {
    "url": "https://maps.app.goo.gl/GzFQB9fD18CsSH7k9?g_st=ipc",
    "name": "Cornell",
    "address": "Αετιδέων 18 &, Βουτσινά, Χολαργός 155 61",
    "lat": "38.00169766553315",
    "lng": "23.79390617469456"
  },
  {
    "url": "https://maps.app.goo.gl/eFtNz9rPLtHdLmHP6?g_st=ipc",
    "name": "miCafetal",
    "address": "Ηρ. Πολυτεχνείου 17, Χαλάνδρι 152 31",
    "lat": "38.00628521283868",
    "lng": "23.79310128971578"
  },
  {
    "url": "https://maps.app.goo.gl/TyGqvKXydEaJvedUA?g_st=ipc",
    "name": "BREAD B.C. Bread Before Christ",
    "address": "Αγίας Παρασκευής 59, Χαλάνδρι 152 34",
    "lat": "38.02007274297337",
    "lng": "23.803168344895795"
  },
  {
    "url": "https://maps.app.goo.gl/9VmK3qL1LECkBAycA?g_st=ipc",
    "name": "Fisi The Project",
    "address": "Αγίου Γεωργίου 28, Χαλάνδρι 152 31",
    "lat": "38.02103923737401",
    "lng": "23.803142982241283"
  },
  {
    "url": "https://maps.app.goo.gl/nDbFuEsz56BPrtWV8?g_st=ipc",
    "name": "Το Βαζάκι Juice Bar",
    "address": "Αριστοτέλους 33, Χαλάνδρι 152 34",
    "lat": "38.021003514175945",
    "lng": "23.80272580711501"
  },
  {
    "url": "https://maps.app.goo.gl/meU9KZcd4KyskmW5A?g_st=ipc",
    "name": "The Blind Spot Chalandri",
    "address": "Αγίας Παρασκευής 29, Χαλάνδρι 152 34",
    "lat": "38.02081193268296",
    "lng": "23.800852260132338"
  },
  {
    "url": "https://maps.app.goo.gl/s7TjtfQj1q9s9Tnk8?g_st=ipc",
    "name": "JERRY’S",
    "address": "Εθ. Αμύνης 27, Παπάγου 156 69",
    "lat": "37.99081436071943",
    "lng": "23.798622930452883"
  },
  {
    "url": "https://maps.app.goo.gl/pHD9NuQvxt5E3ECz5?g_st=ipc",
    "name": "Penny Lane Comfort Food",
    "address": "Θουκυδίδου 12, Χαλάνδρι 152 32",
    "lat": "38.02034857308637",
    "lng": "23.798833782982413"
  },
  {
    "url": "https://maps.app.goo.gl/PenVFxTnARKzLw62A?g_st=ipc",
    "name": "Koulouri Lab",
    "address": "Ανδρέα Παπανδρέου 36, Αθήνα 152 32",
    "lat": "38.02001411382259",
    "lng": "23.797606580273964"
  },
  {
    "url": "https://maps.app.goo.gl/zwkhVzdkQughii3i7?g_st=ipc",
    "name": "Theory Bar",
    "address": "Πλάτωνος 14, Χαλάνδρι 152 34",
    "lat": "38.02145412084465",
    "lng": "23.799757422872677"
  },
  {
    "url": "https://maps.app.goo.gl/iFPzHyPcLoNrFRsNA?g_st=ipc",
    "name": "Butterfly All Day Bar",
    "address": "Λεωφόρος Πεντέλης 8 , Στρατάρχου Παπάγου 5, Χαλάνδρι 152 33",
    "lat": "38.02255116891241",
    "lng": "23.802059077338257"
  },
  {
    "url": "https://maps.app.goo.gl/uttCEc9rHvmfUF3c7?g_st=ipc",
    "name": "Piu Verde",
    "address": "Στρατ, Αλ. Παπάγου, Παπάγου 156 69",
    "lat": "37.993592134048",
    "lng": "23.792630644928746"
  },
  {
    "url": "https://maps.app.goo.gl/3oREsLJ4wCJ3pzXJA?g_st=ipc",
    "name": "Petite Fleur Chalandri",
    "address": "Πλατεία Ελευθερωτών 16, Platia Eleftheroton 16, Χαλάνδρι 152 32",
    "lat": "38.02118310968284",
    "lng": "23.79790895879059"
  },
  {
    "url": "https://maps.app.goo.gl/VKSg4V9NPf89H1ha7?g_st=ipc",
    "name": "Bored, C'mon hub",
    "address": "Λεωφ. Πεντέλης 15, Χαλάνδρι 152 34",
    "lat": "38.02345514252141",
    "lng": "23.803073599949013"
  },
  {
    "url": "https://maps.app.goo.gl/VZMRfmKCQeAiaXpR6?g_st=ipc",
    "name": "Mr Peacock",
    "address": "Κατσουλιέρη 7, Χαλάνδρι 152 33",
    "lat": "38.02229439663125",
    "lng": "23.799067122766484"
  },
  {
    "url": "https://maps.app.goo.gl/6jRQwexkVc3z2pR59?g_st=ipc",
    "name": "Hide & Seek - All day bar restaurant",
    "address": "Λεωφ. Κηφισίας 254, Χαλάνδρι 152 31",
    "lat": "38.01697332433943",
    "lng": "23.786770693061168"
  },
  {
    "url": "https://maps.app.goo.gl/e75yZ6CbqLTXVusq7?g_st=ipc",
    "name": "ΜΟΝΤΑΚΙΟΥ - ΝΕΟ ΨΥΧΙΚΟ",
    "address": "Λεωφ. Κηφισίας 340, Νέο Ψυχικό 154 51",
    "lat": "38.00899356630051",
    "lng": "23.779485267398293"
  },
  {
    "url": "https://maps.app.goo.gl/xrBYBKpsUdVTC1vj6?g_st=ipc",
    "name": "Palia Agora",
    "address": "Κεχαγιά 26, Φιλοθέη 152 37",
    "lat": "38.023405893296015",
    "lng": "23.786302411937246"
  },
  {
    "url": "https://maps.app.goo.gl/KjpKvzNXdWoxzDFA7?g_st=ipc",
    "name": "Willow Cafe Χαλάνδρι",
    "address": "Ριζαρείου 9, Χαλάνδρι 152 33",
    "lat": "38.03103124415517",
    "lng": "23.796167188145933"
  },
  {
    "url": "https://maps.app.goo.gl/P3WZt5PaHNoTambf6?g_st=ipc",
    "name": "ΜΟΝΤΑΚΙΟΥ ΜΑΡΟΥΣΙ",
    "address": "Ρωμανού Μελωδού 1, Μαρούσι 151 25",
    "lat": "38.03797108447277",
    "lng": "23.80161359245891"
  },
  {
    "url": "https://maps.app.goo.gl/SZ38YLhtn9HgUGAZ9?g_st=ipc",
    "name": "Οι πίτες της γιαγιάς Ευριδίκης",
    "address": "Κύπρου 25, Βριλήσσια 152 35",
    "lat": "38.03426712689994",
    "lng": "23.833618598910473"
  },
  {
    "url": "https://maps.app.goo.gl/Ujy91XzzUb5AuEK38?g_st=ipc",
    "name": "The Roosters Vrilissia",
    "address": "Θέτιδος 1 &, Ομήρου 2, Βριλήσσια 152 38",
    "lat": "38.037656279094364",
    "lng": "23.82632315275067"
  },
  {
    "url": "https://maps.app.goo.gl/uQpG9Yamdzg2aDJG8?g_st=ipc",
    "name": "Samba Coffee Roasters | Crossroads",
    "address": "Λασκαρίδου 7, Ampelokipi 115 24",
    "lat": "37.99393050466954",
    "lng": "23.765656487319742"
  },
  {
    "url": "https://maps.app.goo.gl/nhS7zheSxj71qxXFA?g_st=ipc",
    "name": "Garazaki",
    "address": "Θεσσαλονίκης 33, Γέρακας 153 44",
    "lat": "38.00820112050225",
    "lng": "23.859624038909082"
  },
  {
    "url": "https://maps.app.goo.gl/i3aZZJMDZs8yiYD88?g_st=ipc",
    "name": "Gaby",
    "address": "Λεωφ. Μεσογείων 33-37, Αθήνα 115 26",
    "lat": "37.986676810313035",
    "lng": "23.76468460968007"
  },
  {
    "url": "https://maps.app.goo.gl/CUvMnKb1Hruhtibb8?g_st=ipc",
    "name": "Noemi Athens",
    "address": "Παπαδιαμαντοπούλου 138, Αθήνα 157 73",
    "lat": "37.98261642912539",
    "lng": "23.76682899259837"
  },
  {
    "url": "https://maps.app.goo.gl/uXF6EF7MznZrK5Jb9?g_st=ipc",
    "name": "Αναψυκτήριο Καλοπούλα",
    "address": "Unnamed Road, Καισαριανή",
    "lat": "37.96354797529962",
    "lng": "23.804248106884938"
  },
  {
    "url": "https://maps.app.goo.gl/bMheYFALtaZQt2eg9?g_st=ipc",
    "name": "Bless Hopes & Drinks",
    "address": "Παπαδιαμαντοπούλου 118, Ζωγράφου 157 73",
    "lat": "37.98177476738277",
    "lng": "23.764992470497013"
  },
  {
    "url": "https://maps.app.goo.gl/vEEphseUhHsbhVWs9?g_st=ipc",
    "name": "oZé Athens",
    "address": "Παπάγου 56, Ζωγράφου 157 71",
    "lat": "37.97844398978006",
    "lng": "23.767461364777404"
  },
  {
    "url": "https://maps.app.goo.gl/5D1SdokXMKCgvPB27?g_st=ipc",
    "name": "Ο Βραζιλιάνος",
    "address": "Παπάγου 37, Ζωγράφου 157 73",
    "lat": "37.97904208015633",
    "lng": "23.766074567747406"
  },
  {
    "url": "https://maps.app.goo.gl/PcD6G1TEsbi1swU57?g_st=ipc",
    "name": "48",
    "address": "Λεωφ. Βεΐκου 48, Γαλάτσι 111 47",
    "lat": "38.018274408105384",
    "lng": "23.755916271922057"
  },
  {
    "url": "https://maps.app.goo.gl/LhCE2aHEwVVToKhc6?g_st=ipc",
    "name": "Τρομερό παιδί",
    "address": "Παπαδιαμαντοπούλου 30, Αθήνα 115 28",
    "lat": "37.979193977677895",
    "lng": "23.756620823918542"
  },
  {
    "url": "https://maps.app.goo.gl/XPiz8gPX1disrJLV9?g_st=ipc",
    "name": "LOT 51",
    "address": "Παπαδιαμαντοπούλου 24Β, Αθήνα 115 28",
    "lat": "37.97889236924369",
    "lng": "23.75608261699221"
  },
  {
    "url": "https://maps.app.goo.gl/1iFxkjwZn9gN56m89?g_st=ipc",
    "name": "Slow Athens",
    "address": "Αγίου Σπυρίδωνος 18, Γαλάτσι 111 46",
    "lat": "38.02276964076481",
    "lng": "23.750109220953814"
  },
  {
    "url": "https://maps.app.goo.gl/o5wNnYy8d5rdfCBx5?g_st=ipc",
    "name": "Janet Craig",
    "address": "28ης Οκτωβρίου 5, Μαρούσι 151 24",
    "lat": "38.05641063632366",
    "lng": "23.806182036715274"
  },
  {
    "url": "https://maps.app.goo.gl/gFbRCwSSyvTd57Ti8?g_st=ipc",
    "name": "Hygge Athens",
    "address": "Ιπποκράτους 192, Αθήνα 114 71",
    "lat": "37.988231189980574",
    "lng": "23.746766075427747"
  },
  {
    "url": "https://maps.app.goo.gl/6qkVJ1W6HAGxTfVV8?g_st=ipc",
    "name": "Gran Caffè Italiano",
    "address": "Μονής Πετράκη 3, & Υψηλάντου 44, Αθήνα 115 21",
    "lat": "37.97787235686609",
    "lng": "23.750751437299407"
  },
  {
    "url": "https://maps.app.goo.gl/heYFVvSaJ4P8dDiS6?g_st=ipc",
    "name": "Alepou",
    "address": "Βαρβαρεσου, Πεύκη 151 21",
    "lat": "38.060273733807854",
    "lng": "23.79751630322254"
  },
  {
    "url": "https://maps.app.goo.gl/owWsQcbJ7FzLk2VC9?g_st=ipc",
    "name": "The Roosters Ilisia",
    "address": "Ίωνος Δραγούμη 58, Αθήνα 115 28",
    "lat": "37.97416538642229",
    "lng": "23.75106552061932"
  },
  {
    "url": "https://maps.app.goo.gl/uimsu3ktFK4Xu2bBA?g_st=ipc",
    "name": "Bayard Cafe Bar",
    "address": "Ζωοδόχου Πηγής 134, Αθήνα 114 72",
    "lat": "37.98818653598511",
    "lng": "23.742397891424794"
  },
  {
    "url": "https://maps.app.goo.gl/ZWa6fMfeNKbHNQGB7?g_st=ipc",
    "name": "Santo Belto",
    "address": "Αγίας Ζώνης 21, Αθήνα 113 61",
    "lat": "38.00295539657206",
    "lng": "23.737407823969118"
  },
  {
    "url": "https://maps.app.goo.gl/72fZq7DBsWg8jnSR8?g_st=ipc",
    "name": "KICK",
    "address": "Σποράδων 26, Αθήνα 113 61",
    "lat": "37.99916132656893",
    "lng": "23.737461252467714"
  },
  {
    "url": "https://maps.app.goo.gl/Xk1A8oDNqWipGzYL6?g_st=ipc",
    "name": "Flake",
    "address": "Σποράδων 24, Αθήνα 113 61",
    "lat": "37.99900849338742",
    "lng": "23.737419912416144"
  },
  {
    "url": "https://maps.app.goo.gl/gMvoN4EZdoGpDeZ47?g_st=ipc",
    "name": "Βασίλισσα μέλισσα Αθήνα",
    "address": "Πατριάρχου Ιωακείμ 45, Αθήνα 106 76",
    "lat": "37.97835486257647",
    "lng": "23.745084929463765"
  },
  {
    "url": "https://maps.app.goo.gl/6mpkX4B7SCACHFyy6?g_st=ipc",
    "name": "Ο Φούρνος του Ρεμούνδου",
    "address": "Κυψέλης 37, Αθήνα 113 61",
    "lat": "37.99778393444846",
    "lng": "23.737266306236258"
  },
  {
    "url": "https://maps.app.goo.gl/Ra6VkFbWmNNsbYnu8?g_st=ipc",
    "name": "Πράσινη Τέντα, Λυκαβηττός",
    "address": "Μονοπάτι Λυκαβηττού, Αθήνα 114 71",
    "lat": "37.980853849375265",
    "lng": "23.74311999324442"
  },
  {
    "url": "https://maps.app.goo.gl/b5dp6jq3caW91FoHA?g_st=ipc",
    "name": "Δήμητρα Γουναρίδη",
    "address": "Ευαγγελικής Σχολής 5, Νέα Ιωνία 142 31",
    "lat": "38.04165697380787",
    "lng": "23.75123284178688"
  },
  {
    "url": "https://maps.app.goo.gl/LCSd8nHPjaUEMAGx8?g_st=ipc",
    "name": "Moden",
    "address": "Αμασείας 6 &, Πρατίνου 53, Αθήνα 116 34",
    "lat": "37.971223973274974",
    "lng": "23.748242971172175"
  },
  {
    "url": "https://maps.app.goo.gl/HJ9cCZfV3LeKP7U3A?g_st=ipc",
    "name": "The Black Salami Microbakery",
    "address": "Ζωοδόχου Πηγής 71, Αθήνα 106 81",
    "lat": "37.98610295066266",
    "lng": "23.73813379013077"
  },
  {
    "url": "https://maps.app.goo.gl/LxVhS9ugcHWgEPFa7?g_st=ipc",
    "name": "me kolonaki",
    "address": "Καψάλη 10, Αθήνα 106 74",
    "lat": "37.9765612906505",
    "lng": "23.742423758521817"
  },
  {
    "url": "https://maps.app.goo.gl/bGLYXaCD894A2zsQ8?g_st=ipc",
    "name": "KORA",
    "address": "Παναγιώτου Αναγνωστοπούλου 44, Αθήνα 106 73",
    "lat": "37.98011321585773",
    "lng": "23.739705197719534"
  },
  {
    "url": "https://maps.app.goo.gl/m4eWX6HzHjiKpfSEA?g_st=ipc",
    "name": "Ruins Athens Urban Area",
    "address": "Τσακάλωφ 4, Αθήνα 106 73",
    "lat": "37.97772096182225",
    "lng": "23.740886798075717"
  },
  {
    "url": "https://maps.app.goo.gl/Ts2X8wZmEjWPZrR3A?g_st=ipc",
    "name": "Φίλιον",
    "address": "Σκουφά 34, Αθήνα 106 72",
    "lat": "37.980020632255595",
    "lng": "23.738452651724426"
  },
  {
    "url": "https://maps.app.goo.gl/HmGsxR2qGDJfvBKs6?g_st=ipc",
    "name": "NuffSaid.Athens",
    "address": "Διδότου 31, Αθήνα 106 80",
    "lat": "37.983130427686646",
    "lng": "23.736758649889097"
  },
  {
    "url": "https://maps.app.goo.gl/YVmf7NaJKpFKqFvw6?g_st=ipc",
    "name": "Green Park",
    "address": "Μαυρομματαίων 22, Αθήνα 104 34",
    "lat": "37.99268098251898",
    "lng": "23.733030655681027"
  },
  {
    "url": "https://maps.app.goo.gl/avUBs2LwMous6Xs97?g_st=ipc",
    "name": "behold theman",
    "address": "Ιδεοχώρος, Στουρνάρη 6, Αθήνα 106 83",
    "lat": "37.986871883204095",
    "lng": "23.73489020906335"
  },
  {
    "url": "https://maps.app.goo.gl/vPfqSycBZPnB31CG6?g_st=ipc",
    "name": "Monokeros Bakery",
    "address": "Φαίδρου 4, Αθήνα 116 35",
    "lat": "37.96998792256903",
    "lng": "23.745206716967704"
  },
  {
    "url": "https://maps.app.goo.gl/eL1Nh7NXC2UfRJX69?g_st=ipc",
    "name": "Cocona",
    "address": "Μηλιώνη 10, Αθήνα 106 73",
    "lat": "37.977556380518415",
    "lng": "23.739553637845837"
  },
  {
    "url": "https://maps.app.goo.gl/MVnbPnESdj5g5dLr8?g_st=ipc",
    "name": "Free Thinking Zone",
    "address": "106 80, Skoufa 64 &, Γριβαίων 1, Αθήνα 106 80",
    "lat": "37.982167427382876",
    "lng": "23.7367442995071"
  },
  {
    "url": "https://maps.app.goo.gl/jExQQH2yipA8bApt9?g_st=ipc",
    "name": "Philos Athens",
    "address": "Σόλωνος 32, Αθήνα 106 73",
    "lat": "37.97913933627947",
    "lng": "23.73788834865789"
  },
  {
    "url": "https://maps.app.goo.gl/34yfEmMHeLiaz3iD9?g_st=ipc",
    "name": "Samba Coffee Roasters | The Shop",
    "address": "Σόλωνος 36, Αθήνα 106 73",
    "lat": "37.9794317267494",
    "lng": "23.73762622482217"
  },
  {
    "url": "https://maps.app.goo.gl/5dn3SzH3a8fsGfeW7?g_st=ipc",
    "name": "IT restaurant Kolonaki",
    "address": "106 71 Voukourestiou 30 &, Αλ. Σούτσου, Αθήνα 106 71",
    "lat": "37.9781134250021",
    "lng": "23.737763201387953"
  },
  {
    "url": "https://maps.app.goo.gl/xwzLF5n6xn8fr2tf8?g_st=ipc",
    "name": "To Tsai",
    "address": "Αλ. Σούτσου 19, Αθήνα 106 71",
    "lat": "37.97897316301174",
    "lng": "23.737126960431553"
  },
  {
    "url": "https://maps.app.goo.gl/iznGffRGqEfUmUVL9?g_st=ipc",
    "name": "4m (Rule of 4m)",
    "address": "Αγίου Σπυρίδωνος 5, Αθήνα 116 35",
    "lat": "37.9710035656136",
    "lng": "23.742348180047202"
  },
  {
    "url": "https://maps.app.goo.gl/8mxrF5SroX8mcG5e8?g_st=ipc",
    "name": "Libertine drinkery",
    "address": "Λεωφ. Δεκελείας 114, Νέα Φιλαδέλφεια Αττικής 143 41",
    "lat": "38.035181855146",
    "lng": "23.738539611236607"
  },
  {
    "url": "https://maps.app.goo.gl/CJbmBuxNwPN6MCH98?g_st=ipc",
    "name": "Plegma Coffee & Living",
    "address": "Plegma Coffee & Living",
    "lat": "37.96746994485961",
    "lng": "23.74467734312101"
  },
  {
    "url": "https://maps.app.goo.gl/2kmhegcNKQWPm1QD6?g_st=ipc",
    "name": "Κekkos Traditional Cafe & Pastry",
    "address": "Ερατοσθένους 7, Αθήνα 116 35",
    "lat": "37.97039127677511",
    "lng": "23.74203472592943"
  },
  {
    "url": "https://maps.app.goo.gl/YkKoXGLhpNyAx3V76?g_st=ipc",
    "name": "Το Λούβρο",
    "address": "Ερατοσθένους 6, Αθήνα 116 35",
    "lat": "37.970011751193255",
    "lng": "23.742186500606625"
  },
  {
    "url": "https://maps.app.goo.gl/swhTHqBQtRNT8ZAx6?g_st=ipc",
    "name": "Mademoiselle Coffee & Brunch",
    "address": "Μαγνησίας 91, Βύρωνας 162 33",
    "lat": "37.954517599815006",
    "lng": "23.760305394672425"
  },
  {
    "url": "https://maps.app.goo.gl/L42dwqLWL7TpGc5a8?g_st=ipc",
    "name": "Boken Athens",
    "address": "Εμμανουήλ Μπενάκη 40, Αθήνα 106 78",
    "lat": "37.98455750232933",
    "lng": "23.733083600431524"
  },
  {
    "url": "https://maps.app.goo.gl/biMezA2mUN6mNc886?g_st=ipc",
    "name": "Chelsea Hotel",
    "address": "Αρχιμήδους, Πρόκλου και, Αθήνα 116 35",
    "lat": "37.96781479364914",
    "lng": "23.743723733421092"
  },
  {
    "url": "https://maps.app.goo.gl/dYXbhhbFaLPj39Nu9?g_st=ipc",
    "name": "Old Dog",
    "address": "Σάρδεων 6, Νέα Φιλαδέλφεια Αττικής 143 41",
    "lat": "38.03404960556602",
    "lng": "23.736865639669244"
  },
  {
    "url": "https://maps.app.goo.gl/Kv2HqL5VxXf39c5Y7?g_st=ipc",
    "name": "Εφημερίδα ATH",
    "address": "Βησσαρίωνος 9, Αθήνα 106 72",
    "lat": "37.97982401641368",
    "lng": "23.734805099489133"
  },
  {
    "url": "https://maps.app.goo.gl/mFU9ypU9R2NajcX87?g_st=ipc",
    "name": "ZAMBRI",
    "address": "Αγίου Δημητρίου 9, Κηφισιά 145 62",
    "lat": "38.0705711422009",
    "lng": "23.812755176637886"
  },
  {
    "url": "https://maps.app.goo.gl/2zHj3YHoNrWUYk8f8?g_st=ipc",
    "name": "PAUL Athens",
    "address": "Πανεπιστημίου 10, Αθήνα 106 71",
    "lat": "37.977628510320386",
    "lng": "23.735790636370144"
  },
  {
    "url": "https://maps.app.goo.gl/GoWf19SFoVJNYBHP9?g_st=ipc",
    "name": "Fairytale – Το Παραμυθοπωλείο της Ν. Φιλαδέλφειας",
    "address": "Νικ. Τρυρια 48, Νέα Φιλαδέλφεια Αττικής 143 41",
    "lat": "38.03555224332492",
    "lng": "23.73629276954315"
  },
  {
    "url": "https://maps.app.goo.gl/KBvxE1xtgNdKgvxY8?g_st=ipc",
    "name": "mimosa neighborhood bistrot",
    "address": "Efesou, Μουδανιών &, Νέα Φιλαδέλφεια Αττικής 143 41",
    "lat": "38.03853139699867",
    "lng": "23.737753049309227"
  },
  {
    "url": "https://maps.app.goo.gl/cfAQd1ZN4MrBL9T99?g_st=ipc",
    "name": "MOTIV",
    "address": "Εμμανουήλ Μπενάκη 20, Αθήνα 106 78",
    "lat": "37.98356771821389",
    "lng": "23.731211011656264"
  },
  {
    "url": "https://maps.app.goo.gl/p5U6oKL1b1TdeuVD9?g_st=ipc",
    "name": "kolor.",
    "address": "Εμμανουήλ Μπενάκη 7-9, Αθήνα 106 78",
    "lat": "37.98351287018702",
    "lng": "23.730837222364755"
  },
  {
    "url": "https://maps.app.goo.gl/uz9Wpn9FMrG1tYuh9?g_st=ipc",
    "name": "Different Beast",
    "address": "Κασσαβέτη 19, Αθήνα 145 61",
    "lat": "38.072030542719524",
    "lng": "23.814580386585376"
  },
  {
    "url": "https://maps.app.goo.gl/CeF2nsyqfmvgyLPC9?g_st=ipc",
    "name": "ΜΟΝΤΑΚΙΟΥ",
    "address": "Σταδίου 30, Αθήνα 105 64",
    "lat": "37.979477424699695",
    "lng": "23.732289365097284"
  },
  {
    "url": "https://maps.app.goo.gl/6xevQtpeMeVnnkfT6?g_st=ipc",
    "name": "PAUL Κηφισιά",
    "address": "Λεβίδου 4, Κηφισιά 145 62",
    "lat": "38.072447961478396",
    "lng": "23.81379476032691"
  },
  {
    "url": "https://maps.app.goo.gl/oYaBfSgA7BG2s8ph8?g_st=ipc",
    "name": "S’agapw Coffee Wine and Love",
    "address": "Ανθίμου Γαζή 15, Αθήνα 105 61",
    "lat": "37.97818149501619",
    "lng": "23.732268569349888"
  },
  {
    "url": "https://maps.app.goo.gl/kXhn28aSgrw8SgU47?g_st=ipc",
    "name": "Fillo",
    "address": "105 62, Βουλής 11, Αθήνα 105 62",
    "lat": "37.97664924966537",
    "lng": "23.732881855883917"
  },
  {
    "url": "https://maps.app.goo.gl/mtDzW4EBiKS3shLM8?g_st=ipc",
    "name": "Abuelo",
    "address": "Κολοκοτρώνη 11, Αθήνα 105 62",
    "lat": "37.977278007040915",
    "lng": "23.732254640031748"
  },
  {
    "url": "https://maps.app.goo.gl/spidgemnNTyMgFML7?g_st=ipc",
    "name": "Amandine's Bagels",
    "address": "Νίκης 13, Αθήνα 105 57",
    "lat": "37.97477039083452",
    "lng": "23.73321799541619"
  },
  {
    "url": "https://maps.app.goo.gl/2L1MqjzdZCmDsrCj6?g_st=ipc",
    "name": "Ermou 18 Beyond the Horizon",
    "address": "Ερμού 18, Αθήνα 105 63",
    "lat": "37.97612271055357",
    "lng": "23.731891623776487"
  },
  {
    "url": "https://maps.app.goo.gl/e9ktUnuxp3FdRJyF8?g_st=ipc",
    "name": "PURA VIDA athens",
    "address": "Περικλέους 24-26, Αθήνα 105 62",
    "lat": "37.97668183849927",
    "lng": "23.73150959247157"
  },
  {
    "url": "https://maps.app.goo.gl/5KzgeBBfEf77x8sL7?g_st=ipc",
    "name": "Holy Llama",
    "address": "Nikis, Syntagma 23, Αθήνα 105 57",
    "lat": "37.97397500358649",
    "lng": "23.73312528899751"
  },
  {
    "url": "https://maps.app.goo.gl/fW434BxjyGNZzoC17?g_st=ipc",
    "name": "Sol Bake and Coffee Project - Athens",
    "address": "Πραξιτέλους 11, Χαβρίου 9, Αθήνα 105 62",
    "lat": "37.97816157851863",
    "lng": "23.73056218480863"
  },
  {
    "url": "https://maps.app.goo.gl/wzJKDW9SrK9LDD9x8?g_st=ipc",
    "name": "NATU",
    "address": "Λεβίδου 13, Κηφισιά 145 62",
    "lat": "38.07417552050554",
    "lng": "23.814760489983165"
  },
  {
    "url": "https://maps.app.goo.gl/Wa5G5txL7dyLZjDX9?g_st=ipc",
    "name": "Odori",
    "address": "Σκουλενίου 2, Αθήνα 105 61",
    "lat": "37.97922436265169",
    "lng": "23.729754698272135"
  },
  {
    "url": "https://maps.app.goo.gl/uGLfA2cFXs7RueeS6?g_st=ipc",
    "name": "Tazza caffe",
    "address": "Πετράκη 5, Αθήνα 105 63",
    "lat": "37.975499371808404",
    "lng": "23.73172660898901"
  },
  {
    "url": "https://maps.app.goo.gl/BtaYzYAqPmjvET4H6?g_st=ipc",
    "name": "Neropistolo",
    "address": "Βουλής 35, Αθήνα 105 57",
    "lat": "37.974517291275795",
    "lng": "23.7322749472112"
  },
  {
    "url": "https://maps.app.goo.gl/LVwtjjfHm1ZP7KNd9?g_st=ipc",
    "name": "Anana Coffee|Food",
    "address": "Πραξιτέλους 33, Αθήνα 105 60",
    "lat": "37.9790791623964",
    "lng": "23.72939339771832"
  },
  {
    "url": "https://maps.app.goo.gl/dAYcRqw7bHXmUKJz6?g_st=ipc",
    "name": "Smak Ζυμερία",
    "address": "Ρόμβης 21, Αθήνα 105 60",
    "lat": "37.97751180003605",
    "lng": "23.730066447556442"
  },
  {
    "url": "https://maps.app.goo.gl/ckVaWVRSL5xpfiAs8?g_st=ipc",
    "name": "The Makers",
    "address": "Πραξιτέλους 37, Αθήνα 105 60",
    "lat": "37.979293464451835",
    "lng": "23.729075477305056"
  },
  {
    "url": "https://maps.app.goo.gl/UcP2CHpDdGDnZnK4A?g_st=ipc",
    "name": "72H Artisanal Bakery & Eatery Athens",
    "address": "27 Mitropoleos &, Πατρώου 9, Αθήνα 105 57",
    "lat": "37.97530265670539",
    "lng": "23.731274229624415"
  },
  {
    "url": "https://maps.app.goo.gl/iqrzk1YEu34L4txn7?g_st=ipc",
    "name": "ERGON Bakehouse Athens",
    "address": "27 Mitropoleos &, Πατρώου St, Αθήνα 105 57",
    "lat": "37.97528171642416",
    "lng": "23.731226375079583"
  },
  {
    "url": "https://maps.app.goo.gl/yQDokn8qrofNRvbN9?g_st=ipc",
    "name": "Le Petit Village",
    "address": "Φωκίωνος 2, Αθήνα 105 63",
    "lat": "37.97573184070448",
    "lng": "23.730557151684366"
  },
  {
    "url": "https://maps.app.goo.gl/oAY3rXKoej3BQGy39?g_st=ipc",
    "name": "ΨΩΜΑΣ, Ν., \"ΜΟΚΚΑ ΚΑΦΕΚΟΠΤΕΙΟ\" Α.Ε.Ε.",
    "address": "Αθηνάς 44, Αθήνα 105 51",
    "lat": "37.98083447984655",
    "lng": "23.727407040678795"
  },
  {
    "url": "https://maps.app.goo.gl/6T8xDeGdNhWe15Wy8?g_st=ipc",
    "name": "Folk.",
    "address": "Βύσσης 2, Αθήνα 105 51",
    "lat": "37.97880874771429",
    "lng": "23.72797999271096"
  },
  {
    "url": "https://maps.app.goo.gl/wY2FhMBr8ApzzSLw5?g_st=ipc",
    "name": "GAYA Athens",
    "address": "Καλαμιώτου 2, Αθήνα 105 63",
    "lat": "37.97655155960143",
    "lng": "23.729000167842386"
  },
  {
    "url": "https://maps.app.goo.gl/hTG8NPLsUHzhqPFg6?g_st=ipc",
    "name": "Naked Athens",
    "address": "Πλ. Αγίας Ειρήνης 2, Αθήνα 105 60",
    "lat": "37.977383627962844",
    "lng": "23.728247966730684"
  },
  {
    "url": "https://maps.app.goo.gl/F16LXUX65PanPNx76?g_st=ipc",
    "name": "The Zillers Pastry Bar",
    "address": "Παλαιολόγου Μπενιζέλου 6, Αθήνα 105 56",
    "lat": "37.97475815330705",
    "lng": "23.729657937121086"
  },
  {
    "url": "https://maps.app.goo.gl/nkivf4z4Dxrwg4Su6?g_st=ipc",
    "name": "BOOKBAR by Kaktos",
    "address": "Αιόλου 39, Αθήνα 105 51",
    "lat": "37.97778372453625",
    "lng": "23.727694162578636"
  },
  {
    "url": "https://maps.app.goo.gl/U1toAvoUiB34xk528?g_st=ipc",
    "name": "Ciel Athens",
    "address": "ΜΝΗΣΙΚΛΕΟΥΣ, Μητροπόλεως 2, Αθήνα 105 56",
    "lat": "37.975701684177345",
    "lng": "23.72877509005901"
  },
  {
    "url": "https://maps.app.goo.gl/JomysUEbYVtYn2KN6?g_st=ipc",
    "name": "Dope",
    "address": "Βύσσης 25, Αθήνα 105 51",
    "lat": "37.97832305246442",
    "lng": "23.72690477526337"
  },
  {
    "url": "https://maps.app.goo.gl/hxko2CRaz8QbMJPc8?g_st=ipc",
    "name": "Joshua Tree Cafe",
    "address": "Αναπαύσεως 13, Αθήνα 116 36",
    "lat": "37.96618895456632",
    "lng": "23.73475215870415"
  },
  {
    "url": "https://maps.app.goo.gl/5N9VVMFGHUvfL6ec9?g_st=ipc",
    "name": "Proof Nanobakery",
    "address": "Αγίας Ειρήνης 8, Αθήνα 105 51",
    "lat": "37.97713063610252",
    "lng": "23.72693618230377"
  },
  {
    "url": "https://maps.app.goo.gl/Z7rJpaKMWG44Coit8?g_st=ipc",
    "name": "SNOB Athens Luxury Rooms & Espresso Gastro Bar",
    "address": "Αγίας Ειρήνης 17, Αθήνα 105 51",
    "lat": "37.97706349386115",
    "lng": "23.726726410113187"
  },
  {
    "url": "https://maps.app.goo.gl/CB8h73sPXUiPQmTu7?g_st=ipc",
    "name": "The Brunch Factory",
    "address": "Αθηνάς 11, Αθήνα 105 54",
    "lat": "37.977341602927304",
    "lng": "23.726205472467996"
  },
  {
    "url": "https://maps.app.goo.gl/fFtwoCRNKsTccdUb7?g_st=ipc",
    "name": "Hyper Astro Bar",
    "address": "Ερμού 78, & Αθηνάς 2, Αθήνα 105 51",
    "lat": "37.976752074692875",
    "lng": "23.726360654614314"
  },
  {
    "url": "https://maps.app.goo.gl/5TUnwM6DgvopJtKt9?g_st=ipc",
    "name": "Anafiotika Cafe - Restaurant",
    "address": "Μνησικλέους 24β, Αθήνα 105 56",
    "lat": "37.97339153102626",
    "lng": "23.727755098705728"
  },
  {
    "url": "https://maps.app.goo.gl/9Zyy977FxxHx9dgc9?g_st=ipc",
    "name": "Attic Urban Rooftop",
    "address": "Ερμού 86, Αθήνα 105 54",
    "lat": "37.97687145726863",
    "lng": "23.725410732994586"
  },
  {
    "url": "https://maps.app.goo.gl/28Tan1nmqMaPBFMr7?g_st=ipc",
    "name": "The Brunchers",
    "address": "Αγ. Θέκλας 5, Αθήνα 105 54",
    "lat": "37.97723167635048",
    "lng": "23.724930062728706"
  },
  {
    "url": "https://maps.app.goo.gl/mrSptKu5z8RBZP9j8?g_st=ipc",
    "name": "Το Κουλούρι του Ψυρρή",
    "address": "Γεωργίου Καραϊσκάκη 23, Αθήνα 105 54",
    "lat": "37.977887972011985",
    "lng": "23.724432470303434"
  },
  {
    "url": "https://maps.app.goo.gl/bBjGmrefeTQEp69R6?g_st=ipc",
    "name": "Τράγος - Μοντέρνο καφενείο",
    "address": "Πλ. Αγίων Αναργύρων, Αθήνα 105 54",
    "lat": "37.978852815263814",
    "lng": "23.723863790699163"
  },
  {
    "url": "https://maps.app.goo.gl/7douBXS6i4VTSVMM9?g_st=ipc",
    "name": "LIYSTOR",
    "address": "Ερμού 92-94, Αθήνα 105 54",
    "lat": "37.97700032542266",
    "lng": "23.724753676313323"
  },
  {
    "url": "https://maps.app.goo.gl/ZPnBqVvxDVsiGKHW9?g_st=ipc",
    "name": "Kalimeres",
    "address": "Τάκη 14, Αθήνα 105 54",
    "lat": "37.978483021682415",
    "lng": "23.72389713601111"
  },
  {
    "url": "https://maps.app.goo.gl/LK48eZA7q9nxiZiR6?g_st=ipc",
    "name": "Coffee Joint",
    "address": "Βούρβαχη 5-9, Αθήνα 117 43",
    "lat": "37.9668407337925",
    "lng": "23.731062695575126"
  },
  {
    "url": "https://maps.app.goo.gl/thvA3YKydqCEyTJY6?g_st=ipc",
    "name": "Wanna Flirt Athens",
    "address": "Μίκωνος 15, Αθήνα 105 54",
    "lat": "37.97798701722354",
    "lng": "23.723877845804303"
  },
  {
    "url": "https://maps.app.goo.gl/mnTDWvpyMKKxYj9B8?g_st=ipc",
    "name": "Zampanó",
    "address": "Σαρρή 18, Αθήνα 105 53",
    "lat": "37.97950983062841",
    "lng": "23.723099894539097"
  },
  {
    "url": "https://maps.app.goo.gl/aGhcjD61LQ7BLCn98?g_st=ipc",
    "name": "Fika coffee & croissant",
    "address": "Βούρβαχη 6, Αθήνα 117 43",
    "lat": "37.96693585116076",
    "lng": "23.730676001624726"
  },
  {
    "url": "https://maps.app.goo.gl/yvybgbadXBxDYdiG9?g_st=ipc",
    "name": "Picky Brunch & Specialty Coffee",
    "address": "Χριστοκοπίδου 14 &, Ναυάρχου Αποστόλη, Αθήνα 105 54",
    "lat": "37.97805825269081",
    "lng": "23.723335268192"
  },
  {
    "url": "https://maps.app.goo.gl/Ji4XoLwygMsPtG528?g_st=ipc",
    "name": "Βρυσάκι",
    "address": "Βρυσακίου 17, Αθήνα 105 55",
    "lat": "37.97478391705531",
    "lng": "23.724523558556633"
  },
  {
    "url": "https://maps.app.goo.gl/ySxc5dRDtaNkenof9?g_st=ipc",
    "name": "Usurum",
    "address": "Λεπενιώτου 19, Αθήνα 105 54",
    "lat": "37.97818787977545",
    "lng": "23.72228180277763"
  },
  {
    "url": "https://maps.app.goo.gl/FBqvEkq9TKnNFmzu9?g_st=ipc",
    "name": "Αρτοποιείο Ζαχαροπλαστείο \"Αρτο..ζυμιά\"",
    "address": "Αγλαονίκης 22, Αθήνα 117 43",
    "lat": "37.96420038301339",
    "lng": "23.731208987347678"
  },
  {
    "url": "https://maps.app.goo.gl/4J2S3rbDjHuSFWW98?g_st=ipc",
    "name": "Fairytale Athens Café & Suites",
    "address": "Λεωκορίου 16, Αθήνα 105 54",
    "lat": "37.97805432206773",
    "lng": "23.72175598680767"
  },
  {
    "url": "https://maps.app.goo.gl/zSWkUCcCMEwv3K5Y7?g_st=ipc",
    "name": "Açaí Verão Athens",
    "address": "Φαλήρου 6, Αθήνα 117 42",
    "lat": "37.966845247384065",
    "lng": "23.728622894774116"
  },
  {
    "url": "https://maps.app.goo.gl/qmz7mBRbaa6QhTDd8?g_st=ipc",
    "name": "Okupa Kitchen & Listening Bar",
    "address": "Σαμουήλ Καλογήρου 3, Αθήνα 105 53",
    "lat": "37.979629344397615",
    "lng": "23.720723846557707"
  },
  {
    "url": "https://maps.app.goo.gl/1aZiacmQUVysdZ976?g_st=ipc",
    "name": "Minu",
    "address": "Σαρρή 50, Αθήνα 105 53",
    "lat": "37.97817591370217",
    "lng": "23.721282309779998"
  },
  {
    "url": "https://maps.app.goo.gl/EJkNXutNZiWJ1hrHA?g_st=ipc",
    "name": "Little Tree Books and Coffee",
    "address": "Καβαλλότι 2, Αθήνα 117 42",
    "lat": "37.968164539601474",
    "lng": "23.727051388410462"
  },
  {
    "url": "https://maps.app.goo.gl/3UEtVFAU3pPvguxJA?g_st=ipc",
    "name": "Drupes Spritzeria",
    "address": "Ζήτρου 20, Αθήνα 117 42",
    "lat": "37.96781101754338",
    "lng": "23.726828197185508"
  },
  {
    "url": "https://maps.app.goo.gl/kz81zzmehsyvYBbQ6?g_st=ipc",
    "name": "Αρτοποιότης Ο Τάκης",
    "address": "Μισαραλιώτου 14, Αθήνα 117 42",
    "lat": "37.96774042832454",
    "lng": "23.72678404932504"
  },
  {
    "url": "https://maps.app.goo.gl/QuHwWVBbtZh2gYY18?g_st=ipc",
    "name": "Pancake & CAKE Acropolis",
    "address": "Καρυάτιδων 15, Αθήνα 117 42",
    "lat": "37.967897348905204",
    "lng": "23.726566946010575"
  },
  {
    "url": "https://maps.app.goo.gl/rRZaQcETgQQjdrzg7?g_st=ipc",
    "name": "ERE Athens",
    "address": "Ερεχθείου 30, Αθήνα 117 42",
    "lat": "37.96787420182931",
    "lng": "23.725296301158785"
  },
  {
    "url": "https://maps.app.goo.gl/J7RDc1cHJeB4hUZC7?g_st=ipc",
    "name": "Latraac Skate Cafe",
    "address": "Λεωνίδου 63-65, Αθήνα 104 35",
    "lat": "37.98176220702239",
    "lng": "23.717574996831285"
  },
  {
    "url": "https://maps.app.goo.gl/DKCmfLqp6KdRCVPg6?g_st=ipc",
    "name": "This is Loco",
    "address": "Φαλήρου 47, Αθήνα 117 42",
    "lat": "37.96542578565319",
    "lng": "23.726906270555997"
  },
  {
    "url": "https://maps.app.goo.gl/uU1H3HFYf7VVqpjy9?g_st=ipc",
    "name": "Tempo Social Club",
    "address": "Φαλήρου 49, Αθήνα 117 42",
    "lat": "37.96527397578301",
    "lng": "23.726786075207272"
  },
  {
    "url": "https://maps.app.goo.gl/i3qPMdgczqaXz45r8?g_st=ipc",
    "name": "Fresko Yogurt Bar",
    "address": "Ιουλίου Σμιθ 2, Αθήνα 118 51",
    "lat": "37.97293031928317",
    "lng": "23.72030106020887"
  },
  {
    "url": "https://maps.app.goo.gl/LEHRwEwwo2yTd8KD9?g_st=ipc",
    "name": "The Underdog® Flagship Store Thissio",
    "address": "Ηρακλειδών 8, Αθήνα 118 51",
    "lat": "37.97497137545366",
    "lng": "23.719135012325086"
  },
  {
    "url": "https://maps.app.goo.gl/Q7ocWz9NPgB5Zoaa6?g_st=ipc",
    "name": "Teras Athens",
    "address": "Θεοδώρητου Βρεσθένης 45, Αθήνα 117 43",
    "lat": "37.96132522695651",
    "lng": "23.727704519576132"
  },
  {
    "url": "https://maps.app.goo.gl/6q9NBBvgffKvbrnG7?g_st=ipc",
    "name": "Moments cafe",
    "address": "Αγγέλου Σικελιανού 65, Ηλιούπολη 163 45",
    "lat": "37.94145822074275",
    "lng": "23.750459312660134"
  },
  {
    "url": "https://maps.app.goo.gl/dGXFqUaPgJg6izKF7?g_st=ipc",
    "name": "Hippy Hippo",
    "address": "Αναστασίου Ζίννη 37, Αθήνα 117 41",
    "lat": "37.96338312245576",
    "lng": "23.724161260955565"
  },
  {
    "url": "https://maps.app.goo.gl/t12h1kgPVWW5kBNk8?g_st=ipc",
    "name": "Mour Athens",
    "address": "Κορυτσάς 15, Αθήνα 104 47",
    "lat": "37.9833034256398",
    "lng": "23.711600559592124"
  },
  {
    "url": "https://maps.app.goo.gl/QcdxYRurM98VpWWX7?g_st=ipc",
    "name": "Cat Cafe Athens (7€/pers, Allowed Age 14+)",
    "address": "Νηλέως 54, Αθήνα 118 51",
    "lat": "37.97535368517015",
    "lng": "23.71475955469486"
  },
  {
    "url": "https://maps.app.goo.gl/zGZShvHird8bq92Q9?g_st=ipc",
    "name": "Μπελ Ρεϋ",
    "address": "Φαλήρου 88, Αθήνα 117 41",
    "lat": "37.96239606904346",
    "lng": "23.722769926662476"
  },
  {
    "url": "https://maps.app.goo.gl/szSB6mZP4tWEA46h7?g_st=ipc",
    "name": "Bite Box",
    "address": "Βεΐκου 84, Αθήνα 117 41",
    "lat": "37.963687328724134",
    "lng": "23.72159915102945"
  },
  {
    "url": "https://maps.app.goo.gl/SN98TxjvUzYYXpvq9?g_st=ipc",
    "name": "Madania",
    "address": "Leof. Agiou Dimitriou 17 &, Ηροδότου, Αγ. Δημήτριος Αττικής 173 43",
    "lat": "37.94780401530034",
    "lng": "23.73687705670489"
  },
  {
    "url": "https://maps.app.goo.gl/vkq5bgJaaWXHr76X8?g_st=ipc",
    "name": "Ohayo Teahouse",
    "address": "Αγίας Βαρβάρας 79, Αθήνα 172 35",
    "lat": "37.949425041480666",
    "lng": "23.734793004377693"
  },
  {
    "url": "https://maps.app.goo.gl/H2MApFAjiqUyTf7B8?g_st=ipc",
    "name": "The Place Secret Yard",
    "address": "Τριπτολέμου 26, Αθήνα 118 54",
    "lat": "37.979297007842895",
    "lng": "23.7118945584477"
  },
  {
    "url": "https://maps.app.goo.gl/bi9guRdYDSpWYmxn9?g_st=ipc",
    "name": "CandyCat",
    "address": "Περσεφόνης 23, Αθήνα 118 54",
    "lat": "37.9775897353217",
    "lng": "23.712604313955598"
  },
  {
    "url": "https://maps.app.goo.gl/B47HWPSnhF6mtY1M8?g_st=ipc",
    "name": "KARMINIO - All Day Eatery",
    "address": "Βεΐκου 86, Αθήνα 117 41",
    "lat": "37.963365261808825",
    "lng": "23.721069408577183"
  },
  {
    "url": "https://maps.app.goo.gl/cBZUFc3qKk2urDcJ7?g_st=ipc",
    "name": "ΛΟΚΑΛ ΑΘΕΝΣ",
    "address": "Λεωφ. Αγίου Δημητρίου 33, Αγ. Δημήτριος Αττικής 173 43",
    "lat": "37.94681394109403",
    "lng": "23.736018711734893"
  },
  {
    "url": "https://maps.app.goo.gl/JSsTgH7xa3anCw4c9?g_st=ipc",
    "name": "Omsom koukaki",
    "address": "Βεΐκου 110, Αθήνα 117 41",
    "lat": "37.96237188971574",
    "lng": "23.719324269228586"
  },
  {
    "url": "https://maps.app.goo.gl/dttggVUcZNJqG52r9?g_st=ipc",
    "name": "Pangaia - The Food Project",
    "address": "Λ. Κωνσταντινουπόλεως 67, Αθήνα 118 55",
    "lat": "37.979003020963276",
    "lng": "23.70956014016223"
  },
  {
    "url": "https://maps.app.goo.gl/fwCy3n7FRVzPEXwR8?g_st=ipc",
    "name": "Roasting Warehouse Athens",
    "address": "Ντελακρουά 2, Αθήνα 117 45",
    "lat": "37.95668706209458",
    "lng": "23.722828304668056"
  },
  {
    "url": "https://maps.app.goo.gl/qm2cf1KQg3gUAF9QA?g_st=ipc",
    "name": "LE PAIN - Du chef",
    "address": "Idomeneos, Nestoros 41, Ilion 131 22",
    "lat": "38.03133472316872",
    "lng": "23.707950598464468"
  },
  {
    "url": "https://maps.app.goo.gl/5eeqssWqrJZXeHGk6?g_st=ipc",
    "name": "Adad Books & Café",
    "address": "Ανταίου 1, Αθήνα 118 52",
    "lat": "37.96743015453438",
    "lng": "23.712567122435633"
  },
  {
    "url": "https://maps.app.goo.gl/5eapXgYffcfJThv49?g_st=ipc",
    "name": "Naif",
    "address": "Ευρυδάμαντος 15, Αθήνα 117 45",
    "lat": "37.95731969922388",
    "lng": "23.71935175462416"
  },
  {
    "url": "https://maps.app.goo.gl/EWRQ18pu1HkgSHMM9?g_st=ipc",
    "name": "Lalos",
    "address": "Ευρυδάμαντος 19, Αθήνα 117 45",
    "lat": "37.95653694094431",
    "lng": "23.71832970107999"
  },
  {
    "url": "https://maps.app.goo.gl/4RrZxNGRywBkjvdY7?g_st=ipc",
    "name": "The Roosters",
    "address": "25ης Μαρτίου 7, Περιστέρι 121 32",
    "lat": "38.01136673827295",
    "lng": "23.697881523081808"
  },
  {
    "url": "https://maps.app.goo.gl/JTr1zxCGMeDfbPnm6?g_st=ipc",
    "name": "Φαρίν Μουά (Farin Moua)",
    "address": "Ερυθραίας 2, Περιστέρι 121 34",
    "lat": "38.01222147430599",
    "lng": "23.696769307184784"
  },
  {
    "url": "https://maps.app.goo.gl/J9ALB8U7qzvJ4FHB6?g_st=ipc",
    "name": "Lovely Days",
    "address": "Σοφοκλή Βενιζέλου 42, Κολοκοτρώνη 35, Περιστέρι 121 31",
    "lat": "38.00529768504346",
    "lng": "23.695116340010305"
  },
  {
    "url": "https://maps.app.goo.gl/jJoRB32pj6dGvy9h9?g_st=ipc",
    "name": "Peggy Sue",
    "address": "Σπαθαρη 2, Νέα Σμύρνη 171 21",
    "lat": "37.9539520452851",
    "lng": "23.715104827553436"
  },
  {
    "url": "https://maps.app.goo.gl/ztF6fFTkc58DpW1r6?g_st=ipc",
    "name": "Mind The Cup",
    "address": "Αιμιλίου Βεάκη 29, Περιστέρι 121 34",
    "lat": "38.01157944836187",
    "lng": "23.693274104432696"
  },
  {
    "url": "https://maps.app.goo.gl/eq6S1VVqt14LtEJ1A?g_st=ipc",
    "name": "Godmama's Yard",
    "address": "Βασ. Αλεξάνδρου 98, Περιστέρι 121 34",
    "lat": "38.01041883422101",
    "lng": "23.693182201934864"
  },
  {
    "url": "https://maps.app.goo.gl/1RLYBjPgBMgH7a6F8?g_st=ipc",
    "name": "ΤΟ ΤΑΨΑΚΙ",
    "address": "Λεωφ. Παναγή Τσαλδάρη 95, Περιστέρι 121 34",
    "lat": "38.01602416062038",
    "lng": "23.69208574474452"
  },
  {
    "url": "https://maps.app.goo.gl/AJY2nLTvRqUqFGG26?g_st=ipc",
    "name": "sempre coffee & cocktail bar",
    "address": "Σαρανταπόρου 51, Περιστέρι 121 34",
    "lat": "38.01143610501892",
    "lng": "23.691242502233425"
  },
  {
    "url": "https://maps.app.goo.gl/6mPMQRmSeP8pK4Cu6?g_st=ipc",
    "name": "Άρωμα πλατείας",
    "address": "25ης Μαρτίου 19, Νέα Σμύρνη 171 21",
    "lat": "37.947245777072794",
    "lng": "23.713361220767048"
  },
  {
    "url": "https://maps.app.goo.gl/miSnLuSyrb5xJ1dB9?g_st=ipc",
    "name": "32 Avenue",
    "address": "2ας Μαΐου 32, Νέα Σμύρνη 171 21",
    "lat": "37.946383947038974",
    "lng": "23.714065407386308"
  },
  {
    "url": "https://maps.app.goo.gl/XhDMxWuwRuMVcghH9?g_st=ipc",
    "name": "Flaked Croissanterie Nea Smyrni",
    "address": "2ας Μαΐου 10, Νέα Σμύρνη 171 21",
    "lat": "37.94664941791958",
    "lng": "23.71226377005945"
  },
  {
    "url": "https://maps.app.goo.gl/evNfcdJQ34R2FXQR8?g_st=ipc",
    "name": "Acera The Brunch Project",
    "address": "Μαντζαγριωτάκη 105, Καλλιθέα 176 76",
    "lat": "37.95687155697196",
    "lng": "23.702731169430688"
  },
  {
    "url": "https://maps.app.goo.gl/SR156bdeLaJYk1WY6?g_st=ipc",
    "name": "Τυρόπιτες ο Μήτσος",
    "address": "Συνταγματάρχου Δαβάκη 32A, Καλλιθέα 176 72",
    "lat": "37.95255129753746",
    "lng": "23.705922909041465"
  },
  {
    "url": "https://maps.app.goo.gl/wLU7EVqzFWR8dPoq6?g_st=ipc",
    "name": "Sovolos - Ζαχαροπλαστείο - Φούρνος",
    "address": "Συνταγματάρχου Δαβάκη 52, Καλλιθέα 176 72",
    "lat": "37.95381653096959",
    "lng": "23.704528203629867"
  },
  {
    "url": "https://maps.app.goo.gl/HMmCPXK9BhvDtR538?g_st=ipc",
    "name": "Fred",
    "address": "Κων/νου Παλαιολόγου 24, Νέα Σμύρνη 171 21",
    "lat": "37.94562369764514",
    "lng": "23.71066649818301"
  },
  {
    "url": "https://maps.app.goo.gl/Hjscsj6jJP8Ehtjz8?g_st=ipc",
    "name": "\"ο Νίκος\"",
    "address": "Κων/νου Παλαιολόγου 36, Νέα Σμύρνη 171 22",
    "lat": "37.94446727754758",
    "lng": "23.71036042368455"
  },
  {
    "url": "https://maps.app.goo.gl/2WQxsGPEDfG7d62UA?g_st=ipc",
    "name": "Zatopek book cafe",
    "address": "Π. Τσαλδάρη 209, Καλλιθέα 176 76",
    "lat": "37.95902409225205",
    "lng": "23.698098106664805"
  },
  {
    "url": "https://maps.app.goo.gl/DjcEWh3JQVQokVoj7?g_st=ipc",
    "name": "Braxton",
    "address": "Πόντου 20, Αγ. Δημήτριος Αττικής 173 42",
    "lat": "37.92816326326879",
    "lng": "23.728060610716135"
  },
  {
    "url": "https://maps.app.goo.gl/CdGAWQcCNoqhMaoLA?g_st=ipc",
    "name": "Ανεμολόγιο εναλλακτικό καφέ",
    "address": "Πελοπίδα 106, Περιστέρι 121 35",
    "lat": "38.01553415279337",
    "lng": "23.680397259584772"
  },
  {
    "url": "https://maps.app.goo.gl/TbdwQmd1xnGniKgk8?g_st=ipc",
    "name": "Καφετέρια \"Qahwa\"",
    "address": "Μαρκ. Μπότσαρη 1, Αιγάλεω 122 41",
    "lat": "37.99158829780308",
    "lng": "23.678085829142972"
  },
  {
    "url": "https://maps.app.goo.gl/iwKrvWdDuhAmB8YHA?g_st=ipc",
    "name": "Qahwa Roastery",
    "address": "Αγίου Σπυρίδωνος 48, Αιγάλεω 122 43",
    "lat": "38.00443805181344",
    "lng": "23.67683735104457"
  },
  {
    "url": "https://maps.app.goo.gl/NHUYpdxhhi6EStZD7?g_st=ipc",
    "name": "ΔΙΑΚΟΠΕΣ καφέ-μπαρ",
    "address": "Λεωφ. Ιωνίας 125, Άλιμος 174 56",
    "lat": "37.915984200989875",
    "lng": "23.73311841263129"
  },
  {
    "url": "https://maps.app.goo.gl/nWns9tgS4rLXo1Dm9?g_st=ipc",
    "name": "Bueno",
    "address": "Λεωφ. Κωνσταντίνου Καραμανλή 53, Αχαρνές 136 72",
    "lat": "38.101108774458396",
    "lng": "23.743311119938365"
  },
  {
    "url": "https://maps.app.goo.gl/xJYXm4QXBt9wx7wx5?g_st=ipc",
    "name": "Theoria Tou House",
    "address": "Πλ. Δαβάκη 1, Αιγάλεω 122 44",
    "lat": "37.99483558716702",
    "lng": "23.67242611231958"
  },
  {
    "url": "https://maps.app.goo.gl/6WktKFcLfn3upUnQ6?g_st=ipc",
    "name": "Jardin All Day Stories ALL DAY BAR RESTAURANT",
    "address": "Ναυάρχου Βότση 1, Καλλιθέα 176 74",
    "lat": "37.9431877608235",
    "lng": "23.691220347054728"
  },
  {
    "url": "https://maps.app.goo.gl/NkdERDh1FhW3YswW7?g_st=ipc",
    "name": "Terra Petra",
    "address": "Ανατολικής Ρωμυλίας 1, Πετρούπολη 132 31",
    "lat": "38.044831606976764",
    "lng": "23.672941058577717"
  },
  {
    "url": "https://maps.app.goo.gl/t1zARdBkZ8TDso696?g_st=ipc",
    "name": "Χειροποίητο Πεϊνιρλί - Άλιμος",
    "address": "Λεωφ. Καλαμακίου 65, Άλιμος 174 55",
    "lat": "37.915620511365894",
    "lng": "23.717157875434445"
  },
  {
    "url": "https://maps.app.goo.gl/vAwUeBwjnVB6oM6A7?g_st=ipc",
    "name": "Qahwa Chaidari",
    "address": "Στρ. Καραϊσκάκη 12, Χαϊδάρι 124 61",
    "lat": "38.00126380773835",
    "lng": "23.663252642859884"
  },
  {
    "url": "https://maps.app.goo.gl/ZTYgTAJLEes56zpH6?g_st=ipc",
    "name": "Earth Athens Cafe",
    "address": "Λεωφ. Ποσειδώνος 16, Αθήνα 176 74",
    "lat": "37.941294659441795",
    "lng": "23.687632862231634"
  },
  {
    "url": "https://maps.app.goo.gl/tNnv5bivZJzwGSak7?g_st=ipc",
    "name": "Hidden Άλιμος",
    "address": "Λεωφ. Ελευθερίας 45, Άλιμος 174 55",
    "lat": "37.9207925281224",
    "lng": "23.706355320081276"
  },
  {
    "url": "https://maps.app.goo.gl/dnEf78CD1KTT1Ewu8?g_st=ipc",
    "name": "Flaked Croissanterie Moschato",
    "address": "Ομήρου 67, Μοσχάτο 183 45",
    "lat": "37.950290767501926",
    "lng": "23.678176231264157"
  },
  {
    "url": "https://maps.app.goo.gl/yk8JxAF2vSDEd4wt8?g_st=ipc",
    "name": "Οι πίτες της Σοφίας",
    "address": "Αγίου Αλεξάνδρου 30, Παλαιό Φάληρο 175 61",
    "lat": "37.92792315472672",
    "lng": "23.693652242106012"
  },
  {
    "url": "https://maps.app.goo.gl/qq7xzW7bEsPcyJT1A?g_st=ipc",
    "name": "Telescope Cafe Bar Restaurant",
    "address": "Φιλικής Εταιρείας, Χαϊδάρι 124 61",
    "lat": "38.00692418431941",
    "lng": "23.65623593846488"
  },
  {
    "url": "https://maps.app.goo.gl/F7BPdSmhWeNtbKZVA?g_st=ipc",
    "name": "Du Pain - Boulangerie | Patisserie | Cafe - Χαϊδάρι",
    "address": "Λεωφ. Αθηνών 308, Χαϊδάρι 124 62",
    "lat": "38.01212694777047",
    "lng": "23.65373933583571"
  },
  {
    "url": "https://maps.app.goo.gl/4ikkZmtmj8GogkUe7?g_st=ipc",
    "name": "Grand Cafe",
    "address": "Γεωρ. Παπανδρέου 53, Χαϊδάρι 124 62",
    "lat": "38.01669030501736",
    "lng": "23.65067849733212"
  },
  {
    "url": "https://maps.app.goo.gl/K8biwYq9RLoEXdZZA?g_st=ipc",
    "name": "Botanical Garden Bistrot",
    "address": "Βοτανικός Κήπος, Ιερά Οδός 403, Χαϊδάρι 124 61",
    "lat": "38.01082910356087",
    "lng": "23.64241923148242"
  },
  {
    "url": "https://maps.app.goo.gl/Q5js7BApZATn8jx1A?g_st=ipc",
    "name": "Τόλης sweet's n' eats",
    "address": "Πλ. Δημοκρατίας, Νίκαια 184 51",
    "lat": "37.97589864090017",
    "lng": "23.642161221415883"
  },
  {
    "url": "https://maps.app.goo.gl/SwZBGSrcnHzSh6sz8?g_st=ipc",
    "name": "Ιστιοπλοϊκός",
    "address": "T.K, Ακτή Μικρολίμανου, Πειραιάς 185 33",
    "lat": "37.93594003787034",
    "lng": "23.659959429233506"
  },
  {
    "url": "https://maps.app.goo.gl/ABEv497Uv63A5df28?g_st=ipc",
    "name": "Temps Perdu",
    "address": "Καραΐσκου 114, Πειραιάς 185 35",
    "lat": "37.94112588112371",
    "lng": "23.646526456108827"
  },
  {
    "url": "https://maps.app.goo.gl/BAXbDkZ2it9TjYv19?g_st=ipc",
    "name": "La Belle Époque",
    "address": "Αριστοτέλους 10, Πειραιάς 185 35",
    "lat": "37.94126457803724",
    "lng": "23.646089165937596"
  },
  {
    "url": "https://maps.app.goo.gl/2uSwHrZcryhig7ebA?g_st=ipc",
    "name": "La Linda Bakery & Café",
    "address": "Κύπρου 13, Γλυφάδα 166 75",
    "lat": "37.86700115203996",
    "lng": "23.7478274102709"
  },
  {
    "url": "https://maps.app.goo.gl/BjHAhdumoxMHfZrP7?g_st=ipc",
    "name": "Μουζίλο Χειροποίητες Πίτες",
    "address": "Δούσμανη 13, Γλυφάδα 166 75",
    "lat": "37.863579478184825",
    "lng": "23.751077862250096"
  },
  {
    "url": "https://maps.app.goo.gl/Hnd2mHRaJKRkA5F46?g_st=ipc",
    "name": "Oven Manufactory",
    "address": "Αρτέμιδος 9, Γλυφάδα 166 74",
    "lat": "37.861722119771066",
    "lng": "23.756544787345767"
  },
  {
    "url": "https://maps.app.goo.gl/yKiejsAj4L7LG4cJ7?g_st=ipc",
    "name": "PAUL Γλυφάδα",
    "address": "Κύπρου 70, Γλυφάδα 166 74",
    "lat": "37.86192343683842",
    "lng": "23.754387329250314"
  },
  {
    "url": "https://maps.app.goo.gl/Fa2QfE64sQhorAFE9?g_st=ipc",
    "name": "modish coffee, graze and booze",
    "address": "Ακτή Μιαούλη 81, Πειραιάς 185 38",
    "lat": "37.936912830564985",
    "lng": "23.639147286687205"
  },
  {
    "url": "https://maps.app.goo.gl/YQMJ5PpN4Cvem9qf6?g_st=ipc",
    "name": "Wynwood - Eat Sip & Gather the Miami Style",
    "address": "Φοίβης 15, Γλυφάδα 166 74",
    "lat": "37.85990914525332",
    "lng": "23.75494068810683"
  },
  {
    "url": "https://maps.app.goo.gl/HLP4ksmAZgKQH5e59?g_st=ipc",
    "name": "Angelina Le Petit Paris- Depuis 2012",
    "address": "Λεωφ. Δημάρχου Αγγέλου Μεταξά 38, Γλυφάδα 166 74",
    "lat": "37.859847959328306",
    "lng": "23.754133995266965"
  },
  {
    "url": "https://maps.app.goo.gl/HVgjvMDChspNvrjy7?g_st=ipc",
    "name": "ΔΗΜΗΤΡΗΣ ΚΑΣΙΜΗΣ Φούρνος",
    "address": "44 Marathonos Ave, Enanti DEI, Nea Makri, 19005",
    "lat": "38.0797197655773",
    "lng": "23.980827928192117"
  },
  {
    "url": "https://maps.app.goo.gl/5pGu2NryRiA9Qcms5?g_st=ipc",
    "name": "Azimouthio",
    "address": "Ταϋγέτου 4, Κερατσίνι 187 57",
    "lat": "37.968862186258185",
    "lng": "23.621767789991836"
  },
  {
    "url": "https://maps.app.goo.gl/s6FvEiAwBwBVBs2t9?g_st=ipc",
    "name": "OPUS Inner Pleasure",
    "address": "Πανδώρας 9, Γλυφάδα 166 74",
    "lat": "37.85815683883427",
    "lng": "23.754579101528986"
  },
  {
    "url": "https://maps.app.goo.gl/46sTr1wF8Q2Bajpu7?g_st=ipc",
    "name": "Bungalow7 Athens",
    "address": "Λεωφ. Ποσειδώνος 110, Γλυφάδα 166 75",
    "lat": "37.858739347203105",
    "lng": "23.751507417801406"
  },
  {
    "url": "https://maps.app.goo.gl/fQgSyiTZjMscc9UW9?g_st=ipc",
    "name": "Indianos",
    "address": "Μιαούλη 12, Νέα Μάκρη 190 05",
    "lat": "38.07177701154969",
    "lng": "23.99543112392712"
  },
  {
    "url": "https://maps.app.goo.gl/aVjkRWWznkDXoF5n6?g_st=ipc",
    "name": "bloom_projectgr",
    "address": "4, Λεωφ. Αλκυονίδων Ave, Βούλα 166 73",
    "lat": "37.84969738967142",
    "lng": "23.751254153373072"
  },
  {
    "url": "https://maps.app.goo.gl/x4TKdGZ4P6i8FcrE6?g_st=ipc",
    "name": "Rey Pablo",
    "address": "91, Λεωφ. Βασιλέως Παύλου 89, Βούλα 166 73",
    "lat": "37.83850094604755",
    "lng": "23.768770335582047"
  },
  {
    "url": "https://maps.app.goo.gl/gmek3DFpsqqbYYR49?g_st=ipc",
    "name": "όβεν",
    "address": "Λεωφ. Βασιλέως Παύλου 104, Βούλα 166 73",
    "lat": "37.83821741108239",
    "lng": "23.7685609654253"
  },
  {
    "url": "https://maps.app.goo.gl/d8HG2cz27hm9ZC3r9?g_st=ipc",
    "name": "Riviera Coast",
    "address": "Λεωφ. Κωνσταντίνου Καραμανλή 18, Βούλα 166 73",
    "lat": "37.8360364556755",
    "lng": "23.766880988503196"
  },
  {
    "url": "https://maps.app.goo.gl/h8ni4KMpRSPF4Zzu5?g_st=ipc",
    "name": "Καταφύγιο Μπάφι",
    "address": "Πάρνηθος, Αθήνα 136 72",
    "lat": "38.16746990651998",
    "lng": "23.726972151660846"
  },
  {
    "url": "https://maps.app.goo.gl/w98y2hBDroKUDcwZ7?g_st=ipc",
    "name": "Αργιθέα",
    "address": "Λεωφ. Μαραθώνος 11, Μαραθώνας 190 07",
    "lat": "38.15948282094037",
    "lng": "23.95837767969574"
  },
  {
    "url": "https://maps.app.goo.gl/RrMxEDqS2TizyDi36?g_st=ipc",
    "name": "Kazba Bar Kouzina",
    "address": "Λεωφ. Γ. Γρέγου 27, Πόρτο Ράφτη 190 03",
    "lat": "37.89105125077896",
    "lng": "24.008282807805728"
  },
  {
    "url": "https://maps.app.goo.gl/Pa3TPAmcLCv6SJsw5?g_st=ipc",
    "name": "Sofi’s Eatery",
    "address": "Αγίου Παντελεήμονος 7, Βουλιαγμένη 166 71",
    "lat": "37.81302845785067",
    "lng": "23.782463728500748"
  },
  {
    "url": "https://maps.app.goo.gl/eVBj1NWi5ai3UMgQ9?g_st=ipc",
    "name": "Μπάρκο",
    "address": "Λεωφ. Γ. Γρέγου 57, Πόρτο Ράφτη 190 23",
    "lat": "37.89368052857063",
    "lng": "24.013107601829738"
  },
  {
    "url": "https://maps.app.goo.gl/mDVVDSh15YWjZRdF9?g_st=ipc",
    "name": "Εστιατόριο Λίμνης",
    "address": "Λίμνη, Βουλιαγμένη 166 71",
    "lat": "37.80691600865377",
    "lng": "23.785479129703763"
  },
  {
    "url": "https://maps.app.goo.gl/YdREkVBev1UQTkqh6?g_st=ipc",
    "name": "Moorings",
    "address": "Μαρινα Βουλιαγμενης, Βουλιαγμένη 166 71",
    "lat": "37.80205351483022",
    "lng": "23.772631066760855"
  },
  {
    "url": "https://maps.app.goo.gl/c8xgWYxc6QFikVut9?g_st=ipc",
    "name": "Nisos Café Bar",
    "address": "Λεωφ. Αθηνών Σουνίου 48 5, Ανάβυσσος 190 13",
    "lat": "37.71981320719648",
    "lng": "23.912954314854076"
  },
  {
    "url": "https://maps.app.goo.gl/Qzj36fpjYDeGE7CdA?g_st=ipc",
    "name": "Αιάκειον",
    "address": "Λεωφ. Δημοκρατίας 18, Αίγινα 180 10",
    "lat": "37.746460271999695",
    "lng": "23.42831871522419"
  },
  {
    "url": "https://maps.app.goo.gl/iAGPEbpGe5cmBZmJ9?g_st=ipc",
    "name": "Λεωφ. Δημοκρατίας 51, Αίγινα 180 10",
    "address": "Λεωφ. Δημοκρατίας 51, Αίγινα 180 10",
    "lat": "37.74458755004641",
    "lng": "23.429733301742875"
  },
  {
    "url": "https://maps.app.goo.gl/KwgXY17CGsEWtAUX7?g_st=ipc",
    "name": "Το Μικρό Cafe",
    "address": "Unnamed Road, Πέρδικα 180 10",
    "lat": "37.69190688153916",
    "lng": "23.451237398771788"
  },
  {
    "url": "https://maps.app.goo.gl/JdZyRYb4EEJyr1MGA?g_st=ipc",
    "name": "Υδρονέτα",
    "address": "Επαρ.Οδ. Μανδρακίου-Μωλόυ, Ύδρα 180 40",
    "lat": "37.35156953668086",
    "lng": "23.462454743451826"
  },
  {
    "url": "https://maps.app.goo.gl/kHR9XPEtdhdttpmr9?g_st=ipc",
    "name": "The Pirate Bar",
    "address": "Βότση, Ύδρα 180 40",
    "lat": "37.34970734644238",
    "lng": "23.46509825080948"
  },
  {
    "url": "https://maps.app.goo.gl/atz6NCMG1oEDawJu9?g_st=ipc",
    "name": "Hamsa Beach Bar - Restaurant",
    "address": "Μαρτινακια Κυθνος, 840 06",
    "lat": "37.39312552655256",
    "lng": "24.3982581144625"
  },
  {
    "url": "https://maps.app.goo.gl/6LXk9Z8yUCSVckb96?g_st=ipc",
    "name": "Margiora",
    "address": "Κύθνος 840 06",
    "lat": "37.412930533564115",
    "lng": "24.430074872526156"
  },
  {
    "url": "https://maps.app.goo.gl/AbpuvqbsTCXHg2oa7?g_st=ipc",
    "name": "Apokalipsi Kythnos",
    "address": "Κυκλαδες, Kithnos 840 06",
    "lat": "37.4124761463021",
    "lng": "24.431457541279233"
  },
  {
    "url": "https://maps.app.goo.gl/FGzjfcUPBsXsNNqj9?g_st=ipc",
    "name": "Sourloulou Kythnos",
    "address": "Θεολόγος, Kithnos 840 06",
    "lat": "37.41243148353528",
    "lng": "24.43143339817302"
  },
  {
    "url": "https://maps.app.goo.gl/P46Mc4PY3VqCeaVF8?g_st=ipc",
    "name": "Maistrali",
    "address": "Merihas 840 06",
    "lat": "37.38947704282166",
    "lng": "24.39834020618754"
  },
  {
    "url": "https://maps.app.goo.gl/1vCbzZRojT45SSX8A?g_st=ipc",
    "name": "Jagger",
    "address": "Dryopida 840 06",
    "lat": "37.382500546041285",
    "lng": "24.430664724576324"
  },
  {
    "url": "https://maps.app.goo.gl/ZB4UYRxyx55zXBkS9?g_st=ipc",
    "name": "Liberty View Of Nafplio",
    "address": "Sidiras Merarchias 39, Nafplio 211 00",
    "lat": "37.56620305969031",
    "lng": "22.806201213990434"
  },
  {
    "url": "https://maps.app.goo.gl/VsqimzGRSLvrL3FN7?g_st=ipc",
    "name": "Ar&Ko",
    "address": "Πάρκο Κολοκοτρώνη, Vasileos Pavlou, Nafplio 211 00",
    "lat": "37.565832099209665",
    "lng": "22.80288803557191"
  },
  {
    "url": "https://maps.app.goo.gl/ndoCdemDkTB3EdpU7?g_st=ipc",
    "name": "Yamma All Day Bar - Restaurant",
    "address": "Συρου, Galissas 841 00",
    "lat": "37.42130665540869",
    "lng": "24.87954060251137"
  },
  {
    "url": "https://maps.app.goo.gl/o27dRVLq4yNqsqfV6?g_st=ipc",
    "name": "Exo meria",
    "address": "Isternia 842 01",
    "lat": "37.621680604479764",
    "lng": "25.051831582375698"
  },
  {
    "url": "https://maps.app.goo.gl/MQWdjK1DGr9YXoey5?g_st=ipc",
    "name": "Mayou all day bar",
    "address": "Isternia, Tinos 842 01, Tinos Island 842 01",
    "lat": "37.6225070567129",
    "lng": "25.05248500203228"
  },
  {
    "url": "https://maps.app.goo.gl/zBtgvSEn5xc7LXJYA?g_st=ipc",
    "name": "Artisti Προζύμι",
    "address": "Ermoupoli 841 00",
    "lat": "37.44450469447684",
    "lng": "24.94200878171083"
  },
  {
    "url": "https://maps.app.goo.gl/67zZLni25BkifsZy6?g_st=ipc",
    "name": "Epta - Syros Island",
    "address": "Peloponnisou 7, Ermoupoli 841 00",
    "lat": "37.443982055478656",
    "lng": "24.941782056394448"
  },
  {
    "url": "https://maps.app.goo.gl/1CcqyVuzhyYwut3Y7?g_st=ipc",
    "name": "Armadillo coffee brewery",
    "address": "Emmanouil Roidi 9, Ermoupoli 841 00",
    "lat": "37.44456566950848",
    "lng": "24.94393269848808"
  },
  {
    "url": "https://maps.app.goo.gl/MAU2ryGQrQMcWyvh7?g_st=ipc",
    "name": "NURU Casual Dine Bar",
    "address": "Coast Petrou Ralli, Ermoupoli 841 00",
    "lat": "37.44349077641299",
    "lng": "24.94447380869693"
  },
  {
    "url": "https://maps.app.goo.gl/Ak5n1GwVGESyRydk7?g_st=ipc",
    "name": "AGORA",
    "address": "Χώρα - κεντρική πλατεία, Skiros 340 07",
    "lat": "38.90450343769536",
    "lng": "24.564405519725188"
  },
  {
    "url": "https://maps.app.goo.gl/nrqc18TzCiFo5osh7?g_st=ipc",
    "name": "“O Mitsos” Bakery and Bougatsa pies",
    "address": "Αγορά Σκυρου, Skiros 340 07",
    "lat": "38.906123668565485",
    "lng": "24.565786457853836"
  },
  {
    "url": "https://maps.app.goo.gl/ToCtxBp1UXx9DGvx7?g_st=ipc",
    "name": "Kanela | Homemade Delicacies",
    "address": "El. Venizelou, Skopelos 370 03",
    "lat": "39.119057575812455",
    "lng": "23.730567589663472"
  },
  {
    "url": "https://maps.app.goo.gl/L1JDBzithBcgv3Qj7?g_st=ipc",
    "name": "Decimo Coffee & Brunch",
    "address": "Σκόπελος 370 03",
    "lat": "39.11943395916134",
    "lng": "23.73078206958329"
  },
  {
    "url": "https://maps.app.goo.gl/PWyPVsJkGM6y8EdR9?g_st=ipc",
    "name": "Κροκ Μεσιέ | All day Bistrot {Πρωινό & Brunch στο χωριό}",
    "address": "Epar.Od. Tripotamou-Kallonis, Krokos 842 00",
    "lat": "37.58939959185263",
    "lng": "25.160526432646503"
  },
  {
    "url": "https://maps.app.goo.gl/fceHF61HD8ctgCdK7?g_st=ipc",
    "name": "καφέ-ναι",
    "address": "Unnamed Road, Volakas 842 00",
    "lat": "37.59217889938765",
    "lng": "25.17817299063689"
  },
  {
    "url": "https://maps.app.goo.gl/zgVordiqFYChj8ee9?g_st=ipc",
    "name": "Cantina Analogue Bohemian WIne Gallery Tinos",
    "address": "Καρολου, Vitali 5, Tinos 842 00",
    "lat": "37.53889977873259",
    "lng": "25.160674453389994"
  },
  {
    "url": "https://maps.app.goo.gl/JZWV3eGAAkm1yYKZ9?g_st=ipc",
    "name": "Antilalos",
    "address": "Αφεντούλη, Paxamadi και, Tinos 842 00",
    "lat": "37.53878225540917",
    "lng": "25.160792308573363"
  },
  {
    "url": "https://maps.app.goo.gl/WEWXxoC44GxvXT9t9?g_st=ipc",
    "name": "Moxa Espresso Bar",
    "address": "ΝΙΚΗΦΟΡΟΥ ΛΥΤΡΑ 10, Tinos 842 00",
    "lat": "37.53892047512739",
    "lng": "25.161704068402724"
  },
  {
    "url": "https://maps.app.goo.gl/2bBZEK7Z5id58XNP8?g_st=ipc",
    "name": "Mikro Tinos",
    "address": "Evaggelistrias 42, Tinos 842 00",
    "lat": "37.53905011947504",
    "lng": "25.162412761350158"
  },
  {
    "url": "https://maps.app.goo.gl/GthTcgeC9P8iYKHF6?g_st=ipc",
    "name": "The Roosters Tinos",
    "address": "Ακτή Γ. Δρόσου 0, Tinos 842 00",
    "lat": "37.53564368153088",
    "lng": "25.16363638828339"
  },
  {
    "url": "https://maps.app.goo.gl/GBkSRUkYZhjgkkFo9?g_st=ipc",
    "name": "Κλούκι (Klouki)",
    "address": "Φαλατάδος 842 00",
    "lat": "37.58260089712488",
    "lng": "25.191149960754956"
  },
  {
    "url": "https://maps.app.goo.gl/biyFuX6UBoZ8TcJc9?g_st=ipc",
    "name": "Bourtzi Skiathos",
    "address": "Port of, Skiathos 370 02",
    "lat": "39.16082655884958",
    "lng": "23.49110174510934"
  },
  {
    "url": "https://maps.app.goo.gl/isrdd8GJ3jpsZQ7W7?g_st=ipc",
    "name": "Cafe Prago",
    "address": "Apollonias, Artemona 840 03",
    "lat": "36.975461059633815",
    "lng": "24.7240519346836"
  },
  {
    "url": "https://maps.app.goo.gl/PqpVut6E24nuqAUq6?g_st=ipc",
    "name": "Threefolds sifnos",
    "address": "Απολλωνία 840 03",
    "lat": "36.974665514362115",
    "lng": "24.72381923558153"
  },
  {
    "url": "https://maps.app.goo.gl/uYWL7LrV5mmCq24M8?g_st=ipc",
    "name": "To Stavri bakery (Το Σταυρί)",
    "address": "Epar.Od. Limani Kamaron-Artemonas, Apollonia 840 03",
    "lat": "36.97380305039157",
    "lng": "24.72319061672324"
  },
  {
    "url": "https://maps.app.goo.gl/Lb3CYfu5rPNFtURu7?g_st=ipc",
    "name": "Fasolu Restaurant - Beach Bar",
    "address": "Fassolou Beach, 840 03",
    "lat": "36.941116049216255",
    "lng": "24.753293392899685"
  },
  {
    "url": "https://maps.app.goo.gl/qaooHUUn5SotjYdJA?g_st=ipc",
    "name": "Dalu",
    "address": "Dalu, Mikonos 846 00",
    "lat": "37.44946196330255",
    "lng": "25.332037598705416"
  },
  {
    "url": "https://maps.app.goo.gl/HfixfBMZYH8oTEGWA?g_st=ipc",
    "name": "Ola Mykonos - Breakfast, Tacos, Cocktails",
    "address": "Korfos Beach, Mikonos 846 00",
    "lat": "37.42580212278426",
    "lng": "25.322386656781635"
  },
  {
    "url": "https://maps.app.goo.gl/JnZa27RuEpaKVL4p6?g_st=ipc",
    "name": "Έαρ Cafe Bar",
    "address": "Τρύφωνα Ζαχαρόπουλου, Vitina 220 10",
    "lat": "37.67079207904159",
    "lng": "22.182043630957757"
  },
  {
    "url": "https://maps.app.goo.gl/ytWHokwwmW4y1Baq5?g_st=ipc",
    "name": "The Liberty Breakfast Room",
    "address": "the liberty breakfast room, Mikonos 846 00",
    "lat": "37.44002249548534",
    "lng": "25.33319976309242"
  },
  {
    "url": "https://maps.app.goo.gl/mFrsGY4rfvzHZgy28?g_st=ipc",
    "name": "El Burro Mykonos",
    "address": "37°26'30.4\"N 25°20'06.2\"E, Mikonos 846 00",
    "lat": "37.44164494565894",
    "lng": "25.3350374340187"
  },
  {
    "url": "https://maps.app.goo.gl/kkRCE3TrjrxBPfbB7?g_st=ipc",
    "name": "The Morning Table",
    "address": "Vrysi, Mikonos 846 00",
    "lat": "37.43394266189418",
    "lng": "25.331625555430822"
  },
  {
    "url": "https://maps.app.goo.gl/8BRmDPmozseUfqLY6?g_st=ipc",
    "name": "Velanos Mykonos - Brunch, Breakfast & Cocktails",
    "address": "Skalado, Mikonos 846 00",
    "lat": "37.43406109514676",
    "lng": "25.3414091685473"
  },
  {
    "url": "https://maps.app.goo.gl/5Mzweh8YnbTNhVaQ9?g_st=ipc",
    "name": "Mosaic Milos",
    "address": "Plaka 848 00",
    "lat": "36.74431276131015",
    "lng": "24.421917244173116"
  },
  {
    "url": "https://maps.app.goo.gl/iW2VgvcVsbQ7K6rVA?g_st=ipc",
    "name": "come back",
    "address": "Beach, Agios Dimitrios, Naousa 844 01",
    "lat": "37.12451513145797",
    "lng": "25.239009860245982"
  },
  {
    "url": "https://maps.app.goo.gl/VX68GiVxifYLzhWu6?g_st=ipc",
    "name": "Batistas Bakery",
    "address": "Naousa 844 01",
    "lat": "37.120044252975426",
    "lng": "25.241091509858137"
  },
  {
    "url": "https://maps.app.goo.gl/whtVq9izZXDLCZ8k7?g_st=ipc",
    "name": "Isalos Beach Club",
    "address": "Plastira 17b, Volos 382 22",
    "lat": "39.35159082602954",
    "lng": "22.9581356571748"
  },
  {
    "url": "https://maps.app.goo.gl/uEvFEaZxa3VWrgDA7?g_st=ipc",
    "name": "Aeriko cafe bar - Makrinitsa",
    "address": "1o km PORTARIAS-MAKRINITSAS, PELION 370 11",
    "lat": "39.396275519682625",
    "lng": "22.994190417214696"
  },
  {
    "url": "https://maps.app.goo.gl/69BkMU2pWVao3FWX7?g_st=ipc",
    "name": "HURMAS | All Day Bistro & Restaurant",
    "address": "Protopapadaki, Naxos 843 00",
    "lat": "37.105038240518304",
    "lng": "25.37570759141786"
  },
  {
    "url": "https://maps.app.goo.gl/31ofe6z6fLcDE8U48?g_st=ipc",
    "name": "AVATON 1739 - Coffee & Wine Roof",
    "address": "Kastro, Naxos 843 00",
    "lat": "37.10529514165084",
    "lng": "25.377380277769117"
  },
  {
    "url": "https://maps.app.goo.gl/24h3FMgmoD9y36B69?g_st=ipc",
    "name": "Melimilon Naxos",
    "address": "Naxos 843 00",
    "lat": "37.1012124273558",
    "lng": "25.373816192509402"
  },
  {
    "url": "https://maps.app.goo.gl/VMcfVNerQn3tSzED8?g_st=ipc",
    "name": "Macao beach naxos",
    "address": "Agios Prokopios 843 00",
    "lat": "37.07477452112851",
    "lng": "25.350720849700185"
  },
  {
    "url": "https://maps.app.goo.gl/ExrjzA4WbcAXVt436?g_st=ipc",
    "name": "Pantry coffee and brunch spot",
    "address": "Naxos 843 00",
    "lat": "37.10537841466819",
    "lng": "25.380795502578987"
  },
  {
    "url": "https://maps.app.goo.gl/pycw7dvrTdi8yEicA?g_st=ipc",
    "name": "Naxaki Beach Lounge Bar & Restaurant",
    "address": "Agios Georgios Beach - Naxos, Naxos 843 00",
    "lat": "37.096820663451155",
    "lng": "25.37554032822482"
  },
  {
    "url": "https://maps.app.goo.gl/RjakHZ5s5a6HV2Rj8?g_st=ipc",
    "name": "goat in a boat",
    "address": "Αγ. Αννα 843 00",
    "lat": "37.06717854640464",
    "lng": "25.356316886639643"
  },
  {
    "url": "https://maps.app.goo.gl/6st7M6E2gAiTKTuK7?g_st=ipc",
    "name": "Yazoo Summer Bliss",
    "address": "Beach, Plaka 843 00",
    "lat": "37.05936629317493",
    "lng": "25.358292075823126"
  },
  {
    "url": "https://maps.app.goo.gl/sMRnKogU1qsVLy5N7?g_st=ipc",
    "name": "Cedar Naxos",
    "address": "Plaka beach island, Cyclades, Town 84300, 843 00",
    "lat": "37.05894909734054",
    "lng": "25.359010791260953"
  },
  {
    "url": "https://maps.app.goo.gl/zpHeyfTFhxTR1uEU8?g_st=ipc",
    "name": "Petrino Beach Restaurant",
    "address": "Μαραγκας 843 00",
    "lat": "37.05234820744201",
    "lng": "25.368775961363156"
  },
  {
    "url": "https://maps.app.goo.gl/bvxkDLgLP2gCrEDeA?g_st=ipc",
    "name": "Caffe Greco",
    "address": "Χαλκείο 843 02",
    "lat": "37.06283829210554",
    "lng": "25.482179694372245"
  },
  {
    "url": "https://maps.app.goo.gl/EM1dP9kHW3eWkooMA?g_st=ipc",
    "name": "Halki Cafe Bistro",
    "address": "Epar.Od. Naxou-Apiranthou, Chalkio 843 00",
    "lat": "37.0642321945567",
    "lng": "25.484940977880758"
  },
  {
    "url": "https://maps.app.goo.gl/QSbpTWeVNhvVqhFt6?g_st=ipc",
    "name": "Pounta",
    "address": "Folegandros 840 11",
    "lat": "36.62857034644093",
    "lng": "24.920634222757425"
  },
  {
    "url": "https://maps.app.goo.gl/GftgqDRmHM6GREdg9?g_st=ipc",
    "name": "Platanos Cafe Restaurant",
    "address": "Epar.Od. Naxou-Apiranthou, Filoti 843 02",
    "lat": "37.0520184479865",
    "lng": "25.4980988789785"
  },
  {
    "url": "https://maps.app.goo.gl/s28qFqLPN9on9SZy8?g_st=ipc",
    "name": "Fasolas Gastrokafeneio",
    "address": "Filoti 843 02",
    "lat": "37.05047829842748",
    "lng": "25.497802752574465"
  },
  {
    "url": "https://maps.app.goo.gl/CVfadsvfxt5JGHVb8?g_st=ipc",
    "name": "Rotonda - Cafe Bar Restaurant in Naxos",
    "address": "ai giannis, Apirathos 843 00",
    "lat": "37.05872571074158",
    "lng": "25.510854348333638"
  },
  {
    "url": "https://maps.app.goo.gl/2ULzYbujrWoB52n26?g_st=ipc",
    "name": "zeabakery",
    "address": "Korinthou 302, Patra 262 22",
    "lat": "38.24285092491478",
    "lng": "21.73125949400658"
  },
  {
    "url": "https://maps.app.goo.gl/cmXtN3A11tRUN13MA?g_st=ipc",
    "name": "Patriko Pub-Cafe",
    "address": "Παραλία Στούπας, Stoupa 240 24",
    "lat": "36.844945849235245",
    "lng": "22.259663624938703"
  },
  {
    "url": "https://maps.app.goo.gl/8DUAGWFE2uqSxjoi6?g_st=ipc",
    "name": "Bouka Bouka Mare",
    "address": "Παραλία, Messini 242 00",
    "lat": "37.013989599006756",
    "lng": "21.99717016667302"
  },
  {
    "url": "https://maps.app.goo.gl/upgNqgqMcearc7wRA?g_st=ipc",
    "name": "Koufonisia Bakery",
    "address": "Koufonisia 843 00",
    "lat": "36.933430589719315",
    "lng": "25.601645574976523"
  },
  {
    "url": "https://maps.app.goo.gl/ZSCvQWpooUkkCF4K7?g_st=ipc",
    "name": "The Paradosiakón (Traditional)",
    "address": "Eolou 1, Karpenisi 361 00",
    "lat": "38.912425769319995",
    "lng": "21.803412059232368"
  },
  {
    "url": "https://maps.app.goo.gl/rmkYbTkw4mzL6Ws7A?g_st=ipc",
    "name": "Το καφέ της Χαράς",
    "address": "Κλαυσί 361 00",
    "lat": "38.86839469803581",
    "lng": "21.760838169390635"
  },
  {
    "url": "https://maps.app.goo.gl/ou4ZLrrH5JymyBSH7?g_st=ipc",
    "name": "Saloon Park",
    "address": "3ο χιλ Καρπενησίου Προυσσου, Karpenisi 361 00",
    "lat": "38.90092398449493",
    "lng": "21.77279442117925"
  },
  {
    "url": "https://maps.app.goo.gl/Er8efE1gu29TMxxG9?g_st=ipc",
    "name": "Paranga",
    "address": "Epar.Od. Agiokampou-Sklithrou, Agiokampos 400 03",
    "lat": "39.69289300756039",
    "lng": "22.880848477388575"
  },
  {
    "url": "https://maps.app.goo.gl/RS2SUMtbtY8WCrnF9?g_st=ipc",
    "name": "825 eat and coffee Karpenissi",
    "address": "Voutyro 361 00",
    "lat": "38.879552565898926",
    "lng": "21.74418375846026"
  },
  {
    "url": "https://maps.app.goo.gl/TYafQiUuDWknuAyTA?g_st=ipc",
    "name": "Villaggio café - mezé",
    "address": "ΚΟΡΥΣΧΑΔΕΣ 1, Karpenisi 361 00",
    "lat": "38.903233129898815",
    "lng": "21.759044154104334"
  },
  {
    "url": "https://maps.app.goo.gl/iSBXdhHpi1DBgMea7?g_st=ipc",
    "name": "Αλκυόνη Cafe",
    "address": "Μικκιάδων 6, Chios 821 31",
    "lat": "38.37005085250784",
    "lng": "26.135181501058845"
  },
  {
    "url": "https://maps.app.goo.gl/CmTSEDR1jZPW7D6x6?g_st=ipc",
    "name": "Alatiera",
    "address": "Epar.Od. Mesologgiou - Alikon Tourlidas 27, Missolonghi 302 00",
    "lat": "38.36054133352401",
    "lng": "21.42496004301919"
  },
  {
    "url": "https://maps.app.goo.gl/ijDMxEmSaLdDH7FR8?g_st=ipc",
    "name": "La Mer",
    "address": "Larisos 270 52",
    "lat": "38.15655535964722",
    "lng": "21.36777415023951"
  },
  {
    "url": "https://maps.app.goo.gl/4qjSp1aZXXsPHmu16?g_st=ipc",
    "name": "Pink Banana & OPA Greek cuisine",
    "address": "Λουτρά, Ag. Paraskevi 630 85",
    "lat": "39.928119861265856",
    "lng": "23.5848530921533"
  },
  {
    "url": "https://maps.app.goo.gl/k1GdJrNWZuw6bw1y7?g_st=ipc",
    "name": "Navagos beach bar Paliouri",
    "address": "Navagos Beach-Restaurant, Paliouri 630 85",
    "lat": "39.93652533814293",
    "lng": "23.688978937103037"
  },
  {
    "url": "https://maps.app.goo.gl/Q7a2SEfBJaFYitVS7?g_st=ipc",
    "name": "Lemonis Bakery",
    "address": "Epar.Od. Paliouriou-Afitou, Paliouri 630 85",
    "lat": "39.94203436230197",
    "lng": "23.66329350381582"
  },
  {
    "url": "https://maps.app.goo.gl/kxSvMZBHgQaQt2dS8?g_st=ipc",
    "name": "Season beach house (KOURSAROS)",
    "address": "Koursaros, Paliouri 630 85",
    "lat": "39.95767524817121",
    "lng": "23.67935820697653"
  },
  {
    "url": "https://maps.app.goo.gl/xySqYYNGHWHqAXNeA?g_st=ipc",
    "name": "Leuki Ammos Beach bar",
    "address": "Akti xenia, Paliouri 630 85",
    "lat": "39.96367051219052",
    "lng": "23.675446495469675"
  },
  {
    "url": "https://maps.app.goo.gl/5BvhEbLtGovxPUe36?g_st=ipc",
    "name": "Lago Seaside Experience",
    "address": "Unnamed Road, Kassandra 630 85",
    "lat": "39.97322433297595",
    "lng": "23.675843364420007"
  },
  {
    "url": "https://maps.app.goo.gl/6Hendm5FAtJv4EAK9?g_st=ipc",
    "name": "Daluz Beach Bar Restaurant",
    "address": "Toroni 630 72",
    "lat": "39.98516645216742",
    "lng": "23.903296724219445"
  },
  {
    "url": "https://maps.app.goo.gl/5ksxtuxSYejYXXSq9?g_st=ipc",
    "name": "Glarokavos BeachBar",
    "address": "Παραλία Γλαρόκαβος, Pefkochori 630 85",
    "lat": "39.982564469579565",
    "lng": "23.643613894999742"
  },
  {
    "url": "https://maps.app.goo.gl/Zgv1m6A2CegCXBdv5?g_st=ipc",
    "name": "Elephant Beach Bar",
    "address": "Peufkohori",
    "lat": "39.985586279749114",
    "lng": "23.627614034601162"
  },
  {
    "url": "https://maps.app.goo.gl/SSzGcihWSHuskGnj9?g_st=ipc",
    "name": "Ethnik Beach Bar",
    "address": "Τριστινικα 630 72",
    "lat": "39.99629866369205",
    "lng": "23.87260948520653"
  },
  {
    "url": "https://maps.app.goo.gl/nQhhBcx28bHKgifj6?g_st=ipc",
    "name": "Fiki Beach Bar & Restaurant",
    "address": "Pefkochori 630 85",
    "lat": "39.99215878950949",
    "lng": "23.607017748480928"
  },
  {
    "url": "https://maps.app.goo.gl/aPnsSZ9vtDLsCtCKA?g_st=ipc",
    "name": "Canela Restaurant by Blue Carpet",
    "address": "Παραλία, Pefkochori 630 85",
    "lat": "39.99355871861254",
    "lng": "23.60104135467034"
  },
  {
    "url": "https://maps.app.goo.gl/PoTnpjRujbpdssuq7?g_st=ipc",
    "name": "Mamalouka Beach Bar",
    "address": "Unnamed Road, Kassandra 630 85",
    "lat": "39.99397355305258",
    "lng": "23.600497598852627"
  },
  {
    "url": "https://maps.app.goo.gl/XPRD9cmkNsd1XQCDA?g_st=ipc",
    "name": "Eldoris Restaurant Beach Bar Possidi",
    "address": "Possidi 630 77",
    "lat": "39.971163869266604",
    "lng": "23.3680455032056"
  },
  {
    "url": "https://maps.app.goo.gl/M2pxCK9uxiBVApkD7?g_st=ipc",
    "name": "Anemos Cafe Bar",
    "address": "Kourouta 272 00",
    "lat": "37.77116024105471",
    "lng": "21.29250825374054"
  },
  {
    "url": "https://maps.app.goo.gl/USkZzCwrNThX7hj88?g_st=ipc",
    "name": "Encore Beach Bar",
    "address": "Αιγαιοπελαγίτικα, Posidi 630 77",
    "lat": "39.97745669933178",
    "lng": "23.37333323221752"
  },
  {
    "url": "https://maps.app.goo.gl/diBbGVkfHMvFE7VE7?g_st=ipc",
    "name": "Achinos Tuti Beach Halkidiki",
    "address": "Nisos Beach, Chaniotis 630 85",
    "lat": "39.999483989821414",
    "lng": "23.582157727223603"
  },
  {
    "url": "https://maps.app.goo.gl/BuoQtJYMzAyirA8L6?g_st=ipc",
    "name": "Golden Beach Near Paliouri",
    "address": "Pallini 630 85",
    "lat": "40.00000157623716",
    "lng": "23.566669631082956"
  },
  {
    "url": "https://maps.app.goo.gl/W2NJQiPuDrDGXEQw5?g_st=ipc",
    "name": "Arleta",
    "address": "Κατάπολα 840 08",
    "lat": "36.82638304281154",
    "lng": "25.864058083086626"
  },
  {
    "url": "https://maps.app.goo.gl/d978qu99YawDBboB8?g_st=ipc",
    "name": "Zattero Seaside Bar",
    "address": "Σκάλα Φούρκας 630 77",
    "lat": "39.989902440234324",
    "lng": "23.37887042765103"
  },
  {
    "url": "https://maps.app.goo.gl/5y3h9wHEBbAE7ydNA?g_st=ipc",
    "name": "Sinaloa Beach Club",
    "address": "Neos Marmaras 630 81",
    "lat": "40.02439528883169",
    "lng": "23.83477732325125"
  },
  {
    "url": "https://maps.app.goo.gl/xaGsvgZfv5mMRi2e6?g_st=ipc",
    "name": "Lemonis Bakery",
    "address": "Polychrono 630 85",
    "lat": "40.01696151934303",
    "lng": "23.52512566073754"
  },
  {
    "url": "https://maps.app.goo.gl/Q863Q6e1e1985SvJ9?g_st=ipc",
    "name": "Crystal Beach Bar",
    "address": "Unnamed Road, Kassandra 630 85",
    "lat": "40.02336409343884",
    "lng": "23.51395324156485"
  },
  {
    "url": "https://maps.app.goo.gl/YcQVqpGJyQtWEuk59?g_st=ipc",
    "name": "Jazzmin",
    "address": "Χώρα 840 08",
    "lat": "36.83137874729602",
    "lng": "25.898307325862916"
  },
  {
    "url": "https://maps.app.goo.gl/DziL4jUhyUbQGmrNA?g_st=ipc",
    "name": "Amaya Beach Club",
    "address": "2GG4+9J, Pallini 630 85",
    "lat": "40.026446407870004",
    "lng": "23.507188076460846"
  },
  {
    "url": "https://maps.app.goo.gl/K7ieijzQ2tNdrR3y5?g_st=ipc",
    "name": "Seladi cafe bar",
    "address": "Epar.Od. Katapola-Thalarias, Lagada 840 08",
    "lat": "36.91575288586461",
    "lng": "25.98223632900659"
  },
  {
    "url": "https://maps.app.goo.gl/EQeLPXrV9KJNt6Ut5?g_st=ipc",
    "name": "embassa cafe bar",
    "address": "Aigiali, Ormos Egialis 840 08",
    "lat": "36.901100293710016",
    "lng": "25.976110975169213"
  },
  {
    "url": "https://maps.app.goo.gl/UiCZYg6Gt2wABcPE8?g_st=ipc",
    "name": "Svoronos Bakery",
    "address": "Greece, 25is Martiou, Thira 847 00",
    "lat": "36.419048608663665",
    "lng": "25.432096523213673"
  },
  {
    "url": "https://maps.app.goo.gl/JbLEpGNTnyAChWqY7?g_st=ipc",
    "name": "Pergalídi",
    "address": "Lagada 840 08",
    "lat": "36.9063101851879",
    "lng": "25.998609552916683"
  },
  {
    "url": "https://maps.app.goo.gl/cd42keBiiYDufY3k8?g_st=ipc",
    "name": "Agora Beach - Greek Kouzina & Beach Bar",
    "address": "Κρυοπηγη Χαλκιδική 630 77",
    "lat": "40.05004401134577",
    "lng": "23.47152357517926"
  },
  {
    "url": "https://maps.app.goo.gl/JVA5L8YnHzkTjoQq5?g_st=ipc",
    "name": "Kohi beach",
    "address": "PORTO KARRAS, Neos Marmaras 630 81",
    "lat": "40.074443417965654",
    "lng": "23.790085630034497"
  },
  {
    "url": "https://maps.app.goo.gl/GU9DYNTRrV3ugcbq6?g_st=ipc",
    "name": "Beach Bar Pantelis",
    "address": "Λημνος, Thanos 814 00",
    "lat": "39.842026669826275",
    "lng": "25.07833979185058"
  },
  {
    "url": "https://maps.app.goo.gl/E5yFsVWCjLx3EVVM8?g_st=ipc",
    "name": "Almira beach bar",
    "address": "Kassandra 630 77",
    "lat": "40.072040605174976",
    "lng": "23.452332342777385"
  },
  {
    "url": "https://maps.app.goo.gl/b3KTgBobUtSzbYRQ8?g_st=ipc",
    "name": "Molos",
    "address": "25is Martiou 20, Neos Marmaras 630 81",
    "lat": "40.09415334263866",
    "lng": "23.78475325827316"
  },
  {
    "url": "https://maps.app.goo.gl/6JePMXECkf2soAvE9?g_st=ipc",
    "name": "Karavi Beach Bar",
    "address": "Nea Koutali 814 01",
    "lat": "39.85090912842053",
    "lng": "25.123611423243542"
  },
  {
    "url": "https://maps.app.goo.gl/XpuXpx6W5o54Ee8g9?g_st=ipc",
    "name": "Το Σοκάκι",
    "address": "Π.Κυδά 95, Mirina 814 00",
    "lat": "39.8775422598192",
    "lng": "25.06020004123801"
  },
  {
    "url": "https://maps.app.goo.gl/c8yCK9js6cNHpCoA9?g_st=ipc",
    "name": "Ίσαλος",
    "address": "Navarchou Kountourioti 44, Mirina 814 00",
    "lat": "39.87908391847142",
    "lng": "25.06099156906446"
  },
  {
    "url": "https://maps.app.goo.gl/ek2Zc3cWzQTwhHRT9?g_st=ipc",
    "name": "Thokos Cafe Bar Bistro",
    "address": "Nea. Fokea, Halkidiki, Nea Fokea 630 77",
    "lat": "40.13335777699941",
    "lng": "23.402877403357074"
  },
  {
    "url": "https://maps.app.goo.gl/vTT1YVpou5DWsbZ16?g_st=ipc",
    "name": "Manassu Beach Bar and Restaurant",
    "address": "12ο χλμ. Βουρβουρού, Sarti 630 78",
    "lat": "40.15983560901836",
    "lng": "23.895238695639563"
  },
  {
    "url": "https://maps.app.goo.gl/JWDuoC5xfuaZE3qx7?g_st=ipc",
    "name": "Rodia Beach Bar",
    "address": "Vourvourou 630 78",
    "lat": "40.16728294783182",
    "lng": "23.87753516622083"
  },
  {
    "url": "https://maps.app.goo.gl/8k67FJFCG4gbZRCz7?g_st=ipc",
    "name": "ERGON Beach House Nikiti",
    "address": "Egialou 1, Nikiti 630 88",
    "lat": "40.203661627704044",
    "lng": "23.679869228615946"
  },
  {
    "url": "https://maps.app.goo.gl/se2S5w6DbhwcLuF89?g_st=ipc",
    "name": "Kukunari Beach Bar",
    "address": "Nikiti 630 88",
    "lat": "40.20543398224347",
    "lng": "23.678472123060402"
  },
  {
    "url": "https://maps.app.goo.gl/3iczx4sTEWWz3ZCY9?g_st=ipc",
    "name": "Alexandros Cafe Restaurant Bar",
    "address": "Egialou 30, Nikiti 630 88",
    "lat": "40.21526877453814",
    "lng": "23.66789134136706"
  },
  {
    "url": "https://maps.app.goo.gl/mg7jdoneLKkUwxSz7?g_st=ipc",
    "name": "Gallaria",
    "address": "Panteleimonas 600 65",
    "lat": "40.00824042648882",
    "lng": "22.59872088063863"
  },
  {
    "url": "https://maps.app.goo.gl/HcoxLeAt4x4SJsFy8?g_st=ipc",
    "name": "Day by Day",
    "address": "Λεωφόρος Σιθωνίας, Nikiti 630 88",
    "lat": "40.222448904043915",
    "lng": "23.669671135590562"
  },
  {
    "url": "https://maps.app.goo.gl/K8vAnFPwrCRyavzCA?g_st=ipc",
    "name": "Lemonis Bakery",
    "address": "Epar.Od. Poligirou - Neas Potideas, Nea Propontida 632 00",
    "lat": "40.19513294653809",
    "lng": "23.330689010754938"
  },
  {
    "url": "https://maps.app.goo.gl/ufdEfkab77wbekDB9?g_st=ipc",
    "name": "La Luna",
    "address": "Παραλία Τρανή Αμμούδα, Ormos Panagias 630 78",
    "lat": "40.23930190869367",
    "lng": "23.72686046824902"
  },
  {
    "url": "https://maps.app.goo.gl/JzQ8QxBHm1Z7RWLz6?g_st=ipc",
    "name": "Le Mantri Beach Bar",
    "address": "Ακτή Τρανή Αμμούδα, Λιβροχιό good, Ag. Nikolaos 630 78",
    "lat": "40.24711352255949",
    "lng": "23.722806749285716"
  },
  {
    "url": "https://maps.app.goo.gl/LM9ZDTfgxjSUVZASA?g_st=ipc",
    "name": "Makai Beach Bar",
    "address": "7MQV+29, Eleonas 630 78",
    "lat": "40.28754129654397",
    "lng": "23.69344494313625"
  },
  {
    "url": "https://maps.app.goo.gl/1TG8uMAi1MTZQgiY8?g_st=ipc",
    "name": "Jenkins Lounge Eatery",
    "address": "Psaron 3, Zakinthos 291 00",
    "lat": "37.786543893628924",
    "lng": "20.898568985854595"
  },
  {
    "url": "https://maps.app.goo.gl/Anc3Yu4uRzD8XagR9?g_st=ipc",
    "name": "Madisons Kitchen Bar",
    "address": "Lomvardou 36, Zakinthos 291 00",
    "lat": "37.78371523709895",
    "lng": "20.898097278049377"
  },
  {
    "url": "https://maps.app.goo.gl/Q4BHLN3SEhu3gcD48?g_st=ipc",
    "name": "Anemos Beach Bar & Restaurant",
    "address": "Ouranoupoli 630 75",
    "lat": "40.34319122046617",
    "lng": "23.96653818078894"
  },
  {
    "url": "https://maps.app.goo.gl/SxeeHeaBpXq8VgZe8?g_st=ipc",
    "name": "Ammos Beach Bar & Restaurant | Kefalonia",
    "address": "Κεφαλληνίας, Skala 281 00",
    "lat": "38.08122535953636",
    "lng": "20.800056619766497"
  },
  {
    "url": "https://maps.app.goo.gl/Xqncmn24rvoWBwBP9?g_st=ipc",
    "name": "Voulitsa Beach Bar",
    "address": "Nea Roda 630 75",
    "lat": "40.38145872405999",
    "lng": "23.94007429302176"
  },
  {
    "url": "https://maps.app.goo.gl/DJjkbdzn9Sg4yrHY7?g_st=ipc",
    "name": "Ρεμετζο καφέ",
    "address": "Metaxa, Kefalonia 280 82",
    "lat": "38.14775445639953",
    "lng": "20.7788036615171"
  },
  {
    "url": "https://maps.app.goo.gl/kqkoFkCe2U9nzS2E6?g_st=ipc",
    "name": "Sahara Resort",
    "address": "Νέα Ηράκλεια 630 80",
    "lat": "40.3253593585324",
    "lng": "23.020574138293206"
  },
  {
    "url": "https://maps.app.goo.gl/3wzoip2GSNybngj77?g_st=ipc",
    "name": "Poco Loco Beach BARaCantina",
    "address": "Beach, Ierissos, thessaloniki 570 19",
    "lat": "40.405548594123",
    "lng": "23.873476264424372"
  },
  {
    "url": "https://maps.app.goo.gl/eSiPfaS2cFYBfyQS9?g_st=ipc",
    "name": "Historic lounge bar",
    "address": "Νεάπολη 811 00",
    "lat": "39.07222186010532",
    "lng": "26.58938683579369"
  },
  {
    "url": "https://maps.app.goo.gl/YdqcocS9SrPhoykt5?g_st=ipc",
    "name": "Beach House by flamingo",
    "address": "Ποταμός, Epanomi 575 00",
    "lat": "40.38155085132963",
    "lng": "22.921580696023792"
  },
  {
    "url": "https://maps.app.goo.gl/5NWTh15BbgeGgYsx6?g_st=ipc",
    "name": "Carte Postale",
    "address": "Michail Kalorizikou 2, Chania 731 33",
    "lat": "35.523454895956455",
    "lng": "24.056556730944372"
  },
  {
    "url": "https://maps.app.goo.gl/Fog59qRdXL1VwbPKA?g_st=ipc",
    "name": "Anax - Brunch & All day bar",
    "address": "Island, Astipalea 859 00",
    "lat": "36.54881053562097",
    "lng": "26.352767048461835"
  },
  {
    "url": "https://maps.app.goo.gl/6FaxgMCjdWj9EPA48?g_st=ipc",
    "name": "Kolokytha",
    "address": "Unnamed Rd, Astipalea 859 00",
    "lat": "36.54726990012019",
    "lng": "26.353646413648903"
  },
  {
    "url": "https://maps.app.goo.gl/nFrvN47758pZXWzT8?g_st=ipc",
    "name": "Meltemi",
    "address": "Astypalaia 859 00",
    "lat": "36.545359250189506",
    "lng": "26.352356416685993"
  },
  {
    "url": "https://maps.app.goo.gl/qBPXWtniji8hcKB88?g_st=ipc",
    "name": "Red Jαne Bakery",
    "address": "Kidonias 101, Chania 731 36",
    "lat": "35.51226915120583",
    "lng": "24.01521028800191"
  },
  {
    "url": "https://maps.app.goo.gl/2aoNej1nWQNAJniB7?g_st=ipc",
    "name": "bonobo",
    "address": "Miaouli 78, Plagiari 575 00",
    "lat": "40.469049217975595",
    "lng": "22.95592261642206"
  },
  {
    "url": "https://maps.app.goo.gl/qftMEppMQDEhweUP7?g_st=ipc",
    "name": "Zimis",
    "address": "Efstathiou Zakka 12, Lefkada 311 00",
    "lat": "38.83034594976957",
    "lng": "20.704090375704506"
  },
  {
    "url": "https://maps.app.goo.gl/YKFX8hPovFNGt9pDA?g_st=ipc",
    "name": "Kafepoleion",
    "address": "Κοκύλια, Kefalonia 281 00",
    "lat": "38.14255916452544",
    "lng": "20.54310186456745"
  },
  {
    "url": "https://maps.app.goo.gl/jceQN1dFVGYrVSaFA?g_st=ipc",
    "name": "myrtillo",
    "address": "Divarata 280 81",
    "lat": "38.33016504186232",
    "lng": "20.54543331787743"
  },
  {
    "url": "https://maps.app.goo.gl/yzerSoB1WzcjYnKq5?g_st=ipc",
    "name": "Espresso house",
    "address": "Devosetou 15, Argostoli 281 00",
    "lat": "38.17163745193254",
    "lng": "20.492476064422643"
  },
  {
    "url": "https://maps.app.goo.gl/CG2fgJcxKmWaKuAV6?g_st=ipc",
    "name": "Pink Dot Cafe",
    "address": "Leof. Georgikis Scholis 84, Pilea 570 01",
    "lat": "40.548406580479465",
    "lng": "22.98186227348721"
  },
  {
    "url": "https://maps.app.goo.gl/TgFrHfc8nxYVBh9z7?g_st=ipc",
    "name": "Costa Costa Beach Bar",
    "address": "Lassi, Argostoli 281 00",
    "lat": "38.15380761963389",
    "lng": "20.4824739703724"
  },
  {
    "url": "https://maps.app.goo.gl/VvKcZzDAukezDVie8?g_st=ipc",
    "name": "JOIN juice bars",
    "address": "11ο χλμ εθνικής οδού, A/D Thessalonikis Neon Moudanion, Thessaloniki 570 01",
    "lat": "40.555069982077164",
    "lng": "22.99254169325442"
  },
  {
    "url": "https://maps.app.goo.gl/um7bZpan68i3iqsx7?g_st=ipc",
    "name": "ERGON Agora (East)",
    "address": "Leof. Georgikis Scholis 50, Pilea Chortiatis 555 35",
    "lat": "40.55876847950934",
    "lng": "22.976949760424034"
  },
  {
    "url": "https://maps.app.goo.gl/9R5MQ6z3jfLnmMwu7?g_st=ipc",
    "name": "Café Plateia",
    "address": "Mitropolitou Chrisanthou 0, Kalamaria 551 32",
    "lat": "40.58219813646138",
    "lng": "22.94932374129252"
  },
  {
    "url": "https://maps.app.goo.gl/timwhn386UbaBApm7?g_st=ipc",
    "name": "Les Zazous",
    "address": "Themistokli Sofouli 108, Kalamaria 551 31",
    "lat": "40.58600004577793",
    "lng": "22.93944264109209"
  },
  {
    "url": "https://maps.app.goo.gl/Rk9qKb5jkoYV7x6HA?g_st=ipc",
    "name": "ΘΕΓΙΑ more than a bakery",
    "address": "Themistokli Sofouli 65, Kalamaria 551 31",
    "lat": "40.59152214019956",
    "lng": "22.948474846251315"
  },
  {
    "url": "https://maps.app.goo.gl/UuEUGrB58srruWFPA?g_st=ipc",
    "name": "Laterna",
    "address": "Voulgari 64, Thessaloniki 542 49",
    "lat": "40.597256928464596",
    "lng": "22.96766795433404"
  },
  {
    "url": "https://maps.app.goo.gl/WNgG79yhRyL6k5GA9?g_st=ipc",
    "name": "Morrison • The Premium Rooftop",
    "address": "17is Noemvriou 87, Pilea 555 35",
    "lat": "40.60821540217915",
    "lng": "22.998740403846558"
  },
  {
    "url": "https://maps.app.goo.gl/LQXcNjB3LwE4q56r7?g_st=ipc",
    "name": "JOIN juice bars",
    "address": "Marias Kallas 1, Thessaloniki 546 45",
    "lat": "40.60107511267006",
    "lng": "22.949804539088774"
  },
  {
    "url": "https://maps.app.goo.gl/6bHEuH2VrUaoPjxN6?g_st=ipc",
    "name": "The Coffee Rawsters",
    "address": "Delfon 117, Thessaloniki 546 44",
    "lat": "40.605074813300206",
    "lng": "22.958339804305506"
  },
  {
    "url": "https://maps.app.goo.gl/GxRckrquv1sShJp28?g_st=ipc",
    "name": "Rou Leisure Gatherings",
    "address": "Praxagora 22, Thessaloniki 543 51",
    "lat": "40.612773277438485",
    "lng": "22.97595730543709"
  },
  {
    "url": "https://maps.app.goo.gl/Gesp19RwCPBWQ9s58?g_st=ipc",
    "name": "Butterflies And Hurricanes",
    "address": "Pindarou 1, Thessaloniki 546 39",
    "lat": "40.61464844201882",
    "lng": "22.960841697890658"
  },
  {
    "url": "https://maps.app.goo.gl/GeBX3Ci17XiZV9go6?g_st=ipc",
    "name": "Orange",
    "address": "Konstantinoupoleos 21, Thessaloniki 546 40",
    "lat": "40.61657039911688",
    "lng": "22.959405836121938"
  },
  {
    "url": "https://maps.app.goo.gl/sbWsHkcndnd2Zv547?g_st=ipc",
    "name": "AVENUE - Modern Cuisine",
    "address": "Leof. Meg. Alexandrou 6, Thessaloniki 546 41",
    "lat": "40.6155426258885",
    "lng": "22.952060123633387"
  },
  {
    "url": "https://maps.app.goo.gl/JMMKwevbapcLZ5jw5?g_st=ipc",
    "name": "Σαβοϊδάκης Bakery & Patisserie, Ρέθυμνο",
    "address": "Mark. Portaliou 57, Rethymno 741 50",
    "lat": "35.364498475258735",
    "lng": "24.48871039963828"
  },
  {
    "url": "https://maps.app.goo.gl/bFpP1KB6naw1VbYr7?g_st=ipc",
    "name": "Πλατεία Θεάτρου, Καφέ / Μπαρ/Εστιατόριο",
    "address": "Eth. Aminis 4, Thessaloniki 546 21",
    "lat": "40.62692292313497",
    "lng": "22.94981349501023"
  },
  {
    "url": "https://maps.app.goo.gl/imD2Az1gRrNyzqz79?g_st=ipc",
    "name": "Parco",
    "address": "D' Esperey 1, Thessaloniki 546 21",
    "lat": "40.62747189738441",
    "lng": "22.952606136312443"
  },
  {
    "url": "https://maps.app.goo.gl/6d8e2D2YLjsqGz9H8?g_st=ipc",
    "name": "ΤΙΤΑΝΙΑ",
    "address": "Tsimiski 139, Thessaloniki 546 21",
    "lat": "40.62745635041655",
    "lng": "22.95172436992036"
  },
  {
    "url": "https://maps.app.goo.gl/7fKny43wd3q96T1s5?g_st=ipc",
    "name": "JOIN juice bars",
    "address": "Leof. Nikis 73, Thessaloniki 546 22",
    "lat": "40.62769069211422",
    "lng": "22.947117280367095"
  },
  {
    "url": "https://maps.app.goo.gl/M7potW66EBLTEfRx7?g_st=ipc",
    "name": "Canteen All day Bar Restaurant",
    "address": "Dim. Gounari 7, Thessaloniki 546 22",
    "lat": "40.62803673619556",
    "lng": "22.94769963358214"
  },
  {
    "url": "https://maps.app.goo.gl/9KxXxviA2D5JhcSW7?g_st=ipc",
    "name": "In House Project",
    "address": "Mitropoleos 96, Thessaloniki 546 22",
    "lat": "40.62870471135404",
    "lng": "22.947776924849798"
  },
  {
    "url": "https://maps.app.goo.gl/sYa6XLi3t6oC2LCj7?g_st=ipc",
    "name": "Because Bagel",
    "address": "Al. Svolou 41, Thessaloniki 546 21",
    "lat": "40.63057390062951",
    "lng": "22.95125439347093"
  },
  {
    "url": "https://maps.app.goo.gl/Q2XyfbaALKZttmXn7?g_st=ipc",
    "name": "MLRT Sourdough microbakery",
    "address": "Mitropolitou Iosif 15, Thessaloniki 546 22",
    "lat": "40.630290634546846",
    "lng": "22.946095540648265"
  },
  {
    "url": "https://maps.app.goo.gl/kPU1qrdrjXANCqMt7?g_st=ipc",
    "name": "Fluffy Brunch",
    "address": "Pl. Navarinou 10, Thessaloniki 546 22",
    "lat": "40.630856001242115",
    "lng": "22.948097521947723"
  },
  {
    "url": "https://maps.app.goo.gl/xY83zLTaRAhzVGBo8?g_st=ipc",
    "name": "72H Artisanal Bakery",
    "address": "Paleon Patron Germanou 2, Thessaloniki 546 22",
    "lat": "40.630980814351275",
    "lng": "22.946106919469365"
  },
  {
    "url": "https://maps.app.goo.gl/oQiMBEdPePBk3uAQ9?g_st=ipc",
    "name": "Brunchsin",
    "address": "Paleon Patron Germanou 26, Thessaloniki 546 22",
    "lat": "40.63142362221095",
    "lng": "22.94824040063862"
  },
  {
    "url": "https://maps.app.goo.gl/N6nKzENHvyunx5Mi6?g_st=ipc",
    "name": "JOIN Juice bars",
    "address": "Paleon Patron Germanou 10, Thessaloniki 546 22",
    "lat": "40.63111893989398",
    "lng": "22.94663938125253"
  },
  {
    "url": "https://maps.app.goo.gl/GrJYGuBQazoFTfHm9?g_st=ipc",
    "name": "Garçon Brasserie",
    "address": "Agias Sofias 2, Thessaloniki 546 22",
    "lat": "40.630505389559524",
    "lng": "22.943205623552505"
  },
  {
    "url": "https://maps.app.goo.gl/RCLyEycZ8dqaLJjT6?g_st=ipc",
    "name": "LOCAL Thessaloniki",
    "address": "Paleon Patron Germanou 17, Thessaloniki 546 22",
    "lat": "40.63143794324686",
    "lng": "22.94699527001704"
  },
  {
    "url": "https://maps.app.goo.gl/22Pm73g59e2LeoJQ7?g_st=ipc",
    "name": "Spoon",
    "address": "P. Mela 38, Thessaloniki 546 22",
    "lat": "40.631612141451626",
    "lng": "22.94743751548318"
  },
  {
    "url": "https://maps.app.goo.gl/FxsAHzVitWKgJyqY8?g_st=ipc",
    "name": "Tabya",
    "address": "Kon/nou Melenikou 14, Thessaloniki 546 35",
    "lat": "40.6330498721733",
    "lng": "22.954427623261545"
  },
  {
    "url": "https://maps.app.goo.gl/Haiqh54dCVYmVume9?g_st=ipc",
    "name": "Valenio",
    "address": "Iktinou 6, Thessaloniki 546 22",
    "lat": "40.63145586275098",
    "lng": "22.945904864010572"
  },
  {
    "url": "https://maps.app.goo.gl/ozYptsUfXEMA3PdNA?g_st=ipc",
    "name": "ERGON Agora",
    "address": "P. Mela 42, Thessaloniki 546 22",
    "lat": "40.63187081672803",
    "lng": "22.94735121723834"
  },
  {
    "url": "https://maps.app.goo.gl/CEdKb7KcdrPJwXZdA?g_st=ipc",
    "name": "Mandarini_skg",
    "address": "Zefxidos 6, Thessaloniki 546 22",
    "lat": "40.63174083169372",
    "lng": "22.946676387172698"
  },
  {
    "url": "https://maps.app.goo.gl/uer9gPdcnKtNqaiA8?g_st=ipc",
    "name": "CANELA KAMARA",
    "address": "Vasou 2, Thessaloniki 546 35",
    "lat": "40.63288705394979",
    "lng": "22.951924664943846"
  },
  {
    "url": "https://maps.app.goo.gl/mW7fQGRSkeQqkwf8A?g_st=ipc",
    "name": "Tribeca",
    "address": "Leof. Nikis 21, Thessaloniki 546 23",
    "lat": "40.631124138525365",
    "lng": "22.9420760162127"
  },
  {
    "url": "https://maps.app.goo.gl/Kev7Tos1LbMdirKcA?g_st=ipc",
    "name": "Donkey Garden",
    "address": "Skra 3, Thessaloniki 546 22",
    "lat": "40.63233978923016",
    "lng": "22.94821185116991"
  },
  {
    "url": "https://maps.app.goo.gl/xymcn1s9hE8P57deA?g_st=ipc",
    "name": "COUNTRY BREADERY",
    "address": "Proxenou Koromila 13, Thessaloniki 546 23",
    "lat": "40.63135416254277",
    "lng": "22.942765966640508"
  },
  {
    "url": "https://maps.app.goo.gl/wcnUMwvELMBCafND6?g_st=ipc",
    "name": "Gellissimo Biscoto | Brunch • Coffee | Thessaloniki",
    "address": "Proxenou Koromila 8, Thessaloniki 546 23",
    "lat": "40.63140115464137",
    "lng": "22.942410197737622"
  },
  {
    "url": "https://maps.app.goo.gl/n6rxkXLoJv7xWQhy9?g_st=ipc",
    "name": "Cin Cin",
    "address": "Iktinou 22, Thessaloniki 546 22",
    "lat": "40.632298193619214",
    "lng": "22.946596687138204"
  },
  {
    "url": "https://maps.app.goo.gl/9EzJNfobuDEBDMXt9?g_st=ipc",
    "name": "Pantheon Bar",
    "address": "Proxenou Koromila 8, Thessaloniki 546 23",
    "lat": "40.631470349652666",
    "lng": "22.942304739075517"
  },
  {
    "url": "https://maps.app.goo.gl/5s2tkstCJrJZyR4TA?g_st=ipc",
    "name": "Bunny Tail",
    "address": "Αλεξάνδρου Σβώλου 1, Patriarchou Ioakim 2, Thessaloniki 546 22",
    "lat": "40.63263326905148",
    "lng": "22.947686149858708"
  },
  {
    "url": "https://maps.app.goo.gl/34HUt3Zqr1wPaAQUA?g_st=ipc",
    "name": "Moonkiz Café",
    "address": "Geor. Stavrou 8, Thessaloniki 546 23",
    "lat": "40.63268245780202",
    "lng": "22.944199601012993"
  },
  {
    "url": "https://maps.app.goo.gl/Qxj6VN1pGyEntd7A9?g_st=ipc",
    "name": "Candybar",
    "address": "Ag. Theodoras 4, Thessaloniki 546 23",
    "lat": "40.63307970052453",
    "lng": "22.944591933924332"
  },
  {
    "url": "https://maps.app.goo.gl/jjCCeEkXCKm7ow7v6?g_st=ipc",
    "name": "Olympion Cafe Bar 1951",
    "address": "Aristotelous Sq 10, Thessaloniki 546 23",
    "lat": "40.632694674088896",
    "lng": "22.941732044946015"
  },
  {
    "url": "https://maps.app.goo.gl/yNB87tJxbm51sRh69?g_st=ipc",
    "name": "Cedar",
    "address": "Leof. Ochi 25, Ag. Pavlos 554 38",
    "lat": "40.637496852872374",
    "lng": "22.964756224661162"
  },
  {
    "url": "https://maps.app.goo.gl/7wXxWHC7mrvUfoqf8?g_st=ipc",
    "name": "Peach Boy",
    "address": "Ermou 44, Thessaloniki 546 23",
    "lat": "40.633714458831285",
    "lng": "22.944751777282193"
  },
  {
    "url": "https://maps.app.goo.gl/knBD4VWoUZYBGGow7?g_st=ipc",
    "name": "Kitchen Bar",
    "address": "Αποθήκη Β2 Α' Προβλήτα Λιμένα, Thessaloniki 541 10",
    "lat": "40.632030588138356",
    "lng": "22.935513540083463"
  },
  {
    "url": "https://maps.app.goo.gl/hhweii9Uj8Q5zzg69?g_st=ipc",
    "name": "Το Μαντάνι Ανθοχώρι",
    "address": "Ανθοχώρι 442 00",
    "lat": "39.736473800129",
    "lng": "21.128099892927416"
  },
  {
    "url": "https://maps.app.goo.gl/tVt4qfxaTjfyP7oG8?g_st=ipc",
    "name": "NAKED",
    "address": "Filippou 62, Thessaloniki 546 35",
    "lat": "40.6351156138034",
    "lng": "22.949358819047884"
  },
  {
    "url": "https://maps.app.goo.gl/bczd7kAPu1ihwt9fA?g_st=ipc",
    "name": "shed",
    "address": "Patriarchoi Dionisii E 11, Thessaloniki 546 35",
    "lat": "40.63516182787635",
    "lng": "22.9483681936243"
  },
  {
    "url": "https://maps.app.goo.gl/EDFEAtyxnASt6ymy5?g_st=ipc",
    "name": "Rafiki Outdoors",
    "address": "Tsimiski 33, Thessaloniki 546 34",
    "lat": "40.63384593288072",
    "lng": "22.94144670060357"
  },
  {
    "url": "https://maps.app.goo.gl/aWDb6qE5HF6MmFreA?g_st=ipc",
    "name": "Mangiare Gastro Pizza Pasta Bar",
    "address": "Mitropoleos 20, Thessaloniki 546 24",
    "lat": "40.63353783457787",
    "lng": "22.939678053388604"
  },
  {
    "url": "https://maps.app.goo.gl/BHbV75bnMGdxWnv68?g_st=ipc",
    "name": "Hush - Coffee & Brunch",
    "address": "First pier, Thessaloniki 546 25",
    "lat": "40.63288453550874",
    "lng": "22.935483076967117"
  },
  {
    "url": "https://maps.app.goo.gl/GT8Fja523tketn1A7?g_st=ipc",
    "name": "Limani Maritime Museum and Restaurant",
    "address": "Leof. Nikis, Thessaloniki 546 25",
    "lat": "40.63343048206997",
    "lng": "22.936992932592755"
  },
  {
    "url": "https://maps.app.goo.gl/PGp8KLsttADm6bE79?g_st=ipc",
    "name": "Hue Roastery",
    "address": "Filippou 38, Thessaloniki 546 31",
    "lat": "40.63626725764962",
    "lng": "22.94719442659408"
  },
  {
    "url": "https://maps.app.goo.gl/KEZ45GJ89m9DDXvb6?g_st=ipc",
    "name": "The Garden Bar",
    "address": "Ag. Mina 16, Thessaloniki 546 24",
    "lat": "40.63514609058183",
    "lng": "22.939331222845976"
  },
  {
    "url": "https://maps.app.goo.gl/Wi79HnpxEWDrQr5A8?g_st=ipc",
    "name": "Mi Me Lismonei Art Café",
    "address": "El. Venizelou 23, Thessaloniki 546 24",
    "lat": "40.63629409662354",
    "lng": "22.940981395583297"
  },
  {
    "url": "https://maps.app.goo.gl/7LvTZEdhDkTAMmp78?g_st=ipc",
    "name": "Υpsilon",
    "address": "Edessis 5, Thessaloniki 546 25",
    "lat": "40.636365825174295",
    "lng": "22.93811663555069"
  },
  {
    "url": "https://maps.app.goo.gl/Gn3B2PxeEE5tHcph8?g_st=ipc",
    "name": "Bannie",
    "address": "Ionos Dragoumi 35, Thessaloniki 546 25",
    "lat": "40.63708508226566",
    "lng": "22.94022952790158"
  },
  {
    "url": "https://maps.app.goo.gl/zZG88R3tqQ4iE2m6A?g_st=ipc",
    "name": "The Caravan Cafe | Brunch",
    "address": "Βαμβακά 3, Thessaloniki 546 31",
    "lat": "40.637809490842486",
    "lng": "22.9414945910073"
  },
  {
    "url": "https://maps.app.goo.gl/v2Xnqi1U2R9tS4bz7?g_st=ipc",
    "name": "Beetroot",
    "address": "Siggrou 8, Thessaloniki 546 25",
    "lat": "40.637551412889685",
    "lng": "22.939748987657307"
  },
  {
    "url": "https://maps.app.goo.gl/bvxf6vbBiEtuPwrh9?g_st=ipc",
    "name": "Castra- All Day Terrace Bar",
    "address": "Eptapirgiou 122, Thessaloniki 546 34",
    "lat": "40.641322666802424",
    "lng": "22.958308851938888"
  },
  {
    "url": "https://maps.app.goo.gl/xTf6UJFe7tcY4vHU7?g_st=ipc",
    "name": "Romantzo",
    "address": "Veroias 2, Thessaloniki 546 25",
    "lat": "40.637344096207045",
    "lng": "22.93721658740342"
  },
  {
    "url": "https://maps.app.goo.gl/p8QR7tTcw9DAMN2e9?g_st=ipc",
    "name": "BEYOND The Walls",
    "address": "Fragkon 2, Thessaloniki 546 26",
    "lat": "40.63839199621431",
    "lng": "22.934457510684794"
  },
  {
    "url": "https://maps.app.goo.gl/AiQwHhGbA2vVd8nH7?g_st=ipc",
    "name": "Merenda Coffee Wine & More",
    "address": "Flogiton 2, Neapoli 567 28",
    "lat": "40.651073348117436",
    "lng": "22.945590441346173"
  },
  {
    "url": "https://maps.app.goo.gl/pSgB53k7vyQwHX78A?g_st=ipc",
    "name": "JOIN juice bars",
    "address": "Giannitson 61, Thessaloniki 546 27",
    "lat": "40.646571727400875",
    "lng": "22.92141339579847"
  },
  {
    "url": "https://maps.app.goo.gl/fcosc9VFnpPap1qs5?g_st=ipc",
    "name": "Tsitsanki",
    "address": "Λαγκαδά 116, Neapoli 567 27",
    "lat": "40.65105910915655",
    "lng": "22.93545214874879"
  },
  {
    "url": "https://maps.app.goo.gl/awEDoCCaNWaCXmC17?g_st=ipc",
    "name": "Αυλή Open Air Coffee Bar",
    "address": "Πάρκο, Davaki, Neapoli 567 27",
    "lat": "40.65671676420057",
    "lng": "22.939866059031072"
  },
  {
    "url": "https://maps.app.goo.gl/Ct3Z2v1aCBYrtE5k9?g_st=ipc",
    "name": "MAHARAJA SKG - Heaven of Shisha",
    "address": "Agnostou Stratiotou 36, Polichni 565 33",
    "lat": "40.658033849704225",
    "lng": "22.941967646222036"
  },
  {
    "url": "https://maps.app.goo.gl/tFoh177Q4oimL9Ny7?g_st=ipc",
    "name": "Πεϊνιρλί Καστανιάς",
    "address": "Kastania 591 32",
    "lat": "40.40779656305863",
    "lng": "22.118956878515576"
  },
  {
    "url": "https://maps.app.goo.gl/kRz7a3AxwDHMinRU6?g_st=ipc",
    "name": "Model Urban Style Bar",
    "address": "P. Mela 26, Evosmos 562 24",
    "lat": "40.66742278574293",
    "lng": "22.91124275092617"
  },
  {
    "url": "https://maps.app.goo.gl/8h5SFGtMUr8hFemr9?g_st=ipc",
    "name": "ΖΕΩ ΑΡΤΟΠΟΙΙΑ-ZEO BAKERS",
    "address": "Ilioupoleos 2, Oreokastro 570 13",
    "lat": "40.69174182669169",
    "lng": "22.913440204115485"
  },
  {
    "url": "https://maps.app.goo.gl/tqo3zEFB2jssR8Md9?g_st=ipc",
    "name": "Lovly Bar",
    "address": "Mastihari",
    "lat": "36.8298552621884",
    "lng": "27.052523615328724"
  },
  {
    "url": "https://maps.app.goo.gl/xLPQPWyVrDszRuA8A?g_st=ipc",
    "name": "Metoxi Cafe",
    "address": "Κως ζια, Lagoudi Zia 853 00",
    "lat": "36.84261561910303",
    "lng": "27.207757730254055"
  },
  {
    "url": "https://maps.app.goo.gl/6uVUCsAW9roKZ7jd6?g_st=ipc",
    "name": "Mylos Beach Bar Kos",
    "address": "Akti Zouroudi, Kos 853 00",
    "lat": "36.910338645379476",
    "lng": "27.282292405147036"
  },
  {
    "url": "https://maps.app.goo.gl/1UACMfNmgegpjXm16?g_st=ipc",
    "name": "Sklaris",
    "address": "Serron 17, Ag. Christoforos 640 01",
    "lat": "40.972805070668926",
    "lng": "24.140591861373508"
  },
  {
    "url": "https://maps.app.goo.gl/AMMGdvJMkRwqCrFP6?g_st=ipc",
    "name": "Ammos Beach Cocktail Bar Kos",
    "address": "Psalidi, Kos 853 00",
    "lat": "36.87331617313251",
    "lng": "27.35149999959042"
  },
  {
    "url": "https://maps.app.goo.gl/MD2gmED1xtQRvMJS6?g_st=ipc",
    "name": "River Cafe",
    "address": "Άνω Κεφαλάρι 660 32",
    "lat": "41.06113826137017",
    "lng": "24.26515962969056"
  },
  {
    "url": "https://maps.app.goo.gl/xoXNN9GSVDDfAxxk9?g_st=ipc",
    "name": "Café Kafé (Konstantinos Mich. Katsamboxakis)",
    "address": "Kon/nou Karamanli 6, Sitia 723 00",
    "lat": "35.20722771587482",
    "lng": "26.10675728610521"
  },
  {
    "url": "https://maps.app.goo.gl/RBi9fUSj1gvzz2E86?g_st=ipc",
    "name": "Cafe Kanoni",
    "address": "κανόνι, Kerkira 491 00",
    "lat": "39.59150641307164",
    "lng": "19.917314978086413"
  },
  {
    "url": "https://maps.app.goo.gl/gJZYAD9gs6uvp4U49?g_st=ipc",
    "name": "Surf Beach - Snack Bar Kouremenos",
    "address": "Ιτανίων, Kouremenos 723 00",
    "lat": "35.20624912822425",
    "lng": "26.26983256244183"
  },
  {
    "url": "https://maps.app.goo.gl/3cEBJnGDVun8x3Pu5?g_st=ipc",
    "name": "Kumquat / speciality coffee / brunch / cocktails",
    "address": "Σπύρου Σαμαρά 3 και, Kerkira 491 00",
    "lat": "39.62122356019077",
    "lng": "19.919537643557778"
  },
  {
    "url": "https://maps.app.goo.gl/ybTzaZNb6KvEBPUb8?g_st=ipc",
    "name": "Cavo Bianco",
    "address": "Dragon's Way, Ierapetra 720 59",
    "lat": "35.02143360163328",
    "lng": "26.015024448599853"
  },
  {
    "url": "https://maps.app.goo.gl/PKB7mWwJ4UmNHnbT8?g_st=ipc",
    "name": "Lyra and friends",
    "address": "Beach, Lefkos 857 00",
    "lat": "35.58763583749891",
    "lng": "27.06911664685815"
  },
  {
    "url": "https://maps.app.goo.gl/HyZmnveaEpuiN62j8?g_st=ipc",
    "name": "La Grotta Bar",
    "address": "La Grotta Bay, Paleokastritsa 490 83",
    "lat": "39.67381089427264",
    "lng": "19.718606911052376"
  },
  {
    "url": "https://maps.app.goo.gl/YrUQcKuXeVaBkqFR7?g_st=ipc",
    "name": "Bakalokafenio - Michalas Kostas",
    "address": "Lakones 490 83",
    "lat": "39.681013717064104",
    "lng": "19.71063796584377"
  },
  {
    "url": "https://maps.app.goo.gl/uW2pukpfg5XpBrAM9?g_st=ipc",
    "name": "Dolce Café",
    "address": "Lakones 490 83",
    "lat": "39.68046834433433",
    "lng": "19.703113468558957"
  },
  {
    "url": "https://maps.app.goo.gl/VM4D4LHe7KtZRNhD7?g_st=ipc",
    "name": "Hermanos",
    "address": "Karlathos, Karpathos 857 00",
    "lat": "35.50685735423936",
    "lng": "27.21125864185446"
  },
  {
    "url": "https://maps.app.goo.gl/dt7qJTSnp7FR8RJV9?g_st=ipc",
    "name": "Lambrinos",
    "address": "Unnamed Road, Karpathos 857 00",
    "lat": "35.50838000876403",
    "lng": "27.215982914873237"
  },
  {
    "url": "https://maps.app.goo.gl/LEtJZTyLhqkrZEGE7?g_st=ipc",
    "name": "NAVAL Cafe Bar Restaurant",
    "address": "Rhodes",
    "lat": "36.43323816273261",
    "lng": "28.237832164715215"
  }
]
