[
  {
    "name": "Τα Πλατάνια",
    "url": "https://maps.app.goo.gl/7XNFATTa6teFNs8r9?g_st=ipc",
    "address": "Μπουμπουλίνας 31, Αγ. Παρασκευή 153 41",
    "lat": 38.00304382571398,
    "lng": 23.81401749329889,
    "id": "greekRestaurants_7b449c4e0fce",
    "slug": "ta-platania-7b44"
  },
  {
    "name": "Palia Istoria",
    "url": "https://maps.app.goo.gl/B17edct7kP9fC5KM6?g_st=ipc",
    "address": "Αμφίσσης 34, Χολαργός 155 62",
    "lat": 38.00382710735469,
    "lng": 23.80429280671415,
    "id": "greekRestaurants_444a91b0d47e",
    "slug": "palia-istoria-444a"
  },
  {
    "name": "Το στέκι της Τόμπρα",
    "url": "https://maps.app.goo.gl/nzMoaK1cxHPd4BAQA?g_st=ipc",
    "address": "Ηπείρου 5-7, Αγ. Παρασκευή 153 41",
    "lat": 38.01114194965107,
    "lng": 23.812150664429954,
    "id": "greekRestaurants_8e94a0e9697c",
    "slug": "to-steki-tis-tompra-8e94"
  },
  {
    "name": "Νήσων Γη",
    "url": "https://maps.app.goo.gl/wmEbsZ59WvGe41oB6?g_st=ipc",
    "address": "Λεωφ. Μεσογείων 356, Αγ. Παρασκευή 153 41",
    "lat": 38.011331255497275,
    "lng": 23.81122856443911,
    "id": "greekRestaurants_8c8e269305b0",
    "slug": "nison-gi-8c8e"
  },
  {
    "name": "Τα Ρωμανάκια",
    "url": "https://maps.app.goo.gl/huAdXz8UP2bA8sPj6?g_st=ipc",
    "address": "Λεωφ. Μεσογείων 366, Αγ. Παρασκευή 153 41",
    "lat": 38.01166841393731,
    "lng": 23.8131702489518,
    "id": "greekRestaurants_c4e480192004",
    "slug": "ta-romanakia-c4e4"
  },
  {
    "name": "Ταβέρνα Ο ΜΩΡΙΑΣ",
    "url": "https://maps.app.goo.gl/bRVKBMdQ27pSumbD9?g_st=ipc",
    "address": "Ειρήνης 56, Αγ. Παρασκευή 153 41",
    "lat": 38.00860400302697,
    "lng": 23.81934480669425,
    "id": "greekRestaurants_f89c37a413b6",
    "slug": "taverna-o-morias-f89c"
  },
  {
    "name": "ΜΕΛΥΔΡΟΝ",
    "url": "https://maps.app.goo.gl/5M5MsFCweGzbhN1y7?g_st=ipc",
    "address": "Πατριάρχου Γρηγορίου Ε 32, Αγ. Παρασκευή 153 41",
    "lat": 37.99974475346684,
    "lng": 23.816882406708455,
    "id": "greekRestaurants_d99e659b75b8",
    "slug": "melydron-d99e"
  },
  {
    "name": "Κουκουνάρι",
    "url": "https://maps.app.goo.gl/BiMbFyaSNWwLRETTA?g_st=ipc",
    "address": "Λεωφ. Μεσογείων 262, Χολαργός 155 62",
    "lat": 38.00642992366494,
    "lng": 23.79814620669878,
    "id": "greekRestaurants_8119dfa50c2c",
    "slug": "koykoynari-8119"
  },
  {
    "name": "Δούκισσα Μεζεδοπωλείο",
    "url": "https://maps.app.goo.gl/xuDMuCBBZTFu1suy8?g_st=ipc",
    "address": "Δουκίσσης Πλακεντίας 14, Χαλάνδρι 152 34",
    "lat": 38.0195289224619,
    "lng": 23.810346764437185,
    "id": "greekRestaurants_d2dfa77acfa8",
    "slug": "doykissa-mezedopoleio-d2df"
  },
  {
    "name": "Το Κουτούκι",
    "url": "https://maps.app.goo.gl/SuZCLAfs8GjCTcWG6?g_st=ipc",
    "address": "Υψηλάντου 5, Χαλάνδρι 152 32",
    "lat": 38.01916385299786,
    "lng": 23.80500366441751,
    "id": "greekRestaurants_332aa0a30f34",
    "slug": "to-koytoyki-332a"
  },
  {
    "name": "Περί Ουσίας",
    "url": "https://maps.app.goo.gl/gEFvWf42qxvaJBEX9?g_st=ipc",
    "address": "Θησέως 25, Χαλάνδρι 152 34",
    "lat": 38.0199005649911,
    "lng": 23.809145664428573,
    "id": "greekRestaurants_141b4df624df",
    "slug": "peri-oysias-141b"
  },
  {
    "name": "Τζίτζικας Και Μέρμηγκας",
    "url": "https://maps.app.goo.gl/8pYJH9GZBYeQD5mk6?g_st=ipc",
    "address": "Αισχύλου 26, Χαλάνδρι 152 34",
    "lat": 38.02047878345652,
    "lng": 23.804706604274816,
    "id": "greekRestaurants_166b7c278db9",
    "slug": "tzitzikas-kai-mermigkas-166b"
  },
  {
    "name": "Μεζεδοπωλείο Ιορδάνης",
    "url": "https://maps.app.goo.gl/FYyCghhM4WWKom5n9?g_st=ipc",
    "address": "Αριστοτέλους 42, Χαλάνδρι 152 32",
    "lat": 38.020133303757966,
    "lng": 23.80185334902281,
    "id": "greekRestaurants_a120da3cfe10",
    "slug": "mezedopoleio-iordanis-a120"
  },
  {
    "name": "Τρύπια Δεκάρα",
    "url": "https://maps.app.goo.gl/aTApNBNRqHkEo3CH8?g_st=ipc",
    "address": "Θεμιστοκλέους 6, Χαλάνδρι 152 32",
    "lat": 38.020535111511364,
    "lng": 23.799981150995844,
    "id": "greekRestaurants_6657f75f25c7",
    "slug": "trypia-dekara-6657"
  },
  {
    "name": "Μυστικός Κήπος",
    "url": "https://maps.app.goo.gl/RvfsJX8RaCUstXSa6?g_st=ipc",
    "address": "Καραολη Δημήτριου 21, Χαλάνδρι 152 32",
    "lat": 38.02018220795105,
    "lng": 23.798366893276665,
    "id": "greekRestaurants_f52198928cda",
    "slug": "mystikos-kipos-f521"
  },
  {
    "name": "Μπακαλοταβέρνα",
    "url": "https://maps.app.goo.gl/D6gW3fsdkz7sh9bg8?g_st=ipc",
    "address": "Θουκυδίδου 6, Χαλάνδρι 152 32",
    "lat": 38.02091962634735,
    "lng": 23.79935272546419,
    "id": "greekRestaurants_69231f24503b",
    "slug": "mpakalotaverna-6923"
  },
  {
    "name": "Φυσαρμόνικα Μεζεδοποτείον",
    "url": "https://maps.app.goo.gl/v3uZu1tCQdfHr7kAA?g_st=ipc",
    "address": "Λεωφ. Μεσογείων 180, Χολαργός 155 61",
    "lat": 38.00112458767409,
    "lng": 23.7879961644195,
    "id": "greekRestaurants_01e264743001",
    "slug": "fysarmonika-mezedopoteion-01e2"
  },
  {
    "name": "Κίτσουλας",
    "url": "https://maps.app.goo.gl/BU8FgqdqottuQizc9?g_st=ipc",
    "address": "Φιλικής Εταιρείας 25Γ, Χαλάνδρι 152 32",
    "lat": 38.016425119808176,
    "lng": 23.79174907985474,
    "id": "greekRestaurants_d69b3b0c43b8",
    "slug": "kitsoylas-d69b"
  },
  {
    "name": "ΨΩΜΙ & ΑΛΑΤΙ",
    "url": "https://maps.app.goo.gl/3yMZtJ6XHLXuktHM7?g_st=ipc",
    "address": "Πλ. Ελευθερωτών 8, Χαλάνδρι 152 32",
    "lat": 38.02138760980619,
    "lng": 23.797709722137604,
    "id": "greekRestaurants_42b778a801b1",
    "slug": "psomi-alati-42b7"
  },
  {
    "name": "Μπαρμπαλιάς",
    "url": "https://maps.app.goo.gl/G25mEs6QontzWR8o6?g_st=ipc",
    "address": "Λεωφ. Βασιλέως Γεωργίου B 6, Χαλάνδρι 152 33",
    "lat": 38.02244991899446,
    "lng": 23.7965243912459,
    "id": "greekRestaurants_c76d4019c4d8",
    "slug": "mparmpalias-c76d"
  },
  {
    "name": "Tala's local meze & aperitivo",
    "url": "https://maps.app.goo.gl/1ZTu39mrajPM1MYFA?g_st=ipc",
    "address": "Θρασύβουλου 3, Αγ. Παρασκευή 153 43",
    "lat": 38.01588032621049,
    "lng": 23.833680348991113,
    "id": "greekRestaurants_e6bbe405c9d9",
    "slug": "tala-s-local-meze-aperitivo-e6bb"
  },
  {
    "name": "Κληματαριά",
    "url": "https://maps.app.goo.gl/KjvZHvC6ghfyBWSu9?g_st=ipc",
    "address": "Κωστή Παλαμά 29, Νέο Ψυχικό 154 51",
    "lat": 38.00778653011235,
    "lng": 23.78331764900774,
    "id": "greekRestaurants_f0ef65b37af1",
    "slug": "klimataria-f0ef"
  },
  {
    "name": "Το Βραστό",
    "url": "https://maps.app.goo.gl/GRjH6qkfc2wa5Tcv9?g_st=ipc",
    "address": "Ρόδων 3, Χαλάνδρι 152 33",
    "lat": 38.02920880289756,
    "lng": 23.811047379895488,
    "id": "greekRestaurants_420dc8617ebb",
    "slug": "to-vrasto-420d"
  },
  {
    "name": "Ταβέρνα Μιχάλης",
    "url": "https://maps.app.goo.gl/o1rWWp4p742jj85G7?g_st=ipc",
    "address": "Βαλαωρίτου 20, Χαλάνδρι 152 33",
    "lat": 38.024972399350155,
    "lng": 23.792694033579224,
    "id": "greekRestaurants_f482326498f3",
    "slug": "taverna-michalis-f482"
  },
  {
    "name": "Το Στέκι του Ανδρέα στο Χαλάνδρι",
    "url": "https://maps.app.goo.gl/Wp9gL9KTg1iHqv8R6?g_st=ipc",
    "address": "Μεσσηνίας 46, Χαλάνδρι 152 34",
    "lat": 38.02735400038434,
    "lng": 23.82467794898433,
    "id": "greekRestaurants_3a95a72d63b7",
    "slug": "to-steki-toy-andrea-sto-chalandri-3a95"
  },
  {
    "name": "Η παρέα της Φανής",
    "url": "https://maps.app.goo.gl/BaPBtWqbaacn9oDc6?g_st=ipc",
    "address": "Καρέλλα 20, Χαλάνδρι 152 33",
    "lat": 38.02610478288273,
    "lng": 23.79313013557708,
    "id": "greekRestaurants_22195ee291a7",
    "slug": "i-parea-tis-fanis-2219"
  },
  {
    "name": "Εστιατόριο Ταβέρνα Ο Μανώλης",
    "url": "https://maps.app.goo.gl/E6ZfG324dBPeoKmz5?g_st=ipc",
    "address": "Σάμου 1, Χαλάνδρι 152 33",
    "lat": 38.030716089112936,
    "lng": 23.806470122135025,
    "id": "greekRestaurants_773d46c778fd",
    "slug": "estiatorio-taverna-o-manolis-773d"
  },
  {
    "name": "Στης Έλλης",
    "url": "https://maps.app.goo.gl/o1oe4gt1mipnzHE77?g_st=ipc",
    "address": "Ἁγ. Τριάδος 57, Αγ. Παρασκευή 153 43",
    "lat": 38.01628513050535,
    "lng": 23.840166535568635,
    "id": "greekRestaurants_077f474cb97d",
    "slug": "stis-ellis-077f"
  },
  {
    "name": "Ταβέρνα Κισσός",
    "url": "https://maps.app.goo.gl/DEUMA4eJH6RLG2DU8",
    "address": "Ρούμελης 28 &, Σπάρτης, Χαλάνδρι 152 33",
    "lat": 38.02828285759166,
    "lng": 23.793071906306483,
    "id": "greekRestaurants_ecd1114337bb",
    "slug": "taverna-kissos-ecd1"
  },
  {
    "name": "Spiti neat eat + drinks σπίτι Φιλοθέη Filothei",
    "url": "https://maps.app.goo.gl/aHoAWHKWgJf5N5Tm6",
    "address": "Λεωφ. Καποδιστρίου 42, Μαρούσι 151 23",
    "lat": 38.027348561849706,
    "lng": 23.784455346396886,
    "id": "greekRestaurants_cb270382bf75",
    "slug": "spiti-neat-eat-drinks-spiti-filothei-filothei-cb27"
  },
  {
    "name": "Spitjack Golden Hall",
    "url": "https://maps.app.goo.gl/MjaG7qgQXBbLTT8n7",
    "address": "Λεωφ. Κηφισίας 37A, Μαρούσι 151 23",
    "lat": 38.034373053538495,
    "lng": 23.793186418589283,
    "id": "greekRestaurants_96a815ab2fda",
    "slug": "spitjack-golden-hall-96a8"
  },
  {
    "name": "Ταβέρνα Τουρκαντώνη",
    "url": "https://maps.app.goo.gl/B6AxbVv7MU6bztsX6",
    "address": "Μιαούλη 59, Γέρακας 153 44",
    "lat": 38.01211262091287,
    "lng": 23.8515403603164,
    "id": "greekRestaurants_f61d819e1926",
    "slug": "taverna-toyrkantoni-f61d"
  },
  {
    "name": "Ταβέρνα Ο Νικηφόρος",
    "url": "https://maps.app.goo.gl/S5V49nXtP76Umgj59",
    "address": "Λασκαρίδου 7 &, Λουίζης Ριανκούρ, Αθήνα 151 24",
    "lat": 37.99407146777003,
    "lng": 23.765861778134067,
    "id": "greekRestaurants_ea6184198aae",
    "slug": "taverna-o-nikiforos-ea61"
  },
  {
    "name": "Μιχάλης - Στου Κουτρούλη",
    "url": "https://maps.app.goo.gl/7La7jhMdfnzvnDUN6",
    "address": "Βαρίκα 8, Αθήνα 115 24",
    "lat": 37.995178959519315,
    "lng": 23.761505445987336,
    "id": "greekRestaurants_62053e521d7b",
    "slug": "michalis-stoy-koytroyli-6205"
  },
  {
    "name": "Striggla",
    "url": "https://maps.app.goo.gl/zrq9BbB4MU8m8xEA7",
    "address": "Αγίου Κωνσταντίνου 56, Μαρούσι 151 24",
    "lat": 38.046725624480935,
    "lng": 23.806442690864635,
    "id": "greekRestaurants_b3a06913c0a6",
    "slug": "striggla-b3a0"
  },
  {
    "name": "Το Μπριζολάδικο του Γέρακα",
    "url": "https://maps.app.goo.gl/neQoZEu5PGEjM9DP9",
    "address": "Λεωφ. Γέρακας 84, Γέρακας 153 44",
    "lat": 38.02301749370778,
    "lng": 23.859957200296044,
    "id": "greekRestaurants_2ee34caffafc",
    "slug": "to-mprizoladiko-toy-geraka-2ee3"
  },
  {
    "name": "Ψησταριά Το Αγρίνιο",
    "url": "https://maps.app.goo.gl/C245RwiHHTqtJUfs8",
    "address": "Σινώπης 18, Αθήνα 115 27",
    "lat": 37.98365341957495,
    "lng": 23.761708124944604,
    "id": "greekRestaurants_f3fc125c2d89",
    "slug": "psistaria-to-agrinio-f3fc"
  },
  {
    "name": "Αξώτης",
    "url": "https://maps.app.goo.gl/ins2h5odAAUqFqf2A",
    "address": "Παπαρσένη 15, Αθήνα 114 76",
    "lat": 37.995836587823845,
    "lng": 23.754896105548557,
    "id": "greekRestaurants_442477ae20ac",
    "slug": "axotis-4424"
  },
  {
    "name": "AGORA",
    "url": "https://maps.app.goo.gl/UKN5PTfDAJ43RhcT7",
    "address": "31, Χρήστου Βουρνάζου str, Αθήνα 115 21",
    "lat": 37.98712790409338,
    "lng": 23.757368207050618,
    "id": "greekRestaurants_b1c00c9474af",
    "slug": "agora-b1c0"
  },
  {
    "name": "Στέκι Πατακιά",
    "url": "https://maps.app.goo.gl/cYha3bisyCdwkZ4aA",
    "address": "Δεμιρδεσίου 93, Νέα Ιωνία 142 33",
    "lat": 38.03119466857524,
    "lng": 23.76015883612339,
    "id": "greekRestaurants_5791bc32c9f3",
    "slug": "steki-patakia-5791"
  },
  {
    "name": "Το Πευκο | Ταβέρνα - Φαγητό στο χώρο - Take Away - Delivery",
    "url": "https://maps.app.goo.gl/2DPr3yhvS2JApV5x5",
    "address": "Τήνου 12, Μελίσσια 151 27",
    "lat": 38.048953774865154,
    "lng": 23.835609448784652,
    "id": "greekRestaurants_217beb188c9d",
    "slug": "to-peyko-taverna-fagito-sto-choro-take-away-delivery-217b"
  },
  {
    "name": "Κεμπαπτζιδικον Μπαρμπαλιάς Μαρούσι",
    "url": "https://maps.app.goo.gl/NL3SuAhkVPXxocnF9",
    "address": "Βύρωνος 19, Μαρούσι 151 22",
    "lat": 38.05149931311812,
    "lng": 23.790028540438847,
    "id": "greekRestaurants_1ff9a64c2696",
    "slug": "kempaptzidikon-mparmpalias-maroysi-1ff9"
  },
  {
    "name": "Λεύκες",
    "url": "https://maps.app.goo.gl/f11Mf8a6b4eezgj29",
    "address": "Λεωφ. Γαλατσίου 100, Γαλάτσι 111 46",
    "lat": 38.01369593012145,
    "lng": 23.750720348183243,
    "id": "greekRestaurants_24b930305a8e",
    "slug": "leykes-24b9"
  },
  {
    "name": "Το Αμπάρι του Πεντάρα",
    "url": "https://maps.app.goo.gl/ocPNHJergJqkbxW6A",
    "address": "Καυκάσου 157, Αθήνα 113 64",
    "lat": 38.007341170588916,
    "lng": 23.749681397448036,
    "id": "greekRestaurants_f3b2aad713df",
    "slug": "to-ampari-toy-pentara-f3b2"
  },
  {
    "name": "Lefkes on the Side",
    "url": "https://maps.app.goo.gl/bBjijsL8Z595BXhZ7",
    "address": "Λεωφ. Γαλατσίου 98, Γαλάτσι 111 46",
    "lat": 38.013850196604025,
    "lng": 23.75041166079297,
    "id": "greekRestaurants_fa7cc6bab7be",
    "slug": "lefkes-on-the-side-fa7c"
  },
  {
    "name": "Υπουργειο Γευσεων-Σουβλάκι,Ψητά",
    "url": "https://maps.app.goo.gl/gabhXTSdqFXWdAw17",
    "address": "Φιλοθέης 67, Ηράκλειο 141 21",
    "lat": 38.04316278537493,
    "lng": 23.771802491018153,
    "id": "greekRestaurants_50237de1ecfb",
    "slug": "ypoyrgeio-geyseon-soyvlaki-psita-5023"
  },
  {
    "name": "Οινομαγειρείο «Το Τριφύλλι»",
    "url": "https://maps.app.goo.gl/ZaG4vxaqPUZoyUEH7",
    "address": "Παναθηναϊκού 7, Αθήνα 115 21",
    "lat": 37.98741582684548,
    "lng": 23.752997875166535,
    "id": "greekRestaurants_b44e1eb1d480",
    "slug": "oinomageireio-to-trifylli-b44e"
  },
  {
    "name": "Ο Καλοφαγάς Steakhouse",
    "url": "https://maps.app.goo.gl/K5myWMM5kegmZRGj7",
    "address": "Παλαιών Πατρών Γερμανού 1, Βριλήσσια 152 38",
    "lat": 38.046607872986925,
    "lng": 23.84536540675465,
    "id": "greekRestaurants_898e4444f3d9",
    "slug": "o-kalofagas-steakhouse-898e"
  },
  {
    "name": "Ο Πλάτανος",
    "url": "https://maps.app.goo.gl/GVj14ysF6cMr9ZoA6",
    "address": "Σεβαστείας 6, Αθήνα 115 28",
    "lat": 37.98012652047389,
    "lng": 23.757043689219586,
    "id": "greekRestaurants_f2230e55c586",
    "slug": "o-platanos-f223"
  },
  {
    "name": "Κοψίδι Καισαριανή",
    "url": "https://maps.app.goo.gl/CbctoDQWoy2zSwT78",
    "address": "Λεωφ. Εθ. Αντιστάσεως 240, Αθήνα 161 22",
    "lat": 37.96646380448841,
    "lng": 23.772981113467992,
    "id": "greekRestaurants_a9322c09c3bf",
    "slug": "kopsidi-kaisariani-a932"
  },
  {
    "name": "Αλσος μεζεδοπωλείο",
    "url": "https://maps.app.goo.gl/LFkoegopciPhWfk59",
    "address": "Ούλωφ Πάλμε 1, Ζωγράφου 115 28",
    "lat": 37.97542863089566,
    "lng": 23.76053636122563,
    "id": "greekRestaurants_90f9e65f33cf",
    "slug": "alsos-mezedopoleio-90f9"
  },
  {
    "name": "Σκαλάκια",
    "url": "https://maps.app.goo.gl/awU151ZstgomSVZZ8",
    "address": "Διονυσίου Αιγινήτου 32, Αθήνα 115 28",
    "lat": 37.97743768834,
    "lng": 23.756590141442583,
    "id": "greekRestaurants_eb74ce369d8c",
    "slug": "skalakia-eb74"
  },
  {
    "name": "ΤΟ ΑΥΘΑΙΡΕΤΟ",
    "url": "https://maps.app.goo.gl/oF5WnEmN9HdHPyPo9",
    "address": "Πεύκων 10, Μαρούσι 151 26",
    "lat": 38.05739141623042,
    "lng": 23.82532230565926,
    "id": "greekRestaurants_191a2f7954ba",
    "slug": "to-aythaireto-191a"
  },
  {
    "name": "Για Δες Γκάρντεν",
    "url": "https://maps.app.goo.gl/aLm6k1HqkUoU9PxE8",
    "address": "Χαλεπά 68, Αθήνα 111 41",
    "lat": 38.02025659339306,
    "lng": 23.745905469042288,
    "id": "greekRestaurants_0c72524c082e",
    "slug": "gia-des-gkarnten-0c72"
  },
  {
    "name": "Η Βοσκοπούλα",
    "url": "https://maps.app.goo.gl/hpb1BhW8cddVUadJA",
    "address": "Σιβόρων 87, Αθήνα 111 42",
    "lat": 38.026845200131646,
    "lng": 23.747963927790185,
    "id": "greekRestaurants_1c33d3a3b85a",
    "slug": "i-voskopoyla-1c33"
  },
  {
    "name": "Μι λα ρε",
    "url": "https://maps.app.goo.gl/mURYyiemhV3PvXjDA",
    "address": "Ευελπίδων 87, Αθήνα 113 62",
    "lat": 37.99704423560871,
    "lng": 23.74315138793718,
    "id": "greekRestaurants_47b0ee0c8d13",
    "slug": "mi-la-re-47b0"
  },
  {
    "name": "Ο Τσομπανάκος",
    "url": "https://maps.app.goo.gl/D1121EC8pmNBFqbK9",
    "address": "Ανακρέοντος 2, Καισαριανή 161 22",
    "lat": 37.96567041818392,
    "lng": 23.763543849190544,
    "id": "greekRestaurants_6d8ba6e8459c",
    "slug": "o-tsompanakos-6d8b"
  },
  {
    "name": "Οσονούπω",
    "url": "https://maps.app.goo.gl/HBqT7hbWLLfdjPem9",
    "address": "Πλ. Αναγεννήσεως 2, Καισαριανή 161 21",
    "lat": 37.968722862920075,
    "lng": 23.75908756393202,
    "id": "greekRestaurants_d05f0b437e54",
    "slug": "osonoypo-d05f"
  },
  {
    "name": "Agora Select",
    "url": "https://maps.app.goo.gl/Emn145fBqqdH5XE6A",
    "address": "Χατζηγιάννη Μέξη 8 και, Κων/νου Βεντήρη 9, Αθήνα 115 28",
    "lat": 37.97639030206746,
    "lng": 23.751435246572814,
    "id": "greekRestaurants_aecd56dedac2",
    "slug": "agora-select-aecd"
  },
  {
    "name": "5Φ",
    "url": "https://maps.app.goo.gl/ZMLzvJ9Vxp7NSoVNA",
    "address": "Diocharous 31 &, Κλεισούρας, Αθήνα 161 21",
    "lat": 37.972863677998646,
    "lng": 23.753932616513207,
    "id": "greekRestaurants_7edc46b44623",
    "slug": "5f-7edc"
  },
  {
    "name": "Ο Μπακαλόγατος",
    "url": "https://maps.app.goo.gl/981vRQxbrAtrVwL46",
    "address": "Φωκίωνος Νέγρη 72, Αθήνα 113 61",
    "lat": 38.00187471148547,
    "lng": 23.740181411434346,
    "id": "greekRestaurants_f9f686e79eab",
    "slug": "o-mpakalogatos-f9f6"
  },
  {
    "name": "Τα Πεύκα",
    "url": "https://maps.app.goo.gl/47TqLWgDNWfa9U2QA",
    "address": "Χαϊμαντά Δημητρίου 34, Μαρούσι 151 22",
    "lat": 38.060680665394344,
    "lng": 23.798177860938093,
    "id": "greekRestaurants_cd7bd8c142b3",
    "slug": "ta-peyka-cd7b"
  },
  {
    "name": "Κατσαρόλα",
    "url": "https://maps.app.goo.gl/R5o9th6YAJUun6xp6",
    "address": "Λεωφ. Αλεξάνδρας 74, Αθήνα 114 73",
    "lat": 37.98993156504118,
    "lng": 23.741864128657266,
    "id": "greekRestaurants_e2f8a1a4ded7",
    "slug": "katsarola-e2f8"
  },
  {
    "name": "Εστιατόριο Φιλίππου",
    "url": "https://maps.app.goo.gl/Zq4cnAxJ4Dx6qQUq8",
    "address": "Ξενοκράτους 19, Αθήνα 106 75",
    "lat": 37.979221094535326,
    "lng": 23.744501065071557,
    "id": "greekRestaurants_1f74ff05ff24",
    "slug": "estiatorio-filippoy-1f74"
  },
  {
    "name": "Σπύρος-Αντώνης",
    "url": "https://maps.app.goo.gl/9kB2f5FdE7NhgyEF7",
    "address": "Γαβριηλίδου 24, Αθήνα 111 41",
    "lat": 38.01866922800358,
    "lng": 23.738404062129728,
    "id": "greekRestaurants_2f6996caca4e",
    "slug": "spyros-antonis-2f69"
  },
  {
    "name": "Βλαχος, Μπριζόλες - Χωριάτικες πίτες",
    "url": "https://maps.app.goo.gl/hue4bt53ZxfCUeXg6",
    "address": "Κων/νου Καραμανλή, 17ης Νοεμβρίου και, Μελίσσια 151 27",
    "lat": 38.06080156016513,
    "lng": 23.83614625903362,
    "id": "greekRestaurants_e5f425af5317",
    "slug": "vlachos-mprizoles-choriatikes-pites-e5f4"
  },
  {
    "name": "Αρόλιθος",
    "url": "https://maps.app.goo.gl/kNua9KhyTtnEhKVV9",
    "address": "Αγίας Λαύρας 70, Αθήνα 111 41",
    "lat": 38.022714668636375,
    "lng": 23.738679463378304,
    "id": "greekRestaurants_7e2e5838aa91",
    "slug": "arolithos-7e2e"
  },
  {
    "name": "Κυβέλη",
    "url": "https://maps.app.goo.gl/GZkR3yG4uYF9Asep6",
    "address": "Επτανήσου 15, Αθήνα 112 57",
    "lat": 37.99805749284101,
    "lng": 23.73519064835316,
    "id": "greekRestaurants_bfb413275b7f",
    "slug": "kyveli-bfb4"
  },
  {
    "name": "Η Δεξαμενή| παραδοσιακό καφενείο",
    "url": "https://maps.app.goo.gl/LtHtTEpZMdDdqe3S8",
    "address": "Πλ. Δεξαμενής, Αθήνα 106 73",
    "lat": 37.97904976951895,
    "lng": 23.7417447741282,
    "id": "greekRestaurants_b892553ca459",
    "slug": "i-dexameni-paradosiako-kafeneio-b892"
  },
  {
    "name": "Αυλη Γευση-πωλείον",
    "url": "https://maps.app.goo.gl/BGHehjaYVZctQ5Mv6",
    "address": "Μεθώνης 43, Αθήνα 106 81",
    "lat": 37.98655857103421,
    "lng": 23.737630934967044,
    "id": "greekRestaurants_3eb28aec894c",
    "slug": "ayli-geysi-poleion-3eb2"
  },
  {
    "name": "Άμα Λάχει",
    "url": "https://maps.app.goo.gl/94C3hp4xbRp1fKYt7",
    "address": "Καλλιδρομίου 69, Αθήνα 106 83",
    "lat": 37.9881200037971,
    "lng": 23.737007621122938,
    "id": "greekRestaurants_0cec67514103",
    "slug": "ama-lachei-0cec"
  },
  {
    "name": "Λόντζα της Γειτονιάς",
    "url": "https://maps.app.goo.gl/KuXHrJwbKRvdajxz5",
    "address": "Χαρ. Τρικούπη 76, Αθήνα 106 80",
    "lat": 37.98528728518512,
    "lng": 23.737900936097155,
    "id": "greekRestaurants_6dfb86c3c849",
    "slug": "lontza-tis-geitonias-6dfb"
  },
  {
    "name": "Μπόμπυρας",
    "url": "https://maps.app.goo.gl/9Ay3zpP2cfdFbPpw8",
    "address": "Ευπαλίνου 21, Αθήνα 112 53",
    "lat": 38.00484148971816,
    "lng": 23.732856919000913,
    "id": "greekRestaurants_7620f2ece9a6",
    "slug": "mpompyras-7620"
  },
  {
    "name": "Μαύρος Γάτος",
    "url": "https://maps.app.goo.gl/aCqxbn2mAS63MWhA9",
    "address": "Πολέμωνος 4, Αθήνα 116 35",
    "lat": 37.97162418889942,
    "lng": 23.74471067108262,
    "id": "greekRestaurants_04415057069a",
    "slug": "mayros-gatos-0441"
  },
  {
    "name": "Aylak Politiki Kouzina",
    "url": "https://maps.app.goo.gl/8H5UM5CTNGhY6tCz8",
    "address": "Εμμανουήλ Μπενάκη 73, Αθήνα 106 81",
    "lat": 37.986296240543886,
    "lng": 23.73577500465613,
    "id": "greekRestaurants_82fedd8f5eb8",
    "slug": "aylak-politiki-kouzina-82fe"
  },
  {
    "name": "Γιάντες",
    "url": "https://maps.app.goo.gl/LuGL5j7KgtCFWxmA8",
    "address": "Βαλτετσίου 44, Αθήνα 106 81",
    "lat": 37.98561482975353,
    "lng": 23.735926375159003,
    "id": "greekRestaurants_be06a546e935",
    "slug": "giantes-be06"
  },
  {
    "name": "Pακουμελ",
    "url": "https://maps.app.goo.gl/ES9bhy4RguonMm8G8",
    "address": "Εμμανουήλ Μπενάκη 71, Αθήνα 106 81",
    "lat": 37.98611213872367,
    "lng": 23.7356153825947,
    "id": "greekRestaurants_399d4f103d60",
    "slug": "pakoymel-399d"
  },
  {
    "name": "Πιάτσα Μεζεδάκι",
    "url": "https://maps.app.goo.gl/NQUdrufxEoMofvYP9",
    "address": "Ιωνίας 35 και, Προύσης 15, Νέα Φιλαδέλφεια Αττικής 143 41",
    "lat": 38.03382490224538,
    "lng": 23.74027260435793,
    "id": "greekRestaurants_4afe4ac40aa7",
    "slug": "piatsa-mezedaki-4afe"
  },
  {
    "name": "Artisanal",
    "url": "https://maps.app.goo.gl/WsfMSGTo3b3Mq3hS6",
    "address": "Ζηρίνη 2, Κηφισιά 145 62",
    "lat": 38.067981010642875,
    "lng": 23.811453792339574,
    "id": "greekRestaurants_81215dd76f6b",
    "slug": "artisanal-8121"
  },
  {
    "name": "Καραβίτης",
    "url": "https://maps.app.goo.gl/8qs2pU39Ev8Bi4Gu6",
    "address": "Παυσανίου 4, Αθήνα 116 35",
    "lat": 37.97158436368886,
    "lng": 23.743633373686446,
    "id": "greekRestaurants_52e671578a6f",
    "slug": "karavitis-52e6"
  },
  {
    "name": "Καραβαϊκή",
    "url": "https://maps.app.goo.gl/bDovbnEG8g4iXg669",
    "address": "25ης Μαρτίου 3, Νέα Πεντέλη 152 36",
    "lat": 38.05688896672271,
    "lng": 23.85683837486962,
    "id": "greekRestaurants_2a4d19d5fad0",
    "slug": "karavaiki-2a4d"
  },
  {
    "name": "Ταβέρνα Τζίμης",
    "url": "https://maps.app.goo.gl/qCasHzTvfzEm5GVQ9",
    "address": "Κωνσταντιλιέρη 2, Βύρωνας 162 31",
    "lat": 37.96221220979963,
    "lng": 23.752873943570865,
    "id": "greekRestaurants_9f875f84dbee",
    "slug": "taverna-tzimis-9f87"
  },
  {
    "name": "Το Ρίνι",
    "url": "https://maps.app.goo.gl/RRByVB3HqZfDcnkK7",
    "address": "Ρεθύμνου 8, Αθήνα 106 82",
    "lat": 37.99027878775376,
    "lng": 23.732870988899485,
    "id": "greekRestaurants_013c7ee68bf7",
    "slug": "to-rini-013c"
  },
  {
    "name": "Σουρτουκω",
    "url": "https://maps.app.goo.gl/xYnatdAUqU3QWGLv9",
    "address": "Λεωφ. Χρυσοστόμου Σμύρνης 47, Βύρωνας 162 32",
    "lat": 37.96175056849477,
    "lng": 23.75277374627553,
    "id": "greekRestaurants_548d92c2d4db",
    "slug": "soyrtoyko-548d"
  },
  {
    "name": "Γιουσουρούμ",
    "url": "https://maps.app.goo.gl/jh9iV3W2AMUY6Pev5",
    "address": "Σουλτάνη 11, Αθήνα 106 82",
    "lat": 37.98634442442922,
    "lng": 23.733413179378076,
    "id": "greekRestaurants_5d1d35aa177d",
    "slug": "gioysoyroym-5d1d"
  },
  {
    "name": "Μπαρμπαλιάς Σουβλάκι Κεμπάπ",
    "url": "https://maps.app.goo.gl/1KoD7wRkjTyAQA5aA",
    "address": "Ελ. Βενιζέλου 146, Νέα Ιωνία 142 31",
    "lat": 38.04986386180613,
    "lng": 23.749800777909947,
    "id": "greekRestaurants_dbfa615cdf88",
    "slug": "mparmpalias-soyvlaki-kempap-dbfa"
  },
  {
    "name": "Στου Λαγουδάκη",
    "url": "https://maps.app.goo.gl/4j67R3hXxbhm8zc98",
    "address": "Λεωφ. Δεκελείας 36, Νέα Χαλκηδόνα 143 43",
    "lat": 38.02939885957541,
    "lng": 23.734627277985574,
    "id": "greekRestaurants_c66e14e23e12",
    "slug": "stoy-lagoydaki-c66e"
  },
  {
    "name": "Ατίταμος",
    "url": "https://maps.app.goo.gl/VfeckYbAHrSRw3Qo8",
    "address": "Καποδιστρίου 2, Αθήνα 106 83",
    "lat": 37.98622715652684,
    "lng": 23.73236663557607,
    "id": "greekRestaurants_eec032d0bea1",
    "slug": "atitamos-eec0"
  },
  {
    "name": "Μαγγινας Ταβέρνα Μελίσσια",
    "url": "https://maps.app.goo.gl/FMMwbifodFsWzbX47",
    "address": "Πλ. Εθ. Αντιστάσεως, Μελίσσια 151 27",
    "lat": 38.06545992903425,
    "lng": 23.842357706146192,
    "id": "greekRestaurants_6b39ddfea6e1",
    "slug": "magginas-taverna-melissia-6b39"
  },
  {
    "name": "ΒΥΡΙΝΗΣ",
    "url": "https://maps.app.goo.gl/1Xuvp6z7zeGEESxk7",
    "address": "Αρχιμήδους 11, Αθήνα 116 35",
    "lat": 37.96743484356373,
    "lng": 23.742810422529566,
    "id": "greekRestaurants_1ce7ef86a93e",
    "slug": "vyrinis-1ce7"
  },
  {
    "name": "Ο Τζίτζικας και ο Μέρμηγκας",
    "url": "https://maps.app.goo.gl/Baz66z9eF1nXkQDe8",
    "address": "Γεωρ. Δροσίνη 12, Κηφισιά 145 62",
    "lat": 38.071444564634874,
    "lng": 23.81158159449847,
    "id": "greekRestaurants_ee1040d986a2",
    "slug": "o-tzitzikas-kai-o-mermigkas-ee10"
  },
  {
    "name": "Η Κρήτη, πλ. Κανιγγος",
    "url": "https://maps.app.goo.gl/QasSnVbzBbfxtArw5",
    "address": "Βερανζέρου 5, Αθήνα 106 77",
    "lat": 37.985209028957776,
    "lng": 23.730887169410018,
    "id": "greekRestaurants_56884a3a4523",
    "slug": "i-kriti-pl-kaniggos-5688"
  },
  {
    "name": "Το Καραγάτσι",
    "url": "https://maps.app.goo.gl/8aQhSfNrT1Z9qqEm7",
    "address": "Αγίου Ιωάννου 1, Νέα Φιλαδέλφεια Αττικής 143 42",
    "lat": 38.039818289814335,
    "lng": 23.738940522044075,
    "id": "greekRestaurants_32d9fbbeb9ef",
    "slug": "to-karagatsi-32d9"
  },
  {
    "name": "Μέλισσες",
    "url": "https://maps.app.goo.gl/Drq2Vavwjh6HDMKf9",
    "address": "Νικ. Τρυρια 39, Νέα Φιλαδέλφεια Αττικής 143 41",
    "lat": 38.03614200079934,
    "lng": 23.736207405528564,
    "id": "greekRestaurants_f2cb76696412",
    "slug": "melisses-f2cb"
  },
  {
    "name": "Γίδι",
    "url": "https://maps.app.goo.gl/hMR86s9rhghZRxgi8",
    "address": "Τατοΐου 17, Μεταμόρφωση 144 51",
    "lat": 38.052246918082005,
    "lng": 23.750952362138648,
    "id": "greekRestaurants_65b8685c50a4",
    "slug": "gidi-65b8"
  },
  {
    "name": "Φαμιλόκαλ Φαγάδικο",
    "url": "https://maps.app.goo.gl/cQhPg66yiWYq8LYP6",
    "address": "Στρατάρχου Αλεξάνδρου Παπάγου 12, Νέα Φιλαδέλφεια Αττικής 143 42",
    "lat": 38.045110031748486,
    "lng": 23.742897004373283,
    "id": "greekRestaurants_977106c0152b",
    "slug": "familokal-fagadiko-9771"
  },
  {
    "name": "Μίστερ Λουκιδέλης",
    "url": "https://maps.app.goo.gl/CMKSzphqRyS8ewpNA",
    "address": "Γεωρ. Παπανδρέου 81, Νέα Φιλαδέλφεια Αττικής 143 41",
    "lat": 38.03885909725717,
    "lng": 23.736070793481,
    "id": "greekRestaurants_9c1516b8d16d",
    "slug": "mister-loykidelis-9c15"
  },
  {
    "name": "Μπάρμπα Αλέξης",
    "url": "https://maps.app.goo.gl/qgjaSL92MEaYTNnP8",
    "address": "Σαλαμίνος 70, Νέα Χαλκηδόνα 143 43",
    "lat": 38.03352855482005,
    "lng": 23.731362347180447,
    "id": "greekRestaurants_ff1c24351a74",
    "slug": "mparmpa-alexis-ff1c"
  },
  {
    "name": "Κρυστάλλης",
    "url": "https://maps.app.goo.gl/XofHBMHMp5Y8ecHi6",
    "address": "Πλ. Αγίας Τριάδας, Πεντέλη 152 36",
    "lat": 38.05560270007769,
    "lng": 23.870179792849736,
    "id": "greekRestaurants_c753372241fb",
    "slug": "krystallis-c753"
  },
  {
    "name": "Πηλιορειτικο",
    "url": "https://maps.app.goo.gl/ZkvmmnHQW4d3ivh49",
    "address": "Κρυστάλλη Κωνσταντίνου 1, Πεντέλη 152 36",
    "lat": 38.05554171208636,
    "lng": 23.870789909416057,
    "id": "greekRestaurants_23f639b6098c",
    "slug": "pilioreitiko-23f6"
  },
  {
    "name": "Dopios Athens",
    "url": "https://maps.app.goo.gl/nEVnGCyfc79ueYWh7",
    "address": "Σκουλενίου 1, Αθήνα 105 61",
    "lat": 37.9792133312479,
    "lng": 23.729886930144186,
    "id": "greekRestaurants_4e928b322f7b",
    "slug": "dopios-athens-4e92"
  },
  {
    "name": "Manári Taverna",
    "url": "https://maps.app.goo.gl/o8x2B33WaG8QRBXq8",
    "address": "Πλ. Αγίων Θεοδώρων 3, Αθήνα 105 61",
    "lat": 37.97931896525327,
    "lng": 23.72965489387422,
    "id": "greekRestaurants_0010dafcf3e9",
    "slug": "manari-taverna-0010"
  },
  {
    "name": "Spit Jack",
    "url": "https://maps.app.goo.gl/WP3HmHeYBBcXxVPM6",
    "address": "Σκούφου 10, Αθήνα 105 57",
    "lat": 37.97409123224814,
    "lng": 23.732567622429254,
    "id": "greekRestaurants_3e896dd5b050",
    "slug": "spit-jack-3e89"
  },
  {
    "name": "Ευλαλία",
    "url": "https://maps.app.goo.gl/HVpdCimDL2uUQGMfA",
    "address": "Φρύνωνος 10, Αθήνα 116 32",
    "lat": 37.96221703725563,
    "lng": 23.742138763953527,
    "id": "greekRestaurants_e8a12eb29aae",
    "slug": "eylalia-e8a1"
  },
  {
    "name": "Evgenia Restaurant",
    "url": "https://maps.app.goo.gl/snfb8zhcUBZxSoPx9",
    "address": "Βουλής 44Α, Αθήνα 105 58",
    "lat": 37.9738473626084,
    "lng": 23.732008770618236,
    "id": "greekRestaurants_93f1c5af7d4e",
    "slug": "evgenia-restaurant-93f1"
  },
  {
    "name": "Aspro Alogo (i.e. White Horse) Traditional Greek Food",
    "url": "https://maps.app.goo.gl/Lo9db7KSrAQMHjXi6",
    "address": "Απόλλωνος, Αθήνα 105 57",
    "lat": 37.9748589013975,
    "lng": 23.731279347476626,
    "id": "greekRestaurants_2ce35eba5f67",
    "slug": "aspro-alogo-i-e-white-horse-traditional-greek-food-2ce3"
  },
  {
    "name": "Παραδοσιακή Ταβέρνα ο Σπανός",
    "url": "https://maps.app.goo.gl/M1LDEQBwqFbK8g7Y6",
    "address": "Αριστείδου Οικονόμου 12, Αθήνα 104 45",
    "lat": 38.01128559769368,
    "lng": 23.722291820236695,
    "id": "greekRestaurants_cf4d36c85e78",
    "slug": "paradosiaki-taverna-o-spanos-cf4d"
  },
  {
    "name": "Feedέλ Urban Gastronomy",
    "url": "https://maps.app.goo.gl/Uppwoqd1GbSaLvCe7",
    "address": "Κτενά 1, Αθήνα 105 63",
    "lat": 37.976600766846424,
    "lng": 23.729911306320325,
    "id": "greekRestaurants_9a0e0e6e3a9d",
    "slug": "feedel-urban-gastronomy-9a0e"
  },
  {
    "name": "Οινομαγειρείο Η Ήπειρος",
    "url": "https://maps.app.goo.gl/Ksa1sT3W1xvTwody6",
    "address": "Φιλοποίμενος 4, Αθήνα 105 51",
    "lat": 37.980081996854445,
    "lng": 23.728018952835075,
    "id": "greekRestaurants_c16ca9f65dbe",
    "slug": "oinomageireio-i-ipeiros-c16c"
  },
  {
    "name": "Taverna Saita",
    "url": "https://maps.app.goo.gl/SCwWcqyGvhz7WVrE8",
    "address": "Κυδαθηναίων 21, Αθήνα 105 58",
    "lat": 37.97248143588815,
    "lng": 23.732031545694568,
    "id": "greekRestaurants_4d35ec674015",
    "slug": "taverna-saita-4d35"
  },
  {
    "name": "Το Παραδοσιακό",
    "url": "https://maps.app.goo.gl/NeJoupJj8mkFs1fXA",
    "address": "Κολοκοτρώνη 59, Αθήνα 105 60",
    "lat": 37.977707115390295,
    "lng": 23.728787167486587,
    "id": "greekRestaurants_193dd3b500da",
    "slug": "to-paradosiako-193d"
  },
  {
    "name": "Το Υπόγειο του Μαραθωνίτη",
    "url": "https://maps.app.goo.gl/pp5rzZKvkv6W1fXL7",
    "address": "Βίνκελμαν 3, Αθήνα 116 32",
    "lat": 37.96187332155002,
    "lng": 23.74031744806371,
    "id": "greekRestaurants_dcfbb404a98b",
    "slug": "to-ypogeio-toy-marathoniti-dcfb"
  },
  {
    "name": "Eatery Bairaktaris Aiolou 29",
    "url": "https://maps.app.goo.gl/QiyDhjXfeNsDkt9k7",
    "address": "Αιόλου 29, Αθήνα 105 51",
    "lat": 37.97741431797203,
    "lng": 23.727650746109706,
    "id": "greekRestaurants_62e8feb8d72b",
    "slug": "eatery-bairaktaris-aiolou-29-62e8"
  },
  {
    "name": "Γευστική Γωνιά",
    "url": "https://maps.app.goo.gl/AkzhbzV5JgMPNbyh8",
    "address": "Ψαρών 45, Αθήνα 104 38",
    "lat": 37.9895544491858,
    "lng": 23.722717045952898,
    "id": "greekRestaurants_fc8301cd2394",
    "slug": "geystiki-gonia-fc83"
  },
  {
    "name": "Δίπορτο",
    "url": "https://maps.app.goo.gl/5PAR192kZJY8s4Hs8",
    "address": "Sokratous 9 &, Θεάτρου 2, Αθήνα 105 52",
    "lat": 37.9807615601589,
    "lng": 23.725828141444957,
    "id": "greekRestaurants_9d442e3cec12",
    "slug": "diporto-9d44"
  },
  {
    "name": "Ταβέρνα του Βαρδή",
    "url": "https://maps.app.goo.gl/6RAXFnJTA2DTzwA88",
    "address": "Καισαρείας 9, Υμηττός 172 37",
    "lat": 37.95570603338151,
    "lng": 23.74583290711746,
    "id": "greekRestaurants_11dff068e9ea",
    "slug": "taverna-toy-vardi-11df"
  },
  {
    "name": "Ολύμπιον",
    "url": "https://maps.app.goo.gl/ibRHUhwHzNffs1sC8",
    "address": "Αναπαύσεως 9, Αθήνα 116 36",
    "lat": 37.96661871653892,
    "lng": 23.73449829017252,
    "id": "greekRestaurants_32eb2400b721",
    "slug": "olympion-32eb"
  },
  {
    "name": "Της Θεάτρου το στέκι",
    "url": "https://maps.app.goo.gl/7FMPKRwpazujA2C27",
    "address": "Θεάτρου 7, Αθήνα 105 52",
    "lat": 37.98069925682147,
    "lng": 23.725498847688122,
    "id": "greekRestaurants_321ca0fca170",
    "slug": "tis-theatroy-to-steki-321c"
  },
  {
    "name": "Τα Καραμανλίδικα του Φάνη",
    "url": "https://maps.app.goo.gl/3bDZ8oASnXexFDgS7",
    "address": "Ευριπίδου 52, Αθήνα 105 52",
    "lat": 37.98022746553766,
    "lng": 23.7256348821809,
    "id": "greekRestaurants_f27a17153226",
    "slug": "ta-karamanlidika-toy-fani-f27a"
  },
  {
    "name": "Εστιατόριο Αυλή",
    "url": "https://maps.app.goo.gl/91VrWaADuuDQ9qeWA",
    "address": "Αγ. Δημητρίου 12, Αθήνα 105 54",
    "lat": 37.97971984965389,
    "lng": 23.72579553971612,
    "id": "greekRestaurants_0880507319bf",
    "slug": "estiatorio-ayli-0880"
  },
  {
    "name": "Το Καφενείο",
    "url": "https://maps.app.goo.gl/3s8YnKNXM61cpsz69",
    "address": "Επιχάρμου 1, Αθήνα 105 58",
    "lat": 37.97255962660001,
    "lng": 23.729567011443763,
    "id": "greekRestaurants_e299a6be96f9",
    "slug": "to-kafeneio-e299"
  },
  {
    "name": "Balkan Restaurant",
    "url": "https://maps.app.goo.gl/CKhBpbV2aiz5Bpov8",
    "address": "Ακομινάτου 13, Αθήνα 104 37",
    "lat": 37.985310593490546,
    "lng": 23.722959936018757,
    "id": "greekRestaurants_2a6cdbb60ef0",
    "slug": "balkan-restaurant-2a6c"
  },
  {
    "name": "Αέρηδες Μεζεδοπωλείο Πλάκα",
    "url": "https://maps.app.goo.gl/Cx6gQQWkCy2n1mXw6",
    "address": "Διογένους 3, Αθήνα 105 56",
    "lat": 37.974495755428926,
    "lng": 23.72798871305526,
    "id": "greekRestaurants_60d2190d08b8",
    "slug": "aerides-mezedopoleio-plaka-60d2"
  },
  {
    "name": "Ταβέρνα Κληματαριά",
    "url": "https://maps.app.goo.gl/2CMQFJheG9EgM5p99",
    "address": "Πλ. Θεάτρου 2, Αθήνα 105 52",
    "lat": 37.980637024107224,
    "lng": 23.724630625441396,
    "id": "greekRestaurants_584137dc4866",
    "slug": "taverna-klimataria-5841"
  },
  {
    "name": "Flint Athens",
    "url": "https://maps.app.goo.gl/Fj4mZsQhG6Dryz9HA",
    "address": "Αγ. Αναργύρων 6, Αθήνα 105 54",
    "lat": 37.97865798885805,
    "lng": 23.724488894508067,
    "id": "greekRestaurants_63d3f13668e8",
    "slug": "flint-athens-63d3"
  },
  {
    "name": "Νικήτας Ψυρρή",
    "url": "https://maps.app.goo.gl/cnKsmpXwbUi4ehMj9",
    "address": "Αγ. Αναργύρων 19, Αθήνα 105 54",
    "lat": 37.97869467804771,
    "lng": 23.723980497190343,
    "id": "greekRestaurants_47e0fbf99993",
    "slug": "nikitas-psyrri-47e0"
  },
  {
    "name": "Ευχαρις Μεζεδοπωλείο",
    "url": "https://maps.app.goo.gl/RANm4cQqR929BJSE7",
    "address": "Αδριανού 49Α, Αθήνα 105 55",
    "lat": 37.97570405558301,
    "lng": 23.72549560715114,
    "id": "greekRestaurants_60fc17fb1af0",
    "slug": "eycharis-mezedopoleio-60fc"
  },
  {
    "name": "Maiandros Restaurant",
    "url": "https://maps.app.goo.gl/6vSRNbnm7hVmc1NH6",
    "address": "Αδριανού 47, Αθήνα 105 55",
    "lat": 37.97572091133567,
    "lng": 23.725354400404825,
    "id": "greekRestaurants_77b3530742da",
    "slug": "maiandros-restaurant-77b3"
  },
  {
    "name": "Κρασοπουλιο του Κοκκορα",
    "url": "https://maps.app.goo.gl/FdPM4DDLKYaXnaei6",
    "address": "Αισώπου 4, Αθήνα 105 54",
    "lat": 37.97774968772063,
    "lng": 23.724156040305374,
    "id": "greekRestaurants_0c30703c94b5",
    "slug": "krasopoylio-toy-kokkora-0c30"
  },
  {
    "name": "Bandiera",
    "url": "https://maps.app.goo.gl/Qi3TiLypHkh8kAfv8",
    "address": "Τάκη 19, Αθήνα 105 54",
    "lat": 37.978324295237165,
    "lng": 23.723850317882693,
    "id": "greekRestaurants_01412cd104e7",
    "slug": "bandiera-0141"
  },
  {
    "name": "Εστιατόριο Smile",
    "url": "https://maps.app.goo.gl/dzqWtwgMFs9Vcqew6",
    "address": "Πλ. Τσώκρη 1, Αθήνα 117 42",
    "lat": 37.967615812266935,
    "lng": 23.729979287152204,
    "id": "greekRestaurants_c15edd7fcde2",
    "slug": "estiatorio-smile-c15e"
  },
  {
    "name": "Το Κυκλάμινο",
    "url": "https://maps.app.goo.gl/9UGJoEFr8WGupZtP9",
    "address": "Πλ. Αβησσυνίας 3, Αθήνα 105 55",
    "lat": 37.976681511235476,
    "lng": 23.724107441529995,
    "id": "greekRestaurants_e684531e1c90",
    "slug": "to-kyklamino-e684"
  },
  {
    "name": "Cafe Avissinia",
    "url": "https://maps.app.goo.gl/vKinr3WBQjy8EYru8",
    "address": "Κυνέτου 7, Αθήνα 105 55",
    "lat": 37.97665935435758,
    "lng": 23.723658874040776,
    "id": "greekRestaurants_ccfa82da91ec",
    "slug": "cafe-avissinia-ccfa"
  },
  {
    "name": "A Little Taste of Home Restaurant",
    "url": "https://maps.app.goo.gl/GmHsbFa1YEmR2kef9",
    "address": "Άστιγγος 8, Αθήνα 105 55",
    "lat": 37.976779798219894,
    "lng": 23.722967824354946,
    "id": "greekRestaurants_72a09df578ee",
    "slug": "a-little-taste-of-home-restaurant-72a0"
  },
  {
    "name": "Βασίλης Κηφισιά",
    "url": "https://maps.app.goo.gl/eB16zN6dJoMUydyJA",
    "address": "Λεωφ. Κηφισίας 284, Κηφισιά 145 61",
    "lat": 38.08032122894861,
    "lng": 23.814581872798477,
    "id": "greekRestaurants_b901d82ee343",
    "slug": "vasilis-kifisia-b901"
  },
  {
    "name": "Μπαλκόνι Εστιατόριο και Μπαρ",
    "url": "https://maps.app.goo.gl/7XXsfB27aRZAsikR7",
    "address": "Βεΐκου 1, Αθήνα 117 42",
    "lat": 37.96744106512062,
    "lng": 23.72879886025239,
    "id": "greekRestaurants_104d52bd2241",
    "slug": "mpalkoni-estiatorio-kai-mpar-104d"
  },
  {
    "name": "Σεϋχέλλες",
    "url": "https://maps.app.goo.gl/iUj8NxtUsYKhihFV9",
    "address": "Κεραμεικού 49, Αθήνα 104 36",
    "lat": 37.9823149491854,
    "lng": 23.720253813195804,
    "id": "greekRestaurants_8c5628ce57f7",
    "slug": "seychelles-8c56"
  },
  {
    "name": "Λοστρέ κουζίνα",
    "url": "https://maps.app.goo.gl/T4yBbxnNyvkykNoS9",
    "address": "Πυθέου 32, Αθήνα 117 43",
    "lat": 37.96258323945813,
    "lng": 23.732334829769364,
    "id": "greekRestaurants_b3da8ddd3955",
    "slug": "lostre-koyzina-b3da"
  },
  {
    "name": "Το Τρικυκλο",
    "url": "https://maps.app.goo.gl/iQ4V71S2t14KAPNM9",
    "address": "Πυθέου 34-Θ.Γεωμετρου 1, Πυθέου 34, Αθήνα 117 43",
    "lat": 37.96243041130632,
    "lng": 23.732361770965667,
    "id": "greekRestaurants_33a0b55abdc4",
    "slug": "to-trikyklo-33a0"
  },
  {
    "name": "Το Αυγό Του Κόκκορα",
    "url": "https://maps.app.goo.gl/iKbPmGsQDpnYazKs9",
    "address": "Λεωνίδου 46, Αθήνα 104 36",
    "lat": 37.98270365301358,
    "lng": 23.719206888648312,
    "id": "greekRestaurants_6dad5c0e5b55",
    "slug": "to-aygo-toy-kokkora-6dad"
  },
  {
    "name": "Σφήκα",
    "url": "https://maps.app.goo.gl/WDLKPoT2bayYqor96",
    "address": "Στρ. Κοντούλη 15, Αθήνα 117 42",
    "lat": 37.966122619632145,
    "lng": 23.726245016024656,
    "id": "greekRestaurants_fdc308cbed46",
    "slug": "sfika-fdc3"
  },
  {
    "name": "Onos Taverna",
    "url": "https://maps.app.goo.gl/ur5XrAoMuE8FsR5c6",
    "address": "Δράκου 14, Αθήνα 117 42",
    "lat": 37.96571079116367,
    "lng": 23.725945276440267,
    "id": "greekRestaurants_2cc5d772f006",
    "slug": "onos-taverna-2cc5"
  },
  {
    "name": "Rakor",
    "url": "https://maps.app.goo.gl/eVrzxTMuCzQvAE596",
    "address": "Πλαταιών 10, Αθήνα 104 35",
    "lat": 37.98047740550758,
    "lng": 23.717062587155947,
    "id": "greekRestaurants_79d853816a19",
    "slug": "rakor-79d8"
  },
  {
    "name": "Το Στέκι Του Ηλία",
    "url": "https://maps.app.goo.gl/1XoTtwx2q6EitZZi8",
    "address": "Επταχάλκου 5, Αθήνα 118 51",
    "lat": 37.97686050854808,
    "lng": 23.718458701649066,
    "id": "greekRestaurants_7a0990462c96",
    "slug": "to-steki-toy-ilia-7a09"
  },
  {
    "name": "Ταβέρνα των Φίλων",
    "url": "https://maps.app.goo.gl/CyUaWUVM84i2Ym18A",
    "address": "Άργους 66, Αθήνα 104 41",
    "lat": 37.99014835512761,
    "lng": 23.713340464618646,
    "id": "greekRestaurants_83a0250938d4",
    "slug": "taverna-ton-filon-83a0"
  },
  {
    "name": "Ταβέρνα Το Κουτούκι",
    "url": "https://maps.app.goo.gl/wD1K2DMnmMrpmHVu7",
    "address": "Λεωφ. Κηφισίας 308, Κηφισιά 145 63",
    "lat": 38.083850431201256,
    "lng": 23.816117674528748,
    "id": "greekRestaurants_89a2b5f64a13",
    "slug": "taverna-to-koytoyki-89a2"
  },
  {
    "name": "Cinapos",
    "url": "https://maps.app.goo.gl/Ryj3tMNNp7RWvUcs6",
    "address": "Ηρακλειδών 10, Αθήνα 118 51",
    "lat": 37.975037080566636,
    "lng": 23.71898004749624,
    "id": "greekRestaurants_ab98629e5118",
    "slug": "cinapos-ab98"
  },
  {
    "name": "Κροκος Ταβέρνα Η Φωλια",
    "url": "https://maps.app.goo.gl/rsdLSf9DyCBtiGXo8",
    "address": "Λεωφ. Λαυρίου 20 χλμ, Παιανία 190 02",
    "lat": 37.941171044387104,
    "lng": 23.86789220057886,
    "id": "greekRestaurants_24ceffe54bf6",
    "slug": "krokos-taverna-i-folia-24ce"
  },
  {
    "name": "Λούης καφενείο",
    "url": "https://maps.app.goo.gl/HykcqWbVLkwR9HqJ7",
    "address": "Λεωνίδου 87, Αθήνα 104 35",
    "lat": 37.98085946462118,
    "lng": 23.71532632472864,
    "id": "greekRestaurants_1b0710fd0635",
    "slug": "loyis-kafeneio-1b07"
  },
  {
    "name": "Μαλανος",
    "url": "https://maps.app.goo.gl/RHBwmAA2mvG3Eie58",
    "address": "Ιωλκού 2, Περιστέρι 121 33",
    "lat": 38.0129537569984,
    "lng": 23.7103246194612,
    "id": "greekRestaurants_c4daeb8f4d66",
    "slug": "malanos-c4da"
  },
  {
    "name": "Σεράμικο",
    "url": "https://maps.app.goo.gl/o8XfcUJ1JPyFTfao8",
    "address": "Μεγ. Αλεξάνδρου 109-111, Αθήνα 104 35",
    "lat": 37.98162530293091,
    "lng": 23.71443381634983,
    "id": "greekRestaurants_91881b4e9587",
    "slug": "seramiko-9188"
  },
  {
    "name": "Το Στέκι του Ηλία",
    "url": "https://maps.app.goo.gl/wSbCCiegqHvWj8KcA",
    "address": "Θεσσαλονίκης 7, Αθήνα 118 51",
    "lat": 37.977110249497095,
    "lng": 23.715901670048872,
    "id": "greekRestaurants_e9caa161f872",
    "slug": "to-steki-toy-ilia-e9ca"
  },
  {
    "name": "Πυρολίκι",
    "url": "https://maps.app.goo.gl/VoibgN4wKpaNpoSG7",
    "address": "Μεγ. Αλεξάνδρου 117, Αθήνα 104 35",
    "lat": 37.98138914645396,
    "lng": 23.713920948942256,
    "id": "greekRestaurants_fe1298439f3b",
    "slug": "pyroliki-fe12"
  },
  {
    "name": "Το Κουζουλό-Κρητικές Γεύσεις",
    "url": "https://maps.app.goo.gl/92JS6PzrgTe3Moyv6",
    "address": "Λεωφ. Ειρήνης 10, Ηλιούπολη 163 45",
    "lat": 37.93790456342302,
    "lng": 23.756307120209538,
    "id": "greekRestaurants_b996975f2765",
    "slug": "to-koyzoylo-kritikes-geyseis-b996"
  },
  {
    "name": "Ο Θεσσαλός",
    "url": "https://maps.app.goo.gl/nM83keU2k42E2kxJ6",
    "address": "Μελενίκου 2, Αθήνα 104 47",
    "lat": 37.98471994306453,
    "lng": 23.712346428545427,
    "id": "greekRestaurants_9611782bc12d",
    "slug": "o-thessalos-9611"
  },
  {
    "name": "Παρασιά Ιστορίες Γεύσεων",
    "url": "https://maps.app.goo.gl/FtKavrSVarJSeYwXA",
    "address": "Σκιάθου 3, Κηφισιά 145 64",
    "lat": 38.08628061091575,
    "lng": 23.81539216213334,
    "id": "greekRestaurants_b22d69737b66",
    "slug": "parasia-istories-geyseon-b22d"
  },
  {
    "name": "Ραφίκι",
    "url": "https://maps.app.goo.gl/awtPeTxoWYGakCkX9",
    "address": "Πέλλης 22, Αθήνα 104 47",
    "lat": 37.98338715429696,
    "lng": 23.71184940799049,
    "id": "greekRestaurants_7e068071958f",
    "slug": "rafiki-7e06"
  },
  {
    "name": "Basegrill Athens",
    "url": "https://maps.app.goo.gl/4HcYYs1yQVdq1giy8",
    "address": "Λεωφ. Κωνσταντινουπόλεως 64, Περιστέρι 121 33",
    "lat": 38.01200938597209,
    "lng": 23.7082215195935,
    "id": "greekRestaurants_8f61506d1171",
    "slug": "basegrill-athens-8f61"
  },
  {
    "name": "Λαδόκολλα Δάφνης",
    "url": "https://maps.app.goo.gl/DJkwhBF35mfEBRKG7",
    "address": "Λεωφ. Αλ. Παπαναστασίου 8, Δάφνη Αττικής 172 35",
    "lat": 37.948710278848054,
    "lng": 23.736099857630663,
    "id": "greekRestaurants_5c7530a68c50",
    "slug": "ladokolla-dafnis-5c75"
  },
  {
    "name": "Τα Σκαλάκια",
    "url": "https://maps.app.goo.gl/Dec4aP4V9Z2pEehcA",
    "address": "Μαραθωνομάχων 57, Αθήνα 104 41",
    "lat": 37.98954880589726,
    "lng": 23.709123253452237,
    "id": "greekRestaurants_bad759859413",
    "slug": "ta-skalakia-bad7"
  },
  {
    "name": "Μυρτιά - Περιστέρι",
    "url": "https://maps.app.goo.gl/ZmkpQ1J6yj1b1iUX6",
    "address": "Αγίας Παρασκευής 24, Περιστέρι 121 32",
    "lat": 38.00643775276086,
    "lng": 23.706964574646523,
    "id": "greekRestaurants_d28823b9eec2",
    "slug": "myrtia-peristeri-d288"
  },
  {
    "name": "Βαθης - Ταβέρνα - Κηφισιά",
    "url": "https://maps.app.goo.gl/8zy6QLVSBAEWjShh9",
    "address": "Κύρου 7, Κηφισιά 145 64",
    "lat": 38.08767324286352,
    "lng": 23.812020752033984,
    "id": "greekRestaurants_ea49f706ac3a",
    "slug": "vathis-taverna-kifisia-ea49"
  },
  {
    "name": "Το παλαιό καφενείο",
    "url": "https://maps.app.goo.gl/giNLK8YBTxmzzF9PA",
    "address": "Κορυτσάς 48, Αθήνα 104 47",
    "lat": 37.984456056477114,
    "lng": 23.70991900524202,
    "id": "greekRestaurants_c6cbcafef8ce",
    "slug": "to-palaio-kafeneio-c6cb"
  },
  {
    "name": "Φιτα",
    "url": "https://maps.app.goo.gl/dz2YxasHy4LnBQ668",
    "address": "Ντουρμ 1, Αθήνα 117 45",
    "lat": 37.959800125380376,
    "lng": 23.723270363621033,
    "id": "greekRestaurants_e9888507556f",
    "slug": "fita-e988"
  },
  {
    "name": "Ρηγάλος Ψησταριά - Πρόβατο στα κάρβουνα",
    "url": "https://maps.app.goo.gl/KcrSRWtpYRZVpLT68",
    "address": "Πάριδος 32, Ίλιον 131 22",
    "lat": 38.02876561192483,
    "lng": 23.709228688807336,
    "id": "greekRestaurants_d84b869185a4",
    "slug": "rigalos-psistaria-provato-sta-karvoyna-d84b"
  },
  {
    "name": "Louiza Athens",
    "url": "https://maps.app.goo.gl/QPXwcnn7KEEcjqBb9",
    "address": "Σφιγγός 13, Αθήνα 117 45",
    "lat": 37.958439423665176,
    "lng": 23.722755568163475,
    "id": "greekRestaurants_c2d712c3a636",
    "slug": "louiza-athens-c2d7"
  },
  {
    "name": "Ταβέρνα Τ' Ασχημόπαπο",
    "url": "https://maps.app.goo.gl/dNg85MBr8ViicbBL6",
    "address": "Ιώνων 61, Αθήνα 118 51",
    "lat": 37.96881098076761,
    "lng": 23.714190146946947,
    "id": "greekRestaurants_f1eb108e1b22",
    "slug": "taverna-t-aschimopapo-f1eb"
  },
  {
    "name": "Οικονόμου Εστιατόριο (απ'το 1930)",
    "url": "https://maps.app.goo.gl/w5wA7gPwxSUbGq4m6",
    "address": "Κυδαντίδων 32, Αθήνα 118 51",
    "lat": 37.9698630124268,
    "lng": 23.71322106212657,
    "id": "greekRestaurants_3d9881c33aea",
    "slug": "oikonomoy-estiatorio-ap-to-1930-3d98"
  },
  {
    "name": "Σχίνος Μπιστρό",
    "url": "https://maps.app.goo.gl/VEoaxecqRaF6Y2in8",
    "address": "Μεγ. Αλεξάνδρου 88, Περιστέρι 121 32",
    "lat": 38.01228323858559,
    "lng": 23.703471319893453,
    "id": "greekRestaurants_9c5c07b28afc",
    "slug": "schinos-mpistro-9c5c"
  },
  {
    "name": "Γάκιας",
    "url": "https://maps.app.goo.gl/5fW7sQn1VfXFue1i8",
    "address": "Ευαγγελίστριας και Κρήνης, Νέα Ερυθραία 146 71",
    "lat": 38.09024721634053,
    "lng": 23.815925478181978,
    "id": "greekRestaurants_c38384cb3d4e",
    "slug": "gakias-c383"
  },
  {
    "name": "Καρδερίνα",
    "url": "https://maps.app.goo.gl/JZ7NHd5aYDr2jXELA",
    "address": "Καλλισθένους 67, Αθήνα 118 52",
    "lat": 37.96886028012467,
    "lng": 23.713545491142042,
    "id": "greekRestaurants_f4bfdaeebedd",
    "slug": "karderina-f4bf"
  },
  {
    "name": "Κουβελος",
    "url": "https://maps.app.goo.gl/FmVVezpy5Uwrec5e9",
    "address": "Γενναίου Κολοκοτρώνη 66, Αθήνα 117 41",
    "lat": 37.96561446275287,
    "lng": 23.714982571965468,
    "id": "greekRestaurants_c751a3d5b17d",
    "slug": "koyvelos-c751"
  },
  {
    "name": "Τα φιλετάκια",
    "url": "https://maps.app.goo.gl/tBGQqYJbzo48VPWv9",
    "address": "Εθνάρχου Μακαρίου 126, Δάφνη Αττικής 172 34",
    "lat": 37.94824819005281,
    "lng": 23.729579675166935,
    "id": "greekRestaurants_191784dd5c83",
    "slug": "ta-filetakia-1917"
  },
  {
    "name": "Ταβέρνα Ο Καραγκιόζης",
    "url": "https://maps.app.goo.gl/zhCvjvwCT9rbixAE6",
    "address": "Τρώων 9, Bournazi 121 33",
    "lat": 38.01836729151931,
    "lng": 23.702104419170855,
    "id": "greekRestaurants_66d5a57225f6",
    "slug": "taverna-o-karagkiozis-66d5"
  },
  {
    "name": "Tavernier",
    "url": "https://maps.app.goo.gl/irth7CYMSHY5DX7t5",
    "address": "Ελπίδος 24, Κηφισιά 145 64",
    "lat": 38.09316882456775,
    "lng": 23.805434203164346,
    "id": "greekRestaurants_7971743137f0",
    "slug": "tavernier-7971"
  },
  {
    "name": "Σαντορινιός",
    "url": "https://maps.app.goo.gl/HqX9azMMvY9pEhnN6",
    "address": "118 52, Δωριέων 8, Αθήνα 118 52",
    "lat": 37.968255056831595,
    "lng": 23.70991359071036,
    "id": "greekRestaurants_e0b933397cc1",
    "slug": "santorinios-e0b9"
  },
  {
    "name": "Ether Athens",
    "url": "https://maps.app.goo.gl/X42jFmXfj3xf7XFx9",
    "address": "Πριάμου 2, Ηλιούπολη 163 41",
    "lat": 37.9300575683433,
    "lng": 23.752395520807372,
    "id": "greekRestaurants_5c488f0d8ce0",
    "slug": "ether-athens-5c48"
  },
  {
    "name": "Ταβέρνα Μοναξιά",
    "url": "https://maps.app.goo.gl/VBA846ekAAGscrWa6",
    "address": "Leoforos Marathonos 19th klm, Παλλήνη Αττικής 153 51",
    "lat": 37.99741941255288,
    "lng": 23.922943419662634,
    "id": "greekRestaurants_9269793e1504",
    "slug": "taverna-monaxia-9269"
  },
  {
    "name": "Το Κάστρο - Μεζεδοπωλείο",
    "url": "https://maps.app.goo.gl/ntunDXdn4W56VrG16",
    "address": "Πολυτέκνων 80, Ίλιον 131 21",
    "lat": 38.029707505192306,
    "lng": 23.701561203164797,
    "id": "greekRestaurants_ca3f37d54af0",
    "slug": "to-kastro-mezedopoleio-ca3f"
  },
  {
    "name": "Κιβωτός",
    "url": "https://maps.app.goo.gl/U5NQdUWeNcGPMbcs9",
    "address": "Διός 32, Κηφισιά 145 64",
    "lat": 38.09806564019595,
    "lng": 23.80316229730133,
    "id": "greekRestaurants_88c2247c1ee0",
    "slug": "kivotos-88c2"
  },
  {
    "name": "Ρεμουτσικο Ταβέρνα",
    "url": "https://maps.app.goo.gl/zELuRQBZCjzsqwux5",
    "address": "Λεωφ. Αγίου Δημητρίου 120, Αγ. Δημήτριος Αττικής 173 41",
    "lat": 37.93888185097854,
    "lng": 23.730869105234564,
    "id": "greekRestaurants_6c6d00a6a4f4",
    "slug": "remoytsiko-taverna-6c6d"
  },
  {
    "name": "Ο Μίτος (Κρητικό Ρακάδικο-Μεζεδοπωλείο)",
    "url": "https://maps.app.goo.gl/fWEdbaEvd9cA8Enr9",
    "address": "Αριστείδου 62, Καλλιθέα 176 71",
    "lat": 37.95902391394004,
    "lng": 23.710171017106486,
    "id": "greekRestaurants_6497d4b8be55",
    "slug": "o-mitos-kritiko-rakadiko-mezedopoleio-6497"
  },
  {
    "name": "Λοτζα - Το Καλαμάκι Σπίτι Του",
    "url": "https://maps.app.goo.gl/Dnr9SzVdyH6c3w6d7",
    "address": "Λεωφ. Κυπρίων Ηρώων 57, Ηλιούπολη 163 41",
    "lat": 37.92519193178049,
    "lng": 23.751255406437117,
    "id": "greekRestaurants_d3958d32f2a3",
    "slug": "lotza-to-kalamaki-spiti-toy-d395"
  },
  {
    "name": "Ραμόνα Ταβέρνα Καλλιθέα",
    "url": "https://maps.app.goo.gl/RDXvdLT2Zy9wH87X9",
    "address": "Μίνωος 11-13, Καλλιθέα 176 72",
    "lat": 37.9556758154796,
    "lng": 23.70860659191753,
    "id": "greekRestaurants_d2cc3fcfc069",
    "slug": "ramona-taverna-kallithea-d2cc"
  },
  {
    "name": "Pāppu Athens",
    "url": "https://maps.app.goo.gl/QKrjcz5bwnJE9QXA6",
    "address": "Μεσολογγίου 100, Περιστέρι 121 31",
    "lat": 38.01046990272616,
    "lng": 23.68965527636987,
    "id": "greekRestaurants_6208e477b281",
    "slug": "pappu-athens-6208"
  },
  {
    "name": "Κυρία Ουρανία Ταβέρνα",
    "url": "https://maps.app.goo.gl/ps7BDEvG27yAVuTL8",
    "address": "Ηρ. Πολυτεχνείου 85, Ηλιούπολη 163 42",
    "lat": 37.92057877935982,
    "lng": 23.755542263928948,
    "id": "greekRestaurants_4c001bebcf5a",
    "slug": "kyria-oyrania-taverna-4c00"
  },
  {
    "name": "ΜΟΤΟΣΑΚΟ",
    "url": "https://maps.app.goo.gl/EvRoWXo4KNzPYiSL9",
    "address": "Π. Τσαλδάρη 157, Καλλιθέα 176 76",
    "lat": 37.961601438829575,
    "lng": 23.703084593129155,
    "id": "greekRestaurants_0a00e5cfcbb9",
    "slug": "motosako-0a00"
  },
  {
    "name": "Ταβέρνα Κιτσαρώνας",
    "url": "https://maps.app.goo.gl/CdrwzhJ6AF8GwRvr7",
    "address": "Π. Μελά 8, Αχαρνές 136 75",
    "lat": 38.081090797205825,
    "lng": 23.73517147403274,
    "id": "greekRestaurants_ecad8f17d794",
    "slug": "taverna-kitsaronas-ecad"
  },
  {
    "name": "Ο Λελουδας (απ'το 1928)",
    "url": "https://maps.app.goo.gl/8PbKYvUzfiWbeWRg7",
    "address": "Σαλαμινίας 8-10, Αθήνα 118 55",
    "lat": 37.97689297145777,
    "lng": 23.693959991915325,
    "id": "greekRestaurants_3bbd0e393c04",
    "slug": "o-leloydas-ap-to-1928-3bbd"
  },
  {
    "name": "Arch Beer House",
    "url": "https://maps.app.goo.gl/LiRMqJ6hgSpNtgJ99",
    "address": "Εθ. Αντιστάσεως 91, Περιστέρι 121 34",
    "lat": 38.01418942631727,
    "lng": 23.68836608869776,
    "id": "greekRestaurants_894000c6e69f",
    "slug": "arch-beer-house-8940"
  },
  {
    "name": "Ταβέρνα - Ψησταριά ο Θωμάς απο το 1980",
    "url": "https://maps.app.goo.gl/ZYNUbquE3yHM5E837",
    "address": "Χαλκοκονδύλη 39, Περιστέρι 121 35",
    "lat": 38.015942140522725,
    "lng": 23.686390666199237,
    "id": "greekRestaurants_e84451b3cebc",
    "slug": "taverna-psistaria-o-thomas-apo-to-1980-e844"
  },
  {
    "name": "Ταβέρνα ο Νότος",
    "url": "https://maps.app.goo.gl/TEReWJLojKZEkJL38",
    "address": "Μεταμορφώσεως 2, Αγ. Δημήτριος Αττικής 173 41",
    "lat": 37.93527346472632,
    "lng": 23.722390326717125,
    "id": "greekRestaurants_316cf3a477d7",
    "slug": "taverna-o-notos-316c"
  },
  {
    "name": "Γήτεμα",
    "url": "https://maps.app.goo.gl/S3ph9mpPrmbS64x3A",
    "address": "Λεωφ. Ελ. Βενιζέλου 88, Νέα Σμύρνη 171 22",
    "lat": 37.94107986247284,
    "lng": 23.713131731866255,
    "id": "greekRestaurants_eecb2ebbfdc2",
    "slug": "gitema-eecb"
  },
  {
    "name": "Μυρτιά",
    "url": "https://maps.app.goo.gl/QHjMpbFEFgtWLbA57",
    "address": "Αϊδινίου 55, Νέα Σμύρνη 171 22",
    "lat": 37.940920844377125,
    "lng": 23.712738244892858,
    "id": "greekRestaurants_ef1588581bbb",
    "slug": "myrtia-ef15"
  },
  {
    "name": "Mantri Mountain Resto",
    "url": "https://maps.app.goo.gl/NEovPiofbnzr8Awb8",
    "address": "Βαρδουσίων 29, Γλυφάδα 165 62",
    "lat": 37.90889434818902,
    "lng": 23.77519106611033,
    "id": "greekRestaurants_4272f358b681",
    "slug": "mantri-mountain-resto-4272"
  },
  {
    "name": "Ανεμολόγιο εναλλακτικό καφέ",
    "url": "https://maps.app.goo.gl/jpKMuFsoZ998HnQE8",
    "address": "Πελοπίδα 106, Περιστέρι 121 35",
    "lat": 38.016523540675394,
    "lng": 23.68057325145113,
    "id": "greekRestaurants_3bf98dd0eb38",
    "slug": "anemologio-enallaktiko-kafe-3bf9"
  },
  {
    "name": "Meze Meze",
    "url": "https://maps.app.goo.gl/w2k4XzSbicFJD4K48",
    "address": "Γρ. Κυδωνιών 10, Αιγάλεω 122 41",
    "lat": 37.991476631105556,
    "lng": 23.679783507694246,
    "id": "greekRestaurants_7ac3119d5e13",
    "slug": "meze-meze-7ac3"
  },
  {
    "name": "Μπάρμπα-Μήτσος - Άγιος Δημήτριος",
    "url": "https://maps.app.goo.gl/BYxu5opm4HvR37SN9",
    "address": "Ιουστινιανού 11, Αγ. Δημήτριος Αττικής 173 41",
    "lat": 37.92988893217819,
    "lng": 23.71912670552918,
    "id": "greekRestaurants_aa39dbadb1cc",
    "slug": "mparmpa-mitsos-agios-dimitrios-aa39"
  },
  {
    "name": "Κρητικός",
    "url": "https://maps.app.goo.gl/QgBcqGt9addfXPwL6",
    "address": "Ραιδεστού 36, Νέα Σμύρνη 171 22",
    "lat": 37.94303304147985,
    "lng": 23.704084169584778,
    "id": "greekRestaurants_e3992a60261a",
    "slug": "kritikos-e399"
  },
  {
    "name": "Μεζεκλίκια",
    "url": "https://maps.app.goo.gl/SnbVYFRKtMTWopt79",
    "address": "Π. Τσαλδάρη 277, Καλλιθέα 176 75",
    "lat": 37.956254016920724,
    "lng": 23.6929814615304,
    "id": "greekRestaurants_9f70b553963a",
    "slug": "mezeklikia-9f70"
  },
  {
    "name": "Λαδόκολλα",
    "url": "https://maps.app.goo.gl/R6yszu5SCxsZfVoCA",
    "address": "Λεωφ. Ελ. Βενιζέλου 243, Καλλιθέα 176 73",
    "lat": 37.9520147160471,
    "lng": 23.6947618008044,
    "id": "greekRestaurants_9776b2d601ec",
    "slug": "ladokolla-9776"
  },
  {
    "name": "Ρεμεζέ",
    "url": "https://maps.app.goo.gl/XpGuqMmfj7kNQaD17",
    "address": "Αγίας Λαύρας 14, Αιγάλεω 122 42",
    "lat": 37.99150355248482,
    "lng": 23.676971347564844,
    "id": "greekRestaurants_5f1c7c67f828",
    "slug": "remeze-5f1c"
  },
  {
    "name": "Κουτούκι Καλυψώ",
    "url": "https://maps.app.goo.gl/rZqTMGc8sQwmZ4zq9",
    "address": "Πεντέλης 41-43, Παλαιό Φάληρο 175 64",
    "lat": 37.94264199335833,
    "lng": 23.700097006546933,
    "id": "greekRestaurants_8f822e8ac2ff",
    "slug": "koytoyki-kalypso-8f82"
  },
  {
    "name": "Η Γωνία του Τόρβα",
    "url": "https://maps.app.goo.gl/LZohHFYr2FaVdjY49",
    "address": "Πλαστηρα & Καραΐσκακη, Νταου Πεντελη - Ραφηνας 190 09",
    "lat": 38.03925979288046,
    "lng": 23.9433795766678,
    "id": "greekRestaurants_f6d227505896",
    "slug": "i-gonia-toy-torva-f6d2"
  },
  {
    "name": "Arsenis",
    "url": "https://maps.app.goo.gl/gyD8tEfz4zabut3VA",
    "address": "Ζησιμοπούλου 19, Παλαιό Φάληρο 175 64",
    "lat": 37.93975062587842,
    "lng": 23.699103162428067,
    "id": "greekRestaurants_80e12cc840c6",
    "slug": "arsenis-80e1"
  },
  {
    "name": "Μπάμπης Ταβέρνα",
    "url": "https://maps.app.goo.gl/SyFUZSdaS3SB5Mm48",
    "address": "Λεωφ. Αμφιθέας 73, Παλαιό Φάληρο 175 64",
    "lat": 37.93493015100239,
    "lng": 23.70154955498321,
    "id": "greekRestaurants_842cd50fd946",
    "slug": "mpampis-taverna-842c"
  },
  {
    "name": "Μεζεδοπωλείο Άνευ Όρων",
    "url": "https://maps.app.goo.gl/hQsQJwctvni6scyCA",
    "address": "Δημαρχείου 8, Άνω Λιόσια 133 41",
    "lat": 38.07817620964211,
    "lng": 23.702197123618852,
    "id": "greekRestaurants_9919fac2ca6c",
    "slug": "mezedopoleio-aney-oron-9919"
  },
  {
    "name": "Ελλήνων Τα..ξυδια",
    "url": "https://maps.app.goo.gl/oC72DF6MLMBssYjU7",
    "address": "Νικ. Πλαστήρα 32, Χαϊδάρι 124 61",
    "lat": 38.00596041944379,
    "lng": 23.66399500584869,
    "id": "greekRestaurants_9f4c1147cab2",
    "slug": "ellinon-ta-xydia-9f4c"
  },
  {
    "name": "Το Ζεμπερέκι - Κουτούκι | Μοσχάτο",
    "url": "https://maps.app.goo.gl/D3JyGs93dHL849c59",
    "address": "Σολωμού 92, Μοσχάτο 183 45",
    "lat": 37.95039414676294,
    "lng": 23.681530575454058,
    "id": "greekRestaurants_be3d05b1fe1e",
    "slug": "to-zempereki-koytoyki-moschato-be3d"
  },
  {
    "name": "The Meaters Urban Beer Garden",
    "url": "https://maps.app.goo.gl/zrm7vsMu18rMsZFJA",
    "address": "Στρ. Καραϊσκάκη 25, Χαϊδάρι 124 61",
    "lat": 38.003598614109904,
    "lng": 23.66346778642219,
    "id": "greekRestaurants_741518abaa86",
    "slug": "the-meaters-urban-beer-garden-7415"
  },
  {
    "name": "Πέστο Κι Έγινε",
    "url": "https://maps.app.goo.gl/xWbZXEXeN5pg16TG9",
    "address": "Στρ. Καραϊσκάκη 17, Χαϊδάρι 124 61",
    "lat": 38.00286560260897,
    "lng": 23.663110435533067,
    "id": "greekRestaurants_2f9a21e4ef01",
    "slug": "pesto-ki-egine-2f9a"
  },
  {
    "name": "Ο Λάιος Ταβέρνα",
    "url": "https://maps.app.goo.gl/r5ZTDusqKfZ21E9b8",
    "address": "Λεωφ. Κωνσταντίνου Καραμανλή 6, Αχαρνές 136 72",
    "lat": 38.10626654490386,
    "lng": 23.736261492242534,
    "id": "greekRestaurants_5d8a4cf10a66",
    "slug": "o-laios-taverna-5d8a"
  },
  {
    "name": "To Yiasemi Food & Wine Experience",
    "url": "https://maps.app.goo.gl/72YzkYeb6xxkDt68A",
    "address": "Στρ. Καραϊσκάκη 1, Β, Χαϊδάρι 124 61",
    "lat": 38.00142234618658,
    "lng": 23.662754824513232,
    "id": "greekRestaurants_b6bacb590b9a",
    "slug": "to-yiasemi-food-wine-experience-b6ba"
  },
  {
    "name": "Πεϊνιρλί Ελευθεριάδης",
    "url": "https://maps.app.goo.gl/hWqtsGrqa7nCZyh16",
    "address": "Σολωμού 26, Δροσιά 145 72",
    "lat": 38.11739320879304,
    "lng": 23.862199451872925,
    "id": "greekRestaurants_a8f96784536e",
    "slug": "peinirli-eleytheriadis-a8f9"
  },
  {
    "name": "ο Πρόεδρος (Άλιμος)",
    "url": "https://maps.app.goo.gl/NkEb3eW3PBdD3fTy7",
    "address": "Άλιμος, Λεωφ. Καλαμακίου 26, Αθήνα 174 55",
    "lat": 37.91296146943959,
    "lng": 23.714111676638694,
    "id": "greekRestaurants_797f42f3890a",
    "slug": "o-proedros-alimos-797f"
  },
  {
    "name": "Αυλή",
    "url": "https://maps.app.goo.gl/j3KcRnM1M4kAsQz36",
    "address": "25ης Μαρτίου 24, Ροδόπολη 145 74",
    "lat": 38.1169884488727,
    "lng": 23.873697271500465,
    "id": "greekRestaurants_8bd7eaffbbd0",
    "slug": "ayli-8bd7"
  },
  {
    "name": "Βλάχικη Γάστρα",
    "url": "https://maps.app.goo.gl/DHcE17CBEXSZqg9G9",
    "address": "Κολοκοτρώνη 14, Ροδόπολη 145 74",
    "lat": 38.11813280551885,
    "lng": 23.875469007658698,
    "id": "greekRestaurants_3188c54ebc61",
    "slug": "vlachiki-gastra-3188"
  },
  {
    "name": "Ένα & Ένα",
    "url": "https://maps.app.goo.gl/ndrwbvbypJGEEjum6",
    "address": "Κύπρου 19, Χαϊδάρι 124 61",
    "lat": 38.008987140141066,
    "lng": 23.65280105299395,
    "id": "greekRestaurants_d0434bb7301e",
    "slug": "ena-ena-d043"
  },
  {
    "name": "Ζωοδόχος Πηγή Οινομαγειρίον",
    "url": "https://maps.app.goo.gl/Yhe2M5tujhjVHEAG6",
    "address": "Κατσούλη 77, Πειραιάς 185 41",
    "lat": 37.95501437395202,
    "lng": 23.663299464502014,
    "id": "greekRestaurants_31681c66c6ca",
    "slug": "zoodochos-pigi-oinomageirion-3168"
  },
  {
    "name": "Ταβέρνα Ο Βασίλης",
    "url": "https://maps.app.goo.gl/P3D4J5ff2iNtoGc99",
    "address": "Κολοκοτρώνη 160, Κορυδαλλός 181 21",
    "lat": 37.983639078803165,
    "lng": 23.65172200450781,
    "id": "greekRestaurants_71ccb1aa4b83",
    "slug": "taverna-o-vasilis-71cc"
  },
  {
    "name": "Γιουβετσάκια",
    "url": "https://maps.app.goo.gl/tvw66LvtdqTpBCKw9",
    "address": "Moreos 45 & Ithomis 20, Γλυφάδα 165 61",
    "lat": 37.88563428778149,
    "lng": 23.75438021161349,
    "id": "greekRestaurants_f28bb3ae0783",
    "slug": "gioyvetsakia-f28b"
  },
  {
    "name": "Το κουτούκι του Αντώνη",
    "url": "https://maps.app.goo.gl/SJ9Ya21w7zZToFhx8",
    "address": "Αργυροκάστρου 26, Πειραιάς 185 42",
    "lat": 37.9618540673877,
    "lng": 23.656289861821378,
    "id": "greekRestaurants_a448ec3cfffd",
    "slug": "to-koytoyki-toy-antoni-a448"
  },
  {
    "name": "Ζάχος Καμίνια",
    "url": "https://maps.app.goo.gl/24c8zd5zA2MCbP6f8",
    "address": "185 41, Κομοτηνής 37, Πειραιάς 185 41",
    "lat": 37.95283160176507,
    "lng": 23.658993462418696,
    "id": "greekRestaurants_77340ab1d76d",
    "slug": "zachos-kaminia-7734"
  },
  {
    "name": "Pipinios",
    "url": "https://maps.app.goo.gl/iPGdNokEkHQwjcP5A",
    "address": "Πέππα 1, Σταμάτα 145 75",
    "lat": 38.12550464522669,
    "lng": 23.87986733346546,
    "id": "greekRestaurants_626964779e0f",
    "slug": "pipinios-6269"
  },
  {
    "name": "Μέλι & Λάδι",
    "url": "https://maps.app.goo.gl/CPZ65sur6LLxmT9J6",
    "address": "Δημ. Γούναρη 144, Γλυφάδα 165 62",
    "lat": 37.87699204463285,
    "lng": 23.76367728627069,
    "id": "greekRestaurants_1210e06dbe2b",
    "slug": "meli-ladi-1210"
  },
  {
    "name": "Ταβέρνα Θέα",
    "url": "https://maps.app.goo.gl/fYR8XP1Em51pwvSn8",
    "address": "Τατοΐου, Αχαρνές 136 72",
    "lat": 38.144279854273236,
    "lng": 23.79258851371657,
    "id": "greekRestaurants_9800452eacf2",
    "slug": "taverna-thea-9800"
  },
  {
    "name": "Ταβέρνα Παππάς",
    "url": "https://maps.app.goo.gl/cf1v4bYNnpWbWW7u9",
    "address": "Θεσσαλονίκης 2, Αχαρνές 136 76",
    "lat": 38.13707378465122,
    "lng": 23.751130974888763,
    "id": "greekRestaurants_3985a63bf69c",
    "slug": "taverna-pappas-3985"
  },
  {
    "name": "Άγιος Μερκούριος",
    "url": "https://maps.app.goo.gl/WBkCLkjPiQY1AwSH6",
    "address": "Ά Φυλακιο Πυροσβεστικής, ΒΑΡΥΜΠΟΜΠΗ 136 73",
    "lat": 38.1455087216868,
    "lng": 23.79177367608356,
    "id": "greekRestaurants_5df0a2118a6f",
    "slug": "agios-merkoyrios-5df0"
  },
  {
    "name": "Τεφαρίκι",
    "url": "https://maps.app.goo.gl/mcH8XPhdX39hW6V59",
    "address": "Ξενοφώντος 28, Γλυφάδα 166 75",
    "lat": 37.871857113105406,
    "lng": 23.752753345977908,
    "id": "greekRestaurants_b64cf8867729",
    "slug": "tefariki-b64c"
  },
  {
    "name": "Φαγοποτείον στου Θωμά",
    "url": "https://maps.app.goo.gl/jQSs2dndkMDG9Tsq7",
    "address": "Μαυρομιχάλη 22-24, Πειραιάς 185 45",
    "lat": 37.954509819048326,
    "lng": 23.642613690114224,
    "id": "greekRestaurants_8e907eeb8136",
    "slug": "fagopoteion-stoy-thoma-8e90"
  },
  {
    "name": "Little Ginger",
    "url": "https://maps.app.goo.gl/ekwyDGT5qeED8gtk8",
    "address": "Αγγέλου Μεταξά 13, Πειραιάς 185 34",
    "lat": 37.93943083536511,
    "lng": 23.6501378633564,
    "id": "greekRestaurants_7773207b8a15",
    "slug": "little-ginger-7773"
  },
  {
    "name": "Αμυγδαλέζα",
    "url": "https://maps.app.goo.gl/xbczXzqr95568Y2p7",
    "address": "Μεγ. Αλεξάνδρου 86, Σταμάτα 145 75",
    "lat": 38.138791020092526,
    "lng": 23.886474004082586,
    "id": "greekRestaurants_eb34b601c233",
    "slug": "amygdaleza-eb34"
  },
  {
    "name": "Μαριγώ Εδεσματοπωλείο",
    "url": "https://maps.app.goo.gl/4advyD22Ta7qiUEv7",
    "address": "Φίλωνος 133, Πειραιάς 185 36",
    "lat": 37.93961721991741,
    "lng": 23.641779536091324,
    "id": "greekRestaurants_559e0d9ef868",
    "slug": "marigo-edesmatopoleio-559e"
  },
  {
    "name": "Οινοπαντοπωλείο Tο Ειδικόν",
    "url": "https://maps.app.goo.gl/PMXGHCEV52xT7G7w7",
    "address": "Ψαρών 38, Πειραιάς 185 46",
    "lat": 37.953880471733605,
    "lng": 23.63384583394419,
    "id": "greekRestaurants_e914468cc862",
    "slug": "oinopantopoleio-to-eidikon-e914"
  },
  {
    "name": "Αγρόκτημα Ρεγκούκου Ταβέρνα Σταμάτα",
    "url": "https://maps.app.goo.gl/X9aRczkLosh9Awyu8",
    "address": "Έκτορος, Σταμάτα 145 75",
    "lat": 38.142623703496184,
    "lng": 23.888598580375778,
    "id": "greekRestaurants_a9fd28504adb",
    "slug": "agroktima-regkoykoy-taverna-stamata-a9fd"
  },
  {
    "name": "Bounty all aboard",
    "url": "https://maps.app.goo.gl/2iShe5bzo7qg3ohc6",
    "address": "Εθ. Αντιστάσεως 10, Δραπετσώνα 186 48",
    "lat": 37.949723445369806,
    "lng": 23.63332963263093,
    "id": "greekRestaurants_f42ac62c3249",
    "slug": "bounty-all-aboard-f42a"
  },
  {
    "name": "Ιζαμπέλα - Αρμένικες νοστιμιές",
    "url": "https://maps.app.goo.gl/r3twrz7bwRr76j8n8",
    "address": "Αναπαύσεως 36, Δραπετσώνα 185 46",
    "lat": 37.95153993965958,
    "lng": 23.631088706562064,
    "id": "greekRestaurants_899916cf9819",
    "slug": "izampela-armenikes-nostimies-8999"
  },
  {
    "name": "Basegrill",
    "url": "https://maps.app.goo.gl/Mg499qYpRgDUfYMg9",
    "address": "Ζησιμοπούλου 5, Γλυφάδα 166 74",
    "lat": 37.860629906056765,
    "lng": 23.752227328267114,
    "id": "greekRestaurants_2c46fb9be459",
    "slug": "basegrill-2c46"
  },
  {
    "name": "Σασμός Κρητικό Εστιατόριο",
    "url": "https://maps.app.goo.gl/hFF1UKLboDX66HUH8",
    "address": "Γρ. Λαμπράκη 1-3, Γλυφάδα 166 75",
    "lat": 37.86096099153773,
    "lng": 23.750381646450872,
    "id": "greekRestaurants_0d2e578d4137",
    "slug": "sasmos-kritiko-estiatorio-0d2e"
  },
  {
    "name": "Η ταβέρνα του Κατσόγιαννου",
    "url": "https://maps.app.goo.gl/JYrJ78md5Yy4N4n89",
    "address": "Αγίου Παντελεήμονος 15, Δραπετσώνα 186 48",
    "lat": 37.9460888309485,
    "lng": 23.627498476767997,
    "id": "greekRestaurants_0105e2b1bfb5",
    "slug": "i-taverna-toy-katsogiannoy-0105"
  },
  {
    "name": "Στου Λαδόκωστα",
    "url": "https://maps.app.goo.gl/mXkB4S51cYRYxwCe8",
    "address": "Λεωφ. Ποσειδώνος, Νέα Μάκρη 190 05",
    "lat": 38.08813666230261,
    "lng": 23.982996365102682,
    "id": "greekRestaurants_e13d6a44e9be",
    "slug": "stoy-ladokosta-e13d"
  },
  {
    "name": "Ταβέρνα Τσολιάς",
    "url": "https://maps.app.goo.gl/Pp2npdeDX3kaQbgD6",
    "address": "Λεωφ. Βάρης 45, Βάρη 166 72",
    "lat": 37.834865053335534,
    "lng": 23.79315959403436,
    "id": "greekRestaurants_2f171b46e48c",
    "slug": "taverna-tsolias-2f17"
  },
  {
    "name": "Ta Vlachika",
    "url": "https://maps.app.goo.gl/VC2HFhV1wgWoJ7Ev7",
    "address": "Leoforos Evelpidon, Πρεβέζης, Βάρη 166 72",
    "lat": 37.834890045838,
    "lng": 23.791941775154488,
    "id": "greekRestaurants_d87acafe326d",
    "slug": "ta-vlachika-d87a"
  },
  {
    "name": "Το Τρίγωνο",
    "url": "https://maps.app.goo.gl/pPFdZPKhVShhMrpC6",
    "address": "Αθηνων 36, Καλύβια Θορικού 190 10",
    "lat": 37.842540231960264,
    "lng": 23.92981276182192,
    "id": "greekRestaurants_4897cd79b835",
    "slug": "to-trigono-4897"
  },
  {
    "name": "Ταβέρνα ο Μουρούζης",
    "url": "https://maps.app.goo.gl/ezdUi47iiXAnpXxY9",
    "address": "Βασιλείου Γεωργάκη 2, Καλύβια Θορικού 190 10",
    "lat": 37.841203116649474,
    "lng": 23.927040364485364,
    "id": "greekRestaurants_2ecb7afbe3a2",
    "slug": "taverna-o-moyroyzis-2ecb"
  },
  {
    "name": "Ο Χριστόφορος",
    "url": "https://maps.app.goo.gl/qHLpPbKqrYerTaBG8",
    "address": "Μιχάλη Καλαβρυτινού 11, Καλύβια Θορικού 190 10",
    "lat": 37.84084854419875,
    "lng": 23.927116302854657,
    "id": "greekRestaurants_8851a9198b0c",
    "slug": "o-christoforos-8851"
  },
  {
    "name": "Ταβέρνα ο Μάκης, Αφίδνες",
    "url": "https://maps.app.goo.gl/wEzHjcfenn2nmLN3A",
    "address": "Λεωφ. Καλλίμαχου 2, Σταθμός Αφιδνών 190 14",
    "lat": 38.192798626562244,
    "lng": 23.84324387519098,
    "id": "greekRestaurants_24713ff3cd1e",
    "slug": "taverna-o-makis-afidnes-2471"
  },
  {
    "name": "Matambre",
    "url": "https://maps.app.goo.gl/nZX2pdLZsc3fNQMa8",
    "address": "Λεωφ. Λίμνης Μαραθώνος 245, Μαραθώνας 190 07",
    "lat": 38.17453592653479,
    "lng": 23.91849447631357,
    "id": "greekRestaurants_82199ba27aab",
    "slug": "matambre-8219"
  },
  {
    "name": "Λουιζίδης Εστιατόριο Βουλιαγμένη",
    "url": "https://maps.app.goo.gl/DrVjHpSB5fMFZXij9",
    "address": "Ερμού 2, Βουλιαγμένη 166 71",
    "lat": 37.813204547074946,
    "lng": 23.78315032705324,
    "id": "greekRestaurants_cce1cd728bae",
    "slug": "loyizidis-estiatorio-voyliagmeni-cce1"
  },
  {
    "name": "Σκνίπα",
    "url": "https://maps.app.goo.gl/zYvZ3P8Ee67RZoNy6",
    "address": "Ηλέκτρας 1, Πέραμα 188 63",
    "lat": 37.96447715022685,
    "lng": 23.56326926823615,
    "id": "greekRestaurants_da2ab78c5fb8",
    "slug": "sknipa-da2a"
  },
  {
    "name": "Ταβέρνα Γαλήνη",
    "url": "https://maps.app.goo.gl/Fk7koGAZ462ABfY76",
    "address": "Λεωφ. Ειρήνης 8, Πολυδένδρι 190 14",
    "lat": 38.21564800607866,
    "lng": 23.86762931136811,
    "id": "greekRestaurants_a2675225a16c",
    "slug": "taverna-galini-a267"
  },
  {
    "name": "Το τζάκι",
    "url": "https://maps.app.goo.gl/7wN2L21tT2o7KxCV7",
    "address": "Λεωφ. Ειρήνης 4, Πολυδένδρι 190 14",
    "lat": 38.21655428611633,
    "lng": 23.86821611372373,
    "id": "greekRestaurants_d3d5875fd455",
    "slug": "to-tzaki-d3d5"
  },
  {
    "name": "Ρακούν",
    "url": "https://maps.app.goo.gl/8AuC45RCCAkJsvne9",
    "address": "Νικολαΐδου 66, Ελευσίνα 192 00",
    "lat": 38.04130257579753,
    "lng": 23.540052368264472,
    "id": "greekRestaurants_884db7ea726f",
    "slug": "rakoyn-884d"
  },
  {
    "name": "Ταβέρνα Βασιλάκος",
    "url": "https://maps.app.goo.gl/5w23D5PVYwasH98X9",
    "address": "Λεωφ. Ειρήνης 4, Πολυδένδρι 190 14",
    "lat": 38.216929169351175,
    "lng": 23.868895678768617,
    "id": "greekRestaurants_f163a01d5b8e",
    "slug": "taverna-vasilakos-f163"
  },
  {
    "name": "Αυλή Ελευσίνα",
    "url": "https://maps.app.goo.gl/FqXm1SHTy3UsbXZy9",
    "address": "Κανελλόπουλου 9, Ελευσίνα 192 00",
    "lat": 38.03677889549646,
    "lng": 23.538522460635875,
    "id": "greekRestaurants_9cb9af8d0b5c",
    "slug": "ayli-eleysina-9cb9"
  },
  {
    "name": "Γαβριλης Ταβερνα",
    "url": "https://maps.app.goo.gl/bdVU3oQaAfncuVsN9",
    "address": "Αγίου Δημητρίου, Κουβαράς 190 03",
    "lat": 37.82834073423115,
    "lng": 23.969307203160838,
    "id": "greekRestaurants_cc0b98bd06d3",
    "slug": "gavrilis-taverna-cc0b"
  },
  {
    "name": "Το Συντριβάνι-Περήφανος",
    "url": "https://maps.app.goo.gl/jUCxRPxswFJerx5H9",
    "address": "Λεωφόρος Αθηνών, Μαλακάσα 190 11",
    "lat": 38.239213748428575,
    "lng": 23.795988231331933,
    "id": "greekRestaurants_eab29c812967",
    "slug": "to-syntrivani-perifanos-eab2"
  },
  {
    "name": "Παραδοσιακό Καφενείο ΚωτσΑνΝίτσα",
    "url": "https://maps.app.goo.gl/QsRPY3vUeGKY5wLB6",
    "address": "Λεωφόρος Αθηνών Χαλκίδος, Μαλακάσα 190 11",
    "lat": 38.23932131119346,
    "lng": 23.792367425380203,
    "id": "greekRestaurants_e4ab2f008904",
    "slug": "paradosiako-kafeneio-kotsannitsa-e4ab"
  },
  {
    "name": "Μπάρμπα Βασίλης",
    "url": "https://maps.app.goo.gl/C74xDes5etzk12FL7",
    "address": "Σπύρου Πολύχρονη, Μικροχώρι 190 14",
    "lat": 38.23380794795737,
    "lng": 23.89319631949878,
    "id": "greekRestaurants_c595c62efc6b",
    "slug": "mparmpa-vasilis-c595"
  },
  {
    "name": "Λάζο",
    "url": "https://maps.app.goo.gl/fKnjDEunWNjANCQ27",
    "address": "Αθηνών Σουνίου 53, Κερατέα 190 01",
    "lat": 37.808550661496035,
    "lng": 23.978467603150243,
    "id": "greekRestaurants_69fc9f288c42",
    "slug": "lazo-69fc"
  },
  {
    "name": "Σταφυλομέλι",
    "url": "https://maps.app.goo.gl/aDeFKvVmZyVF7ZpSA",
    "address": "Επαρ.Οδ. Κερατέας-Ανάβυσσου 77, Κερατέα 190 01",
    "lat": 37.80427446071782,
    "lng": 23.98986829628017,
    "id": "greekRestaurants_fbdca7941b9f",
    "slug": "stafylomeli-fbdc"
  },
  {
    "name": "Ταβέρνα Ραμνούς",
    "url": "https://maps.app.goo.gl/M3qEfsy6NhrFMcCH9",
    "address": "Αρχαιολογικος Χωρος Ραμνους, Λεωφόρος Ραμνουντος Τερμα, Μαραθωνας 190 07",
    "lat": 38.21411980707791,
    "lng": 24.03058229285915,
    "id": "greekRestaurants_3e4d92e59717",
    "slug": "taverna-ramnoys-3e4d"
  },
  {
    "name": "Ταβέρνα Ο Λίτσας",
    "url": "https://maps.app.goo.gl/DPJMb7ZiPi9MTzov7",
    "address": "Λεωφ. Αθηνών Ωρωπού, Μήλεσι Αττικής 190 11",
    "lat": 38.2808566827325,
    "lng": 23.792798463384955,
    "id": "greekRestaurants_fb8150b1b5bf",
    "slug": "taverna-o-litsas-fb81"
  },
  {
    "name": "Εστιατόριο Θυμάρι",
    "url": "https://maps.app.goo.gl/rzpZZmk1oVw5HpXk9?g_st=ipc",
    "address": "Λεωφ. Αφαίας, Αγ. Μαρίνα 180 10",
    "lat": 37.74409980963869,
    "lng": 23.53632010673103,
    "id": "greekRestaurants_7b2f8cec89e8",
    "slug": "estiatorio-thymari-7b2f"
  },
  {
    "name": "Γυραδικο Ο Χρήστος",
    "url": "https://maps.app.goo.gl/QyQBQ66ua51RomM56?g_st=ipc",
    "address": "Λεωφ. Σουνίου 6, Λαύριο 195 00",
    "lat": 37.71739386499137,
    "lng": 24.054309535577552,
    "id": "greekRestaurants_d71e6913cb90",
    "slug": "gyradiko-o-christos-d71e"
  },
  {
    "name": "Κουτσή Κατσίκα Λαύριο",
    "url": "https://maps.app.goo.gl/GZaKZri1vc4Knfup7?g_st=ipc",
    "address": "Κουντουριώτη, Λιμάνι Λαυρίου 6, Λαύριο 195 00",
    "lat": 37.712808004930835,
    "lng": 24.055992621254646,
    "id": "greekRestaurants_b0e401ff0ee4",
    "slug": "koytsi-katsika-layrio-b0e4"
  },
  {
    "name": "Το Στέκι του Κυνηγού",
    "url": "https://maps.app.goo.gl/eRHkBsaWKHX368U76?g_st=ipc",
    "address": "Ανίτσαιο 180 10",
    "lat": 37.70692578125452,
    "lng": 23.504550200008005,
    "id": "greekRestaurants_4c0797e5b05b",
    "slug": "to-steki-toy-kynigoy-4c07"
  },
  {
    "name": "Παραδοσιακή Ταβέρνα Βατζούλιας",
    "url": "https://maps.app.goo.gl/mXN4oehYWbVxscvt8?g_st=ipc",
    "address": "Αφαίας 215, Αίγινα 180 10",
    "lat": 37.74554524402309,
    "lng": 23.44741816441979,
    "id": "greekRestaurants_2017008c1880",
    "slug": "paradosiaki-taverna-vatzoylias-2017"
  },
  {
    "name": "Ο Μάνιτας στο Κύμα",
    "url": "https://maps.app.goo.gl/mdpRWqsEC1ekDdu26?g_st=ipc",
    "address": "Άγιος Βασίλης Περιβόλα, Αίγινα 180 10",
    "lat": 37.72802490000876,
    "lng": 23.436258793291216,
    "id": "greekRestaurants_7e47ce5f873d",
    "slug": "o-manitas-sto-kyma-7e47"
  },
  {
    "name": "Ταβέρνα Λεστόρι",
    "url": "https://maps.app.goo.gl/ua2rbjj6TsXM4Ua49?g_st=ipc",
    "address": "Ι. Σακελλαρίου 59, Βίλια 190 12",
    "lat": 38.16672026950688,
    "lng": 23.331475593266063,
    "id": "greekRestaurants_ad3a4104d172",
    "slug": "taverna-lestori-ad3a"
  },
  {
    "name": "Ταβερνα Καλλιοντζη",
    "url": "https://maps.app.goo.gl/q5yJNzCzH42Ubojt5?g_st=ipc",
    "address": "Ζάρακες 340 17",
    "lat": 38.30212031451821,
    "lng": 24.192393057705917,
    "id": "greekRestaurants_1d92f9bdf6c9",
    "slug": "taverna-kalliontzi-1d92"
  },
  {
    "name": "Κουτουκι Παμε στου Νικολα",
    "url": "https://maps.app.goo.gl/MKQYaTiNZDJ9y8cf9?g_st=ipc",
    "address": "Αγίου Αλεξάνδρου, Χαλκίδα 341 00",
    "lat": 38.43629094885433,
    "lng": 23.630485450987354,
    "id": "greekRestaurants_ec2a8b2c83d9",
    "slug": "koytoyki-pame-stoy-nikola-ec2a"
  },
  {
    "name": "ΤΟΞΟΤΗΣ",
    "url": "https://maps.app.goo.gl/y4Wvco9rEc1QfYUM6?g_st=ipc",
    "address": "Σκάλα 180 10",
    "lat": 37.70895258892911,
    "lng": 23.363446090303647,
    "id": "greekRestaurants_fe33131c983d",
    "slug": "toxotis-fe33"
  },
  {
    "name": "Ταβέρνα Αμπολή",
    "url": "https://maps.app.goo.gl/2yA2jW82NvhwYb5dA?g_st=ipc",
    "address": "Πετριές 340 17",
    "lat": 38.406699872649206,
    "lng": 24.167892229616715,
    "id": "greekRestaurants_8264dbbcf215",
    "slug": "taverna-ampoli-8264"
  },
  {
    "name": "Το Στέκι",
    "url": "https://maps.app.goo.gl/Jg5K19uN9xk81De17?g_st=ipc",
    "address": "Ιουλίδα, Κέα 840 02",
    "lat": 37.64076026825118,
    "lng": 24.343071921982645,
    "id": "greekRestaurants_68a9f7400481",
    "slug": "to-steki-68a9"
  },
  {
    "name": "Καλή Καρδιά",
    "url": "https://maps.app.goo.gl/PRdRKPuUB7qffyj18?g_st=ipc",
    "address": "Καμπιά 340 14",
    "lat": 38.56948818591032,
    "lng": 23.85240444441089,
    "id": "greekRestaurants_6d77d03fd815",
    "slug": "kali-kardia-6d77"
  },
  {
    "name": "Ταβέρνα Κισσός - Στενή Ευβοίας",
    "url": "https://maps.app.goo.gl/36qZq5pA8trHo2vUA?g_st=ipc",
    "address": "Δάσος Στενής, Στενή Δίρφυος 340 14",
    "lat": 38.582812038208004,
    "lng": 23.839569738880474,
    "id": "greekRestaurants_5dac34f7b50b",
    "slug": "taverna-kissos-steni-eyvoias-5dac"
  },
  {
    "name": "DIMITRIS FAMILY BUTCHER TAVERNA",
    "url": "https://maps.app.goo.gl/rVV7dw6UQwPvjHip9?g_st=ipc",
    "address": "25 ΜΑΡΤΙΟΥ 12, Πόρος 180 20",
    "lat": 37.49998863137907,
    "lng": 23.454951269041434,
    "id": "greekRestaurants_5cc6a0ad45a2",
    "slug": "dimitris-family-butcher-taverna-5cc6"
  },
  {
    "name": "ΤΑΒΕΡΝΑ Ο ΜΑΜΟΥΚΑΣ",
    "url": "https://maps.app.goo.gl/GmmhLKs8vbEANXpd8?g_st=ipc",
    "address": "Ανδρωνιάνοι 340 03",
    "lat": 38.61656208602637,
    "lng": 24.058771422139735,
    "id": "greekRestaurants_5142a7e84c70",
    "slug": "taverna-o-mamoykas-5142"
  },
  {
    "name": "Μαϊστράλι",
    "url": "https://maps.app.goo.gl/TngD3F1b3PDVc4187?g_st=ipc",
    "address": "Ποσειδώνος 81, Λουτράκι 203 00",
    "lat": 37.967119636762334,
    "lng": 22.972511635572165,
    "id": "greekRestaurants_87ece57093df",
    "slug": "maistrali-87ec"
  },
  {
    "name": "Ταβέρνα Μπατζάβαλης",
    "url": "https://maps.app.goo.gl/PctHkeeHVJEeQDux6?g_st=ipc",
    "address": "Καρατζάς 180 20",
    "lat": 37.538801302509206,
    "lng": 23.20804103233561,
    "id": "greekRestaurants_194196a775f8",
    "slug": "taverna-mpatzavalis-1941"
  },
  {
    "name": "Παραλία Δάφνης",
    "url": "https://maps.app.goo.gl/oFUXTo8U8HVu1Btn8?g_st=ipc",
    "address": "Δάφνη 344 00",
    "lat": 38.63319650085717,
    "lng": 23.49219221535305,
    "id": "greekRestaurants_5abb91037219",
    "slug": "paralia-dafnis-5abb"
  },
  {
    "name": "PANORAMA",
    "url": "https://maps.app.goo.gl/iZ1dcxAEfMtNzWnJ6?g_st=ipc",
    "address": "Λουτράκι 203 00",
    "lat": 38.00713857434971,
    "lng": 22.938193442340463,
    "id": "greekRestaurants_95a7c55fd3b7",
    "slug": "panorama-95a7"
  },
  {
    "name": "Η Ωραία Ύδρα",
    "url": "https://maps.app.goo.gl/rkvAbXZyRA6uxizH8?g_st=ipc",
    "address": "Ύδρας, Ύδρα 180 40",
    "lat": 37.34994288805934,
    "lng": 23.466175945881538,
    "id": "greekRestaurants_2a52e887a9bb",
    "slug": "i-oraia-ydra-2a52"
  },
  {
    "name": "ΨΑΡΟΠΟΥΛΑ Γ.ΜΑΥΡΟΜΜΑΤΗΣ-Η.ΜΑΥΡΟΜΜΑΤΗΣ-Γ.ΕΥΣΤΑΘΙΟΥ ΟΕ Ο.Ε",
    "url": "https://maps.app.goo.gl/Xci6cmF7LRrnCad59?g_st=ipc",
    "address": "Μιαούλη 454, Ύδρα 180 40",
    "lat": 37.34973982167689,
    "lng": 23.46495374540123,
    "id": "greekRestaurants_957bfb0c0005",
    "slug": "psaropoyla-g-mayrommatis-i-mayrommatis-g-eystathioy-oe-o-e-957b"
  },
  {
    "name": "Castello Hydra",
    "url": "https://maps.app.goo.gl/ZWwvNsRtXjXrDC2j9?g_st=ipc",
    "address": "Kamini Hydra Island Hydra Island, 180 40",
    "lat": 37.34652415693392,
    "lng": 23.455436035571626,
    "id": "greekRestaurants_37c38a309ff6",
    "slug": "castello-hydra-37c3"
  },
  {
    "name": "Το Στέκι Του Ανδρέα στην Άνδρο",
    "url": "https://maps.app.goo.gl/XUN3ng41cfQhgK3D6?g_st=ipc",
    "address": "Παραλία Φελλού, Άνδρος 845 00",
    "lat": 37.90062312367468,
    "lng": 24.711658535578362,
    "id": "greekRestaurants_d4937c446881",
    "slug": "to-steki-toy-andrea-stin-andro-d493"
  },
  {
    "name": "Κόσσης",
    "url": "https://maps.app.goo.gl/uhxK7foF95HsorjaA?g_st=ipc",
    "address": "Aνω, Κάτω Φελλός 845 01",
    "lat": 37.92050251340132,
    "lng": 24.72409809326984,
    "id": "greekRestaurants_1430d6fb94a9",
    "slug": "kossis-1430"
  },
  {
    "name": "ΤΑΒΕΡΝΑ ΜΠΕΚΟΣ",
    "url": "https://maps.app.goo.gl/WFqWdQskbVXwmo339?g_st=ipc",
    "address": "ΕΟ Κορίνθου Άργους 36, Σολομός 201 00",
    "lat": 37.882103671834614,
    "lng": 22.89083633129398,
    "id": "greekRestaurants_cb449644830d",
    "slug": "taverna-mpekos-cb44"
  },
  {
    "name": "Κούτσικος - Εστιατόριο",
    "url": "https://maps.app.goo.gl/PTJMDf8CPhT12on69?g_st=ipc",
    "address": "37°26'11.4\"N 24°25'28., 1, Σιντική 623 00",
    "lat": 37.436774168152716,
    "lng": 24.424568422123198,
    "id": "greekRestaurants_df3695f3e140",
    "slug": "koytsikos-estiatorio-df36"
  },
  {
    "name": "Το Στέκι του Ντέτζη",
    "url": "https://maps.app.goo.gl/s21k1zGHkiQiQg4s7?g_st=ipc",
    "address": "Κύθνος 840 06",
    "lat": 37.412472796893596,
    "lng": 24.43096202247223,
    "id": "greekRestaurants_4500da731c6a",
    "slug": "to-steki-toy-ntetzi-4500"
  },
  {
    "name": "ΓΙΑΓΙΑ ΚΟΥΚΟΥ Kythnos",
    "url": "https://maps.app.goo.gl/9L488c2BBbXHP1Yz9?g_st=ipc",
    "address": "Ανεμομυλος, Κύθνος 840 06",
    "lat": 37.41258086001589,
    "lng": 24.43247179288349,
    "id": "greekRestaurants_3ecbeb295bc4",
    "slug": "giagia-koykoy-kythnos-3ecb"
  },
  {
    "name": "Fourles",
    "url": "https://maps.app.goo.gl/m4rPqMjHikQUW4So9?g_st=ipc",
    "address": "Λιμάνι Μέριχα ΚΥΘΝΟΣ, Μεριχας 840 06",
    "lat": 37.38863369970779,
    "lng": 24.397655998320165,
    "id": "greekRestaurants_cf9861d9b1ba",
    "slug": "fourles-cf98"
  },
  {
    "name": "Almi Tavern Andros",
    "url": "https://maps.app.goo.gl/eHhBS6sYeSo2Zr6s5?g_st=ipc",
    "address": "Επαρ.Οδ. Άνδρου-Μπατσίου, Μπατσί 845 01",
    "lat": 37.861737922645034,
    "lng": 24.779792309491878,
    "id": "greekRestaurants_93cc48915673",
    "slug": "almi-tavern-andros-93cc"
  },
  {
    "name": "Chavon Restobar",
    "url": "https://maps.app.goo.gl/gHNgPE2wUtHLY6F1A?g_st=ipc",
    "address": "Parodos Andrea Lazana 101, Βραχάτι 200 06",
    "lat": 37.96210160412795,
    "lng": 22.806527700162825,
    "id": "greekRestaurants_b760cd0c2463",
    "slug": "chavon-restobar-b760"
  },
  {
    "name": "ΧΑΡΤΙΝΟ ΚΑΡΑΒΙ",
    "url": "https://maps.app.goo.gl/6a5xfQQ1xwApv9Eb7?g_st=ipc",
    "address": "Δρυοπίδα 840 06",
    "lat": 37.382790599679765,
    "lng": 24.431004817048752,
    "id": "greekRestaurants_432f5403f78b",
    "slug": "chartino-karavi-432f"
  },
  {
    "name": "Εβίβα Ταβέρνα",
    "url": "https://maps.app.goo.gl/D8Mr8bUZPttfMux47?g_st=ipc",
    "address": "Επαρ.Οδ. Βραχατίου - Νεμέας 255, Βοχαϊκό 200 06",
    "lat": 37.94826596142861,
    "lng": 22.791019779670105,
    "id": "greekRestaurants_f0875a0de3a8",
    "slug": "eviva-taverna-f087"
  },
  {
    "name": "Το Μπαλκόνι του Αιγαίου",
    "url": "https://maps.app.goo.gl/7HaLWB594ALzDwtp7?g_st=ipc",
    "address": "ΑΠΡΟΒΑΤΟ, Άνω Απροβατου 845 01",
    "lat": 37.83554332996387,
    "lng": 24.812413866994714,
    "id": "greekRestaurants_86110571add2",
    "slug": "to-mpalkoni-toy-aigaioy-8611"
  },
  {
    "name": "Restaurant-cafe 'MANJAVINOS'",
    "url": "https://maps.app.goo.gl/nHY3UgamjzyyjZF98?g_st=ipc",
    "address": "Unnamed Road, Κανάλα 840 06",
    "lat": 37.34603270151496,
    "lng": 24.430502124554476,
    "id": "greekRestaurants_463de52b148c",
    "slug": "restaurant-cafe-manjavinos-463d"
  },
  {
    "name": "Archipelagos Restaurant & Rooms",
    "url": "https://maps.app.goo.gl/KodGYY1d4Cqjk63n9?g_st=ipc",
    "address": "Κανάλα 840 06",
    "lat": 37.34777052448201,
    "lng": 24.434798293695515,
    "id": "greekRestaurants_a37bbb119452",
    "slug": "archipelagos-restaurant-rooms-a37b"
  },
  {
    "name": "ΤΑΒΕΡΝΑ ΑΓΙΑΝΝΗΣ ΓΟΥΡΝΟΠΟΥΛΑ",
    "url": "https://maps.app.goo.gl/TAEgeZnnDvDXP5b27?g_st=ipc",
    "address": "Αθηνών 190, Κιάτο 202 00",
    "lat": 37.99600590320037,
    "lng": 22.763769354956416,
    "id": "greekRestaurants_7e187d76eed9",
    "slug": "taverna-agiannis-goyrnopoyla-7e18"
  },
  {
    "name": "Ο ΜΗΛΑΣ ΕΣΤΙΑΤΟΡΙΟ",
    "url": "https://maps.app.goo.gl/ZFv4HFHAU9qj4ohD7?g_st=ipc",
    "address": "ΑΓΙΟΣ ΔΗΜΗΤΡΙΟΣ, Αγ. Δημήτριος 840 06",
    "lat": 37.31063309409623,
    "lng": 24.373887108876595,
    "id": "greekRestaurants_792b73e9842d",
    "slug": "o-milas-estiatorio-792b"
  },
  {
    "name": "Το Ακρογιάλι",
    "url": "https://maps.app.goo.gl/iE2gh5mtyHCHtnZs7",
    "address": "Αγ. Δημήτριος 840 06",
    "lat": 37.311210551504175,
    "lng": 24.374424292363123,
    "id": "greekRestaurants_ec533605b182",
    "slug": "to-akrogiali-ec53"
  },
  {
    "name": "Ελλάς",
    "url": "https://maps.app.goo.gl/1U76XKVBxExMEULE7?g_st=ipc",
    "address": "Παλαιά Ε.Ο. Κορίνθου Πατρών 16, Κάτω Διμηνιό, Κιάτο 202 00",
    "lat": 38.025725060862264,
    "lng": 22.73285830482763,
    "id": "greekRestaurants_7e3395541ef7",
    "slug": "ellas-7e33"
  },
  {
    "name": "«Τ' ΑΛΩΝΙΑ» Παραδοσιακή Ελληνική Ταβέρνα",
    "url": "https://maps.app.goo.gl/NA8tRJoQnezLcqzT6?g_st=ipc",
    "address": "Γεωρ. Γεννηματά 8, Πυργιώτικα 211 00",
    "lat": 37.5821792332292,
    "lng": 22.878688681857938,
    "id": "greekRestaurants_730d57299d9e",
    "slug": "t-alonia-paradosiaki-elliniki-taverna-730d"
  },
  {
    "name": "Καλλίγευστον",
    "url": "https://maps.app.goo.gl/zYi1gLNTWPkzLzVD6?g_st=ipc",
    "address": "Ελ. Βενιζέλου 19, Λιβαδειά 321 00",
    "lat": 38.43485008360987,
    "lng": 22.87533637489723,
    "id": "greekRestaurants_10ece8dd8944",
    "slug": "kalligeyston-10ec"
  },
  {
    "name": "Ταβέρνα Κοκορομύτης",
    "url": "https://maps.app.goo.gl/BSHNHo6Xw2QuP8Kw5?g_st=ipc",
    "address": "Μουσών, Άρια 211 00",
    "lat": 37.57233337813603,
    "lng": 22.83006926532932,
    "id": "greekRestaurants_22138bcb321f",
    "slug": "taverna-kokoromytis-2213"
  },
  {
    "name": "Maria's Restaurant",
    "url": "https://maps.app.goo.gl/QbgkBU617RxRPjsA9?g_st=ipc",
    "address": "Μπουμπουλίνας 48, Τολό 210 56",
    "lat": 37.52164513322119,
    "lng": 22.86050581823376,
    "id": "greekRestaurants_3deccfb243c6",
    "slug": "maria-s-restaurant-3dec"
  },
  {
    "name": "Ταβέρνα Ακρογιάλι",
    "url": "https://maps.app.goo.gl/ozgqdAjUGP2zDfVP7?g_st=ipc",
    "address": "Ακτης 10, Τολό 210 56",
    "lat": 37.52046536124531,
    "lng": 22.859758080550037,
    "id": "greekRestaurants_456e04c6f039",
    "slug": "taverna-akrogiali-456e"
  },
  {
    "name": "Romvi Restaurant",
    "url": "https://maps.app.goo.gl/e71iANV4U9yZU48u9?g_st=ipc",
    "address": "Τολό 210 56",
    "lat": 37.51773326708392,
    "lng": 22.85851725425822,
    "id": "greekRestaurants_2ba865e52e42",
    "slug": "romvi-restaurant-2ba8"
  },
  {
    "name": "Fofo Cycladic Gastronomy",
    "url": "https://maps.app.goo.gl/2iPebnrW2ztaiYfU7?g_st=ipc",
    "address": "Επαρ.Οδ. Άνδρου-Σταυροπέδας, Λιβάδια 845 00",
    "lat": 37.82353783239752,
    "lng": 24.928189313412695,
    "id": "greekRestaurants_718e14a085bf",
    "slug": "fofo-cycladic-gastronomy-718e"
  },
  {
    "name": "Το Παχνί",
    "url": "https://maps.app.goo.gl/Tmcgsc72ZpK8WBnD7?g_st=ipc",
    "address": "Σπέτσες 180 50",
    "lat": 37.258940457050436,
    "lng": 23.158493356055367,
    "id": "greekRestaurants_542454bebe35",
    "slug": "to-pachni-5424"
  },
  {
    "name": "Πηδάλιο -Restaurant",
    "url": "https://maps.app.goo.gl/gpipbAd1f2YeqATv9?g_st=ipc",
    "address": "25ης Μαρτίου 5, Ναύπλιο 211 00",
    "lat": 37.56488349870354,
    "lng": 22.8061371647206,
    "id": "greekRestaurants_0e937f9c9d72",
    "slug": "pidalio-restaurant-0e93"
  },
  {
    "name": "Σκαρπέτα | Skarpeta",
    "url": "https://maps.app.goo.gl/y1tbJ7Ka9yN8RJXn7?g_st=ipc",
    "address": "Πάρκο, Σταϊκοπούλου, Ναύπλιο 211 00",
    "lat": 37.56454091062987,
    "lng": 22.80102416836778,
    "id": "greekRestaurants_7230005d3481",
    "slug": "skarpeta-skarpeta-7230"
  },
  {
    "name": "Το Τελωνείο",
    "url": "https://maps.app.goo.gl/nh7yb45ifREfXwro7?g_st=ipc",
    "address": "Ακτής Μιαούλη 83, Ναύπλιο 211 00",
    "lat": 37.56743155679151,
    "lng": 22.79708632929498,
    "id": "greekRestaurants_742eabdb9109",
    "slug": "to-teloneio-742e"
  },
  {
    "name": "Sofos",
    "url": "https://maps.app.goo.gl/dwiyoJBZoJnwyzi76?g_st=ipc",
    "address": "Δερβενακίων, Νεμέα 205 00",
    "lat": 37.8214332020111,
    "lng": 22.663718153863066,
    "id": "greekRestaurants_2229596e0e1c",
    "slug": "sofos-2229"
  },
  {
    "name": "17 Χωριά",
    "url": "https://maps.app.goo.gl/JMfmZXakmTgFrEhd7?g_st=ipc",
    "address": "Δερβενακίων 12, Νεμέα 205 00",
    "lat": 37.821379737670235,
    "lng": 22.662966793394837,
    "id": "greekRestaurants_999a38347b72",
    "slug": "17-choria-999a"
  },
  {
    "name": "SEA SATIN NINO",
    "url": "https://maps.app.goo.gl/h3BaucesVrSWHYau5?g_st=ipc",
    "address": "Pedestrian Walk Way, Ormos, Korthi 845 02",
    "lat": 37.773197007055956,
    "lng": 24.950818318342087,
    "id": "greekRestaurants_9335e3ff6212",
    "slug": "sea-satin-nino-9335"
  },
  {
    "name": "Καφενείον στου Γιαννου",
    "url": "https://maps.app.goo.gl/n81icmGiqF55MhN98?g_st=ipc",
    "address": "Επαρ.Οδ. Ξυλόκαστρου - Τρικάλων - Μάννας 98, Ρίζα 204 00",
    "lat": 38.046932367246974,
    "lng": 22.58624645586887,
    "id": "greekRestaurants_a175a16286e2",
    "slug": "kafeneion-stoy-giannoy-a175"
  },
  {
    "name": "ΕΣΤΙΑΤΟΡΙΟ ΤΗΣ ΣΤΑΜΑΤΙΑΣ",
    "url": "https://maps.app.goo.gl/1EVUc3WCeEyZ78mc9?g_st=ipc",
    "address": "Πεύκος, Σκύρος 340 07",
    "lat": 38.85449596450303,
    "lng": 24.510698683934216,
    "id": "greekRestaurants_03e6ec370650",
    "slug": "estiatorio-tis-stamatias-03e6"
  },
  {
    "name": "Πλακόστρωτο",
    "url": "https://maps.app.goo.gl/XfD9nNTB3trh5Euw6?g_st=ipc",
    "address": "Κυκλάδων, Αη Μιχάλης 841 00",
    "lat": 37.48884885717979,
    "lng": 24.92039552541297,
    "id": "greekRestaurants_7b08b4e7ecfa",
    "slug": "plakostroto-7b08"
  },
  {
    "name": "Ηλιοβασίλεμα",
    "url": "https://maps.app.goo.gl/NKaN6gyqZ6cUdDoo9?g_st=ipc",
    "address": "Παραλια, Γαλησσάς 841 00",
    "lat": 37.42092278718389,
    "lng": 24.87878430217567,
    "id": "greekRestaurants_96450f00f0b5",
    "slug": "iliovasilema-9645"
  },
  {
    "name": "Sima",
    "url": "https://maps.app.goo.gl/3px2jqkoAcSm4AFa7?g_st=ipc",
    "address": "Πύργος 842 01",
    "lat": 37.640391826641014,
    "lng": 25.040013069732986,
    "id": "greekRestaurants_f1c703fa9088",
    "slug": "sima-f1c7"
  },
  {
    "name": "Αθμάρ",
    "url": "https://maps.app.goo.gl/89sj6fRtcg34nfx16?g_st=ipc",
    "address": "Τήνου, Πύργος 842 01",
    "lat": 37.639145778049105,
    "lng": 25.04198852214129,
    "id": "greekRestaurants_854af5844b5d",
    "slug": "athmar-854a"
  },
  {
    "name": "Παραδοσιακό Εστιατόριο Μουριές / Mouries Traditional Restaurant",
    "url": "https://maps.app.goo.gl/A5rtwUPhiE6yc9Qh6?g_st=ipc",
    "address": "Σκύρος 340 07",
    "lat": 38.85870033736816,
    "lng": 24.56952173549943,
    "id": "greekRestaurants_786be201a25e",
    "slug": "paradosiako-estiatorio-moyries-mouries-traditional-restaurant-786b"
  },
  {
    "name": "ORA baresto",
    "url": "https://maps.app.goo.gl/4HzUDXQW35JHkPiM7?g_st=ipc",
    "address": "Επαρχιακή Οδός Ερμούπολης-Φοίνικων,Φοίνικας 841 00, ΣΥΡΟΣ 841 00",
    "lat": 37.398360978641975,
    "lng": 24.878266314182,
    "id": "greekRestaurants_aeef8500923f",
    "slug": "ora-baresto-aeef"
  },
  {
    "name": "Εμπατή",
    "url": "https://maps.app.goo.gl/6AwpTQ9uTLgEUaBJ8?g_st=ipc",
    "address": "Αληθινή 841 00",
    "lat": 37.4495588259796,
    "lng": 24.927676203171245,
    "id": "greekRestaurants_b66f81151a01",
    "slug": "empati-b66f"
  },
  {
    "name": "Ο Μήτσος",
    "url": "https://maps.app.goo.gl/rymG3hKT6zM9Hv1X8?g_st=ipc",
    "address": "Αληθινή 841 00",
    "lat": 37.44635077351931,
    "lng": 24.926756993265617,
    "id": "greekRestaurants_b8183ad911da",
    "slug": "o-mitsos-b818"
  },
  {
    "name": "Στην Άμμο...αλλιώς",
    "url": "https://maps.app.goo.gl/3Pr5rMprS5Yppvz26?g_st=ipc",
    "address": "Επαρχιακή οδός Τήνου, Όρμος Υστερνίων 842 00",
    "lat": 37.615358360450664,
    "lng": 25.042685964832707,
    "id": "greekRestaurants_94cb9a9dd94a",
    "slug": "stin-ammo-allios-94cb"
  },
  {
    "name": "ΠΙΝΑΚΩΤΗ - ΤΑΒΕΡΝΑ - ΚΑΡΑΓΙΩΡΓΑΣ ΓΙΩΡΓΟΣ - ΤΡΙΚΑΛΑ",
    "url": "https://maps.app.goo.gl/8P84uhf2Yr8DKThH6?g_st=ipc",
    "address": "Μεσαία Τρίκαλα Κορινθίας, Τρίκαλα Κορινθίας 204 00",
    "lat": 38.004187278321304,
    "lng": 22.477741138877853,
    "id": "greekRestaurants_6e1edbbc32a8",
    "slug": "pinakoti-taverna-karagiorgas-giorgos-trikala-6e1e"
  },
  {
    "name": "Ότι Καλό Τρίκαλα Κορινθίας",
    "url": "https://maps.app.goo.gl/aMf3djkW1SnkD1iHA?g_st=ipc",
    "address": "Μεσαία Συνοικία, Άνω Τρίκαλα 204 00",
    "lat": 38.00119259116245,
    "lng": 22.476512941008874,
    "id": "greekRestaurants_835a2fadf39b",
    "slug": "oti-kalo-trikala-korinthias-835a"
  },
  {
    "name": "ΦΟΥ-ΦΟΥ",
    "url": "https://maps.app.goo.gl/TPj9fHVZDWJCm6NZA?g_st=ipc",
    "address": "Isternia, Tinos 842 01, Tinos Island 842 01 Υστερνια, 842 01",
    "lat": 37.62122057124332,
    "lng": 25.052979875664423,
    "id": "greekRestaurants_9bd6eb0516c5",
    "slug": "foy-foy-9bd6"
  },
  {
    "name": "Όπως Παλιά",
    "url": "https://maps.app.goo.gl/2NRqYruuAnhXjJdA6?g_st=ipc",
    "address": "Μέση Συνοικία Τρικάλων 204 00",
    "lat": 37.99779308645516,
    "lng": 22.469905216572432,
    "id": "greekRestaurants_0ed04ce88e4f",
    "slug": "opos-palia-0ed0"
  },
  {
    "name": "Λαουτάρι",
    "url": "https://maps.app.goo.gl/hg1f12ccy5BRDtoR9?g_st=ipc",
    "address": "Θερμοπυλών 18, Ερμούπολη 841 00",
    "lat": 37.440095347477,
    "lng": 24.93954086077632,
    "id": "greekRestaurants_bd91fcd5ea24",
    "slug": "laoytari-bd91"
  },
  {
    "name": "Το Τσιπουράδικο της Μυρσίνης",
    "url": "https://maps.app.goo.gl/iYVQf35areJL729h8?g_st=ipc",
    "address": "Ακτή Παπάγου 6, Ερμούπολη 841 00",
    "lat": 37.4418414585908,
    "lng": 24.9417843089367,
    "id": "greekRestaurants_ca82ecc0469e",
    "slug": "to-tsipoyradiko-tis-myrsinis-ca82"
  },
  {
    "name": "Ιθάκη του Αή",
    "url": "https://maps.app.goo.gl/KDXT6jt1hACmxQyQ9?g_st=ipc",
    "address": "Κλώνος &, Κυπαρίσσου 1Α, Ερμούπολη 841 00",
    "lat": 37.44420854822272,
    "lng": 24.943948745039016,
    "id": "greekRestaurants_146807342037",
    "slug": "ithaki-toy-ai-1468"
  },
  {
    "name": "SEMINARIO RESTAURANT",
    "url": "https://maps.app.goo.gl/nJKupgtgjMPeqH9s9?g_st=ipc",
    "address": "Κυπαρίσσου 7, Ερμούπολη 841 00",
    "lat": 37.44429164128135,
    "lng": 24.944085469492308,
    "id": "greekRestaurants_1696c19253da",
    "slug": "seminario-restaurant-1696"
  },
  {
    "name": "ΨΗΤΟσυνάντηση",
    "url": "https://maps.app.goo.gl/5CaRxHJhbSNeKFiP7?g_st=ipc",
    "address": "Επαρ.Οδ. Ξυλόκαστρου - Τρικάλων - Μάννας, Μέση Συνοικία Τρικάλων 204 00",
    "lat": 37.99548753109514,
    "lng": 22.468480126219713,
    "id": "greekRestaurants_65157136702c",
    "slug": "psitosynantisi-6515"
  },
  {
    "name": "Το Χάνι του Χανιά",
    "url": "https://maps.app.goo.gl/dDmXsZAdKbWgFjjT6?g_st=ipc",
    "address": "Άνω Τρίκαλα, 204 00",
    "lat": 37.989969507417065,
    "lng": 22.466125395415034,
    "id": "greekRestaurants_eebc58d0b57c",
    "slug": "to-chani-toy-chania-eebc"
  },
  {
    "name": "Ταβέρνα Γιαλάς",
    "url": "https://maps.app.goo.gl/FYg1yW88cAUUpZn36?g_st=ipc",
    "address": "Τιθορέα 350 15",
    "lat": 38.58424756320904,
    "lng": 22.667510801054007,
    "id": "greekRestaurants_887ceedbc8b5",
    "slug": "taverna-gialas-887c"
  },
  {
    "name": "Barba Giannis & Maritsa",
    "url": "https://maps.app.goo.gl/yZjyN3yoH4KKaMPJ6?g_st=ipc",
    "address": "Unnamed Road, Σκύρος 340 07",
    "lat": 38.90527399333744,
    "lng": 24.565211310371236,
    "id": "greekRestaurants_0c0ca9fd779c",
    "slug": "barba-giannis-maritsa-0c0c"
  },
  {
    "name": "Στέφανος",
    "url": "https://maps.app.goo.gl/trnHe5qoFAQHzYM28?g_st=ipc",
    "address": "Greece, Μαγαζιά 340 07",
    "lat": 38.910052705921146,
    "lng": 24.57050982234405,
    "id": "greekRestaurants_452f5e570a01",
    "slug": "stefanos-452f"
  },
  {
    "name": "Ταβέρνα Άγιος Πέτρος",
    "url": "https://maps.app.goo.gl/Dj7E19Pg9iCwrUts9?g_st=ipc",
    "address": "mavramer@gmail.com, Σκύρος 340 07",
    "lat": 38.95799774255317,
    "lng": 24.473695264428137,
    "id": "greekRestaurants_4b02f57a4232",
    "slug": "taverna-agios-petros-4b02"
  },