[
  {
    "name": "Τα Πλατάνια | Ταβέρνα | Αγία Παρασκευή",
    "url": "https://maps.app.goo.gl/7XNFATTa6teFNs8r9?g_st=ipc",
    "address": "Μπουμπουλίνας 31, Αγ. Παρασκευή 153 41",
    "lat": 38.00304382571398,
    "lng": 23.81401749329889
  },
  {
    "name": "Palia Istoria",
    "url": "https://maps.app.goo.gl/B17edct7kP9fC5KM6?g_st=ipc",
    "address": "Αμφίσσης 34, Χολαργός 155 62",
    "lat": 38.00382710735469,
    "lng": 23.80429280671415
  },
  {
    "name": "Το στέκι της Τόμπρα",
    "url": "https://maps.app.goo.gl/nzMoaK1cxHPd4BAQA?g_st=ipc",
    "address": "Ηπείρου 5-7, Αγ. Παρασκευή 153 41",
    "lat": 38.01114194965107,
    "lng": 23.812150664429954
  },
  {
    "name": "Νήσων Γη",
    "url": "https://maps.app.goo.gl/wmEbsZ59WvGe41oB6?g_st=ipc",
    "address": "Λεωφ. Μεσογείων 356, Αγ. Παρασκευή 153 41",
    "lat": 38.011331255497275,
    "lng": 23.81122856443911
  },
  {
    "name": "Τα Ρωμανάκια",
    "url": "https://maps.app.goo.gl/huAdXz8UP2bA8sPj6?g_st=ipc",
    "address": "Λεωφ. Μεσογείων 366, Αγ. Παρασκευή 153 41",
    "lat": 38.01166841393731,
    "lng": 23.8131702489518
  },
  {
    "name": "Ταβέρνα Ο ΜΩΡΙΑΣ",
    "url": "https://maps.app.goo.gl/bRVKBMdQ27pSumbD9?g_st=ipc",
    "address": "Ειρήνης 56, Αγ. Παρασκευή 153 41",
    "lat": 38.00860400302697,
    "lng": 23.81934480669425
  },
  {
    "name": "ΜΕΛΥΔΡΟΝ",
    "url": "https://maps.app.goo.gl/5M5MsFCweGzbhN1y7?g_st=ipc",
    "address": "Πατριάρχου Γρηγορίου Ε 32, Αγ. Παρασκευή 153 41",
    "lat": 37.99974475346684,
    "lng": 23.816882406708455
  },
  {
    "name": "Κουκουνάρι",
    "url": "https://maps.app.goo.gl/BiMbFyaSNWwLRETTA?g_st=ipc",
    "address": "Λεωφ. Μεσογείων 262, Χολαργός 155 62",
    "lat": 38.00642992366494,
    "lng": 23.79814620669878
  },
  {
    "name": "Δούκισσα Μεζεδοπωλείο",
    "url": "https://maps.app.goo.gl/xuDMuCBBZTFu1suy8?g_st=ipc",
    "address": "Δουκίσσης Πλακεντίας 14, Χαλάνδρι 152 34",
    "lat": 38.0195289224619,
    "lng": 23.810346764437185
  },
  {
    "name": "Το Κουτούκι",
    "url": "https://maps.app.goo.gl/SuZCLAfs8GjCTcWG6?g_st=ipc",
    "address": "Υψηλάντου 5, Χαλάνδρι 152 32",
    "lat": 38.01916385299786,
    "lng": 23.80500366441751
  },
  {
    "name": "Περί Ουσίας",
    "url": "https://maps.app.goo.gl/gEFvWf42qxvaJBEX9?g_st=ipc",
    "address": "Θησέως 25, Χαλάνδρι 152 34",
    "lat": 38.0199005649911,
    "lng": 23.809145664428573
  },
  {
    "name": "Τζίτζικας Και Μέρμηγκας",
    "url": "https://maps.app.goo.gl/8pYJH9GZBYeQD5mk6?g_st=ipc",
    "address": "Αισχύλου 26, Χαλάνδρι 152 34",
    "lat": 38.02047878345652,
    "lng": 23.804706604274816
  },
  {
    "name": "Μεζεδοπωλείο Ιορδάνης",
    "url": "https://maps.app.goo.gl/FYyCghhM4WWKom5n9?g_st=ipc",
    "address": "Αριστοτέλους 42, Χαλάνδρι 152 32",
    "lat": 38.020133303757966,
    "lng": 23.80185334902281
  },
  {
    "name": "Τρύπια Δεκάρα",
    "url": "https://maps.app.goo.gl/aTApNBNRqHkEo3CH8?g_st=ipc",
    "address": "Θεμιστοκλέους 6, Χαλάνδρι 152 32",
    "lat": 38.020535111511364,
    "lng": 23.799981150995844
  },
  {
    "name": "Μυστικός Κήπος",
    "url": "https://maps.app.goo.gl/RvfsJX8RaCUstXSa6?g_st=ipc",
    "address": "Καραολη Δημήτριου 21, Χαλάνδρι 152 32",
    "lat": 38.02018220795105,
    "lng": 23.798366893276665
  },
  {
    "name": "Μπακαλοταβέρνα",
    "url": "https://maps.app.goo.gl/D6gW3fsdkz7sh9bg8?g_st=ipc",
    "address": "Θουκυδίδου 6, Χαλάνδρι 152 32",
    "lat": 38.02091962634735,
    "lng": 23.79935272546419
  },
  {
    "name": "Φυσαρμόνικα Μεζεδοποτείον",
    "url": "https://maps.app.goo.gl/v3uZu1tCQdfHr7kAA?g_st=ipc",
    "address": "Λεωφ. Μεσογείων 180, Χολαργός 155 61",
    "lat": 38.00112458767409,
    "lng": 23.7879961644195
  },
  {
    "name": "Κίτσουλας",
    "url": "https://maps.app.goo.gl/BU8FgqdqottuQizc9?g_st=ipc",
    "address": "Φιλικής Εταιρείας 25Γ, Χαλάνδρι 152 32",
    "lat": 38.016425119808176,
    "lng": 23.79174907985474
  },
  {
    "name": "ΨΩΜΙ & ΑΛΑΤΙ",
    "url": "https://maps.app.goo.gl/3yMZtJ6XHLXuktHM7?g_st=ipc",
    "address": "Πλ. Ελευθερωτών 8, Χαλάνδρι 152 32",
    "lat": 38.02138760980619,
    "lng": 23.797709722137604
  },
  {
    "name": "Μπαρμπαλιάς",
    "url": "https://maps.app.goo.gl/G25mEs6QontzWR8o6?g_st=ipc",
    "address": "Λεωφ. Βασιλέως Γεωργίου B 6, Χαλάνδρι 152 33",
    "lat": 38.02244991899446,
    "lng": 23.7965243912459
  },
  {
    "name": "Tala's local meze & aperitivo",
    "url": "https://maps.app.goo.gl/1ZTu39mrajPM1MYFA?g_st=ipc",
    "address": "Θρασύβουλου 3, Αγ. Παρασκευή 153 43",
    "lat": 38.01588032621049,
    "lng": 23.833680348991113
  },
  {
    "name": "Κληματαριά",
    "url": "https://maps.app.goo.gl/KjvZHvC6ghfyBWSu9?g_st=ipc",
    "address": "Κωστή Παλαμά 29, Νέο Ψυχικό 154 51",
    "lat": 38.00778653011235,
    "lng": 23.78331764900774
  },
  {
    "name": "Το Βραστό",
    "url": "https://maps.app.goo.gl/GRjH6qkfc2wa5Tcv9?g_st=ipc",
    "address": "Ρόδων 3, Χαλάνδρι 152 33",
    "lat": 38.02920880289756,
    "lng": 23.811047379895488
  },
  {
    "name": "Ταβέρνα Μιχάλης",
    "url": "https://maps.app.goo.gl/o1rWWp4p742jj85G7?g_st=ipc",
    "address": "Βαλαωρίτου 20, Χαλάνδρι 152 33",
    "lat": 38.024972399350155,
    "lng": 23.792694033579224
  },
  {
    "name": "Το Στέκι του Ανδρέα στο Χαλάνδρι",
    "url": "https://maps.app.goo.gl/Wp9gL9KTg1iHqv8R6?g_st=ipc",
    "address": "Μεσσηνίας 46, Χαλάνδρι 152 34",
    "lat": 38.02735400038434,
    "lng": 23.82467794898433
  },
  {
    "name": "Η παρέα της Φανής",
    "url": "https://maps.app.goo.gl/BaPBtWqbaacn9oDc6?g_st=ipc",
    "address": "Καρέλλα 20, Χαλάνδρι 152 33",
    "lat": 38.02610478288273,
    "lng": 23.79313013557708
  },
  {
    "name": "Εστιατόριο Ταβέρνα Ο Μανώλης",
    "url": "https://maps.app.goo.gl/E6ZfG324dBPeoKmz5?g_st=ipc",
    "address": "Σάμου 1, Χαλάνδρι 152 33",
    "lat": 38.030716089112936,
    "lng": 23.806470122135025
  },
  {
    "name": "Στης Έλλης",
    "url": "https://maps.app.goo.gl/o1oe4gt1mipnzHE77?g_st=ipc",
    "address": "Ἁγ. Τριάδος 57, Αγ. Παρασκευή 153 43",
    "lat": 38.01628513050535,
    "lng": 23.840166535568635
  },
  {
    "name": "To Psistaria",
    "url": "https://maps.app.goo.gl/DEUMA4eJH6RLG2DU8",
    "address": "Ρούμελης 28 &, Σπάρτης, Χαλάνδρι 152 33",
    "lat": 38.02828285759166,
    "lng": 23.793071906306483
  },
  {
    "name": "Kafeneio Pagrati",
    "url": "https://maps.app.goo.gl/aHoAWHKWgJf5N5Tm6",
    "address": "Λεωφ. Καποδιστρίου 42, Μαρούσι 151 23",
    "lat": 38.027348561849706,
    "lng": 23.784455346396886
  },
  {
    "name": "Paradosiako Nikos",
    "url": "https://maps.app.goo.gl/MjaG7qgQXBbLTT8n7",
    "address": "Λεωφ. Κηφισίας 37A, Μαρούσι 151 23",
    "lat": 38.034373053538495,
    "lng": 23.793186418589283
  },
  {
    "name": "Petros Estiatorio",
    "url": "https://maps.app.goo.gl/B6AxbVv7MU6bztsX6",
    "address": "Μιαούλη 59, Γέρακας 153 44",
    "lat": 38.01211262091287,
    "lng": 23.8515403603164
  },
  {
    "name": "To Taverna",
    "url": "https://maps.app.goo.gl/S5V49nXtP76Umgj59",
    "address": "Λασκαρίδου 7 &, Λουίζης Ριανκούρ, Αθήνα 151 24",
    "lat": 37.99407146777003,
    "lng": 23.765861778134067
  },
  {
    "name": "Estiatorio Elliniki",
    "url": "https://maps.app.goo.gl/7La7jhMdfnzvnDUN6",
    "address": "Βαρίκα 8, Αθήνα 115 24",
    "lat": 37.995178959519315,
    "lng": 23.761505445987336
  },
  {
    "name": "Mageirio Nikos",
    "url": "https://maps.app.goo.gl/zrq9BbB4MU8m8xEA7",
    "address": "Αγίου Κωνσταντίνου 56, Μαρούσι 151 24",
    "lat": 38.046725624480935,
    "lng": 23.806442690864635
  },
  {
    "name": "Anna Taverna",
    "url": "https://maps.app.goo.gl/neQoZEu5PGEjM9DP9",
    "address": "Λεωφ. Γέρακας 84, Γέρακας 153 44",
    "lat": 38.02301749370778,
    "lng": 23.859957200296044
  },
  {
    "name": "To Taverna",
    "url": "https://maps.app.goo.gl/C245RwiHHTqtJUfs8",
    "address": "Σινώπης 18, Αθήνα 115 27",
    "lat": 37.98365341957495,
    "lng": 23.761708124944604
  },
  {
    "name": "Εστιατόριο Ειρήνη",
    "url": "https://maps.app.goo.gl/ins2h5odAAUqFqf2A",
    "address": "Παπαρσένη 15, Αθήνα 114 76",
    "lat": 37.995836587823845,
    "lng": 23.754896105548557
  },
  {
    "name": "Paradosiako Anna",
    "url": "https://maps.app.goo.gl/UKN5PTfDAJ43RhcT7",
    "address": "31, Χρήστου Βουρνάζου str, Αθήνα 115 21",
    "lat": 37.98712790409338,
    "lng": 23.757368207050618
  },
  {
    "name": "Eleni Taverna",
    "url": "https://maps.app.goo.gl/cYha3bisyCdwkZ4aA",
    "address": "Δεμιρδεσίου 93, Νέα Ιωνία 142 33",
    "lat": 38.03119466857524,
    "lng": 23.76015883612339
  },
  {
    "name": "To Paradosiako",
    "url": "https://maps.app.goo.gl/2DPr3yhvS2JApV5x5",
    "address": "Τήνου 12, Μελίσσια 151 27",
    "lat": 38.048953774865154,
    "lng": 23.835609448784652
  },
  {
    "name": "Paradosiako Platanos",
    "url": "https://maps.app.goo.gl/NL3SuAhkVPXxocnF9",
    "address": "Βύρωνος 19, Μαρούσι 151 22",
    "lat": 38.05149931311812,
    "lng": 23.790028540438847
  },
  {
    "name": "Paradosiako Katerina",
    "url": "https://maps.app.goo.gl/f11Mf8a6b4eezgj29",
    "address": "Λεωφ. Γαλατσίου 100, Γαλάτσι 111 46",
    "lat": 38.01369593012145,
    "lng": 23.750720348183243
  },
  {
    "name": "Eleni Koutouki",
    "url": "https://maps.app.goo.gl/ocPNHJergJqkbxW6A",
    "address": "Καυκάσου 157, Αθήνα 113 64",
    "lat": 38.007341170588916,
    "lng": 23.749681397448036
  },
  {
    "name": "To Taverna",
    "url": "https://maps.app.goo.gl/bBjijsL8Z595BXhZ7",
    "address": "Λεωφ. Γαλατσίου 98, Γαλάτσι 111 46",
    "lat": 38.013850196604025,
    "lng": 23.75041166079297
  },
  {
    "name": "Koutouki Elliniki",
    "url": "https://maps.app.goo.gl/gabhXTSdqFXWdAw17",
    "address": "Φιλοθέης 67, Ηράκλειο 141 21",
    "lat": 38.04316278537493,
    "lng": 23.771802491018153
  },
  {
    "name": "Μεζεδοπωλείο Άννα",
    "url": "https://maps.app.goo.gl/ZaG4vxaqPUZoyUEH7",
    "address": "Παναθηναϊκού 7, Αθήνα 115 21",
    "lat": 37.98741582684548,
    "lng": 23.752997875166535
  },
  {
    "name": "Nikos Paradosiako",
    "url": "https://maps.app.goo.gl/K5myWMM5kegmZRGj7",
    "address": "Παλαιών Πατρών Γερμανού 1, Βριλήσσια 152 38",
    "lat": 38.046607872986925,
    "lng": 23.84536540675465
  },
  {
    "name": "To Taverna",
    "url": "https://maps.app.goo.gl/GVj14ysF6cMr9ZoA6",
    "address": "Σεβαστείας 6, Αθήνα 115 28",
    "lat": 37.98012652047389,
    "lng": 23.757043689219586
  },
  {
    "name": "Ουζερί Μαρία",
    "url": "https://maps.app.goo.gl/CbctoDQWoy2zSwT78",
    "address": "Λεωφ. Εθ. Αντιστάσεως 240, Αθήνα 161 22",
    "lat": 37.96646380448841,
    "lng": 23.772981113467992
  },
  {
    "name": "Psistaria Anna",
    "url": "https://maps.app.goo.gl/LFkoegopciPhWfk59",
    "address": "Ούλωφ Πάλμε 1, Ζωγράφου 115 28",
    "lat": 37.97542863089566,
    "lng": 23.76053636122563
  },
  {
    "name": "Katerina Taverna",
    "url": "https://maps.app.goo.gl/awU151ZstgomSVZZ8",
    "address": "Διονυσίου Αιγινήτου 32, Αθήνα 115 28",
    "lat": 37.97743768834,
    "lng": 23.756590141442583
  },
  {
    "name": "To Mageirio",
    "url": "https://maps.app.goo.gl/oF5WnEmN9HdHPyPo9",
    "address": "Πεύκων 10, Μαρούσι 151 26",
    "lat": 38.05739141623042,
    "lng": 23.82532230565926
  },
  {
    "name": "Paradosiako Kolonaki",
    "url": "https://maps.app.goo.gl/aLm6k1HqkUoU9PxE8",
    "address": "Χαλεπά 68, Αθήνα 111 41",
    "lat": 38.02025659339306,
    "lng": 23.745905469042288
  },
  {
    "name": "Ταβέρνα Κώστας",
    "url": "https://maps.app.goo.gl/hpb1BhW8cddVUadJA",
    "address": "Σιβόρων 87, Αθήνα 111 42",
    "lat": 38.026845200131646,
    "lng": 23.747963927790185
  },
  {
    "name": "Sofia Taverna",
    "url": "https://maps.app.goo.gl/mURYyiemhV3PvXjDA",
    "address": "Ευελπίδων 87, Αθήνα 113 62",
    "lat": 37.99704423560871,
    "lng": 23.74315138793718
  },
  {
    "name": "To Ouzeri",
    "url": "https://maps.app.goo.gl/D1121EC8pmNBFqbK9",
    "address": "Ανακρέοντος 2, Καισαριανή 161 22",
    "lat": 37.96567041818392,
    "lng": 23.763543849190544
  },
  {
    "name": "Estiatorio Monastiraki",
    "url": "https://maps.app.goo.gl/HBqT7hbWLLfdjPem9",
    "address": "Πλ. Αναγεννήσεως 2, Καισαριανή 161 21",
    "lat": 37.968722862920075,
    "lng": 23.75908756393202
  },
  {
    "name": "Kafeneio Petros",
    "url": "https://maps.app.goo.gl/Emn145fBqqdH5XE6A",
    "address": "Χατζηγιάννη Μέξη 8 και, Κων/νου Βεντήρη 9, Αθήνα 115 28",
    "lat": 37.97639030206746,
    "lng": 23.751435246572814
  },
  {
    "name": "Dimitris Mageirio",
    "url": "https://maps.app.goo.gl/ZMLzvJ9Vxp7NSoVNA",
    "address": "Diocharous 31 &, Κλεισούρας, Αθήνα 161 21",
    "lat": 37.972863677998646,
    "lng": 23.753932616513207
  },
  {
    "name": "To Ouzeri",
    "url": "https://maps.app.goo.gl/981vRQxbrAtrVwL46",
    "address": "Φωκίωνος Νέγρη 72, Αθήνα 113 61",
    "lat": 38.00187471148547,
    "lng": 23.740181411434346
  },
  {
    "name": "Estiatorio Thiseio",
    "url": "https://maps.app.goo.gl/47TqLWgDNWfa9U2QA",
    "address": "Χαϊμαντά Δημητρίου 34, Μαρούσι 151 22",
    "lat": 38.060680665394344,
    "lng": 23.798177860938093
  },
  {
    "name": "Koutouki Katerina",
    "url": "https://maps.app.goo.gl/R5o9th6YAJUun6xp6",
    "address": "Λεωφ. Αλεξάνδρας 74, Αθήνα 114 73",
    "lat": 37.98993156504118,
    "lng": 23.741864128657266
  },
  {
    "name": "Georgia Mageirio",
    "url": "https://maps.app.goo.gl/Zq4cnAxJ4Dx6qQUq8",
    "address": "Ξενοκράτους 19, Αθήνα 106 75",
    "lat": 37.979221094535326,
    "lng": 23.744501065071557
  },
  {
    "name": "To Taverna",
    "url": "https://maps.app.goo.gl/9kB2f5FdE7NhgyEF7",
    "address": "Γαβριηλίδου 24, Αθήνα 111 41",
    "lat": 38.01866922800358,
    "lng": 23.738404062129728
  },
  {
    "name": "Kafeneio Exarchia",
    "url": "https://maps.app.goo.gl/hue4bt53ZxfCUeXg6",
    "address": "Κων/νου Καραμανλή, 17ης Νοεμβρίου και, Μελίσσια 151 27",
    "lat": 38.06080156016513,
    "lng": 23.83614625903362
  },
  {
    "name": "Paradosiako Nikos",
    "url": "https://maps.app.goo.gl/kNua9KhyTtnEhKVV9",
    "address": "Αγίας Λαύρας 70, Αθήνα 111 41",
    "lat": 38.022714668636375,
    "lng": 23.738679463378304
  },
  {
    "name": "Nikos Mezedopolio",
    "url": "https://maps.app.goo.gl/GZkR3yG4uYF9Asep6",
    "address": "Επτανήσου 15, Αθήνα 112 57",
    "lat": 37.99805749284101,
    "lng": 23.73519064835316
  },
  {
    "name": "To Estiatorio",
    "url": "https://maps.app.goo.gl/LtHtTEpZMdDdqe3S8",
    "address": "Πλ. Δεξαμενής, Αθήνα 106 73",
    "lat": 37.97904976951895,
    "lng": 23.7417447741282
  },
  {
    "name": "Μαγειρείο Της Γιαγιάς",
    "url": "https://maps.app.goo.gl/BGHehjaYVZctQ5Mv6",
    "address": "Μεθώνης 43, Αθήνα 106 81",
    "lat": 37.98655857103421,
    "lng": 23.737630934967044
  },
  {
    "name": "Ταβέρνα Ο Βασίλης",
    "url": "https://maps.app.goo.gl/94C3hp4xbRp1fKYt7",
    "address": "Καλλιδρομίου 69, Αθήνα 106 83",
    "lat": 37.9881200037971,
    "lng": 23.737007621122938
  },
  {
    "name": "Το Καφενείο του Κώστα",
    "url": "https://maps.app.goo.gl/KuXHrJwbKRvdajxz5",
    "address": "Χαρ. Τρικούπη 76, Αθήνα 106 80",
    "lat": 37.98528728518512,
    "lng": 23.737900936097155
  },
  {
    "name": "Ταβέρνα Η Άννα",
    "url": "https://maps.app.goo.gl/9Ay3zpP2cfdFbPpw8",
    "address": "Ευπαλίνου 21, Αθήνα 112 53",
    "lat": 38.00484148971816,
    "lng": 23.732856919000913
  },
  {
    "name": "Μεζεδοπωλείο Παραδοσιακό",
    "url": "https://maps.app.goo.gl/aCqxbn2mAS63MWhA9",
    "address": "Πολέμωνος 4, Αθήνα 116 35",
    "lat": 37.97162418889942,
    "lng": 23.74471067108262
  },
  {
    "name": "Ταβέρνα Ο Βασίλης",
    "url": "https://maps.app.goo.gl/8H5UM5CTNGhY6tCz8",
    "address": "Εμμανουήλ Μπενάκη 73, Αθήνα 106 81",
    "lat": 37.986296240543886,
    "lng": 23.73577500465613
  },
  {
    "name": "Ταβέρνα Ο Βασίλης",
    "url": "https://maps.app.goo.gl/LuGL5j7KgtCFWxmA8",
    "address": "Βαλτετσίου 44, Αθήνα 106 81",
    "lat": 37.98561482975353,
    "lng": 23.735926375159003
  },
  {
    "name": "Το Στέκι του Νίκου",
    "url": "https://maps.app.goo.gl/ES9bhy4RguonMm8G8",
    "address": "Εμμανουήλ Μπενάκη 71, Αθήνα 106 81",
    "lat": 37.98611213872367,
    "lng": 23.7356153825947
  },
  {
    "name": "Μαγειρείο Της Γιαγιάς",
    "url": "https://maps.app.goo.gl/NQUdrufxEoMofvYP9",
    "address": "Ιωνίας 35 και, Προύσης 15, Νέα Φιλαδέλφεια Αττικής 143 41",
    "lat": 38.03382490224538,
    "lng": 23.74027260435793
  },
  {
    "name": "Ταβέρνα Η Αυλή",
    "url": "https://maps.app.goo.gl/WsfMSGTo3b3Mq3hS6",
    "address": "Ζηρίνη 2, Κηφισιά 145 62",
    "lat": 38.067981010642875,
    "lng": 23.811453792339574
  },
  {
    "name": "Το Καφενείο του Κώστα",
    "url": "https://maps.app.goo.gl/8qs2pU39Ev8Bi4Gu6",
    "address": "Παυσανίου 4, Αθήνα 116 35",
    "lat": 37.97158436368886,
    "lng": 23.743633373686446
  },
  {
    "name": "Το Στέκι της Κατίνας",
    "url": "https://maps.app.goo.gl/bDovbnEG8g4iXg669",
    "address": "25ης Μαρτίου 3, Νέα Πεντέλη 152 36",
    "lat": 38.05688896672271,
    "lng": 23.85683837486962
  },
  {
    "name": "Ταβέρνα Ο Βασίλης",
    "url": "https://maps.app.goo.gl/qCasHzTvfzEm5GVQ9",
    "address": "Κωνσταντιλιέρη 2, Βύρωνας 162 31",
    "lat": 37.96221220979963,
    "lng": 23.752873943570865
  },
  {
    "name": "Ταβέρνα Ο Σπύρος",
    "url": "https://maps.app.goo.gl/RRByVB3HqZfDcnkK7",
    "address": "Ρεθύμνου 8, Αθήνα 106 82",
    "lat": 37.99027878775376,
    "lng": 23.732870988899485
  },
  {
    "name": "Μεζεδοπωλείο Θεσσαλονίκη",
    "url": "https://maps.app.goo.gl/xYnatdAUqU3QWGLv9",
    "address": "Λεωφ. Χρυσοστόμου Σμύρνης 47, Βύρωνας 162 32",
    "lat": 37.96175056849477,
    "lng": 23.75277374627553
  },
  {
    "name": "Εστιατόριο Μυκόνιο",
    "url": "https://maps.app.goo.gl/jh9iV3W2AMUY6Pev5",
    "address": "Σουλτάνη 11, Αθήνα 106 82",
    "lat": 37.98634442442922,
    "lng": 23.733413179378076
  },
  {
    "name": "Μεζεδοπωλείο Θεσσαλονίκη",
    "url": "https://maps.app.goo.gl/1KoD7wRkjTyAQA5aA",
    "address": "Ελ. Βενιζέλου 146, Νέα Ιωνία 142 31",
    "lat": 38.04986386180613,
    "lng": 23.749800777909947
  },
  {
    "name": "Ταβέρνα Η Γωνιά",
    "url": "https://maps.app.goo.gl/4j67R3hXxbhm8zc98",
    "address": "Λεωφ. Δεκελείας 36, Νέα Χαλκηδόνα 143 43",
    "lat": 38.02939885957541,
    "lng": 23.734627277985574
  },
  {
    "name": "Μεζεδοπωλείο Καστοριά",
    "url": "https://maps.app.goo.gl/VfeckYbAHrSRw3Qo8",
    "address": "Καποδιστρίου 2, Αθήνα 106 83",
    "lat": 37.98622715652684,
    "lng": 23.73236663557607
  },
  {
    "name": "Μαγειρείο Της Γιαγιάς",
    "url": "https://maps.app.goo.gl/FMMwbifodFsWzbX47",
    "address": "Πλ. Εθ. Αντιστάσεως, Μελίσσια 151 27",
    "lat": 38.06545992903425,
    "lng": 23.842357706146192
  },
  {
    "name": "Ψιστάρια Κρεάτων",
    "url": "https://maps.app.goo.gl/1Xuvp6z7zeGEESxk7",
    "address": "Αρχιμήδους 11, Αθήνα 116 35",
    "lat": 37.96743484356373,
    "lng": 23.742810422529566
  },
  {
    "name": "Ψιστάρια Κρεάτων",
    "url": "https://maps.app.goo.gl/Baz66z9eF1nXkQDe8",
    "address": "Γεωρ. Δροσίνη 12, Κηφισιά 145 62",
    "lat": 38.071444564634874,
    "lng": 23.81158159449847
  },
  {
    "name": "Το Στέκι της Σούλας",
    "url": "https://maps.app.goo.gl/QasSnVbzBbfxtArw5",
    "address": "Βερανζέρου 5, Αθήνα 106 77",
    "lat": 37.985209028957776,
    "lng": 23.730887169410018
  },
  {
    "name": "Ταβέρνα Η Αυλή",
    "url": "https://maps.app.goo.gl/8aQhSfNrT1Z9qqEm7",
    "address": "Αγίου Ιωάννου 1, Νέα Φιλαδέλφεια Αττικής 143 42",
    "lat": 38.039818289814335,
    "lng": 23.738940522044075
  },
  {
    "name": "Ψιστάρια Παραδοσιακή",
    "url": "https://maps.app.goo.gl/Drq2Vavwjh6HDMKf9",
    "address": "Νικ. Τρυρια 39, Νέα Φιλαδέλφεια Αττικής 143 41",
    "lat": 38.03614200079934,
    "lng": 23.736207405528564
  },
  {
    "name": "Ουζερί Σαντορίνη",
    "url": "https://maps.app.goo.gl/hMR86s9rhghZRxgi8",
    "address": "Τατοΐου 17, Μεταμόρφωση 144 51",
    "lat": 38.052246918082005,
    "lng": 23.750952362138648
  },
  {
    "name": "Ταβέρνα Ο Βασίλης",
    "url": "https://maps.app.goo.gl/cQhPg66yiWYq8LYP6",
    "address": "Στρατάρχου Αλεξάνδρου Παπάγου 12, Νέα Φιλαδέλφεια Αττικής 143 42",
    "lat": 38.045110031748486,
    "lng": 23.742897004373283
  },
  {
    "name": "Μεζεδοπωλείο Κρητικό",
    "url": "https://maps.app.goo.gl/CMKSzphqRyS8ewpNA",
    "address": "Γεωρ. Παπανδρέου 81, Νέα Φιλαδέλφεια Αττικής 143 41",
    "lat": 38.03885909725717,
    "lng": 23.736070793481
  },
  {
    "name": "Εστιατόριο Μυκόνιο",
    "url": "https://maps.app.goo.gl/qgjaSL92MEaYTNnP8",
    "address": "Σαλαμίνος 70, Νέα Χαλκηδόνα 143 43",
    "lat": 38.03352855482005,
    "lng": 23.731362347180447
  },
  {
    "name": "Το Στέκι του Φώτη",
    "url": "https://maps.app.goo.gl/XofHBMHMp5Y8ecHi6",
    "address": "Πλ. Αγίας Τριάδας, Πεντέλη 152 36",
    "lat": 38.05560270007769,
    "lng": 23.870179792849736
  },
  {
    "name": "Ψιστάρια Τραπεζούντα",
    "url": "https://maps.app.goo.gl/ZkvmmnHQW4d3ivh49",
    "address": "Κρυστάλλη Κωνσταντίνου 1, Πεντέλη 152 36",
    "lat": 38.05554171208636,
    "lng": 23.870789909416057
  },
  {
    "name": "Ταβέρνα Η Νάξος",
    "url": "https://maps.app.goo.gl/nEVnGCyfc79ueYWh7",
    "address": "Σκουλενίου 1, Αθήνα 105 61",
    "lat": 37.9792133312479,
    "lng": 23.729886930144186
  },
  {
    "name": "Μαγειρείο Αθήνα",
    "url": "https://maps.app.goo.gl/o8x2B33WaG8QRBXq8",
    "address": "Πλ. Αγίων Θεοδώρων 3, Αθήνα 105 61",
    "lat": 37.97931896525327,
    "lng": 23.72965489387422
  },
  {
    "name": "Ταβέρνα Η Νάξος",
    "url": "https://maps.app.goo.gl/WP3HmHeYBBcXxVPM6",
    "address": "Σκούφου 10, Αθήνα 105 57",
    "lat": 37.97409123224814,
    "lng": 23.732567622429254
  },
  {
    "name": "Ουζερί Η Θάλασσα",
    "url": "https://maps.app.goo.gl/HVpdCimDL2uUQGMfA",
    "address": "Φρύνωνος 10, Αθήνα 116 32",
    "lat": 37.96221703725563,
    "lng": 23.742138763953527
  },
  {
    "name": "Μαγειρείο Αθήνα",
    "url": "https://maps.app.goo.gl/snfb8zhcUBZxSoPx9",
    "address": "Βουλής 44Α, Αθήνα 105 58",
    "lat": 37.9738473626084,
    "lng": 23.732008770618236
  },
  {
    "name": "Το Καφενείο του Στέλιου",
    "url": "https://maps.app.goo.gl/Lo9db7KSrAQMHjXi6",
    "address": "Απόλλωνος, Αθήνα 105 57",
    "lat": 37.9748589013975,
    "lng": 23.731279347476626
  },
  {
    "name": "Ταβέρνα Η Κεφαλονιά",
    "url": "https://maps.app.goo.gl/M1LDEQBwqFbK8g7Y6",
    "address": "Αριστείδου Οικονόμου 12, Αθήνα 104 45",
    "lat": 38.01128559769368,
    "lng": 23.722291820236695
  },
  {
    "name": "Ταβέρνα Η Κέρκυρα",
    "url": "https://maps.app.goo.gl/Uppwoqd1GbSaLvCe7",
    "address": "Κτενά 1, Αθήνα 105 63",
    "lat": 37.976600766846424,
    "lng": 23.729911306320325
  },
  {
    "name": "Ταβέρνα Η Μακεδονία",
    "url": "https://maps.app.goo.gl/Ksa1sT3W1xvTwody6",
    "address": "Φιλοποίμενος 4, Αθήνα 105 51",
    "lat": 37.980081996854445,
    "lng": 23.728018952835075
  },
  {
    "name": "Μεζεδοπωλείο Ρόδος",
    "url": "https://maps.app.goo.gl/SCwWcqyGvhz7WVrE8",
    "address": "Κυδαθηναίων 21, Αθήνα 105 58",
    "lat": 37.97248143588815,
    "lng": 23.732031545694568
  },
  {
    "name": "Ψιστάρια Λαμία",
    "url": "https://maps.app.goo.gl/NeJoupJj8mkFs1fXA",
    "address": "Κολοκοτρώνη 59, Αθήνα 105 60",
    "lat": 37.977707115390295,
    "lng": 23.728787167486587
  },
  {
    "name": "Ταβέρνα Η Κέρκυρα",
    "url": "https://maps.app.goo.gl/pp5rzZKvkv6W1fXL7",
    "address": "Βίνκελμαν 3, Αθήνα 116 32",
    "lat": 37.96187332155002,
    "lng": 23.74031744806371
  },
  {
    "name": "Ταβέρνα Η Μακεδονία",
    "url": "https://maps.app.goo.gl/QiyDhjXfeNsDkt9k7",
    "address": "Αιόλου 29, Αθήνα 105 51",
    "lat": 37.97741431797203,
    "lng": 23.727650746109706
  },
  {
    "name": "Ψιστάρια Τραπεζούντα",
    "url": "https://maps.app.goo.gl/AkzhbzV5JgMPNbyh8",
    "address": "Ψαρών 45, Αθήνα 104 38",
    "lat": 37.9895544491858,
    "lng": 23.722717045952898
  },
  {
    "name": "Το Καφενείο της Αγοράς",
    "url": "https://maps.app.goo.gl/5PAR192kZJY8s4Hs8",
    "address": "Sokratous 9 &, Θεάτρου 2, Αθήνα 105 52",
    "lat": 37.9807615601589,
    "lng": 23.725828141444957
  },
  {
    "name": "Ψιστάρια Λαμία",
    "url": "https://maps.app.goo.gl/6RAXFnJTA2DTzwA88",
    "address": "Καισαρείας 9, Υμηττός 172 37",
    "lat": 37.95570603338151,
    "lng": 23.74583290711746
  },
  {
    "name": "Ταβέρνα Η Μακεδονία",
    "url": "https://maps.app.goo.gl/ibRHUhwHzNffs1sC8",
    "address": "Αναπαύσεως 9, Αθήνα 116 36",
    "lat": 37.96661871653892,
    "lng": 23.73449829017252
  },
  {
    "name": "Μεζεδοπωλείο Καλαμάτα",
    "url": "https://maps.app.goo.gl/7FMPKRwpazujA2C27",
    "address": "Θεάτρου 7, Αθήνα 105 52",
    "lat": 37.98069925682147,
    "lng": 23.725498847688122
  },
  {
    "name": "Το Στέκι του Φώτη",
    "url": "https://maps.app.goo.gl/3bDZ8oASnXexFDgS7",
    "address": "Ευριπίδου 52, Αθήνα 105 52",
    "lat": 37.98022746553766,
    "lng": 23.7256348821809
  },
  {
    "name": "Το Στέκι του Φώτη",
    "url": "https://maps.app.goo.gl/91VrWaADuuDQ9qeWA",
    "address": "Αγ. Δημητρίου 12, Αθήνα 105 54",
    "lat": 37.97971984965389,
    "lng": 23.72579553971612
  },
  {
    "name": "Ταβέρνα Η Χίος",
    "url": "https://maps.app.goo.gl/3s8YnKNXM61cpsz69",
    "address": "Επιχάρμου 1, Αθήνα 105 58",
    "lat": 37.97255962660001,
    "lng": 23.729567011443763
  },
  {
    "name": "Το Κουτούκι του Γιάννη",
    "url": "https://maps.app.goo.gl/CKhBpbV2aiz5Bpov8",
    "address": "Ακομινάτου 13, Αθήνα 104 37",
    "lat": 37.985310593490546,
    "lng": 23.722959936018757
  },
  {
    "name": "Το Στέκι του Φώτη",
    "url": "https://maps.app.goo.gl/Cx6gQQWkCy2n1mXw6",
    "address": "Διογένους 3, Αθήνα 105 56",
    "lat": 37.974495755428926,
    "lng": 23.72798871305526
  },
  {
    "name": "Μαγειρείο Βόλος",
    "url": "https://maps.app.goo.gl/2CMQFJheG9EgM5p99",
    "address": "Πλ. Θεάτρου 2, Αθήνα 105 52",
    "lat": 37.980637024107224,
    "lng": 23.724630625441396
  },
  {
    "name": "Ουζερί Σάμος",
    "url": "https://maps.app.goo.gl/Fj4mZsQhG6Dryz9HA",
    "address": "Αγ. Αναργύρων 6, Αθήνα 105 54",
    "lat": 37.97865798885805,
    "lng": 23.724488894508067
  },
  {
    "name": "Ουζερί Σάμος",
    "url": "https://maps.app.goo.gl/cnKsmpXwbUi4ehMj9",
    "address": "Αγ. Αναργύρων 19, Αθήνα 105 54",
    "lat": 37.97869467804771,
    "lng": 23.723980497190343
  },
  {
    "name": "Ουζερί Σάμος",
    "url": "https://maps.app.goo.gl/RANm4cQqR929BJSE7",
    "address": "Αδριανού 49Α, Αθήνα 105 55",
    "lat": 37.97570405558301,
    "lng": 23.72549560715114
  },
  {
    "name": "Μαγειρείο Βόλος",
    "url": "https://maps.app.goo.gl/6vSRNbnm7hVmc1NH6",
    "address": "Αδριανού 47, Αθήνα 105 55",
    "lat": 37.97572091133567,
    "lng": 23.725354400404825
  },
  {
    "name": "Εστιατόριο Πάτρα",
    "url": "https://maps.app.goo.gl/FdPM4DDLKYaXnaei6",
    "address": "Αισώπου 4, Αθήνα 105 54",
    "lat": 37.97774968772063,
    "lng": 23.724156040305374
  },
  {
    "name": "Ταβέρνα Η Ζάκυνθος",
    "url": "https://maps.app.goo.gl/Qi3TiLypHkh8kAfv8",
    "address": "Τάκη 19, Αθήνα 105 54",
    "lat": 37.978324295237165,
    "lng": 23.723850317882693
  },
  {
    "name": "Ουζερί Σάμος",
    "url": "https://maps.app.goo.gl/dzqWtwgMFs9Vcqew6",
    "address": "Πλ. Τσώκρη 1, Αθήνα 117 42",
    "lat": 37.967615812266935,
    "lng": 23.729979287152204
  },
  {
    "name": "Μεζεδοπωλείο Ιωάννινα",
    "url": "https://maps.app.goo.gl/9UGJoEFr8WGupZtP9",
    "address": "Πλ. Αβησσυνίας 3, Αθήνα 105 55",
    "lat": 37.976681511235476,
    "lng": 23.724107441529995
  },
  {
    "name": "Μεζεδοπωλείο Ιωάννινα",
    "url": "https://maps.app.goo.gl/vKinr3WBQjy8EYru8",
    "address": "Κυνέτου 7, Αθήνα 105 55",
    "lat": 37.97665935435758,
    "lng": 23.723658874040776
  },
  {
    "name": "Μεζεδοπωλείο Ιωάννινα",
    "url": "https://maps.app.goo.gl/GmHsbFa1YEmR2kef9",
    "address": "Άστιγγος 8, Αθήνα 105 55",
    "lat": 37.976779798219894,
    "lng": 23.722967824354946
  },
  {
    "name": "Το Κουτούκι του Γιάννη",
    "url": "https://maps.app.goo.gl/eB16zN6dJoMUydyJA",
    "address": "Λεωφ. Κηφισίας 284, Κηφισιά 145 61",
    "lat": 38.08032122894861,
    "lng": 23.814581872798477
  },
  {
    "name": "Ταβέρνα Η Ζάκυνθος",
    "url": "https://maps.app.goo.gl/7XXsfB27aRZAsikR7",
    "address": "Βεΐκου 1, Αθήνα 117 42",
    "lat": 37.96744106512062,
    "lng": 23.72879886025239
  },
  {
    "name": "Εστιατόριο Χανιά",
    "url": "https://maps.app.goo.gl/iUj8NxtUsYKhihFV9",
    "address": "Κεραμεικού 49, Αθήνα 104 36",
    "lat": 37.9823149491854,
    "lng": 23.720253813195804
  },
  {
    "name": "Μεζεδοπωλείο Ιωάννινα",
    "url": "https://maps.app.goo.gl/T4yBbxnNyvkykNoS9",
    "address": "Πυθέου 32, Αθήνα 117 43",
    "lat": 37.96258323945813,
    "lng": 23.732334829769364
  },
  {
    "name": "Το Στέκι της Φωτεινής",
    "url": "https://maps.app.goo.gl/iQ4V71S2t14KAPNM9",
    "address": "Πυθέου 34-Θ.Γεωμετρου 1, Πυθέου 34, Αθήνα 117 43",
    "lat": 37.96243041130632,
    "lng": 23.732361770965667
  },
  {
    "name": "Μεζεδοπωλείο Τρίκαλα",
    "url": "https://maps.app.goo.gl/iKbPmGsQDpnYazKs9",
    "address": "Λεωνίδου 46, Αθήνα 104 36",
    "lat": 37.98270365301358,
    "lng": 23.719206888648312
  },
  {
    "name": "Το Στέκι της Φωτεινής",
    "url": "https://maps.app.goo.gl/WDLKPoT2bayYqor96",
    "address": "Στρ. Κοντούλη 15, Αθήνα 117 42",
    "lat": 37.966122619632145,
    "lng": 23.726245016024656
  },
  {
    "name": "Μεζεδοπωλείο Ιωάννινα",
    "url": "https://maps.app.goo.gl/ur5XrAoMuE8FsR5c6",
    "address": "Δράκου 14, Αθήνα 117 42",
    "lat": 37.96571079116367,
    "lng": 23.725945276440267
  },
  {
    "name": "Ταβέρνα Η Κεφαλονιά",
    "url": "https://maps.app.goo.gl/eVrzxTMuCzQvAE596",
    "address": "Πλαταιών 10, Αθήνα 104 35",
    "lat": 37.98047740550758,
    "lng": 23.717062587155947
  },
  {
    "name": "Το Καφενείο του Δημήτρη",
    "url": "https://maps.app.goo.gl/1XoTtwx2q6EitZZi8",
    "address": "Επταχάλκου 5, Αθήνα 118 51",
    "lat": 37.97686050854808,
    "lng": 23.718458701649066
  },
  {
    "name": "Εστιατόριο Ναύπλιο",
    "url": "https://maps.app.goo.gl/CyUaWUVM84i2Ym18A",
    "address": "Άργους 66, Αθήνα 104 41",
    "lat": 37.99014835512761,
    "lng": 23.713340464618646
  },
  {
    "name": "Ουζερί Άνδρος",
    "url": "https://maps.app.goo.gl/wD1K2DMnmMrpmHVu7",
    "address": "Λεωφ. Κηφισίας 308, Κηφισιά 145 63",
    "lat": 38.083850431201256,
    "lng": 23.816117674528748
  },
  {
    "name": "Ταβέρνα Η Κεφαλονιά",
    "url": "https://maps.app.goo.gl/Ryj3tMNNp7RWvUcs6",
    "address": "Ηρακλειδών 10, Αθήνα 118 51",
    "lat": 37.975037080566636,
    "lng": 23.71898004749624
  },
  {
    "name": "Μεζεδοπωλείο Κρήτη",
    "url": "https://maps.app.goo.gl/rsdLSf9DyCBtiGXo8",
    "address": "Λεωφ. Λαυρίου 20 χλμ, Παιανία 190 02",
    "lat": 37.941171044387104,
    "lng": 23.86789220057886
  },
  {
    "name": "Ψιστάρια Βέροια",
    "url": "https://maps.app.goo.gl/HykcqWbVLkwR9HqJ7",
    "address": "Λεωνίδου 87, Αθήνα 104 35",
    "lat": 37.98085946462118,
    "lng": 23.71532632472864
  },
  {
    "name": "Καφενείο Συνταγμα",
    "url": "https://maps.app.goo.gl/RHBwmAA2mvG3Eie58",
    "address": "Ιωλκού 2, Περιστέρι 121 33",
    "lat": 38.0129537569984,
    "lng": 23.7103246194612
  },
  {
    "name": "Καφενείο Πλατάνια",
    "url": "https://maps.app.goo.gl/o8XfcUJ1JPyFTfao8",
    "address": "Μεγ. Αλεξάνδρου 109-111, Αθήνα 104 35",
    "lat": 37.98162530293091,
    "lng": 23.71443381634983
  },
  {
    "name": "Το Στέκι της Αθηνάς",
    "url": "https://maps.app.goo.gl/wSbCCiegqHvWj8KcA",
    "address": "Θεσσαλονίκης 7, Αθήνα 118 51",
    "lat": 37.977110249497095,
    "lng": 23.715901670048872
  },
  {
    "name": "Μεζεδοπωλείο Τρίκαλα",
    "url": "https://maps.app.goo.gl/VoibgN4wKpaNpoSG7",
    "address": "Μεγ. Αλεξάνδρου 117, Αθήνα 104 35",
    "lat": 37.98138914645396,
    "lng": 23.713920948942256
  },
  {
    "name": "Το Κουτούκι του Θανάση",
    "url": "https://maps.app.goo.gl/92JS6PzrgTe3Moyv6",
    "address": "Λεωφ. Ειρήνης 10, Ηλιούπολη 163 45",
    "lat": 37.93790456342302,
    "lng": 23.756307120209538
  },
  {
    "name": "Το Κουτούκι του Στέλιου",
    "url": "https://maps.app.goo.gl/nM83keU2k42E2kxJ6",
    "address": "Μελενίκου 2, Αθήνα 104 47",
    "lat": 37.98471994306453,
    "lng": 23.712346428545427
  },
  {
    "name": "Ταβέρνα Του Πειραιά",
    "url": "https://maps.app.goo.gl/FtKavrSVarJSeYwXA",
    "address": "Σκιάθου 3, Κηφισιά 145 64",
    "lat": 38.08628061091575,
    "lng": 23.81539216213334
  },
  {
    "name": "Ταβέρνα Του Πειραιά",
    "url": "https://maps.app.goo.gl/awtPeTxoWYGakCkX9",
    "address": "Πέλλης 22, Αθήνα 104 47",
    "lat": 37.98338715429696,
    "lng": 23.71184940799049
  },
  {
    "name": "Το Στέκι της Κατερίνας",
    "url": "https://maps.app.goo.gl/4HcYYs1yQVdq1giy8",
    "address": "Λεωφ. Κωνσταντινουπόλεως 64, Περιστέρι 121 33",
    "lat": 38.01200938597209,
    "lng": 23.7082215195935
  },
  {
    "name": "Ουζερί Η Κρήτη",
    "url": "https://maps.app.goo.gl/DJkwhBF35mfEBRKG7",
    "address": "Λεωφ. Αλ. Παπαναστασίου 8, Δάφνη Αττικής 172 35",
    "lat": 37.948710278848054,
    "lng": 23.736099857630663
  },
  {
    "name": "Ψιστάρια Σέρρες",
    "url": "https://maps.app.goo.gl/Dec4aP4V9Z2pEehcA",
    "address": "Μαραθωνομάχων 57, Αθήνα 104 41",
    "lat": 37.98954880589726,
    "lng": 23.709123253452237
  },
  {
    "name": "Ταβέρνα Η Έδεσσα",
    "url": "https://maps.app.goo.gl/ZmkpQ1J6yj1b1iUX6",
    "address": "Αγίας Παρασκευής 24, Περιστέρι 121 32",
    "lat": 38.00643775276086,
    "lng": 23.706964574646523
  },
  {
    "name": "Εστιατόριο Άρτα",
    "url": "https://maps.app.goo.gl/8zy6QLVSBAEWjShh9",
    "address": "Κύρου 7, Κηφισιά 145 64",
    "lat": 38.08767324286352,
    "lng": 23.812020752033984
  },
  {
    "name": "Ταβέρνα Η Πρέβεζα",
    "url": "https://maps.app.goo.gl/giNLK8YBTxmzzF9PA",
    "address": "Κορυτσάς 48, Αθήνα 104 47",
    "lat": 37.984456056477114,
    "lng": 23.70991900524202
  },
  {
    "name": "Μαγειρείο Γρεβενά",
    "url": "https://maps.app.goo.gl/dz2YxasHy4LnBQ668",
    "address": "Ντουρμ 1, Αθήνα 117 45",
    "lat": 37.959800125380376,
    "lng": 23.723270363621033
  },
  {
    "name": "Καφενείο Εξάρχεια",
    "url": "https://maps.app.goo.gl/KcrSRWtpYRZVpLT68",
    "address": "Πάριδος 32, Ίλιον 131 22",
    "lat": 38.02876561192483,
    "lng": 23.709228688807336
  },
  {
    "name": "Καφενείο Εξάρχεια",
    "url": "https://maps.app.goo.gl/QPXwcnn7KEEcjqBb9",
    "address": "Σφιγγός 13, Αθήνα 117 45",
    "lat": 37.958439423665176,
    "lng": 23.722755568163475
  },
  {
    "name": "Το Κουτούκι του Δημήτρη",
    "url": "https://maps.app.goo.gl/dNg85MBr8ViicbBL6",
    "address": "Ιώνων 61, Αθήνα 118 51",
    "lat": 37.96881098076761,
    "lng": 23.714190146946947
  },
  {
    "name": "Ψιστάρια Καβάλα",
    "url": "https://maps.app.goo.gl/w5wA7gPwxSUbGq4m6",
    "address": "Κυδαντίδων 32, Αθήνα 118 51",
    "lat": 37.9698630124268,
    "lng": 23.71322106212657
  },
  {
    "name": "Ψιστάρια Μακεδονία",
    "url": "https://maps.app.goo.gl/VEoaxecqRaF6Y2in8",
    "address": "Μεγ. Αλεξάνδρου 88, Περιστέρι 121 32",
    "lat": 38.01228323858559,
    "lng": 23.703471319893453
  },
  {
    "name": "Εστιατόριο Θεσσαλονίκη",
    "url": "https://maps.app.goo.gl/5fW7sQn1VfXFue1i8",
    "address": "Ευαγγελίστριας και Κρήνης, Νέα Ερυθραία 146 71",
    "lat": 38.09024721634053,
    "lng": 23.815925478181978
  },
  {
    "name": "Ψιστάρια Δράμα",
    "url": "https://maps.app.goo.gl/JZ7NHd5aYDr2jXELA",
    "address": "Καλλισθένους 67, Αθήνα 118 52",
    "lat": 37.96886028012467,
    "lng": 23.713545491142042
  },
  {
    "name": "Εστιατόριο Άρτα",
    "url": "https://maps.app.goo.gl/FmVVezpy5Uwrec5e9",
    "address": "Γενναίου Κολοκοτρώνη 66, Αθήνα 117 41",
    "lat": 37.96561446275287,
    "lng": 23.714982571965468
  },
  {
    "name": "Ψιστάρια Βέροια",
    "url": "https://maps.app.goo.gl/tBGQqYJbzo48VPWv9",
    "address": "Εθνάρχου Μακαρίου 126, Δάφνη Αττικής 172 34",
    "lat": 37.94824819005281,
    "lng": 23.729579675166935
  },
  {
    "name": "Ψιστάρια Βέροια",
    "url": "https://maps.app.goo.gl/zhCvjvwCT9rbixAE6",
    "address": "Τρώων 9, Bournazi 121 33",
    "lat": 38.01836729151931,
    "lng": 23.702104419170855
  },
  {
    "name": "Εστιατόριο Κέρκυρα",
    "url": "https://maps.app.goo.gl/irth7CYMSHY5DX7t5",
    "address": "Ελπίδος 24, Κηφισιά 145 64",
    "lat": 38.09316882456775,
    "lng": 23.805434203164346
  },
  {
    "name": "Ταβέρνα Η Κεφαλλονιά",
    "url": "https://maps.app.goo.gl/HqX9azMMvY9pEhnN6",
    "address": "118 52, Δωριέων 8, Αθήνα 118 52",
    "lat": 37.968255056831595,
    "lng": 23.70991359071036
  },
  {
    "name": "Το Κουτούκι του Θανάση",
    "url": "https://maps.app.goo.gl/X42jFmXfj3xf7XFx9",
    "address": "Πριάμου 2, Ηλιούπολη 163 41",
    "lat": 37.9300575683433,
    "lng": 23.752395520807372
  },
  {
    "name": "Μεζεδοπωλείο Τρίκαλα",
    "url": "https://maps.app.goo.gl/VBA846ekAAGscrWa6",
    "address": "Leoforos Marathonos 19th klm, Παλλήνη Αττικής 153 51",
    "lat": 37.99741941255288,
    "lng": 23.922943419662634
  },
  {
    "name": "Εστιατόριο Άρτα",
    "url": "https://maps.app.goo.gl/ntunDXdn4W56VrG16",
    "address": "Πολυτέκνων 80, Ίλιον 131 21",
    "lat": 38.029707505192306,
    "lng": 23.701561203164797
  },
  {
    "name": "Το Κουτούκι της Πόπης",
    "url": "https://maps.app.goo.gl/U5NQdUWeNcGPMbcs9",
    "address": "Διός 32, Κηφισιά 145 64",
    "lat": 38.09806564019595,
    "lng": 23.80316229730133
  },
  {
    "name": "Μεζεδοπωλείο Αγρίνιο",
    "url": "https://maps.app.goo.gl/zELuRQBZCjzsqwux5",
    "address": "Λεωφ. Αγίου Δημητρίου 120, Αγ. Δημήτριος Αττικής 173 41",
    "lat": 37.93888185097854,
    "lng": 23.730869105234564
  },
  {
    "name": "Ταβέρνα Του Πειραιά",
    "url": "https://maps.app.goo.gl/fWEdbaEvd9cA8Enr9",
    "address": "Αριστείδου 62, Καλλιθέα 176 71",
    "lat": 37.95902391394004,
    "lng": 23.710171017106486
  },
  {
    "name": "Ουζερί Λέσβος",
    "url": "https://maps.app.goo.gl/Dnr9SzVdyH6c3w6d7",
    "address": "Λεωφ. Κυπρίων Ηρώων 57, Ηλιούπολη 163 41",
    "lat": 37.92519193178049,
    "lng": 23.751255406437117
  },
  {
    "name": "Το Κουτούκι του Δημήτρη",
    "url": "https://maps.app.goo.gl/RDXvdLT2Zy9wH87X9",
    "address": "Μίνωος 11-13, Καλλιθέα 176 72",
    "lat": 37.9556758154796,
    "lng": 23.70860659191753
  },
  {
    "name": "Μεζεδοπωλείο Αιγαίο",
    "url": "https://maps.app.goo.gl/QKrjcz5bwnJE9QXA6",
    "address": "Μεσολογγίου 100, Περιστέρι 121 31",
    "lat": 38.01046990272616,
    "lng": 23.68965527636987
  },
  {
    "name": "Ουζερί Σκιάθος",
    "url": "https://maps.app.goo.gl/ps7BDEvG27yAVuTL8",
    "address": "Ηρ. Πολυτεχνείου 85, Ηλιούπολη 163 42",
    "lat": 37.92057877935982,
    "lng": 23.755542263928948
  },
  {
    "name": "Εστιατόριο Κέρκυρα",
    "url": "https://maps.app.goo.gl/EvRoWXo4KNzPYiSL9",
    "address": "Π. Τσαλδάρη 157, Καλλιθέα 176 76",
    "lat": 37.961601438829575,
    "lng": 23.703084593129155
  },
  {
    "name": "Καφενείο Ομόνοια",
    "url": "https://maps.app.goo.gl/CdrwzhJ6AF8GwRvr7",
    "address": "Π. Μελά 8, Αχαρνές 136 75",
    "lat": 38.081090797205825,
    "lng": 23.73517147403274
  },
  {
    "name": "Καφενείο Εξάρχεια",
    "url": "https://maps.app.goo.gl/8PbKYvUzfiWbeWRg7",
    "address": "Σαλαμινίας 8-10, Αθήνα 118 55",
    "lat": 37.97689297145777,
    "lng": 23.693959991915325
  },
  {
    "name": "Καφενείο Ομόνοια",
    "url": "https://maps.app.goo.gl/LiRMqJ6hgSpNtgJ99",
    "address": "Εθ. Αντιστάσεως 91, Περιστέρι 121 34",
    "lat": 38.01418942631727,
    "lng": 23.68836608869776
  },
  {
    "name": "Ψιστάρια Βέροια",
    "url": "https://maps.app.goo.gl/ZYNUbquE3yHM5E837",
    "address": "Χαλκοκονδύλη 39, Περιστέρι 121 35",
    "lat": 38.015942140522725,
    "lng": 23.686390666199237
  },
  {
    "name": "Το Κουτούκι του Δημήτρη",
    "url": "https://maps.app.goo.gl/TEReWJLojKZEkJL38",
    "address": "Μεταμορφώσεως 2, Αγ. Δημήτριος Αττικής 173 41",
    "lat": 37.93527346472632,
    "lng": 23.722390326717125
  },
  {
    "name": "Μεζεδοπωλείο Κοζάνη",
    "url": "https://maps.app.goo.gl/S3ph9mpPrmbS64x3A",
    "address": "Λεωφ. Ελ. Βενιζέλου 88, Νέα Σμύρνη 171 22",
    "lat": 37.94107986247284,
    "lng": 23.713131731866255
  },
  {
    "name": "Μαγειρείο Λαμία",
    "url": "https://maps.app.goo.gl/QHjMpbFEFgtWLbA57",
    "address": "Αϊδινίου 55, Νέα Σμύρνη 171 22",
    "lat": 37.940920844377125,
    "lng": 23.712738244892858
  },
  {
    "name": "Ψιστάρια Μακεδονία",
    "url": "https://maps.app.goo.gl/NEovPiofbnzr8Awb8",
    "address": "Βαρδουσίων 29, Γλυφάδα 165 62",
    "lat": 37.90889434818902,
    "lng": 23.77519106611033
  },
  {
    "name": "Ψιστάρια Σέρρες",
    "url": "https://maps.app.goo.gl/jpKMuFsoZ998HnQE8",
    "address": "Πελοπίδα 106, Περιστέρι 121 35",
    "lat": 38.016523540675394,
    "lng": 23.68057325145113
  },
  {
    "name": "Ταβέρνα Η Ρόδος",
    "url": "https://maps.app.goo.gl/w2k4XzSbicFJD4K48",
    "address": "Γρ. Κυδωνιών 10, Αιγάλεω 122 41",
    "lat": 37.991476631105556,
    "lng": 23.679783507694246
  },
  {
    "name": "Ταβέρνα Η Πρέβεζα",
    "url": "https://maps.app.goo.gl/BYxu5opm4HvR37SN9",
    "address": "Ιουστινιανού 11, Αγ. Δημήτριος Αττικής 173 41",
    "lat": 37.92988893217819,
    "lng": 23.71912670552918
  },
  {
    "name": "Το Στέκι Ρέθυμνο",
    "url": "https://maps.app.goo.gl/QgBcqGt9addfXPwL6",
    "address": "Ραιδεστού 36, Νέα Σμύρνη 171 22",
    "lat": 37.94303304147985,
    "lng": 23.704084169584778
  },
  {
    "name": "Η Ουζερί του Στέλιου",
    "url": "https://maps.app.goo.gl/SnbVYFRKtMTWopt79",
    "address": "Π. Τσαλδάρη 277, Καλλιθέα 176 75",
    "lat": 37.956254016920724,
    "lng": 23.6929814615304
  },
  {
    "name": "Καφενείο Αγρίνιο",
    "url": "https://maps.app.goo.gl/R6yszu5SCxsZfVoCA",
    "address": "Λεωφ. Ελ. Βενιζέλου 243, Καλλιθέα 176 73",
    "lat": 37.9520147160471,
    "lng": 23.6947618008044
  },
  {
    "name": "Ουζερί Νάξος",
    "url": "https://maps.app.goo.gl/XpGuqMmfj7kNQaD17",
    "address": "Αγίας Λαύρας 14, Αιγάλεω 122 42",
    "lat": 37.99150355248482,
    "lng": 23.676971347564844
  },
  {
    "name": "Ψιστάρια Τα Λέσβος",
    "url": "https://maps.app.goo.gl/rZqTMGc8sQwmZ4zq9",
    "address": "Πεντέλης 41-43, Παλαιό Φάληρο 175 64",
    "lat": 37.94264199335833,
    "lng": 23.700097006546933
  },
  {
    "name": "Ουζερί Συντάγματος",
    "url": "https://maps.app.goo.gl/LZohHFYr2FaVdjY49",
    "address": "Πλαστηρα & Καραΐσκακη, Νταου Πεντελη - Ραφηνας 190 09",
    "lat": 38.03925979288046,
    "lng": 23.9433795766678
  },
  {
    "name": "Ουζερί Αιγαίο",
    "url": "https://maps.app.goo.gl/gyD8tEfz4zabut3VA",
    "address": "Ζησιμοπούλου 19, Παλαιό Φάληρο 175 64",
    "lat": 37.93975062587842,
    "lng": 23.699103162428067
  },
  {
    "name": "Η Ψιστάρια της Μαρίνας",
    "url": "https://maps.app.goo.gl/SyFUZSdaS3SB5Mm48",
    "address": "Λεωφ. Αμφιθέας 73, Παλαιό Φάληρο 175 64",
    "lat": 37.93493015100239,
    "lng": 23.70154955498321
  },
  {
    "name": "Εστιατόριο Κοζάνη",
    "url": "https://maps.app.goo.gl/hQsQJwctvni6scyCA",
    "address": "Δημαρχείου 8, Άνω Λιόσια 133 41",
    "lat": 38.07817620964211,
    "lng": 23.702197123618852
  },
  {
    "name": "Το Ψιστάρια του Πέτρου",
    "url": "https://maps.app.goo.gl/oC72DF6MLMBssYjU7",
    "address": "Νικ. Πλαστήρα 32, Χαϊδάρι 124 61",
    "lat": 38.00596041944379,
    "lng": 23.66399500584869
  },
  {
    "name": "Εστιατόριο Λαμία",
    "url": "https://maps.app.goo.gl/D3JyGs93dHL849c59",
    "address": "Σολωμού 92, Μοσχάτο 183 45",
    "lat": 37.95039414676294,
    "lng": 23.681530575454058
  },
  {
    "name": "Ουζερί Ο Αμοργός",
    "url": "https://maps.app.goo.gl/zrm7vsMu18rMsZFJA",
    "address": "Στρ. Καραϊσκάκη 25, Χαϊδάρι 124 61",
    "lat": 38.003598614109904,
    "lng": 23.66346778642219
  },
  {
    "name": "Εστιατόριο Συντάγματος",
    "url": "https://maps.app.goo.gl/xWbZXEXeN5pg16TG9",
    "address": "Στρ. Καραϊσκάκη 17, Χαϊδάρι 124 61",
    "lat": 38.00286560260897,
    "lng": 23.663110435533067
  },
  {
    "name": "Μεζεδοπωλείο Καβάλα",
    "url": "https://maps.app.goo.gl/r5ZTDusqKfZ21E9b8",
    "address": "Λεωφ. Κωνσταντίνου Καραμανλή 6, Αχαρνές 136 72",
    "lat": 38.10626654490386,
    "lng": 23.736261492242534
  },
  {
    "name": "Το Μεζεδοπωλείο της Φωτεινής",
    "url": "https://maps.app.goo.gl/72YzkYeb6xxkDt68A",
    "address": "Στρ. Καραϊσκάκη 1, Β, Χαϊδάρι 124 61",
    "lat": 38.00142234618658,
    "lng": 23.662754824513232
  },
  {
    "name": "Μεζεδοπωλείο Βέροια",
    "url": "https://maps.app.goo.gl/hWqtsGrqa7nCZyh16",
    "address": "Σολωμού 26, Δροσιά 145 72",
    "lat": 38.11739320879304,
    "lng": 23.862199451872925
  },
  {
    "name": "Μαγειρείο Αθηνών",
    "url": "https://maps.app.goo.gl/NkEb3eW3PBdD3fTy7",
    "address": "Άλιμος, Λεωφ. Καλαμακίου 26, Αθήνα 174 55",
    "lat": 37.91296146943959,
    "lng": 23.714111676638694
  },
  {
    "name": "Ο Ουζερί του Ελένης",
    "url": "https://maps.app.goo.gl/j3KcRnM1M4kAsQz36",
    "address": "25ης Μαρτίου 24, Ροδόπολη 145 74",
    "lat": 38.1169884488727,
    "lng": 23.873697271500465
  },
  {
    "name": "Το Μαγειρείο της Ζωής",
    "url": "https://maps.app.goo.gl/DHcE17CBEXSZqg9G9",
    "address": "Κολοκοτρώνη 14, Ροδόπολη 145 74",
    "lat": 38.11813280551885,
    "lng": 23.875469007658698
  },
  {
    "name": "Ταβέρνα Δωδεκανήσου",
    "url": "https://maps.app.goo.gl/ndrwbvbypJGEEjum6",
    "address": "Κύπρου 19, Χαϊδάρι 124 61",
    "lat": 38.008987140141066,
    "lng": 23.65280105299395
  },
  {
    "name": "Η Καφενείο του Πέτρου",
    "url": "https://maps.app.goo.gl/Yhe2M5tujhjVHEAG6",
    "address": "Κατσούλη 77, Πειραιάς 185 41",
    "lat": 37.95501437395202,
    "lng": 23.663299464502014
  },
  {
    "name": "Εστιατόριο Καρδίτσα",
    "url": "https://maps.app.goo.gl/P3D4J5ff2iNtoGc99",
    "address": "Κολοκοτρώνη 160, Κορυδαλλός 181 21",
    "lat": 37.983639078803165,
    "lng": 23.65172200450781
  },
  {
    "name": "Ο Το Κουτούκι της Ζωής",
    "url": "https://maps.app.goo.gl/tvw66LvtdqTpBCKw9",
    "address": "Moreos 45 & Ithomis 20, Γλυφάδα 165 61",
    "lat": 37.88563428778149,
    "lng": 23.75438021161349
  },
  {
    "name": "Ο Εστιατόριο της Σοφίας",
    "url": "https://maps.app.goo.gl/SJ9Ya21w7zZToFhx8",
    "address": "Αργυροκάστρου 26, Πειραιάς 185 42",
    "lat": 37.9618540673877,
    "lng": 23.656289861821378
  },
  {
    "name": "Το Κουτούκι Το Καστοριά",
    "url": "https://maps.app.goo.gl/24c8zd5zA2MCbP6f8",
    "address": "185 41, Κομοτηνής 37, Πειραιάς 185 41",
    "lat": 37.95283160176507,
    "lng": 23.658993462418696
  },
  {
    "name": "Ταβέρνα Αμοργός",
    "url": "https://maps.app.goo.gl/iPGdNokEkHQwjcP5A",
    "address": "Πέππα 1, Σταμάτα 145 75",
    "lat": 38.12550464522669,
    "lng": 23.87986733346546
  },
  {
    "name": "Εστιατόριο Καλαμάτα",
    "url": "https://maps.app.goo.gl/CPZ65sur6LLxmT9J6",
    "address": "Δημ. Γούναρη 144, Γλυφάδα 165 62",
    "lat": 37.87699204463285,
    "lng": 23.76367728627069
  },
  {
    "name": "Καφενείο Αιγαίο",
    "url": "https://maps.app.goo.gl/fYR8XP1Em51pwvSn8",
    "address": "Τατοΐου, Αχαρνές 136 72",
    "lat": 38.144279854273236,
    "lng": 23.79258851371657
  },
  {
    "name": "Ψιστάρια Νάξος",
    "url": "https://maps.app.goo.gl/cf1v4bYNnpWbWW7u9",
    "address": "Θεσσαλονίκης 2, Αχαρνές 136 76",
    "lat": 38.13707378465122,
    "lng": 23.751130974888763
  },
  {
    "name": "Η Ουζερί του Ελένης",
    "url": "https://maps.app.goo.gl/WBkCLkjPiQY1AwSH6",
    "address": "Ά Φυλακιο Πυροσβεστικής, ΒΑΡΥΜΠΟΜΠΗ 136 73",
    "lat": 38.1455087216868,
    "lng": 23.79177367608356
  },
  {
    "name": "Μαγειρείο Κορίνθος",
    "url": "https://maps.app.goo.gl/mcH8XPhdX39hW6V59",
    "address": "Ξενοφώντος 28, Γλυφάδα 166 75",
    "lat": 37.871857113105406,
    "lng": 23.752753345977908
  },
  {
    "name": "Ταβέρνα Τα Χαλκίδα",
    "url": "https://maps.app.goo.gl/jQSs2dndkMDG9Tsq7",
    "address": "Μαυρομιχάλη 22-24, Πειραιάς 185 45",
    "lat": 37.954509819048326,
    "lng": 23.642613690114224
  },
  {
    "name": "Μεζεδοπωλείο Στερεάς",
    "url": "https://maps.app.goo.gl/ekwyDGT5qeED8gtk8",
    "address": "Αγγέλου Μεταξά 13, Πειραιάς 185 34",
    "lat": 37.93943083536511,
    "lng": 23.6501378633564
  },
  {
    "name": "Το Το Κουτούκι του Νίκου",
    "url": "https://maps.app.goo.gl/xbczXzqr95568Y2p7",
    "address": "Μεγ. Αλεξάνδρου 86, Σταμάτα 145 75",
    "lat": 38.138791020092526,
    "lng": 23.886474004082586
  },
  {
    "name": "Τα Το Κουτούκι της Βάσως",
    "url": "https://maps.app.goo.gl/4advyD22Ta7qiUEv7",
    "address": "Φίλωνος 133, Πειραιάς 185 36",
    "lat": 37.93961721991741,
    "lng": 23.641779536091324
  },
  {
    "name": "Η Το Κουτούκι της Μαρίας",
    "url": "https://maps.app.goo.gl/PMXGHCEV52xT7G7w7",
    "address": "Ψαρών 38, Πειραιάς 185 46",
    "lat": 37.953880471733605,
    "lng": 23.63384583394419
  },
  {
    "name": "Μεζεδοπωλείο Εξάρχεια",
    "url": "https://maps.app.goo.gl/X9aRczkLosh9Awyu8",
    "address": "Έκτορος, Σταμάτα 145 75",
    "lat": 38.142623703496184,
    "lng": 23.888598580375778
  },
  {
    "name": "Η Ουζερί της Μαρίας",
    "url": "https://maps.app.goo.gl/2iShe5bzo7qg3ohc6",
    "address": "Εθ. Αντιστάσεως 10, Δραπετσώνα 186 48",
    "lat": 37.949723445369806,
    "lng": 23.63332963263093
  },
  {
    "name": "Τα Μεζεδοπωλείο του Ελένης",
    "url": "https://maps.app.goo.gl/r3twrz7bwRr76j8n8",
    "address": "Αναπαύσεως 36, Δραπετσώνα 185 46",
    "lat": 37.95153993965958,
    "lng": 23.631088706562064
  },
  {
    "name": "Εστιατόριο Τα Αστυπάλαια",
    "url": "https://maps.app.goo.gl/Mg499qYpRgDUfYMg9",
    "address": "Ζησιμοπούλου 5, Γλυφάδα 166 74",
    "lat": 37.860629906056765,
    "lng": 23.752227328267114
  },
  {
    "name": "Ο Ταβέρνα του Μίμη",
    "url": "https://maps.app.goo.gl/hFF1UKLboDX66HUH8",
    "address": "Γρ. Λαμπράκη 1-3, Γλυφάδα 166 75",
    "lat": 37.86096099153773,
    "lng": 23.750381646450872
  },
  {
    "name": "Μαγειρείο Πλατεία",
    "url": "https://maps.app.goo.gl/JYrJ78md5Yy4N4n89",
    "address": "Αγίου Παντελεήμονος 15, Δραπετσώνα 186 48",
    "lat": 37.9460888309485,
    "lng": 23.627498476767997
  },
  {
    "name": "Εστιατόριο Άρτα",
    "url": "https://maps.app.goo.gl/mXkB4S51cYRYxwCe8",
    "address": "Λεωφ. Ποσειδώνος, Νέα Μάκρη 190 05",
    "lat": 38.08813666230261,
    "lng": 23.982996365102682
  },
  {
    "name": "Τα Το Στέκι του Στέλιου",
    "url": "https://maps.app.goo.gl/Pp2npdeDX3kaQbgD6",
    "address": "Λεωφ. Βάρης 45, Βάρη 166 72",
    "lat": 37.834865053335534,
    "lng": 23.79315959403436
  },
  {
    "name": "Καφενείο Η Χίος",
    "url": "https://maps.app.goo.gl/VC2HFhV1wgWoJ7Ev7",
    "address": "Leoforos Evelpidon, Πρεβέζης, Βάρη 166 72",
    "lat": 37.834890045838,
    "lng": 23.791941775154488
  },
  {
    "name": "Ταβέρνα Το Μακεδονία",
    "url": "https://maps.app.goo.gl/pPFdZPKhVShhMrpC6",
    "address": "Αθηνων 36, Καλύβια Θορικού 190 10",
    "lat": 37.842540231960264,
    "lng": 23.92981276182192
  },
  {
    "name": "Μεζεδοπωλείο Αγρίνιο",
    "url": "https://maps.app.goo.gl/ezdUi47iiXAnpXxY9",
    "address": "Βασιλείου Γεωργάκη 2, Καλύβια Θορικού 190 10",
    "lat": 37.841203116649474,
    "lng": 23.927040364485364
  },
  {
    "name": "Το Μεζεδοπωλείο της Φωτεινής",
    "url": "https://maps.app.goo.gl/qHLpPbKqrYerTaBG8",
    "address": "Μιχάλη Καλαβρυτινού 11, Καλύβια Θορικού 190 10",
    "lat": 37.84084854419875,
    "lng": 23.927116302854657
  },
  {
    "name": "Ο Καφενείο του Βασίλη",
    "url": "https://maps.app.goo.gl/wEzHjcfenn2nmLN3A",
    "address": "Λεωφ. Καλλίμαχου 2, Σταθμός Αφιδνών 190 14",
    "lat": 38.192798626562244,
    "lng": 23.84324387519098
  },
  {
    "name": "Το Στέκι Σπέτσες",
    "url": "https://maps.app.goo.gl/nZX2pdLZsc3fNQMa8",
    "address": "Λεωφ. Λίμνης Μαραθώνος 245, Μαραθώνας 190 07",
    "lat": 38.17453592653479,
    "lng": 23.91849447631357
  },
  {
    "name": "Τα Ψιστάρια του Μιχάλη",
    "url": "https://maps.app.goo.gl/DrVjHpSB5fMFZXij9",
    "address": "Ερμού 2, Βουλιαγμένη 166 71",
    "lat": 37.813204547074946,
    "lng": 23.78315032705324
  },
  {
    "name": "Μεζεδοπωλείο Πελοποννήσου",
    "url": "https://maps.app.goo.gl/zYvZ3P8Ee67RZoNy6",
    "address": "Ηλέκτρας 1, Πέραμα 188 63",
    "lat": 37.96447715022685,
    "lng": 23.56326926823615
  },
  {
    "name": "Ψιστάρια Αμοργός",
    "url": "https://maps.app.goo.gl/Fk7koGAZ462ABfY76",
    "address": "Λεωφ. Ειρήνης 8, Πολυδένδρι 190 14",
    "lat": 38.21564800607866,
    "lng": 23.86762931136811
  },
  {
    "name": "Μαγειρείο Συντάγματος",
    "url": "https://maps.app.goo.gl/7wN2L21tT2o7KxCV7",
    "address": "Λεωφ. Ειρήνης 4, Πολυδένδρι 190 14",
    "lat": 38.21655428611633,
    "lng": 23.86821611372373
  },
  {
    "name": "Ο Ψιστάρια του Πόπης",
    "url": "https://maps.app.goo.gl/8AuC45RCCAkJsvne9",
    "address": "Νικολαΐδου 66, Ελευσίνα 192 00",
    "lat": 38.04130257579753,
    "lng": 23.540052368264472
  },
  {
    "name": "Το Το Στέκι του Ειρήνης",
    "url": "https://maps.app.goo.gl/5w23D5PVYwasH98X9",
    "address": "Λεωφ. Ειρήνης 4, Πολυδένδρι 190 14",
    "lat": 38.216929169351175,
    "lng": 23.868895678768617
  },
  {
    "name": "Ουζερί Τρίκαλα",
    "url": "https://maps.app.goo.gl/FqXm1SHTy3UsbXZy9",
    "address": "Κανελλόπουλου 9, Ελευσίνα 192 00",
    "lat": 38.03677889549646,
    "lng": 23.538522460635875
  },
  {
    "name": "Το Εστιατόριο του Στέλιου",
    "url": "https://maps.app.goo.gl/bdVU3oQaAfncuVsN9",
    "address": "Αγίου Δημητρίου, Κουβαράς 190 03",
    "lat": 37.82834073423115,
    "lng": 23.969307203160838
  },
  {
    "name": "Καφενείο Γιάννενα",
    "url": "https://maps.app.goo.gl/jUCxRPxswFJerx5H9",
    "address": "Λεωφόρος Αθηνών, Μαλακάσα 190 11",
    "lat": 38.239213748428575,
    "lng": 23.795988231331933
  },
  {
    "name": "Μεζεδοπωλείο Σέρρες",
    "url": "https://maps.app.goo.gl/QsRPY3vUeGKY5wLB6",
    "address": "Λεωφόρος Αθηνών Χαλκίδος, Μαλακάσα 190 11",
    "lat": 38.23932131119346,
    "lng": 23.792367425380203
  },
  {
    "name": "Ουζερί Αγρίνιο",
    "url": "https://maps.app.goo.gl/C74xDes5etzk12FL7",
    "address": "Σπύρου Πολύχρονη, Μικροχώρι 190 14",
    "lat": 38.23380794795737,
    "lng": 23.89319631949878
  },
  {
    "name": "Μαγειρείο Εύβοια",
    "url": "https://maps.app.goo.gl/fKnjDEunWNjANCQ27",
    "address": "Αθηνών Σουνίου 53, Κερατέα 190 01",
    "lat": 37.808550661496035,
    "lng": 23.978467603150243
  },
  {
    "name": "Ψιστάρια Ηπείρου",
    "url": "https://maps.app.goo.gl/aDeFKvVmZyVF7ZpSA",
    "address": "Επαρ.Οδ. Κερατέας-Ανάβυσσου 77, Κερατέα 190 01",
    "lat": 37.80427446071782,
    "lng": 23.98986829628017
  },
  {
    "name": "Καφενείο Κεφαλλονιά",
    "url": "https://maps.app.goo.gl/M3qEfsy6NhrFMcCH9",
    "address": "Αρχαιολογικος Χωρος Ραμνους, Λεωφόρος Ραμνουντος Τερμα, Μαραθωνας 190 07",
    "lat": 38.21411980707791,
    "lng": 24.03058229285915
  },
  {
    "name": "Το Κουτούκι Αιγαίο",
    "url": "https://maps.app.goo.gl/DPJMb7ZiPi9MTzov7",
    "address": "Λεωφ. Αθηνών Ωρωπού, Μήλεσι Αττικής 190 11",
    "lat": 38.2808566827325,
    "lng": 23.792798463384955
  }
]
