[
  {
    "url": "https://maps.app.goo.gl/GkHg15eafgAV4fou5?g_st=ipc",
    "name": "Aperio cucina & vino",
    "address": "Μεσογείων 258, Χολαργός 155 61",
    "lat": "38.00607265187326",
    "lng": "23.797703238142986"
  },
  {
    "url": "https://maps.app.goo.gl/osUqCcuWwvgZPCpT6?g_st=ipc",
    "name": "Μαρίκα",
    "address": "Αγίας Παρασκευής 109, Χαλάνδρι 152 34",
    "lat": "38.01804412743968",
    "lng": "23.809906247881305"
  },
  {
    "url": "https://maps.app.goo.gl/fzHTDB9dRXhv8Puh9?g_st=ipc",
    "name": "Bellagio Pizza & Pasta Bar",
    "address": "Αγίου Ιωάννου 82, Αγ. Παρασκευή 153 42",
    "lat": "38.005496461487304",
    "lng": "23.82824148801167"
  },
  {
    "url": "https://maps.app.goo.gl/KW1onnVwQCy1jQXk7?g_st=ipc",
    "name": "pizzaiolo",
    "address": "Ασπασίας 63, Χολαργός 155 61",
    "lat": "38.00035069734868",
    "lng": "23.79281060180485"
  },
  {
    "url": "https://maps.app.goo.gl/f357srheHFN2PfBk6?g_st=ipc",
    "name": "Casareccio trattoria pizzeria",
    "address": "Ξανθίππου 84, Χολαργός 155 61",
    "lat": "37.995258640416544",
    "lng": "23.796024502616564"
  },
  {
    "url": "https://maps.app.goo.gl/vifqCWxK1J8ZiiCu7?g_st=ipc",
    "name": "Alpino Cucina Italiana",
    "address": "Παπανικολή 66, Χαλάνδρι 152 32",
    "lat": "38.017273062811554",
    "lng": "23.796958155707255"
  },
  {
    "url": "https://maps.app.goo.gl/1D9mpaGYtG23tshYA?g_st=ipc",
    "name": "Lollo's Atene",
    "address": "Εθ. Αντιστάσεως 3α, Χαλάνδρι 152 32",
    "lat": "38.01753697922701",
    "lng": "23.795618164928833"
  },
  {
    "url": "https://maps.app.goo.gl/Go53VnWKyGjFvBK38?g_st=ipc",
    "name": "Come A Casa",
    "address": "Καραολη Δημήτριου 17, Χαλάνδρι 152 32",
    "lat": "38.020170312119056",
    "lng": "23.798225694950606"
  },
  {
    "url": "https://maps.app.goo.gl/nUn81XsFVAHwxcV18?g_st=ipc",
    "name": "Totonno Pizzeria",
    "address": "Καλογρέζης 1, Χαλάνδρι 152 32",
    "lat": "38.0207813740758",
    "lng": "23.7979881651798"
  },
  {
    "url": "https://maps.app.goo.gl/fXUuPjTevur2Va5m8?g_st=ipc",
    "name": "Etien Pizza Bar",
    "address": "25ης Μαρτίου 28, Νέο Ψυχικό 154 51",
    "lat": "38.00546047638011",
    "lng": "23.78575711022555"
  },
  {
    "url": "https://maps.app.goo.gl/3jtSyfSCsogG92777?g_st=ipc",
    "name": "Kentrina",
    "address": "Likourgou, Chalandri 152 31",
    "lat": "38.013966629254554",
    "lng": "23.786077267676728"
  },
  {
    "url": "https://maps.app.goo.gl/D9rRduThcXn2ff1i8?g_st=ipc",
    "name": "Portofino Pizza Xalandri",
    "address": "Γρ. Γυφτοπούλου 23, Χαλάνδρι 152 33",
    "lat": "38.0247038627797",
    "lng": "23.797586721157028"
  },
  {
    "url": "https://maps.app.goo.gl/6pHzTzWoidEixrLw8?g_st=ipc",
    "name": "Innamorata",
    "address": "Likourgou 5Α, Chalandri 152 31",
    "lat": "38.01461502802222",
    "lng": "23.785308731358"
  },
  {
    "url": "https://maps.app.goo.gl/pCWntKXiEkk3VBdj8?g_st=ipc",
    "name": "ALIO",
    "address": "Βασιλέως Γεωργίου 34, Χαλάνδρι 152 33",
    "lat": "38.02380840827294",
    "lng": "23.79252131680721"
  },
  {
    "url": "https://maps.app.goo.gl/yBBC5XtbjE87q2fEA?g_st=ipc",
    "name": "Lolita's Athens",
    "address": "Λεωφ. Κηφισίας 340, Νέο Ψυχικό 154 51",
    "lat": "38.00900399306317",
    "lng": "23.779848762939032"
  },
  {
    "url": "https://maps.app.goo.gl/x9LunWYHnZkLF3B68?g_st=ipc",
    "name": "Parlo Restaurant",
    "address": "Αδριανείου 25Α, Αθήνα 115 25",
    "lat": "37.99920315769846",
    "lng": "23.772042235397578"
  },
  {
    "url": "https://maps.app.goo.gl/yxs9qh1QSGqVTa1R6?g_st=ipc",
    "name": "ΤΑΛΕ ΚΟΥΑΛΕ",
    "address": "Αδριανείου 20, Αθήνα 115 25",
    "lat": "37.998832186045824",
    "lng": "23.771946797243086"
  },
  {
    "url": "https://maps.app.goo.gl/T4kAMQjZQmhxQyFN7?g_st=ipc",
    "name": "Forget About It",
    "address": "Θέτιδος 1, Βριλήσσια 152 38",
    "lat": "38.03770860286521",
    "lng": "23.82639404104221"
  },
  {
    "url": "https://maps.app.goo.gl/kYHyarXW2TAM2VEr9?g_st=ipc",
    "name": "Pizzamore",
    "address": "Πρωτοπαπαδάκη 20, Γαλάτσι 111 47",
    "lat": "38.01171283477954",
    "lng": "23.755383909223237"
  },
  {
    "url": "https://maps.app.goo.gl/nGW44VsbXXjFk6eF7?g_st=ipc",
    "name": "KAMIKAZE",
    "address": "Ναρκίσσου 34-36, Γαλάτσι 111 46",
    "lat": "38.0243124367211",
    "lng": "23.753568534514113"
  },
  {
    "url": "https://maps.app.goo.gl/JMrxX5Rq7Q7HgR487?g_st=ipc",
    "name": "The italians",
    "address": "Βασ. Σοφίας 47, Μαρούσι 151 24",
    "lat": "38.05489203613415",
    "lng": "23.80737502626759"
  },
  {
    "url": "https://maps.app.goo.gl/1Y5w6FVjdG8zz4d67?g_st=ipc",
    "name": "Arancini - Restaurant",
    "address": "Λεωφ. Μαραθώνος 56, Παλλήνη 153 51",
    "lat": "38.00362078615682",
    "lng": "23.878168070453672"
  },
  {
    "url": "https://maps.app.goo.gl/m24wKNSPTHZaNPpA9?g_st=ipc",
    "name": "Piazza D'Amore",
    "address": "28ης Οκτωβρίου 8, Ηράκλειο 141 21",
    "lat": "38.046873886500826",
    "lng": "23.765946699532154"
  },
  {
    "url": "https://maps.app.goo.gl/yrWwCAmRFC73bnXRA?g_st=ipc",
    "name": "Nolio Restaurant",
    "address": "Π. Τσαλδάρη 32-34, Μελίσσια 151 27",
    "lat": "38.0541360368352",
    "lng": "23.842912804517134"
  },
  {
    "url": "https://maps.app.goo.gl/QWSrhfiNkAJznHfQA?g_st=ipc",
    "name": "Nonna Edda",
    "address": "Λεωφ. Εθ. Αντιστάσεως 62, Καισαριανή 161 21",
    "lat": "37.968437805608076",
    "lng": "23.757681215549333"
  },
  {
    "url": "https://maps.app.goo.gl/eiXsobGt1KWweP7UA?g_st=ipc",
    "name": "Lisa Athens",
    "address": "Φωκίωνος Νέγρη 25, Αθήνα 113 61",
    "lat": "38.00121668798056",
    "lng": "23.737030313370706"
  },
  {
    "url": "https://maps.app.goo.gl/TbrGKuznviUTnbH8A?g_st=ipc",
    "name": "Trattoria Capanna",
    "address": "Πλουτάρχου 38, Αθήνα 106 75",
    "lat": "37.978619151360974",
    "lng": "23.74496219249258"
  },
  {
    "url": "https://maps.app.goo.gl/q6QEwwnvQiVfYob8A?g_st=ipc",
    "name": "Malconi's Italian Restaurant",
    "address": "Patriarhou Ioakim 43 &, Πλουτάρχου 23, Αθήνα 106 75",
    "lat": "37.9782776822669",
    "lng": "23.744765633446125"
  },
  {
    "url": "https://maps.app.goo.gl/XB7Fy2Zdva4f5Hrv6?g_st=ipc",
    "name": "Gorlomi",
    "address": "Πλουτάρχου 9, Αθήνα 106 75",
    "lat": "37.97728908184003",
    "lng": "23.74514067416134"
  },
  {
    "url": "https://maps.app.goo.gl/71Ffa4D3sz17HHuJ7?g_st=ipc",
    "name": "Brunello",
    "address": "Λουκιανού 21b, Αθήνα 106 75",
    "lat": "37.97774328484756",
    "lng": "23.74346729703624"
  },
  {
    "url": "https://maps.app.goo.gl/kgXB1etikXQDGo7k6?g_st=ipc",
    "name": "Puff Daddy Pizzeria",
    "address": "Σκρα 16, Πεύκη 151 21",
    "lat": "38.06473867888921",
    "lng": "23.799010812565253"
  },
  {
    "url": "https://maps.app.goo.gl/GBCYCeq3F77e7FqH8?g_st=ipc",
    "name": "mamas pizza",
    "address": "Φυλής 197, Αθήνα 112 52",
    "lat": "38.00286067766126",
    "lng": "23.729687108811326"
  },
  {
    "url": "https://maps.app.goo.gl/dt7Xajoo364aPHjy7?g_st=ipc",
    "name": "Tre Sorelle Pizza",
    "address": "Αρχελάου 19, Αθήνα 116 35",
    "lat": "37.971668400347134",
    "lng": "23.745923794431828"
  },
  {
    "url": "https://maps.app.goo.gl/Y9CFJNjG4R2hx4hB6?g_st=ipc",
    "name": "Lost Athens",
    "address": "Αρχελάου 7, Αθήνα 116 35",
    "lat": "37.970670759829304",
    "lng": "23.746680147108094"
  },
  {
    "url": "https://maps.app.goo.gl/qNCJTFj4cbH4ymKR8?g_st=ipc",
    "name": "Valtezziana 2.0",
    "address": "Βαλτετσίου 41, Αθήνα 106 81",
    "lat": "37.985220488107345",
    "lng": "23.735852167301612"
  },
  {
    "url": "https://maps.app.goo.gl/Ju5CstFm66m8QTbA9?g_st=ipc",
    "name": "Frankie",
    "address": "Σκουφά 42, Αθήνα 106 72",
    "lat": "37.98052235951531",
    "lng": "23.738034947822758"
  },
  {
    "url": "https://maps.app.goo.gl/7Te4ShNfhnjxZ4C97?g_st=ipc",
    "name": "IL POSTINO",
    "address": "Γριβαίων 3, Αθήνα 106 80",
    "lat": "37.982131533851984",
    "lng": "23.737093611323974"
  },
  {
    "url": "https://maps.app.goo.gl/1SJBX6YThtp2jdfQ8?g_st=ipc",
    "name": "Mystic Pizza & Pasta",
    "address": "Εμμανουήλ Μπενάκη 76, Αθήνα 106 81",
    "lat": "37.98571885741884",
    "lng": "23.735343296198398"
  },
  {
    "url": "https://maps.app.goo.gl/sAWyTjj3m9qMaTaY8?g_st=ipc",
    "name": "ALEX the fresh pasta bar",
    "address": "Μασσαλίας 16, Αθήνα 106 80",
    "lat": "37.98144779340368",
    "lng": "23.73652703184346"
  },
  {
    "url": "https://maps.app.goo.gl/xKjHZ2p6PcwHNd7G8?g_st=ipc",
    "name": "Mario & Luigi",
    "address": "Ευφράνορος 35, Αθήνα 116 35",
    "lat": "37.966012366342085",
    "lng": "23.746366511353546"
  },
  {
    "url": "https://maps.app.goo.gl/mFVjH2gTLzicYaVJA?g_st=ipc",
    "name": "Cupola",
    "address": "Ευφοριωνος 13, Αθήνα 116 35",
    "lat": "37.97044661658537",
    "lng": "23.742232273257617"
  },
  {
    "url": "https://maps.app.goo.gl/uUSmZ457DPu3bX9J6?g_st=ipc",
    "name": "agave athens",
    "address": "Ευφράνορος 40, Αθήνα 116 35",
    "lat": "37.9657831829776",
    "lng": "23.746184137622457"
  },
  {
    "url": "https://maps.app.goo.gl/bRqX3YLuyGMaGs896?g_st=ipc",
    "name": "pastabar",
    "address": "Λεωφ. Δεκελείας 136, Νέα Φιλαδέλφεια Αττικής 143 41",
    "lat": "38.03729506274719",
    "lng": "23.739505873670616"
  },
  {
    "url": "https://maps.app.goo.gl/uGAbtwYha4Eeb7c56?g_st=ipc",
    "name": "Piadina Lumbro",
    "address": "Ομήρου 15, Αθήνα 106 72",
    "lat": "37.97943796124596",
    "lng": "23.735657958882037"
  },
  {
    "url": "https://maps.app.goo.gl/4tmrg1wVrWp5rgjx6?g_st=ipc",
    "name": "La Pasteria",
    "address": "Βαλαωρίτου 15, Αθήνα 106 71",
    "lat": "37.97832911911956",
    "lng": "23.73614187652223"
  },
  {
    "url": "https://maps.app.goo.gl/CdMX5E6yxNBbvoYs8?g_st=ipc",
    "name": "Cosa Nostra Fresca Pasta Pagrati",
    "address": "Αρχιμήδους 8, Αθήνα 116 35",
    "lat": "37.96783594678004",
    "lng": "23.743332676630974"
  },
  {
    "url": "https://maps.app.goo.gl/dhSjH71uBwFmJRQg8?g_st=ipc",
    "name": "COUPEPE",
    "address": "Ηρ. Πολυτεχνείου 43, Νέα Πεντέλη 152 39",
    "lat": "38.059126782333124",
    "lng": "23.858013173173166"
  },
  {
    "url": "https://maps.app.goo.gl/csSJRksdwNoDcqqE7?g_st=ipc",
    "name": "Luma",
    "address": "Φερεκύδου 2, Αθήνα 116 35",
    "lat": "37.967195735298965",
    "lng": "23.74306872996665"
  },
  {
    "url": "https://maps.app.goo.gl/p6S1BxZ6W3VgwiR46?g_st=ipc",
    "name": "Colibri",
    "address": "Εμπεδοκλέους 15, Αθήνα 116 35",
    "lat": "37.96629536354424",
    "lng": "23.742907448127177"
  },
  {
    "url": "https://maps.app.goo.gl/jpzzbHYa7ZkuqiDh9?g_st=ipc",
    "name": "La Pasteria",
    "address": "Κασσαβέτη 12, Κηφισιά 145 62",
    "lat": "38.071971773331484",
    "lng": "23.81375357994017"
  },
  {
    "url": "https://maps.app.goo.gl/RmErpGj8TndJSV9v7?g_st=ipc",
    "name": "Brigante (Σύνταγμα)",
    "address": "Ξενοφώντος 6, Αθήνα 105 57",
    "lat": "37.97426577787846",
    "lng": "23.734179177201504"
  },
  {
    "url": "https://maps.app.goo.gl/VyAef5tB1eVm8LECA?g_st=ipc",
    "name": "Gloria Gati",
    "address": "Πλ. Αγίου Γεωργίου Καρύτση 6, Αθήνα 105 61",
    "lat": "37.97802514944533",
    "lng": "23.731662994218254"
  },
  {
    "url": "https://maps.app.goo.gl/b5YoW6FvnhXk97jJ8?g_st=ipc",
    "name": "Portofino Pizza Kifisia",
    "address": "Levidou 16, Αργυροπούλου 1-3, Κηφισιά 145 62",
    "lat": "38.0734702785448",
    "lng": "23.814976694722787"
  },
  {
    "url": "https://maps.app.goo.gl/e4S1yWk4AQ9uuCD96?g_st=ipc",
    "name": "DR.8",
    "address": "Δραγατσανίου 8, Αθήνα 105 59",
    "lat": "37.97961742890019",
    "lng": "23.730308681463843"
  },
  {
    "url": "https://maps.app.goo.gl/1xtm5c4dSnQZtLaY9?g_st=ipc",
    "name": "Casa Giacomo Kifissia",
    "address": "Λεβίδου 11, Κηφισιά 145 62",
    "lat": "38.07385898526318",
    "lng": "23.814586935437283"
  },
  {
    "url": "https://maps.app.goo.gl/nkhWXfUCf8UqXp5W9?g_st=ipc",
    "name": "Granello - Pizza Italiana",
    "address": "Περικλέους 18, Αθήνα 105 62",
    "lat": "37.97667761548528",
    "lng": "23.73173801660532"
  },
  {
    "url": "https://maps.app.goo.gl/4FHfDnNt7PhJxhxK6?g_st=ipc",
    "name": "Aliola’s Ermou",
    "address": "Ερμού 18 &, Διομείας 2, Αθήνα 105 63",
    "lat": "37.97633249966058",
    "lng": "23.7318293724108"
  },
  {
    "url": "https://maps.app.goo.gl/YsVGa9MzZPoFLxFs9?g_st=ipc",
    "name": "OVIO",
    "address": "Απόλλωνος 4, Αθήνα 105 57",
    "lat": "37.974772406489194",
    "lng": "23.732726038133688"
  },
  {
    "url": "https://maps.app.goo.gl/uY33YuN8n7TKUXd86?g_st=ipc",
    "name": "Pracsitele",
    "address": "Πραξιτέλους 7, Αθήνα 105 62",
    "lat": "37.978075255049035",
    "lng": "23.730655699973674"
  },
  {
    "url": "https://maps.app.goo.gl/TKodgxdpAuijQZCk7?g_st=ipc",
    "name": "V1935 Roof Garden",
    "address": "Βουλής 29, Αθήνα 105 57",
    "lat": "37.974997891356715",
    "lng": "23.732428069404467"
  },
  {
    "url": "https://maps.app.goo.gl/7pV3HgnuTMx17JXu9?g_st=ipc",
    "name": "Odori",
    "address": "Σκουλενίου 2, Αθήνα 105 61",
    "lat": "37.97921353082345",
    "lng": "23.729753241851572"
  },
  {
    "url": "https://maps.app.goo.gl/ddcDFfjhHBSTkLzH8?g_st=ipc",
    "name": "Ami Italian Bistrot",
    "address": "Βουλής, Απόλλωνος &, Αθήνα 105 57",
    "lat": "37.97469248298705",
    "lng": "23.732316050865755"
  },
  {
    "url": "https://maps.app.goo.gl/gjaqkvxWUZYGRAXB9?g_st=ipc",
    "name": "\"+2H Restaurant\"",
    "address": "Rooftop of ERGON Bakehouse, Μητροπόλεως 27, Αθήνα 105 57",
    "lat": "37.97531452405919",
    "lng": "23.73121660311007"
  },
  {
    "url": "https://maps.app.goo.gl/JWJwotwbGCaC9dvV6?g_st=ipc",
    "name": "la nonna",
    "address": "Αναπαύσεως 11, Αθήνα 116 36",
    "lat": "37.966397023107625",
    "lng": "23.734629464112153"
  },
  {
    "url": "https://maps.app.goo.gl/RxyTMGLyt4d7KQ4T7?g_st=ipc",
    "name": "P3 • Pizza Pasta Piazza",
    "address": "Πλ. Υμηττού 15, Υμηττός 172 37",
    "lat": "37.95458478436311",
    "lng": "23.74640491373037"
  },
  {
    "url": "https://maps.app.goo.gl/VGYffngsR22p4GZ36?g_st=ipc",
    "name": "Tartufo Cucina Italiana",
    "address": "Αγ. Θέκλας 9, Αθήνα 105 54",
    "lat": "37.97745304334609",
    "lng": "23.72475266844782"
  },
  {
    "url": "https://maps.app.goo.gl/EgPatpb6TGQzX94s6?g_st=ipc",
    "name": "AGLIO, OLIO & PEPERONCINO",
    "address": "Πορίνου 13, Αθήνα 117 42",
    "lat": "37.96798831953671",
    "lng": "23.7299912754838"
  },
  {
    "url": "https://maps.app.goo.gl/qy2UDY83bx3RhcUU9?g_st=ipc",
    "name": "Romatella - Pinsa Romana",
    "address": "Φαλήρου 4, Αθήνα 117 42",
    "lat": "37.96690380968513",
    "lng": "23.72869589039828"
  },
  {
    "url": "https://maps.app.goo.gl/kPu5BDkNuumunei99?g_st=ipc",
    "name": "Canarino",
    "address": "Ηλία Ηλιού 28, Αθήνα 117 43",
    "lat": "37.95905367625766",
    "lng": "23.73382645635927"
  },
  {
    "url": "https://maps.app.goo.gl/nNiwhy5xKwpgF7Lo6?g_st=ipc",
    "name": "Pizza Dough!",
    "address": "Δημητρακοπούλου 17, Αθήνα 117 42",
    "lat": "37.96630825345609",
    "lng": "23.72750504939054"
  },
  {
    "url": "https://maps.app.goo.gl/v5TXqxqHKdw7mrCr5?g_st=ipc",
    "name": "Fratti Bistro",
    "address": "Φράττι 1, Αθήνα 117 42",
    "lat": "37.96852406982216",
    "lng": "23.725725056108836"
  },
  {
    "url": "https://maps.app.goo.gl/UiJhpTwk6oBuPXFx9?g_st=ipc",
    "name": "PARCO PIZZA",
    "address": "Λεωφ. Δημοκρατίας 9, Καματερό 134 51",
    "lat": "38.04774854674856",
    "lng": "23.728958951505486"
  },
  {
    "url": "https://maps.app.goo.gl/jGrvJpyieexo9ia7A?g_st=ipc",
    "name": "ΣΤΗΒΣ Α.Ε. Κεραμεικός - ΧΑΜΠΟΥΡΓΚΕΡ & ΠΙΤΣΕΣ",
    "address": "Σαλαμίνος 42, Αθήνα 104 35",
    "lat": "37.981862446372006",
    "lng": "23.716769207199707"
  },
  {
    "url": "https://maps.app.goo.gl/C6d72ehNu6DCFZzN8?g_st=ipc",
    "name": "Armando Pizzeria Cafeteria",
    "address": "Σαλαμίνος 43, Αθήνα 104 35",
    "lat": "37.98213039665648",
    "lng": "23.716474886735785"
  },
  {
    "url": "https://maps.app.goo.gl/MitPmZaCFjCBtxr4A?g_st=ipc",
    "name": "Proveleggioς",
    "address": "Παραμυθίας 11, Αθήνα 104 35",
    "lat": "37.98314343701362",
    "lng": "23.716034626731084"
  },
  {
    "url": "https://maps.app.goo.gl/9Zg1mEJh6x2SjrNx6?g_st=ipc",
    "name": "Amante Athens",
    "address": "Παραμυθίας 13, Αθήνα 104 35",
    "lat": "37.983114932894274",
    "lng": "23.7159682164575"
  },
  {
    "url": "https://maps.app.goo.gl/HebUjJkB8SUt6Xp36?g_st=ipc",
    "name": "Βουλκανιζατέρ",
    "address": "Οδυσσέα Ανδρούτσου 17, Αθήνα 117 41",
    "lat": "37.96367095489114",
    "lng": "23.724556596700353"
  },
  {
    "url": "https://maps.app.goo.gl/v1cfqn2UJ11ZTMJq6?g_st=ipc",
    "name": "Margherita Pizza Artigianale Νέα Ερυθραία",
    "address": "Χαριλάου τρικούπη 146 &, Strofiliou, Nea Erithrea 146 71",
    "lat": "38.08856611677621",
    "lng": "23.816718880082657"
  },
  {
    "url": "https://maps.app.goo.gl/viysAA695txjhPLE6?g_st=ipc",
    "name": "La Bella Napoli",
    "address": "Ρουμπέση 64, Αθήνα 172 30",
    "lat": "37.95333874485214",
    "lng": "23.726510881566565"
  },
  {
    "url": "https://maps.app.goo.gl/Qw99VuJkc2GbipvDA?g_st=ipc",
    "name": "Pizza Park",
    "address": "Ηρ. Πολυτεχνείου 24, Νέα Ερυθραία 146 71",
    "lat": "38.09198960934523",
    "lng": "23.81402750121575"
  },
  {
    "url": "https://maps.app.goo.gl/QybTqvRE6JzNcqyYA?g_st=ipc",
    "name": "Trattoria Italia D'onofrio",
    "address": "Βαρνουντος 6, Αθήνα 117 41",
    "lat": "37.96439892270411",
    "lng": "23.71376404461326"
  },
  {
    "url": "https://maps.app.goo.gl/mj45NkH8L5jqeHD58?g_st=ipc",
    "name": "Pizza Days - Αγίου Δημητρίου",
    "address": "Ανδρέα Παπανδρέου 2, Αγ. Δημήτριος Αττικής 173 41",
    "lat": "37.9436201391912",
    "lng": "23.733022003629234"
  },
  {
    "url": "https://maps.app.goo.gl/iqvRwdhG4FanUzaEA?g_st=ipc",
    "name": "DE MICHELLE",
    "address": "Μητροπολίτου Ευθυβούλη 17, Νέα Σμύρνη 171 24",
    "lat": "37.94606996265572",
    "lng": "23.727087729280314"
  },
  {
    "url": "https://maps.app.goo.gl/hbqzvikXoNEXvdgj7?g_st=ipc",
    "name": "Dei Fratelli - Ristorante Italiano",
    "address": "ΚΡΑΤΗΤΟΣ 10 &, Σπαθαρη, Νέα Σμύρνη 171 21",
    "lat": "37.954535351071335",
    "lng": "23.71576098163187"
  },
  {
    "url": "https://maps.app.goo.gl/Btmva8rtUGkuoUtX6?g_st=ipc",
    "name": "La Greca Ίλιον",
    "address": "Έκτορος 140, Ίλιον 131 23",
    "lat": "38.033370068810264",
    "lng": "23.70123370557317"
  },
  {
    "url": "https://maps.app.goo.gl/hmtXEzz7XFvKtEnG6?g_st=ipc",
    "name": "The Eatalians - Mario & Luigi",
    "address": "Λεωφ. Ελ. Βενιζέλου 190, Ηλιούπολη 163 41",
    "lat": "37.92539688479538",
    "lng": "23.751855920363795"
  },
  {
    "url": "https://maps.app.goo.gl/EPn5hzC47NSHkek9A?g_st=ipc",
    "name": "The italians_peristeri",
    "address": "Αιμιλίου Βεάκη 46, Περιστέρι 121 34",
    "lat": "38.01175840681134",
    "lng": "23.693124439008372"
  },
  {
    "url": "https://maps.app.goo.gl/h2o6228dtCcx8xr98?g_st=ipc",
    "name": "Μακαρούνες (exceptional cuisine)",
    "address": "Αιμιλίου Βεάκη 70, Περιστέρι 121 34",
    "lat": "38.01172277822911",
    "lng": "23.691017826226332"
  },
  {
    "url": "https://maps.app.goo.gl/UadeCSeXLWu8p8wK6?g_st=ipc",
    "name": "Vissente - Italian comfort food",
    "address": "Πλ. Αθανασίου Καρύλλου 9, Νέα Σμύρνη 171 21",
    "lat": "37.94750349815223",
    "lng": "23.714501612675416"
  },
  {
    "url": "https://maps.app.goo.gl/WcUWRBUhr7SBrvaw8?g_st=ipc",
    "name": "Cavaliere Ristorante Concettuale",
    "address": "Λεωφ. Ελ. Βενιζέλου 42, Νέα Σμύρνη 171 22",
    "lat": "37.944619471140975",
    "lng": "23.71414682617668"
  },
  {
    "url": "https://maps.app.goo.gl/HJ2LMpj8kWkR6MSZ9?g_st=ipc",
    "name": "La Greca Περιστέρι",
    "address": "Τζων Κέννεντυ 149, Περιστέρι 121 36",
    "lat": "38.010196542861046",
    "lng": "23.67916957954494"
  },
  {
    "url": "https://maps.app.goo.gl/BW3pXFd1SVKpBcai6?g_st=ipc",
    "name": "LE PIZZE DI SAN GENNARO",
    "address": "Ευξείνου Πόντου 172, Νέα Σμύρνη 171 23",
    "lat": "37.93395718694605",
    "lng": "23.71495698828565"
  },
  {
    "url": "https://maps.app.goo.gl/VEjqHzj7oG8PDciG7?g_st=ipc",
    "name": "Il Trovatore",
    "address": "Γοργοποτάμου 14, Παλαιό Φάληρο 175 64",
    "lat": "37.93426882606043",
    "lng": "23.704929709402517"
  },
  {
    "url": "https://maps.app.goo.gl/myFgmXovKb5x7zc9A?g_st=ipc",
    "name": "Caton L'anziano",
    "address": "Δωδεκανήσου 1, Αργυρούπολη 164 52",
    "lat": "37.90721241896495",
    "lng": "23.748209011580894"
  },
  {
    "url": "https://maps.app.goo.gl/QapvvUw9jwdJSAM69?g_st=ipc",
    "name": "Vitello Trattoria Romana",
    "address": "Ζησιμοπούλου 41, Παλαιό Φάληρο 175 64",
    "lat": "37.93748817614671",
    "lng": "23.699162197380616"
  },
  {
    "url": "https://maps.app.goo.gl/BQxFwm6nKx3uhqa9A?g_st=ipc",
    "name": "Il Tinello Athens",
    "address": "Κνωσού 54, Άλιμος 174 55",
    "lat": "37.9164984895058",
    "lng": "23.723486074483993"
  },
  {
    "url": "https://maps.app.goo.gl/Mjwxjxeqf2KWt2Hq5?g_st=ipc",
    "name": "Ακάκιος μακαρονάδικο",
    "address": "Αγίας Τριάδος 1, Παλαιό Φάληρο 175 64",
    "lat": "37.932532942991465",
    "lng": "23.699425438393305"
  },
  {
    "url": "https://maps.app.goo.gl/akcP8bTGNqFh27cR9?g_st=ipc",
    "name": "Trattoria Casa Bianca",
    "address": "Στρ. Καραϊσκάκη 43, Χαϊδάρι 124 61",
    "lat": "38.004704945340144",
    "lng": "23.664059272009183"
  },
  {
    "url": "https://maps.app.goo.gl/j8oAF5aTcAufPq229?g_st=ipc",
    "name": "Pizza Days - Άνω Λιοσίων",
    "address": "Πηνειού 38, Άνω Λιόσια 133 41",
    "lat": "38.08738762293733",
    "lng": "23.705019354443774"
  },
  {
    "url": "https://maps.app.goo.gl/obmeLmF2dusw8e6LA?g_st=ipc",
    "name": "Pizzeria MamaRosa",
    "address": "Κανάρη 48, Κως 853 00",
    "lat": "36.89985042997736",
    "lng": "27.283591451459408"
  },
  {
    "url": "https://maps.app.goo.gl/TKR7jw9ozmdL38DBA?g_st=ipc",
    "name": "Amici Miei Cucina Italiana",
    "address": "στρατηγού πετρίτη 7, Δροσιά 145 72",
    "lat": "38.1201358654641",
    "lng": "23.85982839112877"
  },
  {
    "url": "https://maps.app.goo.gl/up3EpvmXnu7L2VC67?g_st=ipc",
    "name": "Ο Ιταλός",
    "address": "Αλκυόνης 16, Παλαιό Φάληρο 175 61",
    "lat": "37.926673536986776",
    "lng": "23.69220389211545"
  },
  {
    "url": "https://maps.app.goo.gl/iJWXQzLD79YWLeji9?g_st=ipc",
    "name": "Napolitivo",
    "address": "Λεωφ. Ποσειδώνος 702, Παλαιό Φάληρο 175 61",
    "lat": "37.931139363113324",
    "lng": "23.68556698847028"
  },
  {
    "url": "https://maps.app.goo.gl/PHAu91Gt4K1K24iZ8?g_st=ipc",
    "name": "Incontro Via108",
    "address": "Αγ. Ελευθερίου 108, Πειραιάς 185 41",
    "lat": "37.95597000000485",
    "lng": "23.6616563361716"
  },
  {
    "url": "https://maps.app.goo.gl/TRUJmqRbfNqYTojR9?g_st=ipc",
    "name": "La Greca Νίκαια",
    "address": "Ανακρέοντος 5, Νίκαια 184 53",
    "lat": "37.96989287630008",
    "lng": "23.649375358414368"
  },
  {
    "url": "https://maps.app.goo.gl/Viv8JcHoZX8wKXaV9?g_st=ipc",
    "name": "Mamy Blue - Pizza Napoletana Glyfada",
    "address": "Ανδρέα Παπανδρέου 126, Γλυφάδα 165 61",
    "lat": "37.8796152626329",
    "lng": "23.758507788324675"
  },
  {
    "url": "https://maps.app.goo.gl/ZAb7BbVjZ5jTGd8i8?g_st=ipc",
    "name": "Da Michele",
    "address": "Λεωφ. Μαραθώνος 61, Άνοιξη 145 69",
    "lat": "38.133061719353606",
    "lng": "23.858730163431314"
  },
  {
    "url": "https://maps.app.goo.gl/s3jT1Jfm88nb6Y8f8?g_st=ipc",
    "name": "SANTA PASTA Cucina Italiana",
    "address": "Γρ. Λαμπράκη 144, Πειραιάς 185 35",
    "lat": "37.94068201075252",
    "lng": "23.64952027321399"
  },
  {
    "url": "https://maps.app.goo.gl/V1DfNbY33j2yeRfy7?g_st=ipc",
    "name": "Portofino Cucina Italiana",
    "address": "Μαρίνα Ζέας, Πειραιάς 185 36",
    "lat": "37.933560056703215",
    "lng": "23.64800969933006"
  },
  {
    "url": "https://maps.app.goo.gl/Num2iYLzYqax5s3c6?g_st=ipc",
    "name": "Bella Vespa",
    "address": "Κύπρου 11, Γλυφάδα 166 75",
    "lat": "37.867068220579014",
    "lng": "23.747389427780124"
  },
  {
    "url": "https://maps.app.goo.gl/R29dtEiZf13f8My98?g_st=ipc",
    "name": "Pizza Tros",
    "address": "Μαρίνα Ζέας, Πειραιάς 185 36",
    "lat": "37.93310764502524",
    "lng": "23.647126189869965"
  },
  {
    "url": "https://maps.app.goo.gl/o1MzXXTU18xSPfb69?g_st=ipc",
    "name": "Peccati Di Gola",
    "address": "Κύπρου 50, Γλυφάδα 166 75",
    "lat": "37.86427445144013",
    "lng": "23.751331713919253"
  },
  {
    "url": "https://maps.app.goo.gl/vJFoPpuhcPupJ3ju7?g_st=ipc",
    "name": "Italida Restaurant",
    "address": "Φιλελλήνων 9, Πειραιάς 185 36",
    "lat": "37.939531794803344",
    "lng": "23.64139153468878"
  },
  {
    "url": "https://maps.app.goo.gl/pCnDdDLDMjkN2CGv6?g_st=ipc",
    "name": "ITALI.CO",
    "address": "Ανδρέα Παπανδρέου 3, Γλυφάδα 166 75",
    "lat": "37.86253909414944",
    "lng": "23.747999477664532"
  },
  {
    "url": "https://maps.app.goo.gl/oSFQmUYzAW2nsJ8z6?g_st=ipc",
    "name": "Toto's Little Italy",
    "address": "Νικ. Πλαστήρα 29, Νέα Μάκρη 190 05",
    "lat": "38.083162778426875",
    "lng": "23.980726245351242"
  },
  {
    "url": "https://maps.app.goo.gl/7yzTG7SodJm8Ubug6?g_st=ipc",
    "name": "Napul'è Italian Comfort Food & Wine",
    "address": "Βασ. Κωνσταντίνου 43, Βάρη 166 72",
    "lat": "37.8271502092117",
    "lng": "23.80408943661563"
  },
  {
    "url": "https://maps.app.goo.gl/xb88QciDkgCY4ycv8?g_st=ipc",
    "name": "ΠΙΤΣΑΡΙΑ ΑΧΙΛΛΕΙΟΝ",
    "address": "Λεωφ. Ακτή Καραϊσκάκη 24, Σαλαμίνα 189 00",
    "lat": "37.96332108068363",
    "lng": "23.493487796737526"
  },
  {
    "url": "https://maps.app.goo.gl/CQiwfGN8vkcQtv7x8?g_st=ipc",
    "name": "Avli Pizzeria Italian Restaurant",
    "address": "Σκάλα 180 10",
    "lat": "37.70852668969966",
    "lng": "23.364217806517935"
  },
  {
    "url": "https://maps.app.goo.gl/DESesA1yAU2maSDx7?g_st=ipc",
    "name": "Lupo Trattoria",
    "address": "Βουδούρη 6, Χαλκίδα 341 00",
    "lat": "38.46311896550072",
    "lng": "23.590229926533073"
  },
  {
    "url": "https://maps.app.goo.gl/vWaWFumGBn6ey64P6?g_st=ipc",
    "name": "Il Porto",
    "address": "Μπουμπουλίνας 43, Ναύπλιο 211 00",
    "lat": "37.56732416244355",
    "lng": "22.800888651268885"
  }
]
