[
  {
    "url": "https://maps.app.goo.gl/UynpfTCs73NDwhL67?g_st=ipc",
    "name": "Hunters Room & Grill Restaurant",
    "address": "Αριστοτέλους 23, & Παπάγου 17, Χαλάνδρι 152 34",
    "lat": "38.021923789577265",
    "lng": "23.8032446662537"
  },
  {
    "url": "https://maps.app.goo.gl/y626YBBGaXmpiJVr9?g_st=ipc",
    "name": "Innamorata",
    "address": "Likourgou 5Α, Chalandri 152 31",
    "lat": "38.01461731619136",
    "lng": "23.78530839639015"
  },
  {
    "url": "https://maps.app.goo.gl/9QeJrtg4uVD3LnL38?g_st=ipc",
    "name": "Botrini's Restaurant Athens",
    "address": "Λεωφ. Βασιλέως Γεωργίου B 24, Χαλάνδρι 152 33",
    "lat": "38.02321116531418",
    "lng": "23.793992884008055"
  },
  {
    "url": "https://maps.app.goo.gl/Ae2mzr6PphQKvoxT8?g_st=ipc",
    "name": "Gardenista",
    "address": "Παπανικολή 18, Χαλάνδρι 152 32",
    "lat": "38.022288294318166",
    "lng": "23.791808518147295"
  },
  {
    "url": "https://maps.app.goo.gl/wWwjB1wyAhWAY8CR9?g_st=ipc",
    "name": "Lolita's Athens",
    "address": "Λεωφ. Κηφισίας 340, Νέο Ψυχικό 154 51",
    "lat": "38.00900352290236",
    "lng": "23.77984898036716"
  },
  {
    "url": "https://maps.app.goo.gl/s1dqcjcL1yJpKM4D7?g_st=ipc",
    "name": "Dimitris Economides Athens",
    "address": "Λεωφ. Κηφισίας 340, Νέο Ψυχικό 154 51",
    "lat": "38.00891269766893",
    "lng": "23.779612298452548"
  },
  {
    "url": "https://maps.app.goo.gl/iFowB3Xks7e5KZr67?g_st=ipc",
    "name": "BurntBone",
    "address": "Αγίου Κωνσταντίνου 50, Μαρούσι 151 24",
    "lat": "38.04658414578802",
    "lng": "23.806088897851588"
  },
  {
    "url": "https://maps.app.goo.gl/g7jbxhgYDYFvpnKX6?g_st=ipc",
    "name": "Αφρόψαρο",
    "address": "Μαρίνου Αντύπα 62-66, Ηράκλειο 141 21",
    "lat": "38.04349613246651",
    "lng": "23.771888846159882"
  },
  {
    "url": "https://maps.app.goo.gl/3rzbE1xBxdLWH9Fm7?g_st=ipc",
    "name": "Fuga restaurant & Bar",
    "address": "Πέτρου Κόκκαλη 1, Αθήνα 115 21",
    "lat": "37.98215631508218",
    "lng": "23.753698661211164"
  },
  {
    "url": "https://maps.app.goo.gl/VKy2rrBX11ogrt618?g_st=ipc",
    "name": "Hytra Restaurant & Bar",
    "address": "1, Πέτρου Κόκκαλη STR, Αθήνα 115 21",
    "lat": "37.98167691309065",
    "lng": "23.75272858120184"
  },
  {
    "url": "https://maps.app.goo.gl/jUvgtGYVftJKQUeM7?g_st=ipc",
    "name": "Ψαροκόκκαλο",
    "address": "Ελ. Βενιζέλου 19, Μελίσσια 151 27",
    "lat": "38.05403920943362",
    "lng": "23.838870568638754"
  },
  {
    "url": "https://maps.app.goo.gl/FDQnvFLEucyn2rft6?g_st=ipc",
    "name": "Kozi's",
    "address": "Π. Τσαλδάρη 34, Μελίσσια 151 27",
    "lat": "38.05410178054939",
    "lng": "23.84283580469915"
  },
  {
    "url": "https://maps.app.goo.gl/eVWjuM8b4LpyY8yk7?g_st=ipc",
    "name": "Cookoovaya",
    "address": "Χατζηγιάννη Μέξη 2a, Αθήνα 115 28",
    "lat": "37.976921193543475",
    "lng": "23.751481425496852"
  },
  {
    "url": "https://maps.app.goo.gl/mzwKBdesag7itwYi6?g_st=ipc",
    "name": "Simul",
    "address": "Υψηλάντου 63, Αθήνα 115 21",
    "lat": "37.97792157218587",
    "lng": "23.750427343616465"
  },
  {
    "url": "https://maps.app.goo.gl/Em7n6W5HcPciEXPN7?g_st=ipc",
    "name": "Ox Athens",
    "address": "Χατζηγιάννη Μέξη 9, Αθήνα 115 28",
    "lat": "37.975866043758764",
    "lng": "23.75171237040956"
  },
  {
    "url": "https://maps.app.goo.gl/dJm31W4p6fxcPwDr7?g_st=ipc",
    "name": "Seeds Restaurant",
    "address": "Oumplianis 14, Diocharous 27, & 161 21",
    "lat": "37.97301735223458",
    "lng": "23.75389127288081"
  },
  {
    "url": "https://maps.app.goo.gl/u2HXnXpcXqTUxdbF6?g_st=ipc",
    "name": "Vezené Athens",
    "address": "Βρασίδα 11, Αθήνα 115 28",
    "lat": "37.97470285308878",
    "lng": "23.751002243210046"
  },
  {
    "url": "https://maps.app.goo.gl/aRWFTJLNa9obfB379?g_st=ipc",
    "name": "Orizontes Lycabettus",
    "address": "Αριστίππου 1, Αθήνα 106 76",
    "lat": "37.98180885773441",
    "lng": "23.743545726263044"
  },
  {
    "url": "https://maps.app.goo.gl/LvCPT5L2JR5q3a5TA?g_st=ipc",
    "name": "Forte Charitos Restaurant",
    "address": "Χάρητος 43, Αθήνα 106 76",
    "lat": "37.97881342237638",
    "lng": "23.745155145341098"
  },
  {
    "url": "https://maps.app.goo.gl/VBn4DqpyECKgkc6z7?g_st=ipc",
    "name": "Trattoria Capanna",
    "address": "Πλουτάρχου 38, Αθήνα 106 75",
    "lat": "37.97861725628422",
    "lng": "23.7449616800858"
  },
  {
    "url": "https://maps.app.goo.gl/gH4BTnSVsyBMroV17?g_st=ipc",
    "name": "WooWoo Athens",
    "address": "Πατριάρχου Ιωακείμ 43, Αθήνα 106 75",
    "lat": "37.97826618328873",
    "lng": "23.744714006159654"
  },
  {
    "url": "https://maps.app.goo.gl/gjhhSnxNmG8dsNg58?g_st=ipc",
    "name": "Gorlomi",
    "address": "Πλουτάρχου 9, Αθήνα 106 75",
    "lat": "37.97728860760529",
    "lng": "23.74514103872722"
  },
  {
    "url": "https://maps.app.goo.gl/rXKGxv9snP1gaFVh9?g_st=ipc",
    "name": "Zurbaran Athens",
    "address": "Πατριάρχου Ιωακείμ 38, Αθήνα 106 75",
    "lat": "37.97801172701077",
    "lng": "23.744349686117033"
  },
  {
    "url": "https://maps.app.goo.gl/xJsngrNWcKcLy6AB6?g_st=ipc",
    "name": "Iodio",
    "address": "Λουκιανού 36, Αθήνα 106 75",
    "lat": "37.97846718508711",
    "lng": "23.7434152762831"
  },
  {
    "url": "https://maps.app.goo.gl/7nmcpWX3r9sBfd248?g_st=ipc",
    "name": "Ronin",
    "address": "Ξανθίππου 2, Αθήνα 106 75",
    "lat": "37.97868261628751",
    "lng": "23.74283922763361"
  },
  {
    "url": "https://maps.app.goo.gl/Nw5wbke6z4TMJnQi8?g_st=ipc",
    "name": "St George Lycabettus Lifestyle Hotel",
    "address": "Κλεομένους 2, Αθήνα 106 75",
    "lat": "37.979411883866305",
    "lng": "23.742302492612982"
  },
  {
    "url": "https://maps.app.goo.gl/NWNaSroxE1Lncry6A?g_st=ipc",
    "name": "Rooftop Terrace on top of St. George Hotel",
    "address": "Αθήνα 106 75",
    "lat": "37.97925289319014",
    "lng": "23.74214536289671"
  },
  {
    "url": "https://maps.app.goo.gl/okbeASGTeSTwszzP7?g_st=ipc",
    "name": "NiDo Athens",
    "address": "Λεβέντη 5, Αθήνα 106 73",
    "lat": "37.977919345579465",
    "lng": "23.741770246682712"
  },
  {
    "url": "https://maps.app.goo.gl/9gWFrAvvmqBKsy2bA?g_st=ipc",
    "name": "Brutus Tavern",
    "address": "Λεβέντη 3, Αθήνα 106 73",
    "lat": "37.9778313193549",
    "lng": "23.741690006593426"
  },
  {
    "url": "https://maps.app.goo.gl/NaWhxNRMrgRxErcs7?g_st=ipc",
    "name": "Papadakis Restaurant",
    "address": "Φωκυλίδου 15, Αθήνα 106 73",
    "lat": "37.979724577899326",
    "lng": "23.74027811613999"
  },
  {
    "url": "https://maps.app.goo.gl/ybfkAt98uRcmLcZLA?g_st=ipc",
    "name": "Zanó - Athens",
    "address": "Παναγιώτου Αναγνωστοπούλου 3, Αθήνα 106 73",
    "lat": "37.97774961244962",
    "lng": "23.741221128338456"
  },
  {
    "url": "https://maps.app.goo.gl/LMGwAzhv7RzR34wj6?g_st=ipc",
    "name": "Drakoulis Dry & Raw Kolonaki",
    "address": "Πλ. Φιλικής Εταιρείας 14, Αθήνα 106 74",
    "lat": "37.97718005520891",
    "lng": "23.741289591081852"
  },
  {
    "url": "https://maps.app.goo.gl/ZDppkuU7VyctpKx28?g_st=ipc",
    "name": "Ακρα",
    "address": "Αμύντα 12, Αθήνα 116 35",
    "lat": "37.97187166175863",
    "lng": "23.745034148490227"
  },
  {
    "url": "https://maps.app.goo.gl/wmG4jDbuv8SWkb2K8?g_st=ipc",
    "name": "Γιάντες",
    "address": "Βαλτετσίου 44, Αθήνα 106 81",
    "lat": "37.985496291273606",
    "lng": "23.735937070358016"
  },
  {
    "url": "https://maps.app.goo.gl/uyszTjt8NoxFPzGVA?g_st=ipc",
    "name": "atole",
    "address": "Γριβαίων 3 &, Δελφών 5, Αθήνα 106 80",
    "lat": "37.98212745819382",
    "lng": "23.73709285482029"
  },
  {
    "url": "https://maps.app.goo.gl/EwoNbTNDX9bmfSgf9?g_st=ipc",
    "name": "10 Urban Roof",
    "address": "Λεωφ. Αλεξάνδρας 10, Αθήνα 106 82",
    "lat": "37.99116171206528",
    "lng": "23.733113789092354"
  },
  {
    "url": "https://maps.app.goo.gl/K2pf3xsJBhwfdAmR8?g_st=ipc",
    "name": "Amen Gastronomic",
    "address": "Ηρώνδα 8, Αθήνα 116 35",
    "lat": "37.970762115684614",
    "lng": "23.743270249717987"
  },
  {
    "url": "https://maps.app.goo.gl/oJzDuNQyNTeigZtU6?g_st=ipc",
    "name": "Cinq Sens Athens",
    "address": "Πύρρου 38, Αθήνα 116 33",
    "lat": "37.964330906697526",
    "lng": "23.749169578189175"
  },
  {
    "url": "https://maps.app.goo.gl/pUYvBf9Pyie8Th6y6?g_st=ipc",
    "name": "NYX Japanese Rooftop Gastrobar",
    "address": "Ομήρου 19, Αθήνα 106 19",
    "lat": "37.979692789342245",
    "lng": "23.73612228752731"
  },
  {
    "url": "https://maps.app.goo.gl/RBuX85zG8FLEfgP38?g_st=ipc",
    "name": "Τηλέμαχος Athens",
    "address": "Πανεπιστημίου 10, Αθήνα 106 71",
    "lat": "37.97762848061713",
    "lng": "23.73578847774419"
  },
  {
    "url": "https://maps.app.goo.gl/WYq3Lbdn3q9HxutG9?g_st=ipc",
    "name": "MAPPEMONDE RESTAURANT BAR-LOUNGE",
    "address": "4 Eleftheriou Venizelou Avenue and, Κριεζώτου 2, Αθήνα 106 71",
    "lat": "37.97696364697298",
    "lng": "23.73616989138591"
  },
  {
    "url": "https://maps.app.goo.gl/6F5c77DnjsqmPiiS8?g_st=ipc",
    "name": "Soil Restaurant",
    "address": "Φερεκύδου 5, Αθήνα 116 35",
    "lat": "37.96695852322669",
    "lng": "23.743066634939197"
  },
  {
    "url": "https://maps.app.goo.gl/XVTtg2fQJZ9BgKwf8?g_st=ipc",
    "name": "Athénée",
    "address": "Βουκουρεστίου 9, Αθήνα 106 71",
    "lat": "37.97732441090204",
    "lng": "23.73522238103731"
  },
  {
    "url": "https://maps.app.goo.gl/ATToqJxfAUoZ5G9K9?g_st=ipc",
    "name": "Alexander's Cigar Lounge - Hotel Grande Bretagne",
    "address": "Ξενοδοχείο Μεγάλη Βρεταννία, Αθήνα 105 64",
    "lat": "37.9765761269288",
    "lng": "23.735530035440927"
  },
  {
    "url": "https://maps.app.goo.gl/VcZAREtQXac8Kb7L8?g_st=ipc",
    "name": "GB Roof Garden Restaurant & Bar",
    "address": "Γεωρ. Α' 1, Αθήνα 105 64",
    "lat": "37.97622612223311",
    "lng": "23.735512001439584"
  },
  {
    "url": "https://maps.app.goo.gl/jhibZwcpc2dwd9vw9?g_st=ipc",
    "name": "The Winter Garden",
    "address": "Γεωρ. Α' 1, Αθήνα 105 64",
    "lat": "37.97623725810017",
    "lng": "23.735438816517487"
  },
  {
    "url": "https://maps.app.goo.gl/F5z8usANoo63JuD88?g_st=ipc",
    "name": "Ex Machina",
    "address": "Εμπεδοκλέους 34, Αθήνα 116 36",
    "lat": "37.96479312618342",
    "lng": "23.743989976816355"
  },
  {
    "url": "https://maps.app.goo.gl/cS5CQSpmozciczpaA?g_st=ipc",
    "name": "Tudor Hall",
    "address": "Γεωρ. Α' 3, Αθήνα 105 64",
    "lat": "37.97626476939356",
    "lng": "23.73492119381686"
  },
  {
    "url": "https://maps.app.goo.gl/yjnQQMfc7oBpEhjn7?g_st=ipc",
    "name": "Spondi Restaurant",
    "address": "Πύρρωνος 5, Αθήνα 116 36",
    "lat": "37.96512570220306",
    "lng": "23.743047382502652"
  },
  {
    "url": "https://maps.app.goo.gl/hdE6Uo7UUV1Sx4i76?g_st=ipc",
    "name": "Il Salumaio d' Atene",
    "address": "Παναγίτσας 3, Κηφισιά 145 62",
    "lat": "38.07341261438747",
    "lng": "23.81279655771526"
  },
  {
    "url": "https://maps.app.goo.gl/p3ytMHs2cKCwK2j76?g_st=ipc",
    "name": "Geco Athens",
    "address": "Λέκκα 14, Αθήνα 105 62",
    "lat": "37.97686179118327",
    "lng": "23.732026538746123"
  },
  {
    "url": "https://maps.app.goo.gl/AAxiioC4fKMwJFS26?g_st=ipc",
    "name": "Rick's",
    "address": "Πεντέλης 1, Κηφισιά 145 62",
    "lat": "38.073591059792",
    "lng": "23.818979548150455"
  },
  {
    "url": "https://maps.app.goo.gl/7oxZNbR2DavBC6xc9?g_st=ipc",
    "name": "Papaioannou Restaurant Kifissia",
    "address": "Κολοκοτρώνη 32, Κηφισιά 145 62",
    "lat": "38.0737767420817",
    "lng": "23.819108183940664"
  },
  {
    "url": "https://maps.app.goo.gl/Dz6PnDZaCe8Db55q7?g_st=ipc",
    "name": "Θανάσης 1948",
    "address": "Κων/νου Καβάφη 48, Αθήνα 111 43",
    "lat": "38.01944995786154",
    "lng": "23.725569046206015"
  },
  {
    "url": "https://maps.app.goo.gl/ZfHvRHaS1QGcXHjR6?g_st=ipc",
    "name": "NATU",
    "address": "Λεβίδου 13, Κηφισιά 145 62",
    "lat": "38.0741668788152",
    "lng": "23.814758280449073"
  },
  {
    "url": "https://maps.app.goo.gl/ou4XFAAMpTQ3uTaeA?g_st=ipc",
    "name": "Art Lounge Rooftop",
    "address": "Ναυάρχου Νικοδήμου 1, Αθήνα 105 57",
    "lat": "37.97343240978713",
    "lng": "23.73349750420062"
  },
  {
    "url": "https://maps.app.goo.gl/RDyBCidSMuRkERcq8?g_st=ipc",
    "name": "ANTHES RESTAURANT",
    "address": "Σκούφου 3, Αθήνα 105 57",
    "lat": "37.974547276465074",
    "lng": "23.732673103940233"
  },
  {
    "url": "https://maps.app.goo.gl/tUuLVQH5grYrdAAZ7?g_st=ipc",
    "name": "Nolan",
    "address": "Βουλής 31 - 33, Αθήνα 105 57",
    "lat": "37.97480222800375",
    "lng": "23.732371535491776"
  },
  {
    "url": "https://maps.app.goo.gl/zUugGUWG4UDszZX58?g_st=ipc",
    "name": "Metropolis Roof Garden",
    "address": "Μητροπόλεως 15, Αθήνα 105 57",
    "lat": "37.97522262578899",
    "lng": "23.732019777211896"
  },
  {
    "url": "https://maps.app.goo.gl/N41tm7Rat4DFSsAU7?g_st=ipc",
    "name": "Sushimou",
    "address": "Σκούφου 6, Αθήνα 105 57",
    "lat": "37.97442627061418",
    "lng": "23.73246036031784"
  },
  {
    "url": "https://maps.app.goo.gl/tZNVrAuGYm6zBKgh9?g_st=ipc",
    "name": "ΑΝΕΤΟΝ",
    "address": "Ναυάρχου Νικοδήμου 3, Αθήνα 105 57",
    "lat": "37.973499757295556",
    "lng": "23.733045100192022"
  },
  {
    "url": "https://maps.app.goo.gl/Z185a4BudLXiNxEu8?g_st=ipc",
    "name": "Okio Restaurant Fine Dining Athens",
    "address": "Nikis 33 &, Ναυάρχου Νικοδήμου 3, Αθήνα 105 57",
    "lat": "37.973490463159685",
    "lng": "23.733043418426053"
  },
  {
    "url": "https://maps.app.goo.gl/wX7WWf8KNz7fjSU17?g_st=ipc",
    "name": "Koumkan Athens",
    "address": "Χαρ. Τρικούπη 48, Κηφισιά 145 62",
    "lat": "38.074565539470925",
    "lng": "23.821323887505876"
  },
  {
    "url": "https://maps.app.goo.gl/DRSR8qGkR5GU1Bts9?g_st=ipc",
    "name": "Electra Roof Garden",
    "address": "Ναυάρχου Νικοδήμου 18-20, Αθήνα 105 57",
    "lat": "37.97379853875271",
    "lng": "23.731619747681133"
  },
  {
    "url": "https://maps.app.goo.gl/WjuGe8xR7pKk3jr18?g_st=ipc",
    "name": "Feedέλ Urban Gastronomy",
    "address": "Κτενά 1, Αθήνα 105 63",
    "lat": "37.976557315206726",
    "lng": "23.729921899187712"
  },
  {
    "url": "https://maps.app.goo.gl/zfVsdMVE9KLHsZKR7?g_st=ipc",
    "name": "Hasapika Central Market",
    "address": "Αριστογείτονος 1, Αθήνα 105 51",
    "lat": "37.98004920672925",
    "lng": "23.72784326093664"
  },
  {
    "url": "https://maps.app.goo.gl/f7xcdqi6HEkGGDrXA?g_st=ipc",
    "name": "Ateno Cook & Deli",
    "address": "Αιόλου 52 &, Μιλτιάδου, Αθήνα 105 60",
    "lat": "37.97838376630937",
    "lng": "23.72811686512798"
  },
  {
    "url": "https://maps.app.goo.gl/3rX2B6EznK5THCsX9?g_st=ipc",
    "name": "The Zillers Rooftop Gastronomy",
    "address": "Μητροπόλεως 54, Αθήνα 105 63",
    "lat": "37.97561073825588",
    "lng": "23.729618727455946"
  },
  {
    "url": "https://maps.app.goo.gl/NgSL8U8Jxe2dDBQ17?g_st=ipc",
    "name": "Ciel Athens",
    "address": "ΜΝΗΣΙΚΛΕΟΥΣ, Μητροπόλεως 2, Αθήνα 105 56",
    "lat": "37.97569623880465",
    "lng": "23.728776192217"
  },
  {
    "url": "https://maps.app.goo.gl/HCtBkZVH9f9shwEp9?g_st=ipc",
    "name": "Samano Radio Restaurant",
    "address": "Πλ. Φιλόμουσου Εταιρίας 3, Αθήνα 105 58",
    "lat": "37.97164530530575",
    "lng": "23.731079390163124"
  },
  {
    "url": "https://maps.app.goo.gl/otc3c7Va7CjPm1DW6?g_st=ipc",
    "name": "DOLLI•S",
    "address": "Μητροπόλεως 49, Αθήνα 105 56",
    "lat": "37.97581257538226",
    "lng": "23.728126338151636"
  },
  {
    "url": "https://maps.app.goo.gl/HGyf6NBqrcUdSC2Q6?g_st=ipc",
    "name": "STOFFA Restaurant",
    "address": "Βασ. Αμαλίας 20, Κηφισιά 145 61",
    "lat": "38.07709526139845",
    "lng": "23.81028232052578"
  },
  {
    "url": "https://maps.app.goo.gl/WKQy9EmSUhqhWCug7?g_st=ipc",
    "name": "Okra",
    "address": "Μητροπόλεως 82, Αθήνα 105 55",
    "lat": "37.976265060511366",
    "lng": "23.727023267502062"
  },
  {
    "url": "https://maps.app.goo.gl/Z4tvsZgtjtshZ5in8?g_st=ipc",
    "name": "Wood Restaurant",
    "address": "Εμμανουήλ Μπενάκη 22, Κηφισιά 145 61",
    "lat": "38.07791110310903",
    "lng": "23.811544603806652"
  },
  {
    "url": "https://maps.app.goo.gl/BrJr73pSejAaUrbq6?g_st=ipc",
    "name": "SENSE Modern Greek Cuisine",
    "address": "Διονυσίου Αρεοπαγίτου 5, Αθήνα 117 42",
    "lat": "37.96950501164825",
    "lng": "23.730857786980206"
  },
  {
    "url": "https://maps.app.goo.gl/GXQoSjefiFBRaDGv7?g_st=ipc",
    "name": "Monzu Kifisia",
    "address": "Λεωφ. Κηφισίας 317b, Κηφισιά 145 61",
    "lat": "38.07940005653839",
    "lng": "23.813943332774045"
  },
  {
    "url": "https://maps.app.goo.gl/3itc1dgDWbdcs6649?g_st=ipc",
    "name": "Makris Athens Fine Dining Restaurant",
    "address": "Astiggos 10, Ερμού 119, Αθήνα 105 55",
    "lat": "37.97675780023075",
    "lng": "23.722883040179465"
  },
  {
    "url": "https://maps.app.goo.gl/XJabCFiZNQjmGZzb7?g_st=ipc",
    "name": "ΜΑΝΗΜΑΝΗ",
    "address": "Φαλήρου 10, Αθήνα 117 42",
    "lat": "37.96669521915854",
    "lng": "23.72836820432756"
  },
  {
    "url": "https://maps.app.goo.gl/Ldu5GaEmi8GWuxbX6?g_st=ipc",
    "name": "Esthio Athens",
    "address": "Δημητρακοπούλου 7, Αθήνα 117 42",
    "lat": "37.96676654589047",
    "lng": "23.72827244889686"
  },
  {
    "url": "https://maps.app.goo.gl/NiwbpnxKE4g22Tzw6?g_st=ipc",
    "name": "POINT A (Acropolis Point)",
    "address": "Ροβέρτου Γκάλι 4a, Αθήνα 117 42",
    "lat": "37.968415622994755",
    "lng": "23.72706617377212"
  },
  {
    "url": "https://maps.app.goo.gl/SEiQ4TaHrnqFedUp9?g_st=ipc",
    "name": "Kuzina",
    "address": "Αδριανού 9, Αθήνα 105 55",
    "lat": "37.97641837479381",
    "lng": "23.722069175394093"
  },
  {
    "url": "https://maps.app.goo.gl/4upFvmVgdSbUxB7F8?g_st=ipc",
    "name": "Aleria Restaurant",
    "address": "Μεγ. Αλεξάνδρου 57, Αθήνα 104 35",
    "lat": "37.983083255227115",
    "lng": "23.717769708530103"
  },
  {
    "url": "https://maps.app.goo.gl/KpcsdbWmQM1rsB9dA?g_st=ipc",
    "name": "Osteria Mamma",
    "address": "Σαλαμίνος 64, Αθήνα 104 35",
    "lat": "37.98294206858995",
    "lng": "23.71602963121187"
  },
  {
    "url": "https://maps.app.goo.gl/GpnAhWfdMHLu7ZMPA?g_st=ipc",
    "name": "CTC Urban Gastronomy",
    "address": "Πλαταιών 15, Αθήνα 104 35",
    "lat": "37.98049469537203",
    "lng": "23.71689046945663"
  },
  {
    "url": "https://maps.app.goo.gl/zkqCQmDUHjdt7RX4A?g_st=ipc",
    "name": "Gallina Athens",
    "address": "Μαρκ. Μπότσαρη 49, Αθήνα 117 42",
    "lat": "37.964508186769734",
    "lng": "23.726121733406966"
  },
  {
    "url": "https://maps.app.goo.gl/FdaHgzGN8Q8h9ubz8?g_st=ipc",
    "name": "Jerár",
    "address": "Αγίας Βαρβάρας 55, Δάφνη Αττικής 172 35",
    "lat": "37.951578580834756",
    "lng": "23.735160182054084"
  },
  {
    "url": "https://maps.app.goo.gl/kdwd63rguvb581o36?g_st=ipc",
    "name": "Στα Καλά Καθούμενα",
    "address": "Ιερά Οδός 25-27-29, Ιερά Οδός 29, Αθήνα 118 54",
    "lat": "37.97981343858823",
    "lng": "23.713855292153"
  },
  {
    "url": "https://maps.app.goo.gl/Lw19R1SYRg5uJsbn9?g_st=ipc",
    "name": "Basegrill Athens",
    "address": "Λεωφ. Κωνσταντινουπόλεως 64, Περιστέρι 121 33",
    "lat": "38.011892662985154",
    "lng": "23.708178655362712"
  },
  {
    "url": "https://maps.app.goo.gl/V3ngNHyJA9qDkeyJ9?g_st=ipc",
    "name": "Χρώματα Βυθού",
    "address": "Εκάλης 40, Νέα Ερυθραία 146 71",
    "lat": "38.0879239564187",
    "lng": "23.814850193997692"
  },
  {
    "url": "https://maps.app.goo.gl/SyrzTdSeaJcSZMj28?g_st=ipc",
    "name": "Travolta Athens",
    "address": "Αγίου Παύλου 33, Περιστέρι 121 32",
    "lat": "38.005280171628534",
    "lng": "23.702492953168832"
  },
  {
    "url": "https://maps.app.goo.gl/o5KA9u8fZnaZ9XMY6?g_st=ipc",
    "name": "Herve Restaurant",
    "address": "Τριών Ιεραρχών 170, Αθήνα 118 52",
    "lat": "37.96670241575443",
    "lng": "23.709370285349806"
  },
  {
    "url": "https://maps.app.goo.gl/YmorNGxoDArPTMg56?g_st=ipc",
    "name": "Ζάαταρ",
    "address": "Χειμάρρας 7, Νέα Ερυθραία 146 71",
    "lat": "38.09899314317068",
    "lng": "23.81974662163474"
  },
  {
    "url": "https://maps.app.goo.gl/mKgbMMS1cXaQqrtLA?g_st=ipc",
    "name": "Kenko Japanese Restaurant",
    "address": "Λεωφ. Ελ. Βενιζέλου 22, Νέα Σμύρνη 171 21",
    "lat": "37.947294316233865",
    "lng": "23.71504061514003"
  },
  {
    "url": "https://maps.app.goo.gl/wrkHDhigdmHrrokL8?g_st=ipc",
    "name": "Meat the Stars",
    "address": "Λεωφ. Μαραθώνος 63, Πικέρμι 190 09",
    "lat": "38.00243883538717",
    "lng": "23.941476693248035"
  },
  {
    "url": "https://maps.app.goo.gl/nAwF6RqCeQF6rY2P9?g_st=ipc",
    "name": "e&o Pan-Asian Restaurant Athens",
    "address": "Λεωφ. Ανδρέα Συγγρού 385, Παλαιό Φάληρο 175 64",
    "lat": "37.94077150497406",
    "lng": "23.696879786243304"
  },
  {
    "url": "https://maps.app.goo.gl/GSgBvngfewJdVtkA7?g_st=ipc",
    "name": "Delta Restaurant",
    "address": "Λεωφ. Ανδρέα Συγγρού 364, Αθήνα 176 74",
    "lat": "37.939081506016144",
    "lng": "23.69146940163584"
  },
  {
    "url": "https://maps.app.goo.gl/KrWjCjHhBZcKtAsU9?g_st=ipc",
    "name": "ΝΕΣΤ Rooftop - Monte Kastella",
    "address": "Λεωφ. Αλ. Παπαναστασίου 109, Πειραιάς 185 33",
    "lat": "37.93966255701075",
    "lng": "23.661584217897186"
  },
  {
    "url": "https://maps.app.goo.gl/rqEtmfcH3ZARtEsf7?g_st=ipc",
    "name": "Varoulko Seaside Restaurant",
    "address": "Ακτή Κουμουνδούρου 54, Πειραιάς 185 33",
    "lat": "37.93728764717136",
    "lng": "23.658501845885716"
  },
  {
    "url": "https://maps.app.goo.gl/3DKm52Lh2ApKNN1X8?g_st=ipc",
    "name": "Mitsis N'U Piraeus Port",
    "address": "Αριστείδου 16-20, Πειραιάς 185 31",
    "lat": "37.946256281878604",
    "lng": "23.642735306655823"
  },
  {
    "url": "https://maps.app.goo.gl/2E1n4NVs2CjMsLQo7?g_st=ipc",
    "name": "BEASTALIS ,Food for proud meat eaters",
    "address": "Κύπρου 9, Γλυφάδα 166 75",
    "lat": "37.867214606158306",
    "lng": "23.7473035874199"
  },
  {
    "url": "https://maps.app.goo.gl/axUbgwvJZkdNUx4n8?g_st=ipc",
    "name": "FEEDEL ASADOR",
    "address": "Ν Ζερβα 24 Και, Κύπρου, Γλυφάδα 166 75",
    "lat": "37.86621086434499",
    "lng": "23.74871853137983"
  },
  {
    "url": "https://maps.app.goo.gl/KsnmFZ1WnGooiyEV7?g_st=ipc",
    "name": "Hams & Clams",
    "address": "Λιμάνι, Μαρίνα Ζέας, Πειραιάς 185 37",
    "lat": "37.93313157813386",
    "lng": "23.64744436080488"
  },
  {
    "url": "https://maps.app.goo.gl/Uw1vLRNczCvaVvgf8?g_st=ipc",
    "name": "Caretta Athens",
    "address": "Διαδόχου Παύλου 46, Γλυφάδα 166 75",
    "lat": "37.8628471518072",
    "lng": "23.74485660521178"
  },
  {
    "url": "https://maps.app.goo.gl/hxrPoafUYa9EUkbw7?g_st=ipc",
    "name": "Basegrill",
    "address": "Ζησιμοπούλου 5, Γλυφάδα 166 74",
    "lat": "37.86050537468002",
    "lng": "23.752246157817687"
  },
  {
    "url": "https://maps.app.goo.gl/Dx4oajrWFGZwwetZ9?g_st=ipc",
    "name": "Ark",
    "address": "Γρ. Λαμπράκη 2, Γλυφάδα 166 74",
    "lat": "37.85971913916164",
    "lng": "23.74981043696894"
  },
  {
    "url": "https://maps.app.goo.gl/cZjRzro2aqBguv3EA?g_st=ipc",
    "name": "Bungalow7 Athens",
    "address": "Λεωφ. Ποσειδώνος 110, Γλυφάδα 166 75",
    "lat": "37.85872799573807",
    "lng": "23.751508806698986"
  },
  {
    "url": "https://maps.app.goo.gl/oUiPt5pCahzP963D8?g_st=ipc",
    "name": "Barbarossa Athens",
    "address": "Λεωφ. Αλκυονίδων 4, Βούλα 166 73",
    "lat": "37.85088920250088",
    "lng": "23.748814418850717"
  },
  {
    "url": "https://maps.app.goo.gl/keaSEXUAsA2Tk34x9?g_st=ipc",
    "name": "FAIDON'S Athens",
    "address": "Αγίου Ιωάννου 28, Βούλα 166 73",
    "lat": "37.841556503840984",
    "lng": "23.766513107501794"
  },
  {
    "url": "https://maps.app.goo.gl/Uip41WWw3kvAGzDG9?g_st=ipc",
    "name": "Sea Satin Athens Riviera",
    "address": "Λεωφ. Κωνσταντίνου Καραμανλή 14, Βούλα 166 73",
    "lat": "37.840370182607195",
    "lng": "23.760387083086915"
  },
  {
    "url": "https://maps.app.goo.gl/uMQc68wzQ6KRLhmv6?g_st=ipc",
    "name": "Drakoulis Dry & Raw - Butcheries Voula",
    "address": "Λεωφ. Βασιλέως Παύλου 103, Βούλα 166 73",
    "lat": "37.837831960071576",
    "lng": "23.769665916102717"
  },
  {
    "url": "https://maps.app.goo.gl/bgcHWrkEN1tinWgK8?g_st=ipc",
    "name": "Εστιατόριο Ιθάκη",
    "address": "Apollonos, Αθήνας 28, Βουλιαγμένη 166 71",
    "lat": "37.811063360560766",
    "lng": "23.773264732265726"
  },
  {
    "url": "https://maps.app.goo.gl/H6wg8L7hEhDJU9C38?g_st=ipc",
    "name": "Labros Restaurant",
    "address": "Λεωφ. Ποσειδώνος 20, Βουλιαγμένη 166 71",
    "lat": "37.8081975831625",
    "lng": "23.78348018457994"
  },
  {
    "url": "https://maps.app.goo.gl/XBCeyEooo1BQ3GPW6?g_st=ipc",
    "name": "abraOvata",
    "address": "Εστιατόριο Λίμνης, Αθήνα 166 71",
    "lat": "37.806852023213075",
    "lng": "23.785311811319485"
  },
  {
    "url": "https://maps.app.goo.gl/7ZfHDaS8XMMaED3P7?g_st=ipc",
    "name": "Matsuhisa Athens",
    "address": "40, Απόλλωνος street, Βουλιαγμένη 166 71",
    "lat": "37.80698321398831",
    "lng": "23.772172298341644"
  },
  {
    "url": "https://maps.app.goo.gl/xaizfkEuwTxWbciw7?g_st=ipc",
    "name": "Taverna 37",
    "address": "Απόλλωνος 40, Βουλιαγμένη 166 71",
    "lat": "37.80595380281949",
    "lng": "23.772585533663307"
  },
  {
    "url": "https://maps.app.goo.gl/QTPENP7kfSJRAMQTA?g_st=ipc",
    "name": "Pelagos",
    "address": "Απόλλωνος 40, Βουλιαγμένη 166 71",
    "lat": "37.805275140067316",
    "lng": "23.77164308843121"
  },
  {
    "url": "https://maps.app.goo.gl/xvud7RHhQEFXiChq5?g_st=ipc",
    "name": "Beefbar Athens",
    "address": "Athens Αστήρ Πάλας, Βουλιαγμένη 166 71",
    "lat": "37.80501795981881",
    "lng": "23.770115727453245"
  },
  {
    "url": "https://maps.app.goo.gl/oMKnEgoxXK8SmMSZ9?g_st=ipc",
    "name": "Moorings",
    "address": "Μαρινα Βουλιαγμενης, Βουλιαγμένη 166 71",
    "lat": "37.80205167123695",
    "lng": "23.77263048977829"
  },
  {
    "url": "https://maps.app.goo.gl/9YgR6NNiMCEfXVTc6?g_st=ipc",
    "name": "Nakal State of Mind",
    "address": "Αυλακίου 100, Πόρτο Ράφτη 190 03",
    "lat": "37.86969888591183",
    "lng": "24.027576175967926"
  },
  {
    "url": "https://maps.app.goo.gl/Bbcu94gWiDCHZAwH8?g_st=ipc",
    "name": "Κάβος",
    "address": "Ίσθμια 201 00",
    "lat": "37.9019731487588",
    "lng": "23.01292410391318"
  },
  {
    "url": "https://maps.app.goo.gl/3WVLVVZ3Za8oDxQz6?g_st=ipc",
    "name": "Wild Duck",
    "address": "Boumpoulinas 67, Nafplio 211 00",
    "lat": "37.56734308437463",
    "lng": "22.797850601824372"
  },
  {
    "url": "https://maps.app.goo.gl/9jUDwjniZiSHynrk9?g_st=ipc",
    "name": "Valaora Resto Nafplio",
    "address": "Mpanieres, Boumpoulinas, Nafplio 211 00",
    "lat": "37.56519719151896",
    "lng": "22.793079460983854"
  },
  {
    "url": "https://maps.app.goo.gl/bq8XEdkjQTKveFWo7?g_st=ipc",
    "name": "Hygge Ano Syros",
    "address": "Ano Syros 841 00",
    "lat": "37.45063025961707",
    "lng": "24.93672789045308"
  },
  {
    "url": "https://maps.app.goo.gl/rqnMSjkRjYm2rfCw6?g_st=ipc",
    "name": "Elexis restaurant",
    "address": "Apollonos 11, Ermoupoli 841 00",
    "lat": "37.44565058814321",
    "lng": "24.944776847765887"
  },
  {
    "url": "https://maps.app.goo.gl/P7xp29Uhw71Tk9J3A?g_st=ipc",
    "name": "O Ntinos",
    "address": "Όρμος Γιαννάκη, Kardiani 842 01",
    "lat": "37.59381409443961",
    "lng": "25.069991170783855"
  },
  {
    "url": "https://maps.app.goo.gl/CMED59Cpim8jo3r38?g_st=ipc",
    "name": "Like salt",
    "address": "Ir. Politechniou, Tinos 842 00",
    "lat": "37.53276319748214",
    "lng": "25.17213619296478"
  },
  {
    "url": "https://maps.app.goo.gl/z6dNFZSTVxYxMGNn6?g_st=ipc",
    "name": "Napule Tinos Restaurant",
    "address": "Τριαντάρος 842 00",
    "lat": "37.56124770125158",
    "lng": "25.191534762008526"
  },
  {
    "url": "https://maps.app.goo.gl/bVHwisskrmA58dT18?g_st=ipc",
    "name": "The Borzoi",
    "address": "Papadiamanti, Skiathos 370 02",
    "lat": "39.16344583170151",
    "lng": "23.487355001180887"
  },
  {
    "url": "https://maps.app.goo.gl/4ZzNn5XN7C4AnWHF9?g_st=ipc",
    "name": "The Windmill Restaurant Skiathos",
    "address": "Pension Margarita, Kontroni Opposite, Skiathos 370 02",
    "lat": "39.16543805944577",
    "lng": "23.490849932444878"
  },
  {
    "url": "https://maps.app.goo.gl/iAutDnpTgMPkufBt7?g_st=ipc",
    "name": "Perivoli Restaurant",
    "address": "Αρτεμώνας 840 03",
    "lat": "36.98184971359456",
    "lng": "24.72167247742077"
  },
  {
    "url": "https://maps.app.goo.gl/s5s1BcxwRoxjRnrv7?g_st=ipc",
    "name": "Bostani Bar & Restaurant",
    "address": "Poulati, Sifnos 840 03",
    "lat": "36.983114036475556",
    "lng": "24.733935585542696"
  },
  {
    "url": "https://maps.app.goo.gl/LgALa3qo2pc4x9pP6?g_st=ipc",
    "name": "Cantina",
    "address": "Seralia, Kastro 840 03",
    "lat": "36.97219283235427",
    "lng": "24.74596680838354"
  },
  {
    "url": "https://maps.app.goo.gl/B9Sap96yo6EiNoxB7?g_st=ipc",
    "name": "Maiòlica Sifnos",
    "address": "Πλατύς Γιαλός 840 03",
    "lat": "36.9320107600118",
    "lng": "24.73115373110344"
  },
  {
    "url": "https://maps.app.goo.gl/ZQF2Z95MsiUa9YY38?g_st=ipc",
    "name": "Botrini's Restaurant Mykonos",
    "address": "Agios Ioannis Mykonos, Cyclades, 846 00",
    "lat": "37.42357245673207",
    "lng": "25.30823643743267"
  },
  {
    "url": "https://maps.app.goo.gl/soco5KSQywsn86Ls8?g_st=ipc",
    "name": "Hippie Fish Mykonos",
    "address": "Agios Ioannis, Mikonos 846 00",
    "lat": "37.42161523221791",
    "lng": "25.31152471778021"
  },
  {
    "url": "https://maps.app.goo.gl/K5Lrunurc26by6vJ6?g_st=ipc",
    "name": "Drakoulis Dry & Raw Mykonos",
    "address": "Mykonos 846 00",
    "lat": "37.447121066093636",
    "lng": "25.329034852890235"
  },
  {
    "url": "https://maps.app.goo.gl/hS1c8JjDNAyUufSc6?g_st=ipc",
    "name": "Lío Mykonos",
    "address": "Enoplon Dinameon 6, Mikonos 846 00",
    "lat": "37.44500603308255",
    "lng": "25.32823624391178"
  },
  {
    "url": "https://maps.app.goo.gl/x3D3HYwjgPTE7gGp6?g_st=ipc",
    "name": "Interni Restaurant",
    "address": "Matogianni, Mikonos 846 00",
    "lat": "37.44559204956145",
    "lng": "25.328710304133274"
  },
  {
    "url": "https://maps.app.goo.gl/Zjd8gVv5zkQ4UZxa9?g_st=ipc",
    "name": "Noema",
    "address": "Panachra, Mikonos 846 00",
    "lat": "37.44557471142449",
    "lng": "25.32948165492457"
  },
  {
    "url": "https://maps.app.goo.gl/WTcgX6M9Jp2R7YGdA?g_st=ipc",
    "name": "Matsuhisa Mykonos",
    "address": "Belvedere Hotel School of Fine Arts District, Agiou Ioannou 1, Mikonos 846 00",
    "lat": "37.44329085125445",
    "lng": "25.330097754352987"
  },
  {
    "url": "https://maps.app.goo.gl/dgiE2BaNVt8Jhb1F6?g_st=ipc",
    "name": "YĒVO By Bill&Coo Mykonos",
    "address": "Μεγάλη Άμμος, Mikonos 846 00",
    "lat": "37.43758072227673",
    "lng": "25.32795511521471"
  },
  {
    "url": "https://maps.app.goo.gl/BQon51NoPRn4CLnY6?g_st=ipc",
    "name": "BAOS Greek Restaurant",
    "address": "Myconian Korali Mykonos Town, Mikonos 846 00",
    "lat": "37.43694847921598",
    "lng": "25.32914124723638"
  },
  {
    "url": "https://maps.app.goo.gl/yzNhGWDT9xeBAQaK9?g_st=ipc",
    "name": "Tokyo Joe Mykonos",
    "address": "Ano Vrisi, My Mall, Mikonos 846 00",
    "lat": "37.43430228443007",
    "lng": "25.33164896331214"
  },
  {
    "url": "https://maps.app.goo.gl/Ru8EWbLUas6Xvf7K9?g_st=ipc",
    "name": "Principote Mykonos",
    "address": "Panormos Beach, Mikonos 846 00",
    "lat": "37.47661163546428",
    "lng": "25.359897401386203"
  },
  {
    "url": "https://maps.app.goo.gl/CFqVN5ZTnDi5b6gYA?g_st=ipc",
    "name": "Alemagou",
    "address": "Greece, Mikonos",
    "lat": "37.4646482904714",
    "lng": "25.380862426799272"
  },
  {
    "url": "https://maps.app.goo.gl/BWoH4D79nkxuwHvt9?g_st=ipc",
    "name": "Scorpios",
    "address": "Paraga, Mikonos 846 00",
    "lat": "37.40690634816725",
    "lng": "25.347629445529506"
  },
  {
    "url": "https://maps.app.goo.gl/DyjWXnMeBVwqWcfy6?g_st=ipc",
    "name": "Makris Milos Fine Dining Restaurant",
    "address": "Mytakas, Island 848 00",
    "lat": "36.744626545035004",
    "lng": "24.481317634143164"
  },
  {
    "url": "https://maps.app.goo.gl/dn2BSTCZPyK4NYU26?g_st=ipc",
    "name": "Cabbanes Mykonos",
    "address": "Elia Beach, Mikonos 846 00",
    "lat": "37.42267215380325",
    "lng": "25.39444539705876"
  },
  {
    "url": "https://maps.app.goo.gl/wBvne3NHDcjfz27V8?g_st=ipc",
    "name": "Spilia Mykonos Seaside Restaurant",
    "address": "Καλαφάτη 846 00",
    "lat": "37.43465682282159",
    "lng": "25.419256442099208"
  },
  {
    "url": "https://maps.app.goo.gl/XvstBKLEfdRFvAHv7?g_st=ipc",
    "name": "Mario Restaurant",
    "address": "Λιβάδια, Paros 844 00",
    "lat": "37.091334008503296",
    "lng": "25.156686500869714"
  },
  {
    "url": "https://maps.app.goo.gl/MmRAPTUjpZ9ev73JA?g_st=ipc",
    "name": "Matsuhisa Paros",
    "address": "Avant Mar Hotel, Paros 844 01",
    "lat": "37.122332088945846",
    "lng": "25.232444794394056"
  },
  {
    "url": "https://maps.app.goo.gl/cdTNGtzo6JQDuLoVA?g_st=ipc",
    "name": "Barbarossa Restaurant",
    "address": "Παλιό Λιμάνι Νάουσας, Limanaki, Naousa 844 01",
    "lat": "37.12519351534626",
    "lng": "25.23748367778552"
  },
  {
    "url": "https://maps.app.goo.gl/VTdFDVhfiq6yFy2q6?g_st=ipc",
    "name": "Siparos Seaside Restaurant",
    "address": "Ξιφαρά 844 01",
    "lat": "37.12641991370185",
    "lng": "25.266628395086137"
  },
  {
    "url": "https://maps.app.goo.gl/yvA5KkBJg5eZfsvV9?g_st=ipc",
    "name": "Teloneio",
    "address": "Limeni 230 62",
    "lat": "36.679751486113695",
    "lng": "22.377303718290054"
  },
  {
    "url": "https://maps.app.goo.gl/8GTiiHfZwjCgosfT6?g_st=ipc",
    "name": "Varoulko Santorini (within Grace Hotel)",
    "address": "Imerovigli Thira, Santorini 847 00",
    "lat": "36.432959672130295",
    "lng": "25.420955482423597"
  },
  {
    "url": "https://maps.app.goo.gl/FmHg6YqwP5dXkFBw9?g_st=ipc",
    "name": "Anama Restaurant",
    "address": "Anama Restaurant, Gialova 240 01",
    "lat": "36.94955133528612",
    "lng": "21.70334046442158"
  },
  {
    "url": "https://maps.app.goo.gl/ehAKLfSTD13fa851A?g_st=ipc",
    "name": "Elements Restaurant Bar",
    "address": "Oia 847 02",
    "lat": "36.46364006260335",
    "lng": "25.371104539849476"
  },
  {
    "url": "https://maps.app.goo.gl/qsriKPJsQcgJ43x46?g_st=ipc",
    "name": "Lauda Restaurant",
    "address": "Oia 847 02",
    "lat": "36.461955784508554",
    "lng": "25.377938602582883"
  },
  {
    "url": "https://maps.app.goo.gl/2mrH4kakyMDha6iV9?g_st=ipc",
    "name": "Lycabettus Restaurant",
    "address": "Nik. Nomikou, Oía 847 02",
    "lat": "36.4620987049079",
    "lng": "25.379910060169035"
  },
  {
    "url": "https://maps.app.goo.gl/e9tmihEjv2QRq6DKA?g_st=ipc",
    "name": "Botrini's Santorini",
    "address": "Main Street, Nik. Nomikou, Oía 847 02",
    "lat": "36.46201811215205",
    "lng": "25.382543844805166"
  },
  {
    "url": "https://maps.app.goo.gl/AgtoebQMipRCvd587?g_st=ipc",
    "name": "Onuki Restaurant",
    "address": "Costa Navarino Navarino Dunes, Pilos 240 01",
    "lat": "36.99629499662255",
    "lng": "21.648335751415473"
  },
  {
    "url": "https://maps.app.goo.gl/cdvxRddZhQ9h2WQR8?g_st=ipc",
    "name": "Afropsaro Santorini",
    "address": "Imerovigli 847 00",
    "lat": "36.443734809577506",
    "lng": "25.42604676962597"
  },
  {
    "url": "https://maps.app.goo.gl/uc1kbLbBqgnUhLot7?g_st=ipc",
    "name": "Koukoumavlos Restaurant",
    "address": "Imerovigli 847 00",
    "lat": "36.43146159101605",
    "lng": "25.424418520966256"
  },
  {
    "url": "https://maps.app.goo.gl/j3TAqCiUnajPnQUUA?g_st=ipc",
    "name": "Apospero",
    "address": "Χώρα 840 08",
    "lat": "36.83183844559143",
    "lng": "25.899499966261363"
  },
  {
    "url": "https://maps.app.goo.gl/WMAKe6khJLqtbDgo7?g_st=ipc",
    "name": "Selene Restaurant",
    "address": "Old catholic monastery, Thira 847 00",
    "lat": "36.4214954695669",
    "lng": "25.43077555199888"
  },
  {
    "url": "https://maps.app.goo.gl/bj4VGwDTK6k29a2h8?g_st=ipc",
    "name": "Alali Restaurant",
    "address": "epar. od. akrotiriou, Akrotiri 847 00",
    "lat": "36.36348374683768",
    "lng": "25.385971079626298"
  },
  {
    "url": "https://maps.app.goo.gl/n2fTsV6Gr8NWKq3k7?g_st=ipc",
    "name": "Bubo",
    "address": "5RR3+FH, Sithonia 630 78 (within Ekies All Senses Resort)",
    "lat": "40.19127812556052",
    "lng": "23.80445470083623"
  },
  {
    "url": "https://maps.app.goo.gl/ozns5EfUF1bBobta7?g_st=ipc",
    "name": "Arsanas Restaurant",
    "address": "Epar.Od. Nikitis-Sartis, Sithonia 630 88",
    "lat": "40.21412369806133",
    "lng": "23.668831407001306"
  },
  {
    "url": "https://maps.app.goo.gl/D9QsWypNZeRP7Tdi7?g_st=ipc",
    "name": "The Squirrel (within THE DANAI)",
    "address": "6JGH+XM, Sithonia 630 88",
    "lat": "40.227442786976205",
    "lng": "23.62922543555653"
  },
  {
    "url": "https://maps.app.goo.gl/ubyLMAurXvicrjVq5?g_st=ipc",
    "name": "Prosilio Restaurant",
    "address": "Ag. Panton 15, Zakinthos 291 00",
    "lat": "37.788001222025756",
    "lng": "20.899925444650034"
  },
  {
    "url": "https://maps.app.goo.gl/vE8rWsiQpSVYvijD9?g_st=ipc",
    "name": "Melia fine dining",
    "address": "Τραγάκι 291 00",
    "lat": "37.828072825552965",
    "lng": "20.841384143587636"
  },
  {
    "url": "https://maps.app.goo.gl/6Db89EHL2DCe7XDbA?g_st=ipc",
    "name": "Thalassino Ageri",
    "address": "Vivilaki str 35 Tabakaria, Chania 731 33",
    "lat": "35.51984802590005",
    "lng": "24.037120467560246"
  },
  {
    "url": "https://maps.app.goo.gl/8TWdBgQzLn6EaTaWA?g_st=ipc",
    "name": "Restaurant Thymari",
    "address": "Πηνελόπης 19, Lefkada 311 00",
    "lat": "38.835357324233975",
    "lng": "20.708797217981044"
  },
  {
    "url": "https://maps.app.goo.gl/3X5uukpGejXWctER8?g_st=ipc",
    "name": "Mastelo Restaurant & Bar",
    "address": "Mitropoleos 11, Lefkada 311 00",
    "lat": "38.83239517619771",
    "lng": "20.705692089105533"
  },
  {
    "url": "https://maps.app.goo.gl/gfJazr3nBs7Z4eio6?g_st=ipc",
    "name": "Amente Restaurant & Cocktail bar",
    "address": "Varagas, Drimonas 311 00",
    "lat": "38.772581566319595",
    "lng": "20.61911835255244"
  },
  {
    "url": "https://maps.app.goo.gl/RiQip9TNX7v886747?g_st=ipc",
    "name": "UMA chefs home experience",
    "address": "Ελευθερίας, Πανόραμα - Θέρμη, Τ.Θ.Δ3026, Thessaloniki 570 01",
    "lat": "40.560444872075784",
    "lng": "23.032058735745576"
  },
  {
    "url": "https://maps.app.goo.gl/Py5DhXkzzrWSZ9VV6?g_st=ipc",
    "name": "Maiami Seafood Restaurant",
    "address": "Thetidos 18, Kalamaria 551 32",
    "lat": "40.56607027401273",
    "lng": "22.958428998890472"
  },
  {
    "url": "https://maps.app.goo.gl/CFRMztsRLco8Wy1G9?g_st=ipc",
    "name": "Mavri Thalassa",
    "address": "Nik. Plastira 3, Kalamaria 551 32",
    "lat": "40.57843617435474",
    "lng": "22.943234064415787"
  },
  {
    "url": "https://maps.app.goo.gl/FvCAxwABwuAsxZP59?g_st=ipc",
    "name": "Les Zazous",
    "address": "Themistokli Sofouli 108, Kalamaria 551 31",
    "lat": "40.58599940349592",
    "lng": "22.939440752876596"
  },
  {
    "url": "https://maps.app.goo.gl/rYECyH9YH5sKjowm8?g_st=ipc",
    "name": "Marrone Restaurant",
    "address": "Themistokli Sofouli 111, Kalamaria 551 31",
    "lat": "40.587514625354714",
    "lng": "22.942944126653384"
  },
  {
    "url": "https://maps.app.goo.gl/2G43HnJbauPH1htJ6?g_st=ipc",
    "name": "Akti Ntovil sea taste",
    "address": "Themistokli Sofouli 86, Kalamaria 551 31",
    "lat": "40.59022322149795",
    "lng": "22.945258035177847"
  },
  {
    "url": "https://maps.app.goo.gl/gugoZEiFmeixR8B67?g_st=ipc",
    "name": "SHARK Bar | Restaurant - Thessaloniki",
    "address": "Argonafton 2, Kalamaria 551 31",
    "lat": "40.59118558847925",
    "lng": "22.946520720029824"
  },
  {
    "url": "https://maps.app.goo.gl/bY2dGZAgk6wxVc1e9?g_st=ipc",
    "name": "Opsopoion Maganeiai",
    "address": "Komotinis 6, Thessaloniki 546 55",
    "lat": "40.59504961870734",
    "lng": "22.950911901497957"
  },
  {
    "url": "https://maps.app.goo.gl/gPHcQmEJJv1GDCXa7?g_st=ipc",
    "name": "The Secret Gorge - Restaurant & Wine Tasting Experience",
    "address": "3rd Klm. National Road, Rethymno 741 50",
    "lat": "35.36437434920116",
    "lng": "24.419370445837004"
  },
  {
    "url": "https://maps.app.goo.gl/m2U4xxrF3WyY7WwP7?g_st=ipc",
    "name": "Salonika Restaurant & Bar",
    "address": "Leof. Meg. Alexandrou 2, Thessaloniki 546 40",
    "lat": "40.618706388830155",
    "lng": "22.951992243395964"
  },
  {
    "url": "https://maps.app.goo.gl/NUgNPs38t8Wn1YP49?g_st=ipc",
    "name": "Moldee Bar Restaurant",
    "address": "Proksenou Koromila &, Mitropolitou Iosif 8, Thessaloniki 546 22",
    "lat": "40.629517298749846",
    "lng": "22.945471093260796"
  },
  {
    "url": "https://maps.app.goo.gl/dnRtTeQACnMMpm9n9?g_st=ipc",
    "name": "Olympos Naoussa",
    "address": "Leof. Nikis 5, Thessaloniki 546 24",
    "lat": "40.63309915839342",
    "lng": "22.938647906596046"
  },
  {
    "url": "https://maps.app.goo.gl/fXNq3Zy4BtgpHxi49?g_st=ipc",
    "name": "Kritikos Restaurant Port",
    "address": "Leof. Nikis 03, Thessaloniki 546 21",
    "lat": "40.633121638352506",
    "lng": "22.938681038898274"
  },
  {
    "url": "https://maps.app.goo.gl/9fapz5w3wurryrPX7?g_st=ipc",
    "name": "Grada nuevo",
    "address": "Kalapothaki 14, Thessaloniki 546 24",
    "lat": "40.633267680962305",
    "lng": "22.939391543461607"
  },
  {
    "url": "https://maps.app.goo.gl/kbkr5X52jL9fcqFi7?g_st=ipc",
    "name": "Clochard",
    "address": "Κομνηνών 10, Mitropoleos 23, Thessaloniki 546 24",
    "lat": "40.63347961221164",
    "lng": "22.940223853089645"
  },
  {
    "url": "https://maps.app.goo.gl/fPcaWDwx3ave8G8F6?g_st=ipc",
    "name": "7 Thalasses",
    "address": "Kalapothaki 10, Thessaloniki 546 24",
    "lat": "40.633353589714964",
    "lng": "22.939202548189815"
  },
  {
    "url": "https://maps.app.goo.gl/X4RLEkPp4XfoJhpx9?g_st=ipc",
    "name": "L'Albero",
    "address": "Filippou 17, Thessaloniki 546 31",
    "lat": "40.6387415311347",
    "lng": "22.94294998162837"
  },
  {
    "url": "https://maps.app.goo.gl/sEppZY8VozoSaAt86?g_st=ipc",
    "name": "Maestranza.skg",
    "address": "Ptolemeon 29Β, Thessaloniki 546 30",
    "lat": "40.63893402490513",
    "lng": "22.939949733334775"
  },
  {
    "url": "https://maps.app.goo.gl/zswCQ5dz9hpLhfwE6?g_st=ipc",
    "name": "Iberico",
    "address": "Νικ. Μάντζαρου 18 &, Kotta Roulia, Thessaloniki 546 27",
    "lat": "40.644771791421974",
    "lng": "22.920737302788805"
  },
  {
    "url": "https://maps.app.goo.gl/5ZKMq3CQuLYPt9qu7?g_st=ipc",
    "name": "Makris Elounda Fine Dining Restaurant by Domes",
    "address": "Domes of Elounda, Tsifliki, Schisma Elountas 720 53",
    "lat": "35.289457611664844",
    "lng": "25.729231449277293"
  },
  {
    "url": "https://maps.app.goo.gl/XzHLEvGxzDciEKDY8?g_st=ipc",
    "name": "Dionysos restaurant elounda",
    "address": "Unnamed Road, Ag. Nikolaos 720 53",
    "lat": "35.24868944871254",
    "lng": "25.730385349919736"
  },
  {
    "url": "https://maps.app.goo.gl/GPZUEnWWjrQuRVWr7?g_st=ipc",
    "name": "Makris Restaurant",
    "address": "Miramare Beach, Moraitika 491 00",
    "lat": "39.490901721836174",
    "lng": "19.92628299466604"
  },
  {
    "url": "https://maps.app.goo.gl/XLhEQFknHoz231GF7?g_st=ipc",
    "name": "Ora Day",
    "address": "Agoniston Politechniou, Kerkira 491 00",
    "lat": "39.62198349556085",
    "lng": "19.925172942691578"
  },
  {
    "url": "https://maps.app.goo.gl/PRwrcwQFNPVZjFsk6?g_st=ipc",
    "name": "Spianada Meats & Greens",
    "address": "Kapodistriou 32, Kerkira 491 00",
    "lat": "39.62310170311375",
    "lng": "19.923385713237856"
  },
  {
    "url": "https://maps.app.goo.gl/HLnA6MPvVh9foYtK6?g_st=ipc",
    "name": "Venetian Well",
    "address": "Πλατεια Λίλη Δεσύλλα 1, Kerkira 491 00",
    "lat": "39.62641881073211",
    "lng": "19.921842707953036"
  },
  {
    "url": "https://maps.app.goo.gl/x3VsqPUTtkawiKFC7?g_st=ipc",
    "name": "Etrusco",
    "address": "Κάτω Κορακιάνα 490 83",
    "lat": "39.6891414540143",
    "lng": "19.834904657627558"
  },
  {
    "url": "https://maps.app.goo.gl/ymJ2kfjKBHsihXtt9?g_st=ipc",
    "name": "Noble Gourmet Restaurant",
    "address": "Elysium Resort & Spa | 5 star hotel in Rhodes, Leoforos Rodou - Kallitheas, Ammoudes 851 00",
    "lat": "36.37247796232997",
    "lng": "28.224879049367335"
  }
]
