[
  {
    "url": "https://maps.app.goo.gl/TkGr97r8sSTcdTYu9?g_st=ipc",
    "name": "Ιερά Μονή Αγίου Ιωάννου του Κυνηγού",
    "address": "Ανατολικής Μεσογείου, Αγ. Παρασκευή 153 42",
    "lat": "38.00278956163498",
    "lng": "23.836715813242602"
  },
  {
    "url": "https://maps.app.goo.gl/3bMH4x4NEyFmUZJ97?g_st=ipc",
    "name": "Ιερά Μονή Ταξιαρχών Αστερίου",
    "address": "Ζωγράφου 157 72",
    "lat": "37.96963791637043",
    "lng": "23.811299998354023"
  },
  {
    "url": "https://maps.app.goo.gl/tKzi13MSJeMrbus97?g_st=ipc",
    "name": "Ιερά Μονή Καισαριανής",
    "address": "Καισαριανή 161 22",
    "lat": "37.96085617263528",
    "lng": "23.798163534107264"
  },
  {
    "url": "https://maps.app.goo.gl/RDMFUG49GBgqceAu8?g_st=ipc",
    "name": "Ιερός Ναός Κοιμήσεως της Θεοτόκου (Παναγίτσα)",
    "address": "Ανδρεόπουλου 2, Αθήνα 111 41",
    "lat": "38.01727711784317",
    "lng": "23.744778782538283"
  },
  {
    "url": "https://maps.app.goo.gl/V1br63hybrfVnEiCA?g_st=ipc",
    "name": "Ιερός Ναός Αγίου Γεωργίου Λυκαβηττού",
    "address": "Αθήνα 114 71",
    "lat": "37.981958638170035",
    "lng": "23.74338468366007"
  },
  {
    "url": "https://maps.app.goo.gl/vi4b8bvA5jdYKcqf9?g_st=ipc",
    "name": "Ιερός Ναός Αγίων Ισιδώρων Λυκαβηττού",
    "address": "Μονοπατι Λυκαβηττου, Αθήνα 114 71",
    "lat": "37.982296617522",
    "lng": "23.742795127887568"
  },
  {
    "url": "https://maps.app.goo.gl/m2sqAvFCJXsVJyjB8?g_st=ipc",
    "name": "Ιερός Ναός Αγίου Διονυσίου Αρεοπαγίτου, Πολιούχου Αθηνών",
    "address": "Σκουφά 34, Αθήνα 106 72",
    "lat": "37.97972265813733",
    "lng": "23.73873188558116"
  },
  {
    "url": "https://maps.app.goo.gl/Xf9ygVb29EqkAQUs7?g_st=ipc",
    "name": "Ιερά Μονή Πεντέλης (Κοιμήσεως της Θεοτόκου)",
    "address": "Πεντέλη 152 36",
    "lat": "38.052651924953615",
    "lng": "23.86703856624407"
  },
  {
    "url": "https://maps.app.goo.gl/sjaYoN5Vu2UjZVSx6?g_st=ipc",
    "name": "Ιερά Μονή Αγίου Ιωάννου Προδρόμου Καρέα",
    "address": "Καρέας, Βύρωνας 162 33",
    "lat": "37.94196286966367",
    "lng": "23.778600784098284"
  },
  {
    "url": "https://maps.app.goo.gl/aHzFfMJMwLVAE89e9?g_st=ipc",
    "name": "Ιερός Ναός Μεταμόρφωσης του Σωτήρος",
    "address": "Κολοκοτρώνη, Κηφισιά 145 62",
    "lat": "38.074902566685026",
    "lng": "23.819660581938585"
  },
  {
    "url": "https://maps.app.goo.gl/MUAqskRD72AoRTQJA?g_st=ipc",
    "name": "Ιερός Μητροπολιτικός Ναός Ευαγγελισμού της Θεοτόκου",
    "address": "E056 105, Αθήνα 118 54",
    "lat": "37.975376487881356",
    "lng": "23.72984816695813"
  },
  {
    "url": "https://maps.app.goo.gl/7LkLpxAa7L7V3fr8A?g_st=ipc",
    "name": "Ιερός Πανεπιστημιακός Ναός Εισοδίων της Θεοτόκου (Καπνικαρέα)",
    "address": "Πλ. Καπνικαρέας 3, Αθήνα 105 63",
    "lat": "37.97637980025147",
    "lng": "23.72861650689245"
  },
  {
    "url": "https://maps.app.goo.gl/jdAdCNX9K2HoSujs9?g_st=ipc",
    "name": "Ιερός Ναός Αγίας Φωτεινής Ιλισού",
    "address": "Αρδηττού 3, Αθήνα 105 57",
    "lat": "37.96759253152895",
    "lng": "23.734352593011444"
  },
  {
    "url": "https://maps.app.goo.gl/JehgGspdoWfwue8w5?g_st=ipc",
    "name": "Ιερός Ναός Αγίας Ειρήνης",
    "address": "Αιόλου 36, Αθήνα 105 60",
    "lat": "37.977134855411386",
    "lng": "23.727779375021544"
  },
  {
    "url": "https://maps.app.goo.gl/HnQHckK1xrE13jmu5?g_st=ipc",
    "name": "Ιερός Ναός Αγίου Νικολάου Ραγκαβά",
    "address": "Πρυτανείου 1, Αθήνα 105 58",
    "lat": "37.972457611954724",
    "lng": "23.729131060991204"
  },
  {
    "url": "https://maps.app.goo.gl/nKcEJuoZ25jXrQqeA?g_st=ipc",
    "name": "Ιερός Ναός Αγίων Αναργύρων Κολοκύνθη - Μετόχιον Παναγίου Τάφου",
    "address": "Ερεχθέως 18, Αθήνα 105 56",
    "lat": "37.97293435768165",
    "lng": "23.728208879310362"
  },
  {
    "url": "https://maps.app.goo.gl/Kmbb6BYr6fSV4pFRA?g_st=ipc",
    "name": "Μοναστήρι Αγίας Ειρήνης Χρυσοβαλάντου",
    "address": "Δημητσάνας 1, Λυκόβρυση 141 23",
    "lat": "38.0757087984453",
    "lng": "23.784060169292047"
  },
  {
    "url": "https://maps.app.goo.gl/GdJWue7opw56LmEv9?g_st=ipc",
    "name": "Ιερός Ναός Αγίας Σοφίας Ακροπόλεως",
    "address": "Διονυσίου Αρεοπαγίτου 45, Αθήνα 117 42",
    "lat": "37.96969305070506",
    "lng": "23.72539590621987"
  },
  {
    "url": "https://maps.app.goo.gl/RzkAj7rMQNDfRMKN8?g_st=ipc",
    "name": "Ιερός Ναός Αγίας Μαρίνας Θησείου",
    "address": "Αγίας Μαρίνας 1, Αθήνα 118 51",
    "lat": "37.97369230338061",
    "lng": "23.718995271203244"
  },
  {
    "url": "https://maps.app.goo.gl/Fzr51bKUwjAtydxA7?g_st=ipc",
    "name": "Άγιος Δημήτριος Λουμπαρδιάρης",
    "address": "Αθήνα 117 41",
    "lat": "37.97006358405725",
    "lng": "23.72028596273088"
  },
  {
    "url": "https://maps.app.goo.gl/NQFZSQ6EDz4WiEjk6?g_st=ipc",
    "name": "Ιερός Ναός Αγίου Δημητρίου",
    "address": "Λεωφ. Αγίου Δημητρίου 117, Αγ. Δημήτριος Αττικής 173 43",
    "lat": "37.939612390639354",
    "lng": "23.731409160406493"
  },
  {
    "url": "https://maps.app.goo.gl/57pNkxA8Hvik3tA97?g_st=ipc",
    "name": "Ιερά Μονή Αγίου Παντελεήμονος Κοκκιναρά Πεντέλης",
    "address": "3VP8+Q2, Κηφισιά 145 63",
    "lat": "38.088041404491655",
    "lng": "23.864689883498706"
  },
  {
    "url": "https://maps.app.goo.gl/rDcWxEZj5h9aqKaW6?g_st=ipc",
    "name": "Ιερός Ναός Αγίας Μαρίνας Εκάλης",
    "address": "Λεωφ. Θησέως 54, Εκάλη 145 78",
    "lat": "38.10774629476024",
    "lng": "23.837173739444502"
  },
  {
    "url": "https://maps.app.goo.gl/xtRHYrHMqEtBMfwK9?g_st=ipc",
    "name": "Ιερά Μονή Ταώ (Νταού) Πεντέλης",
    "address": "Νταού Πεντέλη 152 36",
    "lat": "38.03988340784935",
    "lng": "23.948125074372278"
  },
  {
    "url": "https://maps.app.goo.gl/iaAnNdKjb6eDxhaq5?g_st=ipc",
    "name": "Ιερός Ναός Μεταμορφώσεως του Σωτήρος Αλίμου",
    "address": "Νίκης 51, Άλιμος 174 55",
    "lat": "37.91489271664002",
    "lng": "23.713901119345575"
  },
  {
    "url": "https://maps.app.goo.gl/oTPMMN55BBN9bVMA8?g_st=ipc",
    "name": "Ιερός Ναός Αγίου Αλεξάνδρου",
    "address": "Αγίου Αλεξάνδρου 14, Παλαιό Φάληρο 175 61",
    "lat": "37.92675404012077",
    "lng": "23.69297935050041"
  },
  {
    "url": "https://maps.app.goo.gl/t1Fe5nBcUY3vmfcE7?g_st=ipc",
    "name": "Οσίου Ἐφραίμ",
    "address": "Αγίου Εφραίμ, Νέα Μάκρη 190 05",
    "lat": "38.07494568017478",
    "lng": "23.95319576902227"
  },
  {
    "url": "https://maps.app.goo.gl/SpsszvBBtaBzKcAW9?g_st=ipc",
    "name": "Ιερός Καθεδρικός Ναός Αγίας Τριάδος Άνω Γλυφάδας",
    "address": "Αγίας ΤΡΙΑΔΑΣ &, Αρετής 78, Γλυφάδα 166 74",
    "lat": "37.87276703155996",
    "lng": "23.76655825797858"
  },
  {
    "url": "https://maps.app.goo.gl/idE6eKcfBqTpZbE78?g_st=ipc",
    "name": "Ιερά Μονή Δαφνίου",
    "address": "Ιερά Οδός, Χαϊδάρι 124 61",
    "lat": "38.012995167161115",
    "lng": "23.63601896606369"
  },
  {
    "url": "https://maps.app.goo.gl/qTQwxJXWuuhNBZ4H6?g_st=ipc",
    "name": "Ιερός Μητροπολιτικός Ναός Αγίων Κωνσταντίνου και Ελένης Γλυφάδος",
    "address": "Λεωφ. Ποσειδώνος 55, Γλυφάδα 166 75",
    "lat": "37.86486928057967",
    "lng": "23.745526823345948"
  },
  {
    "url": "https://maps.app.goo.gl/yhWmXb3651phCnDF8?g_st=ipc",
    "name": "Ιερός Ναός Αγίου Νικολάου",
    "address": "Αγίου Νικολάου 2, Πειραιάς 185 37",
    "lat": "37.93852657714825",
    "lng": "23.640083861716022"
  },
  {
    "url": "https://maps.app.goo.gl/4CSBCi4A57QqcY1JA?g_st=ipc",
    "name": "Ιερά Μονή Αγίου Κυπριανού",
    "address": "μονη, Αγ. Κυπριανού, Φυλή 133 51",
    "lat": "38.11439120183363",
    "lng": "23.677888094487148"
  },
  {
    "url": "https://maps.app.goo.gl/BjSRHN6tAZGnfJ9p8?g_st=ipc",
    "name": "Ιερά Μονή Κοιμήσεως της Θεοτόκου Κλειστών",
    "address": "Φυλή 133 41",
    "lat": "38.13109301050575",
    "lng": "23.65695380658108"
  },
  {
    "url": "https://maps.app.goo.gl/WhtDbBx2hvZfm5mb9?g_st=ipc",
    "name": "Παρεκκλήσι Αγίου Γεωργίου",
    "address": "Βουλιαγμένη 166 71",
    "lat": "37.81919273575849",
    "lng": "23.773228906832582"
  },
  {
    "url": "https://maps.app.goo.gl/Yg4DX1pMZC5BvTyv9?g_st=ipc",
    "name": "Ιερός Ναός Αγίου Δημητρίου Σαρωνικού (11ος αι.)",
    "address": "Αγίου Δημητρίου, Αγ. Μαρίνα 194 00",
    "lat": "37.807214865085356",
    "lng": "23.869268370594398"
  },
  {
    "url": "https://maps.app.goo.gl/vNnKum91S5s8eiVu8?g_st=ipc",
    "name": "Ιερά Μονή Παναγίας Γοργοεπηκόου",
    "address": "Μακεδονομάχων, Μάνδρα-Ειδύλλια 196 00",
    "lat": "38.06149256664941",
    "lng": "23.467831046678143"
  },
  {
    "url": "https://maps.app.goo.gl/bR5hBfrRFLjpCPf3A?g_st=ipc",
    "name": "Ιερά Μονή Παναγίας Φανερωμένης Σαλαμίνος",
    "address": "Σαλαμίνα 189 00",
    "lat": "37.98425555632926",
    "lng": "23.435533982516695"
  },
  {
    "url": "https://maps.app.goo.gl/FKwvJEY7DdQLDdKC7?g_st=ipc",
    "name": "Ιερόν Ησυχαστήριον Αγίας Τριάδος - Αγίου Νεκταρίου Αιγίνης",
    "address": "37°44'54.9\"N 23°29, 03 6\"E, Κοντός 180 10",
    "lat": "37.747756129707696",
    "lng": "23.48419119090333"
  },
  {
    "url": "https://maps.app.goo.gl/KjppqYPoe3hM1kHb9?g_st=ipc",
    "name": "Ιερός Ναός Αγίου Νεκταρίου Αιγίνης",
    "address": "Κοντός 180 10",
    "lat": "37.746945069118",
    "lng": "23.484687951163814"
  },
  {
    "url": "https://maps.app.goo.gl/4wfUy4FPX2uzBPHt8?g_st=ipc",
    "name": "Ιερά Μονή Παναγίας Χρυσολεόντισσας",
    "address": "Κοντός 180 10",
    "lat": "37.72683515229462",
    "lng": "23.487000558860796"
  },
  {
    "url": "https://maps.app.goo.gl/KeZKmvHFWMwZTYpr7?g_st=ipc",
    "name": "Ιερά Μονή Μεταμόρφωσης του Σωτήρος Σαγματά",
    "address": "Ύπατο 322 00",
    "lat": "38.39980588021136",
    "lng": "23.41131936609796"
  },
  {
    "url": "https://maps.app.goo.gl/UAQzNWzNC17GPNm38?g_st=ipc",
    "name": "Παναγία Καστριανή",
    "address": "Κέα 840 02",
    "lat": "37.66534862683705",
    "lng": "24.39586280375307"
  },
  {
    "url": "https://maps.app.goo.gl/hdbTG2TdzToXT6nz8?g_st=ipc",
    "name": "Ιερά Μονή Κοιμήσεως της Θεοτόκου Αγνούντος",
    "address": "Επίδαυρος 210 54",
    "lat": "37.71054987478057",
    "lng": "23.131785879590392"
  },
  {
    "url": "https://maps.app.goo.gl/Xi5o5EhFW72ridKs8?g_st=ipc",
    "name": "Ιερά Μονή Γενεθλίου της Θεοτόκου (Πελαγίας)",
    "address": "Ιερά Μονή Γενεθλίου της Θεοτόκου - Πελαγίας, Κόκκινο 320 01",
    "lat": "38.459809569498496",
    "lng": "23.266627094278455"
  },
  {
    "url": "https://maps.app.goo.gl/pK5oCv6PgGwT3qg66?g_st=ipc",
    "name": "Ιερά Μονή Οσίου Παταπίου",
    "address": "Σχολής Μηχανικού 26, Λουτράκι 203 00",
    "lat": "37.995800173616075",
    "lng": "22.97687851305677"
  }
]