[
  {
    "url": "https://maps.app.goo.gl/8fas6bpPgSs2neZj8?g_st=ipc",
    "name": "Ολυμπιακό Στάδιο Αθηνών",
    "address": "Λεωφ. Ολυμπιονίκου Σπύρου Λούη 1, Μαρούσι 151 23",
    "lat": "38.035910568153284",
    "lng": "23.786973025948996"
  },
  {
    "url": "https://maps.app.goo.gl/fcKT8gTb8XfWLvDa7?g_st=ipc",
    "name": "Μέγαρο Μουσικής Αθηνών",
    "address": "Βασιλίσσης Σοφίας, Πέτρου Κόκκαλη &, Αθήνα",
    "lat": "37.98113320826234",
    "lng": "23.754226747419665"
  },
  {
    "url": "https://maps.app.goo.gl/muvvb7CTCn3yFhWj6?g_st=ipc",
    "name": "Λυκαβηττός",
    "address": "Σαρανταπήχου, Μονοπατι Λυκαβηττου &, Αθήνα 114 71",
    "lat": "37.98323503241099",
    "lng": "23.746500382209337"
  },
  {
    "url": "https://maps.app.goo.gl/BnpGTjqhDuV8Nenn9?g_st=ipc",
    "name": "Ιερός Ναός Αγίων Ισιδώρων Λυκαβηττού",
    "address": "Μονοπατι Λυκαβηττου, Αθήνα 114 71",
    "lat": "37.982294745131696",
    "lng": "23.74279440377978"
  },
  {
    "url": "https://maps.app.goo.gl/jffFuAXc3Vq1DSsD8?g_st=ipc",
    "name": "Βυζαντινό και Χριστιανικό Μουσείο",
    "address": "Λεωφ. Βασιλίσσης Σοφίας 22, Αθήνα 106 75",
    "lat": "37.9753760157153",
    "lng": "23.744611863575788"
  },
  {
    "url": "https://maps.app.goo.gl/tPkYqHsHmRpbKSaX9?g_st=ipc",
    "name": "Μουσείο Μπενάκη Ελληνικού Πολιτισμού | Benaki Museum of Greek Culture",
    "address": "Koumpari 1, Athina 106 74",
    "lat": "37.97595332142378",
    "lng": "23.740446335275582"
  },
  {
    "url": "https://maps.app.goo.gl/yMXMdhRrheqLTtjc9?g_st=ipc",
    "name": "Εθνικό Αρχαιολογικό Μουσείο",
    "address": "28ης Οκτωβρίου 44, Αθήνα 106 82",
    "lat": "37.989024298697544",
    "lng": "23.73276057362421"
  },
  {
    "url": "https://maps.app.goo.gl/jXVzy7hmkNKGbif26?g_st=ipc",
    "name": "Βοτανικό Μουσείο Εθνικού Κήπου",
    "address": "Λεωφ. Βασιλίσσης Σοφίας, Αθήνα 105 57",
    "lat": "37.97408914636613",
    "lng": "23.7389299048779"
  },
  {
    "url": "https://maps.app.goo.gl/unRrdoEdMtGJhBhX8?g_st=ipc",
    "name": "Βουλή των Ελλήνων",
    "address": "Μέγαρο, Βουλής, Αθήνα 100 21",
    "lat": "37.97534017568183",
    "lng": "23.73691601580171"
  },
  {
    "url": "https://maps.app.goo.gl/EoVCRRTzjoVCkEm18?g_st=ipc",
    "name": "Παναθηναϊκό Στάδιο",
    "address": "Λεωφ. Βασιλέως Κωνσταντίνου, Αθήνα 116 35",
    "lat": "37.96833218533537",
    "lng": "23.741113035876687"
  },
  {
    "url": "https://maps.app.goo.gl/EPdJbYsoM1wXLMLy5?g_st=ipc",
    "name": "Εθνικός Κήπος",
    "address": "Αθήνα 105 57",
    "lat": "37.97258755244098",
    "lng": "23.73743274111468"
  },
  {
    "url": "https://maps.app.goo.gl/Hb78YQFedU1ZBjDY7?g_st=ipc",
    "name": "Ζάππειο Μέγαρο",
    "address": "Λεωφ. Βασιλίσσης Όλγας, Αθήνα 105 57",
    "lat": "37.971521700592604",
    "lng": "23.73672254708253"
  },
  {
    "url": "https://maps.app.goo.gl/5RjMWARRwZPM2Kdw6?g_st=ipc",
    "name": "Κήποι Ζαππείου",
    "address": "Λεωφ. Βασιλίσσης Όλγας 1, Αθήνα 105 57",
    "lat": "37.97023042997274",
    "lng": "23.73586719386634"
  },
  {
    "url": "https://maps.app.goo.gl/umvyXLD9iKw3FVBTA?g_st=ipc",
    "name": "Ρωμαϊκά Λουτρά Ζαππείου",
    "address": "Λεωφ. Βασιλίσσης Αμαλίας 405, Αθήνα 105 57",
    "lat": "37.97157046328902",
    "lng": "23.73377918203135"
  },
  {
    "url": "https://maps.app.goo.gl/MRiS2rx9HUUxeppD6?g_st=ipc",
    "name": "Ναός του Ολυμπίου Διός",
    "address": "Αθήνα 105 57",
    "lat": "37.96929966455042",
    "lng": "23.733099967898216"
  },
  {
    "url": "https://maps.app.goo.gl/FgkJ1umuygHQYmoC8?g_st=ipc",
    "name": "Ολυμπίου Διός",
    "address": "Αθήνα 105 58",
    "lat": "37.97177631416209",
    "lng": "23.731310537974434"
  },
  {
    "url": "https://maps.app.goo.gl/BWatUxUvLvu5LHMP9?g_st=ipc",
    "name": "Πλατεία Μοναστηρακίου",
    "address": "Απόλλωνος 21, Αθήνα 105 57",
    "lat": "37.97640816584317",
    "lng": "23.725886410870196"
  },
  {
    "url": "https://maps.app.goo.gl/tWCR6cy3umt66P4p6?g_st=ipc",
    "name": "Αναφιώτικα",
    "address": "Αθήνα 105 58",
    "lat": "37.97237012452399",
    "lng": "23.728116657972198"
  },
  {
    "url": "https://maps.app.goo.gl/Mr5MTi9dXGy4Y8Gt5?g_st=ipc",
    "name": "Βιβλιοθήκη του Αδριανού",
    "address": "Κ, Άρεως 3, Τ, Αθήνα 105 55",
    "lat": "37.975502314737916",
    "lng": "23.726030220996723"
  },
  {
    "url": "https://maps.app.goo.gl/JcpJbaRT1V7eBHEa9?g_st=ipc",
    "name": "Ψυρρή",
    "address": "Αθήνα 105 54",
    "lat": "37.9780643555903",
    "lng": "23.723930742700833"
  },
  {
    "url": "https://maps.app.goo.gl/ix2gNhhwsMZiBHES8?g_st=ipc",
    "name": "Ρωμαϊκή Αγορά Αθηνών",
    "address": "Πολυγνώτου 3, Αθήνα 105 55",
    "lat": "37.974304073145795",
    "lng": "23.72610046442621"
  },
  {
    "url": "https://maps.app.goo.gl/5RAt8qpszUA945pG8?g_st=ipc",
    "name": "Νότια Κλιτύς Ακρόπολης Αθηνών",
    "address": "Διονυσίου Αρεοπαγίτου, Αθήνα 105 58",
    "lat": "37.96962866994438",
    "lng": "23.729046031418846"
  },
  {
    "url": "https://maps.app.goo.gl/ztHmcesfndwzvFuRA?g_st=ipc",
    "name": "Παρθενώνας",
    "address": "Αθήνα 105 58",
    "lat": "37.97152775110389",
    "lng": "23.726714874737574"
  },
  {
    "url": "https://maps.app.goo.gl/ij6x92mGVau3FvST9?g_st=ipc",
    "name": "Roman Basilica",
    "address": "Αδριανού 27, Αθήνα 105 55",
    "lat": "37.97583750461877",
    "lng": "23.723867490000497"
  },
  {
    "url": "https://maps.app.goo.gl/ZqiBPBtN3PxoeXmY8?g_st=ipc",
    "name": "Μουσείο Ακρόπολης",
    "address": "Διονυσίου Αρεοπαγίτου 15, Αθήνα 117 42",
    "lat": "37.96845037815513",
    "lng": "23.728523216398074"
  },
  {
    "url": "https://maps.app.goo.gl/p7J1mcB5DGfqSALg6?g_st=ipc",
    "name": "Ακρόπολη Αθηνών",
    "address": "Αθήνα 105 58",
    "lat": "37.97153381829169",
    "lng": "23.7257493192379"
  },
  {
    "url": "https://maps.app.goo.gl/rjXRZrpDRp5VnNP2A?g_st=ipc",
    "name": "Ωδείο Ηρώδου του Αττικού",
    "address": "Διονυσίου Αρεοπαγίτου, Αθήνα 105 55",
    "lat": "37.97079439393834",
    "lng": "23.724582622108812"
  },
  {
    "url": "https://maps.app.goo.gl/ofAbPpuVbSmGyHGy7?g_st=ipc",
    "name": "Αρχαία Αγορά Αθηνών",
    "address": "Αθήνα 105 55",
    "lat": "37.97489898202124",
    "lng": "23.722093444133804"
  },
  {
    "url": "https://maps.app.goo.gl/auHh3GwXgN8RTikx6?g_st=ipc",
    "name": "Ναός του Ηφαίστου",
    "address": "Αθήνα 105 55",
    "lat": "37.9755941105574",
    "lng": "23.721451459878914"
  },
  {
    "url": "https://maps.app.goo.gl/i7GUzZ6ceEZCukDC6?g_st=ipc",
    "name": "Θησείο",
    "address": "Αθήνα 118 51",
    "lat": "37.97501242037082",
    "lng": "23.717080869886306"
  },
  {
    "url": "https://maps.app.goo.gl/oZosE6Kbfk2BP5e67?g_st=ipc",
    "name": "Λόφος Φιλοπάππου",
    "address": "Φυλής 215, Αθήνα 117 41",
    "lat": "37.96711952882775",
    "lng": "23.721574966297474"
  },
  {
    "url": "https://maps.app.goo.gl/6gQt8KFRg9ZbnwLVA?g_st=ipc",
    "name": "Εθνικό Αστεροσκοπείο Αθηνών - Κέντρο Επισκεπτών Θησείου",
    "address": "Λόφος Νυμφών Θησείο, ΤΘ 20048, Αθήνα 118 10",
    "lat": "37.972744612814594",
    "lng": "23.717947819468222"
  },
  {
    "url": "https://maps.app.goo.gl/yJCvqZ3YjAxVjgmU6?g_st=ipc",
    "name": "Πνύκα",
    "address": "Αθήνα 117 41",
    "lat": "37.96737351880718",
    "lng": "23.721158867490345"
  },
  {
    "url": "https://maps.app.goo.gl/pQWTjEcbS98njE48A?g_st=ipc",
    "name": "Κέντρο Πολιτισμού Ίδρυμα Σταύρος Νιάρχος",
    "address": "Λεωφ. Ανδρέα Συγγρού 364, Καλλιθέα 176 74",
    "lat": "37.939856198299935",
    "lng": "23.69211972785974"
  },
  {
    "url": "https://maps.app.goo.gl/vxdQs7SscGUC98hY9?g_st=ipc",
    "name": "Μαρίνα Φλοίσβου",
    "address": "Flisvos Marina, Αθήνα 175 61",
    "lat": "37.9311951612676",
    "lng": "23.68504538337465"
  },
  {
    "url": "https://maps.app.goo.gl/wutdpyatwyXBUYRR6?g_st=ipc",
    "name": "Ιερά Μονή Δαφνίου",
    "address": "Ιερά Οδός, Χαϊδάρι 124 61",
    "lat": "38.012987406661985",
    "lng": "23.63601735879107"
  },
  {
    "url": "https://maps.app.goo.gl/T618Z3KqK9zezNFE9?g_st=ipc",
    "name": "Το Ρολόι του Πειραιά",
    "address": "Ακτή Μουτσοπούλου 6, Πειραιάς 185 35",
    "lat": "37.93913367533199",
    "lng": "23.648716548781902"
  },
  {
    "url": "https://maps.app.goo.gl/GHxTmYXX8KQuXnnF8?g_st=ipc",
    "name": "Ναός Βραυρωνίας Αρτέμιδος",
    "address": "Βραυρώνα 190 03",
    "lat": "37.925951413998256",
    "lng": "23.993485515950447"
  },
  {
    "url": "https://maps.app.goo.gl/HJESfC3rnS8i8UYa9?g_st=ipc",
    "name": "Λίμνη Βουλιαγμένης",
    "address": "Βουλιαγμένη 166 71",
    "lat": "37.80708594211009",
    "lng": "23.78595413697381"
  },
  {
    "url": "https://maps.app.goo.gl/CQEgQ38KdmafS3mN7?g_st=ipc",
    "name": "Αρχαιολογικός Χώρος Ελευσίνας",
    "address": "Σωτηρίου Γκιόκα 1, Ελευσίνα 192 00",
    "lat": "38.04235410298215",
    "lng": "23.539415339881792"
  },
  {
    "url": "https://maps.app.goo.gl/TEdzv6vPybFxQzP18?g_st=ipc",
    "name": "Ναός της Αφαίας",
    "address": "Αίγινα 180 10",
    "lat": "37.75437516471331",
    "lng": "23.533121298393443"
  },
  {
    "url": "https://maps.app.goo.gl/YdUw2GvNU3PMRgCM6?g_st=ipc",
    "name": "Railbiking in Greece",
    "address": "28ης Οκτωβρίου 197, Μέγαρα 191 00",
    "lat": "37.98899577004485",
    "lng": "23.337743851168998"
  },
  {
    "url": "https://maps.app.goo.gl/TiGdJ3goZZvH3vQTA?g_st=ipc",
    "name": "Ναός Ποσειδώνα",
    "address": "Σούνιο 195 00",
    "lat": "37.65020662017392",
    "lng": "24.024585105239044"
  },
  {
    "url": "https://maps.app.goo.gl/H1hDYWZinAPpvjKR9?g_st=ipc",
    "name": "Αρχαιολογικός Χώρος Σουνίου",
    "address": "Λαυρεωτική 195 00",
    "lat": "37.65015898457581",
    "lng": "24.02460331248824"
  },
  {
    "url": "https://maps.app.goo.gl/4DoJ6SnBtgDpmScf7?g_st=ipc",
    "name": "Αρχαία Επίδαυρος,  Βυθισμένη πολιτεία sunken city",
    "address": "Παραλία Γκλιατη 1, Αρχαία Επίδαυρος 210 59",
    "lat": "37.62558699316192",
    "lng": "23.15824375963821"
  },
  {
    "url": "https://maps.app.goo.gl/cmoYHbzQvg5Nv9KN7?g_st=ipc",
    "name": "Διώρυγα της Κορίνθου",
    "address": "Λουτράκι 203 00",
    "lat": "37.934260646159885",
    "lng": "22.98428860726812"
  },
  {
    "url": "https://maps.app.goo.gl/uSXp93uUxm32U2Ms6?g_st=ipc",
    "name": "Skydive Athens",
    "address": "Kopaida Airfield, Kastro Viotias 323 00",
    "lat": "38.45479327540192",
    "lng": "23.137313881202427"
  },
  {
    "url": "https://maps.app.goo.gl/4dZguixUu49kmP199?g_st=ipc",
    "name": "Αρχαίο Θέατρο Ασκληπιείου Επιδαύρου",
    "address": "Επίδαυρος 210 52",
    "lat": "37.59612250456949",
    "lng": "23.079285116251615"
  },
  {
    "url": "https://maps.app.goo.gl/b4Z6adjUcQFQhcNL7?g_st=ipc",
    "name": "Αρχαιολογικός Χώρος Ασκληπιείου Επιδαύρου",
    "address": "Επίδαυρος 210 52",
    "lat": "37.596069935653894",
    "lng": "23.077204053695286"
  },
  {
    "url": "https://maps.app.goo.gl/Wa4GWgjzXVLMVAyZ7?g_st=ipc",
    "name": "Αρχαία Κόρινθος",
    "address": "Αρχαία Κόρινθος 200 07",
    "lat": "37.90716292407013",
    "lng": "22.881429703730713"
  },
  {
    "url": "https://maps.app.goo.gl/8vWipRURHj9oGwSj8?g_st=ipc",
    "name": "Ναός του Απόλλωνα",
    "address": "Άργους 105, Αρχαία Κόρινθος 200 07",
    "lat": "37.905934819191934",
    "lng": "22.879090197503242"
  },
  {
    "url": "https://maps.app.goo.gl/ihjdRvavpYz6Jjd5A?g_st=ipc",
    "name": "Σπήλαιο Καταφύκι",
    "address": "Δρυοπίδα 840 06",
    "lat": "37.381809266398925",
    "lng": "24.430137129464182"
  },
  {
    "url": "https://maps.app.goo.gl/BqhWK8uyZVNjhnRG8?g_st=ipc",
    "name": "Αρχαιολογικού Χώρου Μυκηνών",
    "address": "Μυκήνες 212 00",
    "lat": "37.73086788150969",
    "lng": "22.75613319936325"
  },
  {
    "url": "https://maps.app.goo.gl/wvmKvmFpppdNJFd78?g_st=ipc",
    "name": "Μυκήνες",
    "address": "Μυκήνες 212 00",
    "lat": "37.719549554552074",
    "lng": "22.745771038100788"
  },
  {
    "url": "https://maps.app.goo.gl/PrH4BXCt62jqPBys9?g_st=ipc",
    "name": "Αρχαιολογικός Χώρος Νεμέας",
    "address": "Koutsomidi, Nemea 205 00",
    "lat": "37.808169165276894",
    "lng": "22.71117627010056"
  },
  {
    "url": "https://maps.app.goo.gl/qq546eKqcWFHVGyWA?g_st=ipc",
    "name": "Τίρυνθα",
    "address": "Tirintha 211 00",
    "lat": "37.596581091934894",
    "lng": "22.800009234306064"
  },
  {
    "url": "https://maps.app.goo.gl/JVvCKFqv1vyzhKAP7?g_st=ipc",
    "name": "Φρούριο Παλαμηδίου",
    "address": "Παλαμηδίου, Ναύπλιο 211 00",
    "lat": "37.562018953170636",
    "lng": "22.803816386211206"
  },
  {
    "url": "https://maps.app.goo.gl/DkbZi8R48n8E7Qu76?g_st=ipc",
    "name": "Κάστρο Ακροναυπλίας",
    "address": "Άγγελου Τερζάκη 25, Ναύπλιο 211 00",
    "lat": "37.56407670573787",
    "lng": "22.793195253729316"
  },
  {
    "url": "https://maps.app.goo.gl/sWU36E9QQXcW8jCP7?g_st=ipc",
    "name": "Θόλος της Αθηνάς Προναίας",
    "address": "Δελφοί 330 54",
    "lat": "38.480181188125016",
    "lng": "22.507891151559672"
  },
  {
    "url": "https://maps.app.goo.gl/ZFhK1WzED1X3rqNX7?g_st=ipc",
    "name": "Αρχαιολογικός Χώρος Δελφών",
    "address": "Δελφοί 330 54",
    "lat": "38.48256715110526",
    "lng": "22.501447020510593"
  },
  {
    "url": "https://maps.app.goo.gl/vhNTNbS2nJx1YD8n8?g_st=ipc",
    "name": "Εθνικός Δρυμός Πάρνηθας",
    "address": "Πάρνηθα 136 72",
    "lat": "38.15998271976968",
    "lng": "23.71947970128565"
  },
  {
    "url": "https://maps.app.goo.gl/djGFTxoDCCB83eyN6?g_st=ipc",
    "name": "Αέρηδες",
    "address": "Αθήνα 105 55",
    "lat": "37.97449623338425",
    "lng": "23.727043202053398"
  },
  {
    "url": "https://maps.app.goo.gl/AA1yv1yq8fC6CPEt8?g_st=ipc",
    "name": "Temple of Apollo",
    "address": "Delphi 330 54",
    "lat": "38.48229738005722",
    "lng": "22.501176584203076"
  },
  {
    "url": "https://maps.app.goo.gl/gV2Li4kSvE78UFFC9?g_st=ipc",
    "name": "Ancient Stadium of Delphi",
    "address": "Delphi 330 54",
    "lat": "38.48261130916093",
    "lng": "22.497897087851854"
  },
  {
    "url": "https://maps.app.goo.gl/8aSHhZk2bT9dK56z5?g_st=ipc",
    "name": "Delos",
    "address": "Delos 846 00",
    "lat": "37.39618494324863",
    "lng": "25.268932318593706"
  },
  {
    "url": "https://maps.app.goo.gl/a1RARGnxhykKakN29?g_st=ipc",
    "name": "Καστροπολιτεία Μονεμβασιάς",
    "address": "Monemvasia 230 70",
    "lat": "36.687484458767585",
    "lng": "23.0558013260312"
  },
  {
    "url": "https://maps.app.goo.gl/Ad6oLYv7MUahs6GT6?g_st=ipc",
    "name": "Mystras",
    "address": "Mistras 231 00",
    "lat": "37.06880575051119",
    "lng": "22.375815197260966"
  },
  {
    "url": "https://maps.app.goo.gl/hRfeUmzdQ9kFWn689?g_st=ipc",
    "name": "Archaeological Site of Mystras",
    "address": "Lower Town 231 00",
    "lat": "37.0741056706056",
    "lng": "22.3669181951106"
  },
  {
    "url": "https://maps.app.goo.gl/baiRLz2tmYaTbVkt8?g_st=ipc",
    "name": "Temple of Apollo (Portara)",
    "address": "Naxos 843 00",
    "lat": "37.110129464281634",
    "lng": "25.372467767266336"
  },
  {
    "url": "https://maps.app.goo.gl/PVQYbF6evZv9zjAc9?g_st=ipc",
    "name": "Temple of Apollo Epicurius at Bassae of Phigaleia",
    "address": "Figaleia 270 61",
    "lat": "37.42992485152253",
    "lng": "21.900009196247805"
  },
  {
    "url": "https://maps.app.goo.gl/9vhQhAziWNVFNwudA?g_st=ipc",
    "name": "Messene",
    "address": "Unnamed Road, Messene 240 02",
    "lat": "37.17493508533683",
    "lng": "21.920008046316784"
  },
  {
    "url": "https://maps.app.goo.gl/XwgzhKtMosL3r1vr5?g_st=ipc",
    "name": "Archaeological Site of Olympia",
    "address": "Archaia Olympia 270 65",
    "lat": "37.638459018633775",
    "lng": "21.62988056909868"
  },
  {
    "url": "https://maps.app.goo.gl/Quro2ZP1jQNXZ1M5A?g_st=ipc",
    "name": "Caves of Diros",
    "address": "Pyrgos Dirou 230 63",
    "lat": "36.63819892596898",
    "lng": "22.38069545600633"
  },
  {
    "url": "https://maps.app.goo.gl/qXxKEnky6NL6j8mX7?g_st=ipc",
    "name": "Cape Tainaron Lighthouse",
    "address": "Ανατολική Μάνη Ακρωτήριο Ταιναρο Anatoliki Mani, 230 71",
    "lat": "36.38632728796919",
    "lng": "22.482904269212387"
  },
  {
    "url": "https://maps.app.goo.gl/GBbQr73zwDAagVaz9?g_st=ipc",
    "name": "Voidokilia Beach",
    "address": "Pilos Nestor 240 01",
    "lat": "36.9635737316201",
    "lng": "21.662769806906574"
  },
  {
    "url": "https://maps.app.goo.gl/v6AEM7JEAUPMzrvP7?g_st=ipc",
    "name": "Holy Monastery of the Virgin Mary Chozoviotissa",
    "address": "Amorgos 840 08",
    "lat": "36.834565267585596",
    "lng": "25.909512235575725"
  },
  {
    "url": "https://maps.app.goo.gl/k9fRFDUZV5HCUUQ88?g_st=ipc",
    "name": "Methoni Castle",
    "address": "Unnamed Rd, Methoni 240 06",
    "lat": "36.81667229767631",
    "lng": "21.705266643313138"
  },
  {
    "url": "https://maps.app.goo.gl/wBKcGui1HWeMLpjPA?g_st=ipc",
    "name": "Akrotiri",
    "address": "Fira 847 00",
    "lat": "36.351796236748676",
    "lng": "25.403447201033227"
  },
  {
    "url": "https://maps.app.goo.gl/WRBFuHyUphGycx6B6?g_st=ipc",
    "name": "Holy Cave of the Apocalypse",
    "address": "Patmos Municipality 855 00",
    "lat": "37.3145181446206",
    "lng": "26.544738455388703"
  },
  {
    "url": "https://maps.app.goo.gl/KRvkAKujnAt5Cebt6?g_st=ipc",
    "name": "Holy Monastery of Saint John the Theologian",
    "address": "Patmos 855 00",
    "lat": "37.30929209644781",
    "lng": "26.547790252510435"
  },
  {
    "url": "https://maps.app.goo.gl/wXzMsUCGyGcDfoW59?g_st=ipc",
    "name": "Agio Oros",
    "address": "Ouranoupoli 630 75",
    "lat": "40.32543105494457",
    "lng": "23.97840678393634"
  },
  {
    "url": "https://maps.app.goo.gl/cEWrQYsLFdjV6Q239?g_st=ipc",
    "name": "Dion",
    "address": "Epar.Od. Katerinis - Limena Litochoriou 910, Dion 601 00",
    "lat": "40.17394047089396",
    "lng": "22.491437674242245"
  },
  {
    "url": "https://maps.app.goo.gl/zpazCjEdJ5HpowTp6?g_st=ipc",
    "name": "Kalabaka",
    "address": "Kalabaka 422 00",
    "lat": "39.70661305298489",
    "lng": "21.628881662192715"
  },
  {
    "url": "https://maps.app.goo.gl/onMRfAUqEwFjaiVWA?g_st=ipc",
    "name": "Meteora",
    "address": "Kalabaka 422 00",
    "lat": "39.72170879350903",
    "lng": "21.63058881507582"
  },
  {
    "url": "https://maps.app.goo.gl/f8pqZqUtkRrXFShb8?g_st=ipc",
    "name": "Balos Beach",
    "address": "Kissamos 734 00",
    "lat": "35.57925124423901",
    "lng": "23.588718436351613"
  },
  {
    "url": "https://maps.app.goo.gl/aFhekQczUnCUCkXt7?g_st=ipc",
    "name": "Blue Caves Zakynthos",
    "address": "Porthmos Zakinthou",
    "lat": "37.93034342843555",
    "lng": "20.705251154680667"
  },
  {
    "url": "https://maps.app.goo.gl/aSS6QjyqGgHanzsj8?g_st=ipc",
    "name": "Archaeological Site of Heraion of Samos",
    "address": "Pythagoreio 831 03",
    "lat": "37.67350522925315",
    "lng": "26.88799727034567"
  },
  {
    "url": "https://maps.app.goo.gl/9QY7VwS3H1acWG6g8?g_st=ipc",
    "name": "Pythagoras Statue",
    "address": "Samos 831 03",
    "lat": "37.689752282548156",
    "lng": "26.94490447179151"
  },
  {
    "url": "https://maps.app.goo.gl/7zGrDtLoU6SSdcuS9?g_st=ipc",
    "name": "Navagio",
    "address": "Elatia 290 91",
    "lat": "37.85945060305929",
    "lng": "20.624902110473712"
  },
  {
    "url": "https://maps.app.goo.gl/DamgwWTndmBhKj5W9?g_st=ipc",
    "name": "Melissani Cave",
    "address": "Σάμη 280 80",
    "lat": "38.25698727901152",
    "lng": "20.6235483284677"
  },
  {
    "url": "https://maps.app.goo.gl/VMrzqGqwGc2EoieJ7?g_st=ipc",
    "name": "Byzantine Walls of Nikopolis",
    "address": "Unnamed Road, 481 00",
    "lat": "39.0118446526379",
    "lng": "20.732022944510806"
  },
  {
    "url": "https://maps.app.goo.gl/satDDwkecYRf2TSBA?g_st=ipc",
    "name": "Nicopolis",
    "address": "Nicopolis 481 00",
    "lat": "39.02636525396993",
    "lng": "20.733626410935955"
  },
  {
    "url": "https://maps.app.goo.gl/vwCXBmq1Cpbwnz9c6?g_st=ipc",
    "name": "Porto Katsiki",
    "address": "JH32+48, Apollonioi 310 82",
    "lat": "38.601119061578444",
    "lng": "20.550313570650722"
  },
  {
    "url": "https://maps.app.goo.gl/MFq7CxhtGP7Gi8k59?g_st=ipc",
    "name": "Archaeological Museum of Thessaloniki",
    "address": "Manoli Andronikou 6, Thessaloniki 546 21",
    "lat": "40.625561586478966",
    "lng": "22.953718318827413"
  },
  {
    "url": "https://maps.app.goo.gl/Rpx9LHfqRzCfvkCh8?g_st=ipc",
    "name": "White Tower of Thessaloniki",
    "address": "Thessaloniki 546 21",
    "lat": "40.62644387532891",
    "lng": "22.948379384273697"
  },
  {
    "url": "https://maps.app.goo.gl/VHhyUKPZMLXo4AeBA?g_st=ipc",
    "name": "Arch of Galerius",
    "address": "Egnatia 144, Thessaloniki 546 22",
    "lat": "40.6322250425038",
    "lng": "22.95175086035539"
  },
  {
    "url": "https://maps.app.goo.gl/RFapK1M21jxWogbVA?g_st=ipc",
    "name": "Ataturk Museum of Thessaloniki",
    "address": "Apostolou Pavlou 17, Thessaloniki 546 34",
    "lat": "40.63574901751839",
    "lng": "22.954355092076376"
  },
  {
    "url": "https://maps.app.goo.gl/C3krXMYjPGracAP87?g_st=ipc",
    "name": "Museum of Illusions Thessaloniki",
    "address": "Doxis 5, Thessaloniki 546 25",
    "lat": "40.635429116411395",
    "lng": "22.93597563245193"
  },
  {
    "url": "https://maps.app.goo.gl/YxX1f2JEnRyib5KP8?g_st=ipc",
    "name": "Roman Forum of Thessaloniki",
    "address": "Olympou 75, Thessaloniki 546 31",
    "lat": "40.637858913960656",
    "lng": "22.945675325840927"
  },
  {
    "url": "https://maps.app.goo.gl/f1z5P772ZL438rrB9?g_st=ipc",
    "name": "Holy Church of Saint Demetrius",
    "address": "Ag. Dimitriou 81-83, Thessaloniki 546 33",
    "lat": "40.638898161361496",
    "lng": "22.947614216085658"
  },
  {
    "url": "https://maps.app.goo.gl/Pj3FuXA7LeypGUARA?g_st=ipc",
    "name": "Thessaloniki Acropolis",
    "address": "Eptapirgiou 130, Thessaloniki 546 34",
    "lat": "40.644004048967396",
    "lng": "22.961770870557544"
  },
  {
    "url": "https://maps.app.goo.gl/1s8aj4cc3MbpvaGq9?g_st=ipc",
    "name": "Heptapyrgion of Thessaloniki",
    "address": "Επταπύργιο, Eptapirgiou 40, Thessaloniki 546 34",
    "lat": "40.64405781477335",
    "lng": "22.96178016442897"
  },
  {
    "url": "https://maps.app.goo.gl/jFwKES4CcpviH3818?g_st=ipc",
    "name": "Palace of Aigai (Aegae)",
    "address": "Vergina 590 31",
    "lat": "40.47783656530058",
    "lng": "22.32233617700311"
  },
  {
    "url": "https://maps.app.goo.gl/sig6rYbJ8UK4ZqaX7?g_st=ipc",
    "name": "Arkadi Monastery",
    "address": "Arkadi 741 50",
    "lat": "35.30989822185389",
    "lng": "24.629043901550116"
  },
  {
    "url": "https://maps.app.goo.gl/5eDCvX8HkvWgXBL19?g_st=ipc",
    "name": "Archaeological Site of Dodoni",
    "address": "Dodoni 455 00",
    "lat": "39.54577918295188",
    "lng": "20.784950664414183"
  },
  {
    "url": "https://maps.app.goo.gl/tihw1UrAiri8GoD29?g_st=ipc",
    "name": "Perama Cave",
    "address": "19, Spilaiou, Σπηλαίου 19, Πέραμα, Perama 455 00",
    "lat": "39.694982816550095",
    "lng": "20.846498129141942"
  },
  {
    "url": "https://maps.app.goo.gl/rAusZkVNEW96qAfY9?g_st=ipc",
    "name": "Knossos Palace",
    "address": "Knossos 714 09",
    "lat": "35.29796093261648",
    "lng": "25.162788626146504"
  },
  {
    "url": "https://maps.app.goo.gl/MwFRaHm4xMSpQ3w87?g_st=ipc",
    "name": "Pindos National Park",
    "address": "WXR2+G8 Tymphaea",
    "lat": "39.94128033875326",
    "lng": "20.950852335589502"
  },
  {
    "url": "https://maps.app.goo.gl/KY1PY5mwkiEPn6JS6?g_st=ipc",
    "name": "Asclepieion at Kos",
    "address": "Kos 853 00",
    "lat": "36.87634063821304",
    "lng": "27.25929156442587"
  },
  {
    "url": "https://maps.app.goo.gl/rVafr1wHovCRyoj77?g_st=ipc",
    "name": "Zagori",
    "address": "Papingo 440 04",
    "lat": "39.96846543207807",
    "lng": "20.729047055658157"
  },
  {
    "url": "https://maps.app.goo.gl/zBjCseaorqmLUWjo6?g_st=ipc",
    "name": "Paralia Voutoumi",
    "address": "490 82",
    "lat": "39.15774095957267",
    "lng": "20.227494022688056"
  },
  {
    "url": "https://maps.app.goo.gl/1Uc3YFqdrM7dERMj7?g_st=ipc",
    "name": "Archaeological Site of Philippi",
    "address": "EO Dramas Kavalas, Filippi 640 03",
    "lat": "41.012686338997746",
    "lng": "24.287678993251607"
  },
  {
    "url": "https://maps.app.goo.gl/qCcEvj915iPr2zD37?g_st=ipc",
    "name": "Minoan Palace of Phaistos",
    "address": "Άγιος Ιωάννης, Kamilari 702 00",
    "lat": "35.05129549151393",
    "lng": "24.81458473558241"
  },
  {
    "url": "https://maps.app.goo.gl/qtxP37nP5GgrXXV27?g_st=ipc",
    "name": "Aggitis River cave",
    "address": "Πηγές, Aggitis 662 00",
    "lat": "41.21974670515024",
    "lng": "23.89452873558432"
  },
  {
    "url": "https://maps.app.goo.gl/QX4xRZw5TEGCF4oj7?g_st=ipc",
    "name": "Kerkini Lake National Park",
    "address": "Κερκίνη, 620 55",
    "lat": "41.25929416088564",
    "lng": "23.140424657676153"
  },
  {
    "url": "https://maps.app.goo.gl/iFY1Kcc4UwLiyRGc7?g_st=ipc",
    "name": "Old Town of Corfu",
    "address": "Corfu 491 00",
    "lat": "39.62343987783881",
    "lng": "19.92891594231962"
  },
  {
    "url": "https://maps.app.goo.gl/CBJzDDUuaoXFiWW6A?g_st=ipc",
    "name": "Holy Monastery of the Taxiarch Michael Panormitis",
    "address": "Panormitis 856 00",
    "lat": "36.548390185765086",
    "lng": "27.846271064424094"
  },
  {
    "url": "https://maps.app.goo.gl/R9sce6Eydu3PYta2A?g_st=ipc",
    "name": "Palace of the Grand Master of the Knights of Rhodes",
    "address": "Ippoton, Rodos 851 00",
    "lat": "36.44545330682862",
    "lng": "28.224197135579786"
  },
  {
    "url": "https://maps.app.goo.gl/11HZKgu3Z71ViGrP9?g_st=ipc",
    "name": "Colossus of Rhodes",
    "address": "Pl. Neoriou, Rodos 851 00",
    "lat": "36.451202414947005",
    "lng": "28.227839764419826"
  },
  {
    "url": "https://maps.app.goo.gl/ni4J6nqoFxCxVhof9?g_st=ipc",
    "name": "Medieval City of Rhodes",
    "address": "Pl. Mouson 6, Rodos 851 00",
    "lat": "36.44472167652259",
    "lng": "28.227519564434186"
  },
  {
    "url": "https://maps.app.goo.gl/W5joNY37bu7NJ8Hz8?g_st=ipc",
    "name": "Syntagma Square",
    "address": "Pl. Sintagmatos, Athina 105 63",
    "lat": "37.97554970639471",
    "lng": "23.734713366778323"
  },
  {
    "url": "https://maps.app.goo.gl/RRXmkZ72CeNufyB66?g_st=ipc",
    "name": "Monument to the Unknown Soldier",
    "address": "Leof. Vasilisis Amalias 133, Athina 105 57",
    "lat": "37.97535428174513",
    "lng": "23.736259428820603"
  },
  {
    "url": "https://maps.app.goo.gl/4mH8BGK5UQuAHaXf6?g_st=ipc",
    "name": "Philopappos Monument",
    "address": "Athens 117 41",
    "lat": "37.96735214641467",
    "lng": "23.72141968401236"
  },
  {
    "url": "https://maps.app.goo.gl/XDM6bEzic8EMa3FX7?g_st=ipc",
    "name": "Arch of Hadrian",
    "address": "Leof. Vasilisis Amalias 50, Athina 105 58",
    "lat": "37.970210610652515",
    "lng": "23.73198089152641"
  },
  {
    "url": "https://maps.app.goo.gl/DQtGJPqpneygKtHk7?g_st=ipc",
    "name": "Gate of Athena Archegetis",
    "address": "Διοσκούρων, Epaminonda &, Athina 105 55",
    "lat": "37.974568649716346",
    "lng": "23.725518029561396"
  },
  {
    "url": "https://maps.app.goo.gl/431NuRe11zxrUqR89?g_st=ipc",
    "name": "Prison of Socrates",
    "address": "43, Rovertou Galli 39, Athina 117 41",
    "lat": "37.96945283540711",
    "lng": "23.72099752982901"
  },
  {
    "url": "https://maps.app.goo.gl/7Xgk65sqPNFM93Sy9?g_st=ipc",
    "name": "Choragic Monument of Lysicrates",
    "address": "Epimenidou 3, Athina 105 58",
    "lat": "37.97108971386169",
    "lng": "23.72994596958006"
  },
  {
    "url": "https://maps.app.goo.gl/21oaLw9mApwFReVy7?g_st=ipc",
    "name": "Kerameikos Archaeological Site",
    "address": "Ermou 148, Athina 105 53",
    "lat": "37.97803082106626",
    "lng": "23.717271800112048"
  },
  {
    "url": "https://maps.app.goo.gl/Tia41NbJ94S1YJYNA?g_st=ipc",
    "name": "Bibliothēkē",
    "address": "Athens 106 79",
    "lat": "37.98086714889517",
    "lng": "23.732640659233777"
  },
  {
    "url": "https://maps.app.goo.gl/ggPZ2e3QeajFYXJX8?g_st=ipc",
    "name": "Academy of Athens",
    "address": "Panepistimiou 28, Athina 106 79",
    "lat": "37.980052000475574",
    "lng": "23.73401307902472"
  }
]
