[
  {
    "url": "https://maps.app.goo.gl/TDK8DNGSKRuGWju37?g_st=ipc",
    "name": "ΚΤΗΜΑ ΚΟΚΟΤΟΥ",
    "address": "Κτήμα Γ. Κοκοτού 1, Σταμάτα 145 75",
    "lat": "38.12312381812047",
    "lng": "23.891784558722108"
  },
  {
    "url": "https://maps.app.goo.gl/nRd1KxMycS9cXqd6A?g_st=ipc",
    "name": "Οινοποιείο Παπαγιαννάκος",
    "address": "Πυθαγόρα, Μαρκόπουλο Μεσογαίας 190 03",
    "lat": "37.90457982525897",
    "lng": "23.983420618508436"
  },
  {
    "url": "https://maps.app.goo.gl/ZRuTWvGbiLUcFQZw7?g_st=ipc",
    "name": "Οινοποιείο Ζεγγίνης",
    "address": "Λεωφόρος Κάτω Σουλίου 62, Μαραθώνας 190 07",
    "lat": "38.14341389755598",
    "lng": "23.983053677151467"
  },
  {
    "url": "https://maps.app.goo.gl/aoRwmKxMU5cHCnRX6?g_st=ipc",
    "name": "Estates Costa Lazaridi - Oenotria Land",
    "address": "2nd km Kapandriti Kalamos road, Kapandriti, 19014, 190 14",
    "lat": "38.23173089487007",
    "lng": "23.870908077071547"
  },
  {
    "url": "https://maps.app.goo.gl/s9SpDZV9kTGdK3aE6?g_st=ipc",
    "name": "Οινοποιείο Πρίφτη",
    "address": "Μαρκάτι 190 01",
    "lat": "37.742934639668164",
    "lng": "24.024928046003534"
  },
  {
    "url": "https://maps.app.goo.gl/s6vXZTgfmnzvhcm38?g_st=ipc",
    "name": "Κτήμα Μουσών / Muses Estate",
    "address": "Άσκρη 320 02",
    "lat": "38.310939635727244",
    "lng": "23.111723523497265"
  },
  {
    "url": "https://maps.app.goo.gl/A2t4w3k9kTA2cB6j9?g_st=ipc",
    "name": "Lafazanis Winery",
    "address": "Θέση Κεφαλάρι, Αρχαίες Κλεωνές 205 00",
    "lat": "37.81366330913366",
    "lng": "22.765441857507405"
  },
  {
    "url": "https://maps.app.goo.gl/CGseBU489tpRFbra7?g_st=ipc",
    "name": "Κτήμα Παπαργυρίου",
    "address": "Lalioti Corinthias, Κιάτο 202 00",
    "lat": "38.018936342010846",
    "lng": "22.689015035366058"
  },
  {
    "url": "https://maps.app.goo.gl/zETqXnjPfU3pMwmA8?g_st=ipc",
    "name": "Semeli Estate | Κτήμα Σεμέλη",
    "address": "Επαρ.Οδ. Κιάτου - Νεμέας, Κούτσι 205 00",
    "lat": "37.87119800007677",
    "lng": "22.67941642720224"
  },
  {
    "url": "https://maps.app.goo.gl/ZgmCy9JQ7Vrkbz1r9?g_st=ipc",
    "name": "Gaia Winery Nemea",
    "address": "Κούτσι 205 00",
    "lat": "37.85612300690931",
    "lng": "22.670580052988402"
  },
  {
    "url": "https://maps.app.goo.gl/ZMmJXxpaMciuZeCj6?g_st=ipc",
    "name": "Venikos Wine Window, Wine Tours & Tastings",
    "address": "Plateia Iroon 3, Νεμέα 205 00",
    "lat": "37.821663923892565",
    "lng": "22.663321715457876"
  },
  {
    "url": "https://maps.app.goo.gl/97nmfFmuN9mMotwW7?g_st=ipc",
    "name": "Karamitsos Winery",
    "address": "Θέση Μπογάζι, Νεμέα 205 00",
    "lat": "37.8058034996967",
    "lng": "22.666146923082234"
  },
  {
    "url": "https://maps.app.goo.gl/DHUmZNYmY1jciDqK9?g_st=ipc",
    "name": "Ktima Bairaktaris",
    "address": "Ελ. Βενιζέλου 83, Νεμέα 205 00",
    "lat": "37.809706199473894",
    "lng": "22.66496992803815"
  },
  {
    "url": "https://maps.app.goo.gl/8MoiYv6j31NHuYmD9?g_st=ipc",
    "name": "Οινοποιεία Παπαντώνη",
    "address": "Κανάρη 47, Άργος 212 00",
    "lat": "37.62151973903064",
    "lng": "22.717966668919065"
  },
  {
    "url": "https://maps.app.goo.gl/xuRduiD32C9WJMTL8?g_st=ipc",
    "name": "DOMAINE SKOURAS / ΚΤΗΜΑ ΣΚΟΥΡΑ Ο.Α.Ε.",
    "address": "Argous - Sternas Rd (10th Km), Malandreni, Άργος 212 00",
    "lat": "37.689635245473845",
    "lng": "22.65473621335941"
  },
  {
    "url": "https://maps.app.goo.gl/Mb44SR4hNKDDndUD6?g_st=ipc",
    "name": "Οινοποιείο Χρυσολωρά",
    "address": "Φλάσκος - Προφήτης Ηλίας, Σέριφος 840 05",
    "lat": "37.186843478967006",
    "lng": "24.50813577853972"
  },
  {
    "url": "https://maps.app.goo.gl/PnEvnYgAhh5oLj4j6?g_st=ipc",
    "name": "Οινοποιείο Χατζάκης",
    "address": "Αη Μιχάλης 841 00",
    "lat": "37.487911506949764",
    "lng": "24.920189638380265"
  },
  {
    "url": "https://maps.app.goo.gl/PAYKP7CHeiCivtki7?g_st=ipc",
    "name": "Argyriou Winery",
    "address": "Polydroso Parnassus, Parnassus 330 51",
    "lat": "38.639456665967444",
    "lng": "22.535200421052764"
  },
  {
    "url": "https://maps.app.goo.gl/yaMLQMfuQx4GhqbF7?g_st=ipc",
    "name": "Κτήμα Σπυρόπουλος",
    "address": "Μαντινεία 221 00",
    "lat": "37.63241805452202",
    "lng": "22.386158704913175"
  },
  {
    "url": "https://maps.app.goo.gl/q5QDiSUHfETbAsfo9?g_st=ipc",
    "name": "Κτήμα Τσέλεπου",
    "address": "14th klm. Tripolis - Kastri Road, Rizes, Arcadia 220 12",
    "lat": "37.42938401315253",
    "lng": "22.489743084074338"
  },
  {
    "url": "https://maps.app.goo.gl/y97jAfhSNsjXAtQt7?g_st=ipc",
    "name": "Οινοποιείο Τρουπή - Troupis Winery",
    "address": "Μηλιά, Μηλιά Τριπόλεως 221 00",
    "lat": "37.578821168768364",
    "lng": "22.391134196287375"
  },
  {
    "url": "https://maps.app.goo.gl/xFt7L59eLpWAg6GJ8?g_st=ipc",
    "name": "Parissis Winery",
    "address": "Unnamed Road, Σκιάθος 370 02",
    "lat": "39.18153615640374",
    "lng": "23.469914268213092"
  },
  {
    "url": "https://maps.app.goo.gl/n9FxLvDHw2tR949F6?g_st=ipc",
    "name": "Οινοποιείο Τετράμυθος",
    "address": "8ο ΧΛΜ ΕΠΑΡΧΙΑΚΗΣ ΟΔΟΥ, Επαρ.Οδ. Πούντας - Καλαβρύτων, Άνω Διακοπτό 250 03",
    "lat": "38.13861434975287",
    "lng": "22.235631269922283"
  },
  {
    "url": "https://maps.app.goo.gl/qGAsm3q6PmBPN3TK6?g_st=ipc",
    "name": "Κτήμα Μέγα Σπήλαιο",
    "address": "Επαρ.Οδ. Πούντας - Καλαβρύτων, Egialia 250 01",
    "lat": "38.112838077733514",
    "lng": "22.169404735261367"
  },
  {
    "url": "https://maps.app.goo.gl/znCHsxFPu7zWUC1b9?g_st=ipc",
    "name": "ROUVALIS WINES (ΟΙΝΟΦΟΡΟΣ Α.Ε.)",
    "address": "Αίγιο 251 00",
    "lat": "38.22055000984663",
    "lng": "22.089166676944025"
  },
  {
    "url": "https://maps.app.goo.gl/6jEcs57aPdcQLmi17?g_st=ipc",
    "name": "Kostantakis Winery",
    "address": "Πολλώνια 848 00",
    "lat": "36.75755644321186",
    "lng": "24.52676070016812"
  },
  {
    "url": "https://maps.app.goo.gl/h6i2Vu1wSZVz67HD7?g_st=ipc",
    "name": "Οινοποιητική Μονεμβασιάς Τσιμπίδη",
    "address": "Αγγελώνα 230 52",
    "lat": "36.733880178604224",
    "lng": "22.96702817602069"
  },
  {
    "url": "https://maps.app.goo.gl/1HbespH52SwExwaW8?g_st=ipc",
    "name": "Οινοποιείο Μωραΐτη",
    "address": "Επαρχιακή Οδός Νάουσας-Μάρπισσας, Νάουσα 844 01",
    "lat": "37.1229987485843",
    "lng": "25.244213980711866"
  },
  {
    "url": "https://maps.app.goo.gl/wH1yAZZ9D7nhcAqLA?g_st=ipc",
    "name": "Αμπελώνες Ρίρα - Rira Vineyards",
    "address": "ΠΕΟ, Ν.Ε.Ο. Πατρών - Αθηνών, Νέος Ερινεός 250 09",
    "lat": "38.29370777982869",
    "lng": "22.008479102079523"
  },
  {
    "url": "https://maps.app.goo.gl/sw9W815tCrvPyndNA?g_st=ipc",
    "name": "Lacovino Winery",
    "address": "Έλος 230 55",
    "lat": "36.85798905543435",
    "lng": "22.697149929242318"
  },
  {
    "url": "https://maps.app.goo.gl/wH7qQkNGXbSkx9SY7?g_st=ipc",
    "name": "Αχάια Κλάους",
    "address": "Πετρωτό 262 23",
    "lat": "38.1969102747539",
    "lng": "21.769694421982503"
  },
  {
    "url": "https://maps.app.goo.gl/1mV7U2hRvYf1jzfb9?g_st=ipc",
    "name": "ΠΑΡΠΑΡΟΥΣΗΣ ΟΙΝΟΠΟΙΙΑ",
    "address": "Πολυκαστης, Πάτρα 264 42",
    "lat": "38.283502229311324",
    "lng": "21.768505095628893"
  },
  {
    "url": "https://maps.app.goo.gl/3DPBf6dGCNTLKikN6?g_st=ipc",
    "name": "Μάναλης",
    "address": "Σίκινος 840 10",
    "lat": "36.681144681918035",
    "lng": "25.100751857820168"
  },
  {
    "url": "https://maps.app.goo.gl/kxHf2McGP81at7gq9?g_st=ipc",
    "name": "Domaine Sigalas",
    "address": "Baxes, Oia, Santorini 847 02",
    "lat": "36.47144515332007",
    "lng": "25.394233805271192"
  },
  {
    "url": "https://maps.app.goo.gl/xmLZkxqWeDCDbXeVA?g_st=ipc",
    "name": "Κτήμα Μερκούρη",
    "address": "M8G5+FM, Κορακοχώρι 271 00",
    "lat": "37.676880743241625",
    "lng": "21.30977411314664"
  },
  {
    "url": "https://maps.app.goo.gl/2AtdngotJUgMkr7o8?g_st=ipc",
    "name": "Vassaltis Vineyards",
    "address": "Περιφερειακή οδός, Βουρβούλος 847 00",
    "lat": "36.44254790219748",
    "lng": "25.43767809168264"
  },
  {
    "url": "https://maps.app.goo.gl/huHWpFUEXo8827o1A?g_st=ipc",
    "name": "Domaine Porto Carras new era",
    "address": "Σιθωνία 630 81",
    "lat": "40.072188356104746",
    "lng": "23.80576582498951"
  },
  {
    "url": "https://maps.app.goo.gl/BfpzWvX44GGmmqF99?g_st=ipc",
    "name": "Santo Wines",
    "address": "Πύργος Καλλίστης 847 00",
    "lat": "36.38756634157811",
    "lng": "25.436746775584044"
  },
  {
    "url": "https://maps.app.goo.gl/ptjxxz2nqAmMqrjo9?g_st=ipc",
    "name": "Venetsanos Winery",
    "address": "Caldera Megalochori, Santorini Island 847 00",
    "lat": "36.38233875963969",
    "lng": "25.43152035534749"
  },
  {
    "url": "https://maps.app.goo.gl/aGUb6MruiHYUGV8m8?g_st=ipc",
    "name": "Cave Wine Museum - Winery Koutsogiannopoulos Santorini (Υπόσκαφο Μουσείο Οίνου - Οινοποιείο Κουτσογιαννόπουλος Γεώργιος)",
    "address": "Βόθωνας, Βοθωνας 847 00",
    "lat": "36.39672195171486",
    "lng": "25.460144574368652"
  },
  {
    "url": "https://maps.app.goo.gl/HU6QyLSjJ1YzxuXn8?g_st=ipc",
    "name": "Gavalas Winery",
    "address": "Megalochori 847 00",
    "lat": "36.37555701249798",
    "lng": "25.430540537475494"
  },
  {
    "url": "https://maps.app.goo.gl/5hnUYLAqB6RjWasSA?g_st=ipc",
    "name": "Boutari Winery Santorini",
    "address": "Μεγαλοχώρι, Μεγαλοχώρι, Σαντορίνη 847 00",
    "lat": "36.370584852516764",
    "lng": "25.424958035575884"
  },
  {
    "url": "https://maps.app.goo.gl/6kQf3bRiieM4P2Es8?g_st=ipc",
    "name": "Artemis Karamolegos",
    "address": "Έξω Γωνιά 847 00",
    "lat": "36.38835128439954",
    "lng": "25.46365749287468"
  },
  {
    "url": "https://maps.app.goo.gl/21dhPUgPmbLqpjpb9?g_st=ipc",
    "name": "Art Space Art Gallery - Winery - Museum",
    "address": "Έξω Γωνιά 847 00",
    "lat": "36.385965387765225",
    "lng": "25.460385388763417"
  },
  {
    "url": "https://maps.app.goo.gl/kvS8SgMB33y9p72M7?g_st=ipc",
    "name": "Hatzidakis Winery",
    "address": "Kallisti, Pyrgos, Thira, 84701, Santorini 847 00",
    "lat": "36.371163398793655",
    "lng": "25.439369057100784"
  },
  {
    "url": "https://maps.app.goo.gl/yATMtq83jmsb3HWJ9?g_st=ipc",
    "name": "Canava Roussos",
    "address": "Episkopi Gonias 847 00",
    "lat": "36.38413007796539",
    "lng": "25.46332243806347"
  },
  {
    "url": "https://maps.app.goo.gl/9Lgq7u7XqsKL7QdL8?g_st=ipc",
    "name": "Estate Argyros",
    "address": "Episkopi Gonias 847 00",
    "lat": "36.3830947529534",
    "lng": "25.464730249935148"
  },
  {
    "url": "https://maps.app.goo.gl/MLYCkmtcnHSNEbdT6?g_st=ipc",
    "name": "Gaia Winery Santorini",
    "address": "Θέση Βραχειές, Έξω Γωνιά, Perivolia 847 00",
    "lat": "36.391347708444265",
    "lng": "25.485792242462427"
  },
  {
    "url": "https://maps.app.goo.gl/jkzS8DahV6TajD1L9?g_st=ipc",
    "name": "United Winemaking Agricultural Cooperative of Samos",
    "address": "Karlovasi 832 00",
    "lat": "37.79463716140727",
    "lng": "26.687480470072543"
  },
  {
    "url": "https://maps.app.goo.gl/SFX3z7LyEVrtDLUN8?g_st=ipc",
    "name": "TSILILIS K. S.A. Distillery & Estate Theopetra",
    "address": "Epar.Od. Trikalon-Rizomatos 31, Raxa 421 00",
    "lat": "39.61912675215486",
    "lng": "21.740677017641424"
  },
  {
    "url": "https://maps.app.goo.gl/m1RiUmNLtuMu1JHV9?g_st=ipc",
    "name": "Κτήμα Γράμψα ( Grampsas Winery & Restaurant)",
    "address": "Lagopodo 290 92",
    "lat": "37.75447353990938",
    "lng": "20.823574548385672"
  },
  {
    "url": "https://maps.app.goo.gl/yKNrVSuK1iy4L2Ls9?g_st=ipc",
    "name": "Tsantali",
    "address": "Agios Pavlos 630 80",
    "lat": "40.36907180251345",
    "lng": "23.047266199347828"
  },
  {
    "url": "https://maps.app.goo.gl/75yFj7YEiVy8Cvdz7?g_st=ipc",
    "name": "Αgia Triada Winery",
    "address": "Μόνη Αγίας Τριάδος των Τζαγκαρόλων 731 00",
    "lat": "35.56054075236249",
    "lng": "24.135001472011776"
  },
  {
    "url": "https://maps.app.goo.gl/osNQqbqujG8u5Npj7?g_st=ipc",
    "name": "PNEVMATIKAKI S.A.",
    "address": "Drapanias 734 00",
    "lat": "35.49514634531768",
    "lng": "23.71327829803601"
  },
  {
    "url": "https://maps.app.goo.gl/C8APtFGMgaBwFMYcA?g_st=ipc",
    "name": "Gerovasileiou Estate",
    "address": "ktima Gerovassiliou, Epanomi 575 00",
    "lat": "40.44938832129469",
    "lng": "22.924743352052637"
  },
  {
    "url": "https://maps.app.goo.gl/nZzm6EuiZsKmkSxr7?g_st=ipc",
    "name": "Orealios Gaea - Vine Growers of Robola",
    "address": "Valsamata 281 00",
    "lat": "38.16303564266763",
    "lng": "20.590291534978753"
  },
  {
    "url": "https://maps.app.goo.gl/PgqU5uYf8bg9kRur9?g_st=ipc",
    "name": "Anoskeli Winery",
    "address": "Ανώσκελη 730 02",
    "lat": "35.460142479001455",
    "lng": "23.77578731455054"
  },
  {
    "url": "https://maps.app.goo.gl/rcCjRKaUHGWTfgjX9?g_st=ipc",
    "name": "Manousakis Winery",
    "address": "Βατόλακκος 730 05",
    "lat": "35.44928609215256",
    "lng": "23.88714203573119"
  },
  {
    "url": "https://maps.app.goo.gl/RrgeX3PAEePKPZU79?g_st=ipc",
    "name": "Dourakis Winery",
    "address": "Alikampos, Apokoronou, CHANIA 730 07",
    "lat": "35.34955760746719",
    "lng": "24.203022751558134"
  },
  {
    "url": "https://maps.app.goo.gl/JcxKmH9JYsFLhZKR9?g_st=ipc",
    "name": "The Secret Gorge - Restaurant & Wine Tasting Experience",
    "address": "3rd Klm. National Road, Rethymno 741 50",
    "lat": "35.36437657461691",
    "lng": "24.41937540675887"
  },
  {
    "url": "https://maps.app.goo.gl/sv2SwXYfdv3Hc5ob9?g_st=ipc",
    "name": "KECHRIS Winery",
    "address": "Olimpou, Delta 570 09",
    "lat": "40.64762484465721",
    "lng": "22.85152020450362"
  },
  {
    "url": "https://maps.app.goo.gl/yJ2MV2fN5rdteunH9?g_st=ipc",
    "name": "Alexakis S.A. - Alexakis Winery",
    "address": "104-106 Irinis & Filias, Peridi Metohi Heraklion Crete 715 00",
    "lat": "35.30223283392354",
    "lng": "25.115833737445403"
  },
  {
    "url": "https://maps.app.goo.gl/faa8usVkmkz6Gxog6?g_st=ipc",
    "name": "Boutari Winery S.A.",
    "address": "592 00, Epar.Od. Naousas-Kato Vermiou, Stenimachos",
    "lat": "40.604954538648315",
    "lng": "22.130368216830174"
  },
  {
    "url": "https://maps.app.goo.gl/NubfvqJ28uAYTWoX7?g_st=ipc",
    "name": "Scalarea Estate",
    "address": "Σκαλάνι 701 00",
    "lat": "35.27599918818081",
    "lng": "25.19305839713735"
  },
  {
    "url": "https://maps.app.goo.gl/bkHHKGBiuNPqDqhr9?g_st=ipc",
    "name": "Diamantakis Winery",
    "address": "Kato Asites 700 13",
    "lat": "35.2119508828581",
    "lng": "24.992812450943003"
  },
  {
    "url": "https://maps.app.goo.gl/w8PhqDhLwSHfYsK37?g_st=ipc",
    "name": "Amargiotakis Winery",
    "address": "Dafnes 700 11",
    "lat": "35.22052725096867",
    "lng": "25.053509018560035"
  },
  {
    "url": "https://maps.app.goo.gl/zMTfnAQij9XWewT4A?g_st=ipc",
    "name": "Douloufakis Winery",
    "address": "Dafnes 700 11",
    "lat": "35.21501780162754",
    "lng": "25.04946643361547"
  },
  {
    "url": "https://maps.app.goo.gl/gpuUdyMFAFSDGWhB9?g_st=ipc",
    "name": "Silva Daskalaki Winery \"Biodynamic Farming\"",
    "address": "Σίβα Ηρακλείου Κρήτης, Siva 700 11",
    "lat": "35.208912270144424",
    "lng": "25.03603983983806"
  },
  {
    "url": "https://maps.app.goo.gl/J5SjPASnL6fBMV2DA?g_st=ipc",
    "name": "Kir-Yianni Winery",
    "address": "Γιαννακοχώρι 592 00",
    "lat": "40.65941086004422",
    "lng": "22.071160405925678"
  },
  {
    "url": "https://maps.app.goo.gl/xe7Pzf6GWRjSnDGJ8?g_st=ipc",
    "name": "Garakis Winery",
    "address": "Unnamed Road, Epano Archanes 701 00",
    "lat": "35.23427724214697",
    "lng": "25.19140759248994"
  },
  {
    "url": "https://maps.app.goo.gl/im8sNsCc4aDTgz1y9?g_st=ipc",
    "name": "Lyrarakis Winery & Tasting Room",
    "address": "Alagni, Arkalochori, 70300, Alagni, Heraklion, Crete 703 00",
    "lat": "35.18420413415243",
    "lng": "25.208537536815243"
  },
  {
    "url": "https://maps.app.goo.gl/3MnhGaPvjLYbnZLf9?g_st=ipc",
    "name": "Zacharioudakis Winery",
    "address": "Πλούτη 704 00",
    "lat": "35.077704088524044",
    "lng": "24.941456893238932"
  },
  {
    "url": "https://maps.app.goo.gl/kuEE1xd8ov4WsHDd9?g_st=ipc",
    "name": "\"Wine Art\" Estate",
    "address": "p. mela 2, Mikrochori 661 00",
    "lat": "41.10253195746925",
    "lng": "24.17303276432893"
  },
  {
    "url": "https://maps.app.goo.gl/bnEeezvifVHw7rFq7?g_st=ipc",
    "name": "OENOGENESIS S.A.",
    "address": "Επί επαρχιακής οδού Δοξάτο-Αδριανή, Adriani 661 00",
    "lat": "41.11655968127127",
    "lng": "24.244269125370955"
  },
  {
    "url": "https://maps.app.goo.gl/3PDmKNgZdxnTo6Yg8?g_st=ipc",
    "name": "Alpha Estate",
    "address": "2ο χλμ, Ag. Panteleimon 532 00",
    "lat": "40.6946468662729",
    "lng": "21.7063723336842"
  },
  {
    "url": "https://maps.app.goo.gl/Kw5f3uTchrYrtq7G7?g_st=ipc",
    "name": "Estates Costa Lazaridi Drama",
    "address": "Epar.Od. Platamona - Adrianis 47, Adriani 661 00",
    "lat": "41.13086312258315",
    "lng": "24.259959410750362"
  },
  {
    "url": "https://maps.app.goo.gl/WKD1nyVBu5sjxUqV8?g_st=ipc",
    "name": "NICO LAZARIDI Château Nico Lazaridi - Οινοποιείο Νίκου Λαζαρίδη",
    "address": "Κοινότητα Αγοράς, Δράμα, Agora 660 32",
    "lat": "41.129507803067504",
    "lng": "24.279792635578804"
  },
  {
    "url": "https://maps.app.goo.gl/MXd7HMch31d1vFaGA?g_st=ipc",
    "name": "Οινοποιεία Βεγορίτις",
    "address": "Αγ. Παντελεήμονας, Ag. Panteleimon 532 00",
    "lat": "40.73416864325467",
    "lng": "21.7391401355809"
  },
  {
    "url": "https://maps.app.goo.gl/vbjKsFrGPLCsWRvm7?g_st=ipc",
    "name": "Κτήμα Δημόπουλος",
    "address": "1ο χλμ, Xino Nero 530 72",
    "lat": "40.69536137671463",
    "lng": "21.639884501803266"
  },
  {
    "url": "https://maps.app.goo.gl/FMCPZ5ZmPNoWEBFVA?g_st=ipc",
    "name": "OENOPS WINES",
    "address": "3ο χλμ επαρχιακής οδού Προσοτσάνης, Kokkinogia 662 00",
    "lat": "41.18716398837062",
    "lng": "23.94513089525479"
  },
  {
    "url": "https://maps.app.goo.gl/7JsSGRBJR1mceRNE9?g_st=ipc",
    "name": "Ktima Pavlidis",
    "address": "Kokinogeia 662 00",
    "lat": "41.20099538103468",
    "lng": "23.95247116441372"
  },
  {
    "url": "https://maps.app.goo.gl/2HrLkExRymtYSkLw8?g_st=ipc",
    "name": "Titakis Wines - Fabrika Wine Experience",
    "address": "Κουνάβοι 701 00",
    "lat": "35.233323447258094",
    "lng": "25.184146411319137"
  },
  {
    "url": "https://maps.app.goo.gl/RYuGtMWu3PcXZLU76?g_st=ipc",
    "name": "Mikra Thira Winery",
    "address": "Manolas 847 02",
    "lat": "36.43912962546045",
    "lng": "25.33447754994131"
  },
  {
    "url": "https://maps.app.goo.gl/pUbzJ3zkVU4WZQWt5?g_st=ipc",
    "name": "Digenakis Winery",
    "address": "Epar.Od. Kallonis - Gdochia, Arkalochori 701 00",
    "lat": "35.20463323509506",
    "lng": "25.193086290366207"
  },
  {
    "url": "https://maps.app.goo.gl/N8pQEWcDemQKLK6N6?g_st=ipc",
    "name": "Lykos Winery",
    "address": "ΜΑΛΑΚΩΝΤΑΣ 0, Eretria 340 08",
    "lat": "38.40318852137616",
    "lng": "23.75129901619749"
  }
]
